     3.04           OBSERVATION DATA    M: Mixed            RINEX VERSION / TYPE
RTKCONV 2.4.3 b34                       20251021 055057 UTC PGM / RUN BY / DATE 
format: u-blox UBX                                          COMMENT             
log: D:\GPdata\10_21\arounds_2_10_21.ubx                    COMMENT             
                                                            MARKER NAME         
                                                            MARKER NUMBER       
                                                            MARKER TYPE         
                                                            OBSERVER / AGENCY   
                                                            REC # / TYPE / VERS 
                                                            ANT # / TYPE        
        0.0000        0.0000        0.0000                  APPROX POSITION XYZ 
        0.0000        0.0000        0.0000                  ANTENNA: DELTA H/E/N
G    8 C1C L1C D1C S1C C2L L2L D2L S2L                      SYS / # / OBS TYPES 
C    8 C2I L2I D2I S2I C7I L7I D7I S7I                      SYS / # / OBS TYPES 
  2025    10    21    05    35   46.1990000     GPS         TIME OF FIRST OBS   
  2025    10    21    05    36   26.4790000     GPS         TIME OF LAST OBS    
G L1C                                                       SYS / PHASE SHIFT   
G L2L  0.00000                                              SYS / PHASE SHIFT   
C L2I                                                       SYS / PHASE SHIFT   
C L7I                                                       SYS / PHASE SHIFT   
  0                                                         GLONASS SLOT / FRQ #
 C1C    0.000 C1P    0.000 C2C    0.000 C2P    0.000        GLONASS COD/PHS/BIS 
                                                            END OF HEADER       
> 2025 10 21 05 35 46.1990000  0 21                     
G03  24080053.983   126541535.5561       2609.661          34.000    24080051.725    98603788.7081       2033.633          38.000  
G32  20271375.188   106526796.8451       -696.425          50.000    20271365.595    83007851.4561       -542.739          45.000  
G31  21267970.242   111763937.4061       1403.069          46.000    21267959.584    87088738.0831       1093.179          43.000  
G29  23707175.243   124582047.6681       1812.966          41.000    23707169.465    97076895.9131       1412.875          33.000  
C23  21516814.942   112043698.5811       -141.485          50.000                                                                  
C07  40479441.845   210787077.7431        846.377          34.000    40479464.837   162994029.9181        654.880          41.000  
C08  37030607.630   192828091.0431      -1975.645          42.000    37030591.531   149106845.6011      -1527.727          48.000  
C25  22629180.722   117836080.1461      -2564.786          48.000                                                                  
C33  26306208.886   136983327.9071      -3673.260          38.000                                                                  
C09  37458435.228   195055901.3811       -321.542          43.000    37458420.653   150829538.3961       -248.455          48.000  
G10  22470704.449   118084348.8291      -3758.564          41.000    22470702.421    92013767.5931      -2928.915          41.000  
G12  24079221.361   126537153.7381      -3827.622          33.000    24079212.472    98600349.2831      -2982.200          36.000  
G26  22044798.660   115846199.6621       2935.386          40.000    22044794.912    90269751.1481       2287.290          41.000  
G28  20559798.698   108042469.5011       -138.257          47.000    20559787.003    84188890.6291       -107.727          48.000  
C16  36619677.921   190688270.9171       -445.831          48.000    36619664.618   147452213.1551       -344.648          48.000  
C13  36470390.979   189910895.2231      -1645.121          44.000    36470381.707   146851112.7171      -1271.996          47.000  
C06  36094812.414   187955160.0951       -352.007          46.000    36094794.201   145338778.2261       -272.225          48.000  
C37  24192849.129   125978514.6161       2054.230          43.000                                                                  
C20  26401878.699   137481514.7881       2836.676          41.000                                                                  
C32  22181162.692   115503132.0691        936.458          50.000                                                                  
G25  21076699.259   110758801.2961      -2817.227          44.000    21076690.786    86305525.6261      -2195.514          43.000  
> 2025 10 21 05 35 46.2390000  0 21                     
G03  24080034.148   126541431.157        2609.794          34.000    24080031.858    98603707.367        2033.442          38.000  
G32  20271380.492   106526824.702        -696.474          50.000    20271370.889    83007873.164        -542.769          45.000  
G31  21267959.563   111763881.281        1403.079          46.000    21267948.891    87088694.346        1093.325          43.000  
G29  23707161.472   124581975.134        1813.197          41.000    23707155.660    97076839.403        1412.837          33.000  
C23  21516816.022   112043704.242        -141.556          50.000                                                                  
C07  40479435.326   210787043.872         846.581          34.000    40479458.331   162994003.736         654.665          41.000  
C08  37030622.809   192828170.060       -1975.494          42.000    37030606.685   149106906.714       -1527.802          48.000  
C25  22629200.392   117836182.743       -2564.844          48.000                                                                  
C33  26306237.097   136983474.857       -3673.661          38.000                                                                  
C09  37458437.684   195055914.216        -321.082          43.000    37458423.105   150829548.339        -248.607          48.000  
G10  22470733.048   118084499.187       -3758.806          41.000    22470731.040    92013884.750       -2928.986          41.000  
G12  24079250.477   126537306.821       -3827.522          33.000    24079241.606    98600468.568       -2982.204          36.000  
G26  22044776.328   115846082.256        2935.224          40.000    22044772.550    90269659.664        2287.179          41.000  
G28  20559799.770   108042475.032        -138.330          47.000    20559788.075    84188894.937        -107.709          48.000  
C16  36619681.359   190688288.748        -445.818          48.000    36619668.026   147452226.945        -344.713          48.000  
C13  36470403.642   189910961.020       -1644.998          44.000    36470394.325   146851163.598       -1272.004          47.000  
C06  36094815.106   187955174.181        -352.072          46.000    36094796.905   145338789.119        -272.260          48.000  
C37  24192833.341   125978432.442        2054.249          43.000                                                                  
C20  26401856.891   137481401.322        2836.682          41.000                                                                  
C32  22181155.475   115503094.619         936.323          50.000                                                                  
G25  21076720.705   110758913.993       -2817.373          44.000    21076712.231    86305613.441       -2195.457          43.000  
> 2025 10 21 05 35 46.2790000  0 21                     
G03  24080014.272   126541326.754        2609.944          34.000    24080011.995    98603626.022        2033.542          38.000  
G32  20271385.775   106526852.557        -696.443          50.000    20271376.196    83007894.863        -542.572          45.000  
G31  21267948.888   111763825.163        1402.965          46.000    21267938.226    87088650.608        1093.428          43.000  
G29  23707147.692   124581902.617        1813.041          41.000    23707141.843    97076782.904        1412.510          34.000  
C23  21516817.099   112043709.904        -141.594          50.000                                                                  
C07  40479428.832   210787009.989         846.893          34.000    40479451.804   162993977.547         654.647          41.000  
C08  37030637.956   192828249.087       -1975.614          42.000    37030621.847   149106967.823       -1527.781          48.000  
C25  22629220.096   117836285.348       -2565.051          48.000                                                                  
C33  26306265.306   136983621.793       -3673.593          38.000                                                                  
C09  37458440.110   195055927.074        -321.283          43.000    37458425.572   150829558.280        -248.617          48.000  
G10  22470761.682   118084649.554       -3759.083          41.000    22470759.648    92014001.893       -2928.730          41.000  
G12  24079279.597   126537459.906       -3827.384          33.000    24079270.731    98600587.862       -2982.321          36.000  
G26  22044753.993   115845964.856        2935.013          40.000    22044750.189    90269568.164        2287.410          41.000  
G28  20559800.819   108042480.569        -138.470          47.000    20559789.107    84188899.244        -107.709          48.000  
C16  36619684.800   190688306.573        -445.722          48.000    36619671.465   147452240.737        -344.784          48.000  
C13  36470416.261   189911026.822       -1645.047          44.000    36470406.952   146851214.484       -1272.109          47.000  
C06  36094817.796   187955188.265        -352.102          46.000    36094799.601   145338800.015        -272.373          48.000  
C37  24192817.594   125978350.269        2054.264          43.000                                                                  
C20  26401835.090   137481287.863        2836.530          41.000                                                                  
C32  22181148.257   115503057.172         936.189          50.000                                                                  
G25  21076742.163   110759026.697       -2817.566          44.000    21076733.664    86305701.252       -2195.391          43.000  
> 2025 10 21 05 35 46.3190000  0 21                     
G03  24079994.385   126541222.307        2610.889          34.000    24079992.125    98603544.673        2033.628          38.000  
G32  20271391.043   106526880.409        -696.369          50.000    20271381.502    83007916.570        -542.640          45.000  
G31  21267938.232   111763769.042        1402.970          46.000    21267927.560    87088606.882        1093.259          43.000  
G29  23707133.902   124581830.098        1812.983          41.000    23707128.039    97076726.379        1412.845          34.000  
C23  21516818.192   112043715.565        -141.576          50.000                                                                  
C07  40479422.310   210786976.111         847.036          34.000    40479445.300   162993951.365         654.554          41.000  
C08  37030653.125   192828328.110       -1975.620          42.000    37030637.016   149107028.930       -1527.736          48.000  
C25  22629239.786   117836387.949       -2565.049          48.000                                                                  
C33  26306293.518   136983768.732       -3673.511          38.000                                                                  
C09  37458442.559   195055939.931        -321.385          43.000    37458428.044   150829568.217        -248.519          48.000  
G10  22470790.315   118084799.919       -3759.193          41.000    22470788.260    92014119.061       -2929.031          41.000  
G12  24079308.716   126537612.960       -3826.688          33.000    24079299.861    98600707.136       -2982.048          36.000  
G26  22044731.652   115845847.454        2934.932          40.000    22044727.830    90269476.691        2287.023          41.000  
G28  20559801.879   108042486.095        -138.312          47.000    20559790.163    84188903.550        -107.666          48.000  
C16  36619688.223   190688324.407        -445.827          48.000    36619674.921   147452254.523        -344.722          48.000  
C13  36470428.893   189911092.630       -1645.172          44.000    36470419.598   146851265.361       -1272.018          47.000  
C06  36094820.545   187955202.348        -352.068          46.000    36094802.335   145338810.904        -272.305          48.000  
C37  24192801.829   125978268.094        2054.305          43.000                                                                  
C20  26401813.316   137481174.392        2836.725          41.000                                                                  
C32  22181141.085   115503019.724         936.161          50.000                                                                  
G25  21076763.592   110759139.383       -2817.325          44.000    21076755.096    86305789.065       -2195.406          43.000  
> 2025 10 21 05 35 46.3590000  0 21                     
G03  24079974.486   126541117.932        2609.994          34.000    24079972.284    98603463.331        2033.583          38.000  
G32  20271396.335   106526908.257        -696.233          50.000    20271386.783    83007938.268        -542.504          45.000  
G31  21267927.555   111763712.914        1403.125          46.000    21267916.879    87088563.153        1093.215          43.000  
G29  23707120.088   124581757.567        1813.166          41.000    23707114.245    97076669.874        1412.659          34.000  
C23  21516819.279   112043721.221        -141.459          50.000                                                                  
C07  40479415.801   210786942.229         847.198          34.000    40479438.787   162993925.169         654.788          41.000  
C08  37030668.337   192828407.134       -1975.600          42.000    37030652.173   149107090.036       -1527.672          48.000  
C25  22629259.502   117836490.547       -2565.003          48.000                                                                  
C33  26306321.729   136983915.654       -3673.197          38.000                                                                  
C09  37458445.045   195055952.781        -321.320          43.000    37458430.513   150829578.152        -248.457          48.000  
G10  22470818.931   118084950.262       -3758.893          41.000    22470816.866    92014236.219       -2929.015          41.000  
G12  24079337.857   126537766.010       -3826.294          33.000    24079328.973    98600826.418       -2982.013          36.000  
G26  22044709.303   115845730.040        2935.123          40.000    22044705.491    90269385.212        2286.906          41.000  
G28  20559802.945   108042491.613        -138.037          47.000    20559791.221    84188907.852        -107.574          48.000  
C16  36619691.668   190688342.237        -445.799          48.000    36619678.325   147452268.305        -344.587          48.000  
C13  36470441.516   189911158.433       -1645.109          44.000    36470432.227   146851316.248       -1272.156          47.000  
C06  36094823.266   187955216.437        -352.169          46.000    36094805.079   145338821.794        -272.267          48.000  
C37  24192786.037   125978185.909        2054.536          43.000                                                                  
C20  26401791.530   137481060.926        2836.700          41.000                                                                  
C32  22181133.892   115502982.265         936.356          50.000                                                                  
G25  21076785.031   110759252.088       -2817.502          44.000    21076776.553    86305876.873       -2195.272          43.000  
> 2025 10 21 05 35 46.3990000  0 21                     
G03  24079954.616   126541013.558        2609.460          34.000    24079952.421    98603381.975        2033.744          38.000  
G32  20271401.612   106526936.107        -696.240          50.000    20271392.077    83007959.966        -542.468          45.000  
G31  21267916.856   111763656.787        1403.181          46.000    21267906.190    87088519.415        1093.342          43.000  
G29  23707106.272   124581685.035        1813.283          41.000    23707100.450    97076613.347        1413.005          34.000  
C23  21516820.324   112043726.875        -141.411          50.000                                                                  
C07  40479409.288   210786908.391         846.338          34.000    40479432.280   162993898.982         654.730          41.000  
C08  37030683.521   192828486.160       -1975.632          42.000    37030667.354   149107151.136       -1527.567          48.000  
C25  22629279.212   117836593.136       -2564.809          48.000                                                                  
C33  26306349.951   136984062.584       -3673.143          38.000                                                                  
C09  37458447.511   195055965.625        -321.190          43.000    37458433.001   150829588.080        -248.267          48.000  
G10  22470847.544   118085100.592       -3758.425          41.000    22470845.482    92014353.368       -2928.817          41.000  
G12  24079366.992   126537919.088       -3826.646          33.000    24079358.108    98600945.706       -2982.222          36.000  
G26  22044686.946   115845612.608        2935.609          40.000    22044683.149    90269293.710        2287.327          41.000  
G28  20559803.985   108042497.129        -137.897          47.000    20559792.260    84188912.154        -107.550          48.000  
C16  36619695.102   190688360.057        -445.604          48.000    36619681.720   147452282.087        -344.559          48.000  
C13  36470454.165   189911224.223       -1644.854          44.000    36470444.869   146851367.125       -1272.042          47.000  
C06  36094825.979   187955230.511        -351.991          46.000    36094807.782   145338832.679        -272.184          48.000  
C37  24192770.260   125978103.723        2054.640          43.000                                                                  
C20  26401769.721   137480947.452        2836.829          41.000                                                                  
C32  22181126.741   115502944.801         936.559          50.000                                                                  
G25  21076806.471   110759364.764       -2817.086          44.000    21076797.994    86305964.683       -2195.236          43.000  
> 2025 10 21 05 35 46.4390000  0 21                     
G03  24079934.762   126540909.172        2609.414          34.000    24079932.570    98603300.625        2033.824          38.000  
G32  20271406.917   106526963.958        -696.290          50.000    20271397.395    83007981.670        -542.555          45.000  
G31  21267906.181   111763600.658        1403.242          46.000    21267895.510    87088475.686        1093.275          43.000  
G29  23707092.493   124581612.505        1813.287          41.000    23707086.643    97076556.820        1413.221          34.000  
C23  21516821.400   112043732.527        -141.335          50.000                                                                  
C07  40479402.773   210786874.521         846.463          34.000    40479425.762   162993872.797         654.673          41.000  
C08  37030698.730   192828565.184       -1975.610          42.000    37030682.529   149107212.241       -1527.621          48.000  
C25  22629298.923   117836695.731       -2564.844          48.000                                                                  
C33  26306378.153   136984209.519       -3673.273          38.000                                                                  
C09  37458449.979   195055978.474        -321.243          43.000    37458435.477   150829598.010        -248.238          48.000  
G10  22470876.151   118085250.940       -3758.520          41.000    22470874.066    92014470.520       -2928.781          41.000  
G12  24079396.109   126538072.202       -3827.488          33.000    24079387.225    98601064.987       -2982.107          36.000  
G26  22044664.600   115845495.196        2935.458          40.000    22044660.802    90269202.222        2287.290          41.000  
G28  20559805.047   108042502.653        -138.007          47.000    20559793.309    84188916.464        -107.709          48.000  
C16  36619698.516   190688377.884        -445.628          48.000    36619685.148   147452295.869        -344.555          48.000  
C13  36470466.775   189911290.018       -1644.835          44.000    36470457.479   146851418.004       -1272.003          47.000  
C06  36094828.682   187955244.592        -352.017          46.000    36094810.485   145338843.564        -272.141          48.000  
C37  24192754.495   125978021.538        2054.630          43.000                                                                  
C20  26401747.907   137480833.987        2836.713          41.000                                                                  
C32  22181119.481   115502907.345         936.484          50.000                                                                  
G25  21076827.937   110759477.449       -2817.051          44.000    21076819.414    86306052.487       -2195.105          43.000  
> 2025 10 21 05 35 46.4790000  0 21                     
G03  24079914.926   126540804.803        2609.175          34.000    24079912.702    98603219.285        2033.644          38.000  
G32  20271412.227   106526991.820        -696.518          50.000    20271402.692    83008003.383        -542.795          45.000  
G31  21267895.511   111763544.540        1403.018          46.000    21267884.829    87088431.946        1093.441          43.000  
G29  23707078.707   124581539.992        1812.971          41.000    23707072.862    97076500.319        1412.838          34.000  
C23  21516822.447   112043738.187        -141.435          50.000                                                                  
C07  40479396.272   210786840.640         846.824          34.000    40479419.229   162993846.597         654.913          41.000  
C08  37030713.920   192828644.201       -1975.490          42.000    37030697.710   149107273.347       -1527.634          48.000  
C25  22629318.623   117836798.325       -2564.864          48.000                                                                  
C33  26306406.412   136984356.455       -3673.384          38.000                                                                  
C09  37458452.418   195055991.323        -321.263          43.000    37458437.923   150829607.946        -248.336          48.000  
G10  22470904.758   118085401.290       -3758.636          41.000    22470902.708    92014587.680       -2928.942          41.000  
G12  24079425.229   126538225.263       -3826.872          33.000    24079416.341    98601184.264       -2982.068          36.000  
G26  22044642.269   115845377.791        2935.246          40.000    22044638.463    90269110.726        2287.378          41.000  
G28  20559806.135   108042508.183        -138.214          47.000    20559794.386    84188920.774        -107.788          48.000  
C16  36619701.931   190688395.709        -445.625          48.000    36619688.584   147452309.660        -344.711          48.000  
C13  36470479.424   189911355.821       -1645.004          44.000    36470470.114   146851468.885       -1272.011          47.000  
C06  36094831.379   187955258.670        -351.998          46.000    36094813.172   145338854.448        -272.133          48.000  
C37  24192738.718   125977939.364        2054.436          43.000                                                                  
C20  26401726.116   137480720.522        2836.664          41.000                                                                  
C32  22181112.278   115502869.898         936.277          50.000                                                                  
G25  21076849.375   110759590.150       -2817.363          44.000    21076840.864    86306140.306       -2195.314          43.000  
> 2025 10 21 05 35 46.5190000  0 21                     
G03  24079895.059   126540700.405        2609.633          34.000    24079892.838    98603137.950        2033.455          38.000  
G32  20271417.533   106527019.680        -696.591          50.000    20271407.997    83008025.089        -542.794          45.000  
G31  21267884.838   111763488.423        1402.910          46.000    21267874.146    87088388.212        1093.363          43.000  
G29  23707064.904   124581467.476        1812.846          41.000    23707059.067    97076443.809        1412.755          34.000  
C23  21516823.515   112043743.854        -141.631          50.000                                                                  
C07  40479389.776   210786806.788         846.470          34.000    40479412.737   162993820.412         654.759          41.000  
C08  37030729.086   192828723.232       -1975.678          42.000    37030712.873   149107334.454       -1527.699          48.000  
C25  22629338.311   117836900.930       -2565.083          48.000                                                                  
C33  26306434.633   136984503.390       -3673.458          38.000                                                                  
C09  37458454.905   195056004.168        -321.192          43.000    37458440.377   150829617.888        -248.474          48.000  
G10  22470933.380   118085551.648       -3758.846          41.000    22470931.334    92014704.848       -2929.182          41.000  
G12  24079454.339   126538378.334       -3826.826          33.000    24079445.489    98601303.541       -2982.059          36.000  
G26  22044619.927   115845260.387        2935.108          40.000    22044616.106    90269019.248        2287.066          41.000  
G28  20559807.202   108042513.720        -138.452          47.000    20559795.438    84188925.083        -107.794          48.000  
C16  36619705.337   190688413.536        -445.677          48.000    36619692.025   147452323.444        -344.683          48.000  
C13  36470492.048   189911421.628       -1645.164          44.000    36470482.762   146851519.767       -1272.051          47.000  
C06  36094834.052   187955272.762        -352.257          46.000    36094815.863   145338865.335        -272.180          48.000  
C37  24192722.957   125977857.191        2054.329          43.000                                                                  
C20  26401704.320   137480607.067        2836.438          41.000                                                                  
C32  22181105.059   115502832.452         936.158          50.000                                                                  
G25  21076870.824   110759702.860       -2817.684          44.000    21076862.328    86306228.127       -2195.492          43.000  
> 2025 10 21 05 35 46.5590000  0 21                     
G03  24079875.227   126540595.996        2609.969          34.000    24079872.966    98603056.600        2033.627          38.000  
G32  20271422.809   106527047.544        -696.664          50.000    20271413.314    83008046.800        -542.830          45.000  
G31  21267874.165   111763432.309        1402.798          46.000    21267863.468    87088344.488        1093.143          43.000  
G29  23707051.092   124581394.944        1813.071          41.000    23707045.267    97076387.301        1412.788          34.000  
C23  21516824.595   112043749.524        -141.776          50.000                                                                  
C07  40479383.279   210786772.923         846.550          34.000    40479406.210   162993794.207         654.991          41.000  
C08  37030744.269   192828802.256       -1975.644          42.000    37030728.064   149107395.563       -1527.773          48.000  
C25  22629358.044   117837003.528       -2565.049          48.000                                                                  
C33  26306462.853   136984650.347       -3673.839          38.000                                                                  
C09  37458457.387   195056017.019        -321.237          43.000    37458442.870   150829627.834        -248.637          48.000  
G10  22470962.015   118085702.028       -3759.350          41.000    22470959.934    92014822.002       -2929.025          41.000  
G12  24079483.469   126538531.442       -3827.463          33.000    24079474.625    98601422.847       -2982.462          36.000  
G26  22044597.592   115845142.993        2934.855          40.000    22044593.762    90268927.766        2286.926          41.000  
G28  20559808.266   108042519.255        -138.495          47.000    20559796.511    84188929.397        -107.855          48.000  
C16  36619708.765   190688431.365        -445.741          48.000    36619695.478   147452337.229        -344.671          48.000  
C13  36470504.702   189911487.438       -1645.283          44.000    36470495.378   146851570.654       -1272.153          47.000  
C06  36094836.756   187955286.856        -352.382          46.000    36094818.573   145338876.233        -272.377          48.000  
C37  24192707.150   125977775.035        2053.986          43.000                                                                  
C20  26401682.548   137480493.606        2836.493          41.000                                                                  
C32  22181097.869   115502795.009         936.052          50.000                                                                  
G25  21076892.255   110759815.559       -2817.640          44.000    21076883.766    86306315.935       -2195.361          43.000  
> 2025 10 21 05 35 46.5990000  0 21                     
G03  24079855.361   126540491.604        2609.963          34.000    24079853.096    98602975.243        2033.870          38.000  
G32  20271428.104   106527075.399        -696.515          50.000    20271418.616    83008068.505        -542.694          45.000  
G31  21267863.461   111763376.184        1402.955          46.000    21267852.818    87088300.765        1093.025          43.000  
G29  23707037.295   124581322.430        1812.861          41.000    23707031.450    97076330.782        1412.990          34.000  
C23  21516825.698   112043755.186        -141.704          50.000                                                                  
C07  40479376.764   210786739.032         847.104          34.000    40479399.680   162993768.014         654.894          41.000  
C08  37030759.440   192828881.273       -1975.484          42.000    37030743.260   149107456.678       -1527.900          48.000  
C25  22629377.741   117837106.127       -2565.011          48.000                                                                  
C33  26306491.082   136984797.299       -3673.943          38.000                                                                  
C09  37458459.886   195056029.878        -321.440          43.000    37458445.330   150829637.769        -248.513          48.000  
G10  22470990.620   118085852.368       -3758.846          41.000    22470988.533    92014939.158       -2928.942          41.000  
G12  24079512.581   126538684.535       -3827.461          33.000    24079503.750    98601542.138       -2982.452          36.000  
G26  22044575.255   115845025.589        2934.966          40.000    22044571.402    90268836.289        2286.829          41.000  
G28  20559809.303   108042524.784        -138.373          47.000    20559797.558    84188933.704        -107.782          48.000  
C16  36619712.193   190688449.198        -445.837          48.000    36619698.872   147452351.016        -344.717          48.000  
C13  36470517.324   189911553.243       -1645.271          44.000    36470508.020   146851621.542       -1272.229          47.000  
C06  36094839.497   187955300.930        -352.084          46.000    36094821.286   145338887.128        -272.428          48.000  
C37  24192691.357   125977692.856        2054.229          43.000                                                                  
C20  26401660.753   137480380.135        2836.707          41.000                                                                  
C32  22181090.735   115502757.560         936.115          50.000                                                                  
G25  21076913.684   110759928.252       -2817.490          44.000    21076905.218    86306403.766       -2195.692          43.000  
> 2025 10 21 05 35 46.6390000  0 21                     
G03  24079835.534   126540387.203        2610.070          34.000    24079833.228    98602893.906        2033.638          38.000  
G32  20271433.374   106527103.249        -696.312          50.000    20271423.930    83008090.209        -542.639          45.000  
G31  21267852.807   111763320.068        1402.895          46.000    21267842.150    87088257.042        1093.000          43.000  
G29  23707023.486   124581249.901        1813.018          41.000    23707017.664    97076274.291        1412.529          34.000  
C23  21516826.786   112043760.852        -141.694          50.000                                                                  
C07  40479370.278   210786705.140         847.309          34.000    40479393.184   162993741.825         654.743          41.000  
C08  37030774.606   192828960.298       -1975.583          42.000    37030758.468   149107517.781       -1527.730          48.000  
C25  22629397.457   117837208.726       -2565.017          48.000                                                                  
C33  26306519.330   136984944.231       -3673.553          38.000                                                                  
C09  37458462.364   195056042.735        -321.480          43.000    37458447.793   150829647.706        -248.475          48.000  
G10  22471019.232   118086002.709       -3758.602          41.000    22471017.138    92015056.312       -2928.874          41.000  
G12  24079541.730   126538837.598       -3826.814          33.000    24079532.886    98601661.415       -2982.204          36.000  
G26  22044552.892   115844908.175        2935.191          40.000    22044549.057    90268744.806        2286.898          41.000  
G28  20559810.340   108042530.307        -138.171          47.000    20559798.606    84188938.009        -107.697          48.000  
C16  36619715.608   190688467.031        -445.878          48.000    36619702.294   147452364.803        -344.714          48.000  
C13  36470529.951   189911619.045       -1645.191          44.000    36470520.665   146851672.426       -1272.194          47.000  
C06  36094842.233   187955315.007        -351.954          46.000    36094824.012   145338898.015        -272.305          48.000  
C37  24192675.578   125977610.679        2054.342          43.000                                                                  
C20  26401638.970   137480266.668        2836.761          41.000                                                                  
C32  22181083.587   115502720.109         936.212          50.000                                                                  
G25  21076935.131   110760040.947       -2817.411          44.000    21076926.670    86306491.577       -2195.481          43.000  
> 2025 10 21 05 35 46.6790000  0 21                     
G03  24079815.658   126540282.812        2609.880          34.000    24079813.356    98602812.577        2033.307          38.000  
G32  20271438.680   106527131.107        -696.393          50.000    20271429.245    83008111.917        -542.689          45.000  
G31  21267842.130   111763263.949        1402.910          46.000    21267831.472    87088213.314        1093.098          43.000  
G29  23707009.683   124581177.376        1813.071          41.000    23707003.854    97076217.750        1413.118          34.000  
C23  21516827.891   112043766.512        -141.575          50.000                                                                  
C07  40479363.755   210786671.271         846.976          34.000    40479386.666   162993715.641         654.574          41.000  
C08  37030789.768   192829039.326       -1975.672          42.000    37030773.629   149107578.885       -1527.647          48.000  
C25  22629417.199   117837311.322       -2564.960          48.000                                                                  
C33  26306547.542   136985091.156       -3673.196          38.000                                                                  
C09  37458464.841   195056055.577        -321.218          43.000    37458450.249   150829657.647        -248.534          48.000  
G10  22471047.834   118086153.056       -3758.620          41.000    22471045.745    92015173.474       -2929.022          41.000  
G12  24079570.864   126538990.683       -3826.914          33.000    24079561.998    98601780.694       -2982.124          36.000  
G26  22044530.556   115844790.773        2935.118          40.000    22044526.722    90268653.316        2287.071          41.000  
G28  20559811.379   108042535.838        -138.190          47.000    20559799.665    84188942.311        -107.593          48.000  
C16  36619719.031   190688484.858        -445.778          48.000    36619705.710   147452378.584        -344.597          48.000  
C13  36470542.581   189911684.838       -1644.941          44.000    36470533.304   146851723.308       -1272.148          47.000  
C06  36094844.956   187955329.084        -351.887          46.000    36094826.694   145338908.902        -272.219          48.000  
C37  24192659.809   125977528.502        2054.413          43.000                                                                  
C20  26401617.162   137480153.212        2836.487          41.000                                                                  
C32  22181076.417   115502682.660         936.217          50.000                                                                  
G25  21076956.589   110760153.649       -2817.498          44.000    21076948.111    86306579.397       -2195.493          43.000  
> 2025 10 21 05 35 46.7190000  0 21                     
G03  24079795.812   126540178.438        2609.525          34.000    24079793.494    98602731.236        2033.357          38.000  
G32  20271443.985   106527158.973        -696.622          50.000    20271434.552    83008133.634        -542.892          45.000  
G31  21267831.435   111763207.827        1402.969          46.000    21267820.787    87088169.572        1093.407          43.000  
G29  23706995.863   124581104.860        1812.968          41.000    23706990.083    97076161.255        1412.639          34.000  
C23  21516828.991   112043772.178        -141.616          50.000                                                                  
C07  40479357.262   210786637.401         846.794          34.000    40479380.157   162993689.458         654.482          41.000  
C08  37030804.936   192829118.371       -1976.082          42.000    37030788.790   149107640.000       -1527.830          48.000  
C25  22629436.895   117837413.923       -2565.037          48.000                                                                  
C33  26306575.739   136985238.081       -3673.087          38.000                                                                  
C09  37458467.268   195056068.432        -321.303          43.000    37458452.736   150829667.576        -248.323          48.000  
G10  22471076.440   118086303.429       -3759.091          41.000    22471074.351    92015290.641       -2929.187          41.000  
G12  24079599.985   126539143.778       -3827.184          33.000    24079591.140    98601899.977       -2982.113          36.000  
G26  22044508.211   115844673.371        2935.061          40.000    22044504.385    90268561.820        2287.315          41.000  
G28  20559812.432   108042541.370        -138.275          47.000    20559800.736    84188946.625        -107.764          48.000  
C16  36619722.481   190688502.684        -445.694          48.000    36619709.176   147452392.378        -344.780          48.000  
C13  36470555.227   189911750.651       -1645.189          44.000    36470545.917   146851774.192       -1272.127          47.000  
C06  36094847.663   187955343.175        -352.136          46.000    36094829.381   145338919.791        -272.208          48.000  
C37  24192644.025   125977446.328        2054.380          43.000                                                                  
C20  26401595.372   137480039.745        2836.548          41.000                                                                  
C32  22181069.217   115502645.210         936.222          50.000                                                                  
G25  21076978.010   110760266.345       -2817.466          44.000    21076969.562    86306667.220       -2195.580          43.000  
> 2025 10 21 05 35 46.7590000  0 21                     
G03  24079775.962   126540074.047        2609.598          34.000    24079773.628    98602649.887        2033.573          38.000  
G32  20271449.297   106527186.842        -696.756          50.000    20271439.865    83008155.346        -542.891          45.000  
G31  21267820.781   111763151.708        1402.977          46.000    21267810.105    87088125.837        1093.396          43.000  
G29  23706982.057   124581032.338        1813.053          41.000    23706976.282    97076104.765        1412.209          34.000  
C23  21516830.089   112043777.846        -141.695          50.000                                                                  
C07  40479350.777   210786603.549         846.389          34.000    40479373.647   162993663.269         654.612          41.000  
C08  37030820.132   192829197.402       -1975.969          42.000    37030803.946   149107701.110       -1527.834          48.000  
C25  22629456.599   117837516.531       -2565.187          48.000                                                                  
C33  26306603.967   136985385.026       -3673.483          38.000                                                                  
C09  37458469.750   195056081.277        -321.189          43.000    37458455.210   150829677.519        -248.497          48.000  
G10  22471105.044   118086453.773       -3758.826          41.000    22471102.965    92015407.801       -2929.126          41.000  
G12  24079629.134   126539296.870       -3827.235          33.000    24079620.275    98602019.291       -2982.681          36.000  
G26  22044485.874   115844555.970        2935.043          40.000    22044482.042    90268470.332        2287.292          41.000  
G28  20559813.496   108042546.902        -138.306          47.000    20559801.794    84188950.942        -107.892          48.000  
C16  36619725.924   190688520.511        -445.692          48.000    36619712.618   147452406.163        -344.719          48.000  
C13  36470567.885   189911816.454       -1645.147          44.000    36470558.570   146851825.078       -1272.154          47.000  
C06  36094850.339   187955357.263        -352.211          46.000    36094832.110   145338930.683        -272.263          48.000  
C37  24192628.251   125977364.159        2054.254          43.000                                                                  
C20  26401573.581   137479926.277        2836.621          41.000                                                                  
C32  22181061.979   115502607.770         936.043          50.000                                                                  
G25  21076999.448   110760379.055       -2817.704          44.000    21076990.996    86306755.042       -2195.598          43.000  
> 2025 10 21 05 35 46.7990000  0 21                     
G03  24079756.125   126539969.648        2609.790          34.000    24079753.756    98602568.556        2033.352          38.000  
G32  20271454.577   106527214.706        -696.731          50.000    20271445.171    83008177.064        -542.965          45.000  
G31  21267810.107   111763095.599        1402.778          46.000    21267799.432    87088082.122        1093.037          43.000  
G29  23706968.263   124580959.827        1812.887          41.000    23706962.500    97076048.270        1412.185          34.000  
C23  21516831.140   112043783.521        -141.850          50.000                                                                  
C07  40479344.283   210786569.687         846.376          34.000    40479367.169   162993637.077         654.745          41.000  
C08  37030835.327   192829276.425       -1975.722          42.000    37030819.106   149107762.222       -1527.844          48.000  
C25  22629476.296   117837619.139       -2565.254          48.000                                                                  
C33  26306632.195   136985531.976       -3673.729          38.000                                                                  
C09  37458472.209   195056094.131        -321.292          43.000    37458457.675   150829687.459        -248.534          48.000  
G10  22471133.652   118086604.143       -3759.150          41.000    22471131.591    92015524.970       -2929.271          41.000  
G12  24079658.252   126539449.983       -3827.816          33.000    24079649.401    98602138.560       -2982.155          36.000  
G26  22044463.548   115844438.564        2935.107          40.000    22044459.697    90268378.866        2286.861          41.000  
G28  20559814.552   108042552.438        -138.446          47.000    20559802.839    84188955.260        -107.996          48.000  
C16  36619729.348   190688538.345        -445.849          48.000    36619716.034   147452419.945        -344.615          48.000  
C13  36470580.503   189911882.260       -1645.165          44.000    36470571.209   146851875.963       -1272.155          47.000  
C06  36094853.060   187955371.345        -352.147          46.000    36094834.794   145338941.578        -272.369          48.000  
C37  24192612.467   125977281.993        2054.119          43.000                                                                  
C20  26401551.791   137479812.827        2836.353          41.000                                                                  
C32  22181054.760   115502570.333         935.893          50.000                                                                  
G25  21077020.897   110760491.763       -2817.762          44.000    21077012.441    86306842.860       -2195.586          43.000  
> 2025 10 21 05 35 46.8390000  0 21                     
G03  24079736.241   126539865.268        2609.620          34.000    24079733.884    98602487.227        2033.156          38.000  
G32  20271459.846   106527242.573        -696.755          50.000    20271450.484    83008198.776        -542.859          45.000  
G31  21267799.424   111763039.487        1402.737          46.000    21267788.755    87088038.405        1092.894          43.000  
G29  23706954.456   124580887.309        1812.874          41.000    23706948.695    97075991.744        1412.808          34.000  
C23  21516832.235   112043789.190        -141.825          50.000                                                                  
C07  40479337.771   210786535.824         846.403          34.000    40479360.690   162993610.895         654.643          41.000  
C08  37030850.501   192829355.451       -1975.627          42.000    37030834.303   149107823.333       -1527.816          48.000  
C25  22629496.017   117837721.738       -2565.100          48.000                                                                  
C33  26306660.409   136985678.941       -3674.047          38.000                                                                  
C09  37458474.665   195056106.995        -321.558          43.000    37458460.156   150829697.399        -248.526          48.000  
G10  22471162.258   118086754.506       -3759.184          41.000    22471160.198    92015642.119       -2928.951          41.000  
G12  24079687.377   126539603.049       -3827.098          33.000    24079678.523    98602257.858       -2982.340          36.000  
G26  22044441.204   115844321.168        2934.972          40.000    22044437.355    90268287.396        2286.674          41.000  
G28  20559815.597   108042557.975        -138.470          47.000    20559803.892    84188959.572        -107.898          48.000  
C16  36619732.769   190688556.179        -445.898          48.000    36619719.435   147452433.737        -344.745          48.000  
C13  36470593.117   189911948.086       -1645.515          44.000    36470583.845   146851926.856       -1272.278          47.000  
C06  36094855.781   187955385.431        -352.166          46.000    36094837.506   145338952.477        -272.477          48.000  
C37  24192596.677   125977199.829        2054.030          43.000                                                                  
C20  26401530.010   137479699.370        2836.304          41.000                                                                  
C32  22181047.608   115502532.894         935.897          50.000                                                                  
G25  21077042.336   110760604.473       -2817.822          44.000    21077033.903    86306930.688       -2195.714          43.000  
> 2025 10 21 05 35 46.8790000  0 21                     
G03  24079716.402   126539760.915        2609.061          34.000    24079714.016    98602405.903        2033.049          38.000  
G32  20271465.137   106527270.435        -696.644          50.000    20271455.782    83008220.491        -542.865          45.000  
G31  21267788.735   111762983.372        1402.767          46.000    21267778.071    87087994.683        1092.922          43.000  
G29  23706940.658   124580814.785        1813.008          41.000    23706934.906    97075935.236        1412.758          34.000  
C23  21516833.343   112043794.854        -141.705          50.000                                                                  
C07  40479331.270   210786501.939         846.851          34.000    40479354.206   162993584.703         654.705          41.000  
C08  37030865.658   192829434.478       -1975.591          42.000    37030849.478   149107884.444       -1527.783          48.000  
C25  22629515.724   117837824.337       -2565.012          48.000                                                                  
C33  26306688.621   136985825.879       -3673.762          38.000                                                                  
C09  37458477.138   195056119.857        -321.636          43.000    37458462.581   150829707.339        -248.532          48.000  
G10  22471190.842   118086904.848       -3758.743          41.000    22471188.808    92015759.272       -2928.847          41.000  
G12  24079716.509   126539756.137       -3826.986          33.000    24079707.647    98602377.147       -2982.305          36.000  
G26  22044418.868   115844203.767        2934.980          40.000    22044415.016    90268195.908        2286.989          41.000  
G28  20559816.641   108042563.514        -138.538          47.000    20559804.933    84188963.882        -107.788          48.000  
C16  36619736.173   190688574.007        -445.811          48.000    36619722.849   147452447.527        -344.784          48.000  
C13  36470605.747   189912013.891       -1645.316          44.000    36470596.468   146851977.739       -1272.190          47.000  
C06  36094858.519   187955399.520        -352.231          46.000    36094840.235   145338963.365        -272.334          48.000  
C37  24192580.895   125977117.670        2053.914          43.000                                                                  
C20  26401508.245   137479585.905        2836.554          41.000                                                                  
C32  22181040.430   115502495.454         935.932          50.000                                                                  
G25  21077063.784   110760717.175       -2817.734          44.000    21077055.361    86307018.503       -2195.488          43.000  
> 2025 10 21 05 35 46.9190000  0 21                     
G03  24079696.567   126539656.523        2609.432          34.000    24079694.134    98602324.536        2033.726          38.000  
G32  20271470.439   106527298.302        -696.668          50.000    20271461.075    83008242.197        -542.699          45.000  
G31  21267778.054   111762927.259        1402.773          46.000    21267767.413    87087950.958        1092.985          43.000  
G29  23706926.873   124580742.273        1812.852          41.000    23706921.106    97075878.703        1413.125          34.000  
C23  21516834.466   112043800.519        -141.653          50.000                                                                  
C07  40479324.744   210786468.037         847.393          34.000    40479347.704   162993558.506         654.842          41.000  
C08  37030880.806   192829513.518       -1975.884          42.000    37030864.641   149107945.552       -1527.727          48.000  
C25  22629535.430   117837926.937       -2564.989          48.000                                                                  
C33  26306716.846   136985972.806       -3673.368          38.000                                                                  
C09  37458479.604   195056132.709        -321.455          43.000    37458465.023   150829717.276        -248.455          48.000  
G10  22471219.451   118087055.205       -3758.830          41.000    22471217.428    92015876.437       -2929.000          41.000  
G12  24079745.617   126539909.227       -3827.175          33.000    24079736.767    98602496.408       -2981.722          36.000  
G26  22044396.505   115844086.358        2935.135          40.000    22044392.683    90268104.426        2287.073          41.000  
G28  20559817.691   108042569.044        -138.361          47.000    20559805.969    84188968.189        -107.709          48.000  
C16  36619739.566   190688591.832        -445.715          48.000    36619726.263   147452461.309        -344.659          48.000  
C13  36470618.371   189912079.692       -1645.128          44.000    36470609.102   146852028.623       -1272.145          47.000  
C06  36094861.208   187955413.601        -352.096          46.000    36094842.925   145338974.250        -272.197          48.000  
C37  24192565.119   125977035.496        2054.144          43.000                                                                  
C20  26401486.428   137479472.428        2836.871          41.000                                                                  
C32  22181033.254   115502458.009         936.028          50.000                                                                  
G25  21077085.234   110760829.876       -2817.612          44.000    21077076.803    86307106.322       -2195.468          43.000  
> 2025 10 21 05 35 46.9590000  0 21                     
G03  24079676.698   126539552.119        2609.957          34.000    24079674.256    98602243.181        2033.932          38.000  
G32  20271475.731   106527326.163        -696.563          50.000    20271466.360    83008263.908        -542.731          45.000  
G31  21267767.377   111762871.138        1402.913          46.000    21267756.719    87087907.214        1093.401          43.000  
G29  23706913.059   124580669.752        1812.914          41.000    23706907.324    97075822.224        1412.302          34.000  
C23  21516835.539   112043806.188        -141.688          50.000                                                                  
C07  40479318.220   210786434.171         846.990          34.000    40479341.212   162993532.310         654.917          41.000  
C08  37030895.995   192829592.546       -1975.810          42.000    37030879.815   149108006.652       -1527.563          48.000  
C25  22629555.139   117838029.531       -2564.877          48.000                                                                  
C33  26306745.088   136986119.734       -3673.247          38.000                                                                  
C09  37458482.094   195056145.542        -320.992          43.000    37458467.465   150829727.209        -248.354          48.000  
G10  22471248.073   118087205.561       -3758.843          41.000    22471246.052    92015993.596       -2928.961          41.000  
G12  24079774.704   126540062.284       -3826.607          34.000    24079765.902    98602615.712       -2982.291          36.000  
G26  22044374.155   115843968.951        2935.131          40.000    22044370.339    90268012.931        2287.305          41.000  
G28  20559818.738   108042574.570        -138.190          47.000    20559807.021    84188972.496        -107.672          48.000  
C16  36619742.996   190688609.655        -445.625          48.000    36619729.696   147452475.094        -344.621          48.000  
C13  36470631.037   189912145.482       -1644.834          44.000    36470621.719   146852079.502       -1272.022          47.000  
C06  36094863.913   187955427.670        -351.801          46.000    36094845.650   145338985.131        -272.057          48.000  
C37  24192549.368   125976953.312        2054.443          43.000                                                                  
C20  26401464.622   137479358.972        2836.652          41.000                                                                  
C32  22181026.079   115502420.561         936.129          50.000                                                                  
G25  21077106.679   110760942.570       -2817.446          44.000    21077098.269    86307194.140       -2195.453          43.000  
> 2025 10 21 05 35 46.9990000  0 21                     
G03  24079656.798   126539447.713        2610.138          34.000    24079654.381    98602161.839        2033.710          38.000  
G32  20271481.021   106527354.021        -696.477          50.000    20271471.651    83008285.615        -542.700          45.000  
G31  21267756.693   111762815.012        1403.059          46.000    21267746.022    87087863.477        1093.467          43.000  
G29  23706899.232   124580597.216        1813.248          41.000    23706893.539    97075765.760        1411.594          34.000  
C23  21516836.625   112043811.851        -141.626          50.000                                                                  
C07  40479311.739   210786400.320         846.430          34.000    40479334.677   162993506.111         655.003          41.000  
C08  37030911.209   192829671.562       -1975.514          42.000    37030894.987   149108067.761       -1527.670          48.000  
C25  22629574.848   117838132.124       -2564.822          48.000                                                                  
C33  26306773.318   136986266.663       -3673.148          38.000                                                                  
C09  37458484.553   195056158.381        -320.892          43.000    37458469.921   150829737.144        -248.331          48.000  
G10  22471276.688   118087355.923       -3758.990          41.000    22471274.647    92016110.741       -2928.708          41.000  
G12  24079803.872   126540215.393       -3827.355          33.000    24079795.036    98602735.006       -2982.445          36.000  
G26  22044351.800   115843851.556        2934.924          40.000    22044347.983    90267921.455        2287.035          41.000  
G28  20559819.791   108042580.096        -138.098          47.000    20559808.087    84188976.805        -107.703          48.000  
C16  36619746.414   190688627.477        -445.538          48.000    36619733.127   147452488.871        -344.468          48.000  
C13  36470643.672   189912211.274       -1644.781          44.000    36470634.348   146852130.384       -1272.060          47.000  
C06  36094866.600   187955441.752        -351.904          46.000    36094848.338   145338996.018        -272.104          48.000  
C37  24192533.557   125976871.129        2054.592          43.000                                                                  
C20  26401442.866   137479245.513        2836.523          41.000                                                                  
C32  22181018.898   115502383.112         936.217          50.000                                                                  
G25  21077128.110   110761055.272       -2817.507          44.000    21077119.709    86307281.953       -2195.354          43.000  
> 2025 10 21 05 35 47.0390000  0 21                     
G03  24079636.908   126539343.281        2610.654          34.000    24079634.510    98602080.496        2033.638          38.000  
G32  20271486.333   106527381.880        -696.466          50.000    20271476.954    83008307.326        -542.750          45.000  
G31  21267746.027   111762758.891        1403.048          46.000    21267735.343    87087819.751        1093.301          43.000  
G29  23706885.437   124580524.700        1813.072          41.000    23706879.726    97075709.209        1412.841          34.000  
C23  21516837.713   112043817.514        -141.587          50.000                                                                  
C07  40479305.236   210786366.444         846.580          34.000    40479328.167   162993479.913         655.046          41.000  
C08  37030926.380   192829750.579       -1975.371          42.000    37030910.152   149108128.869       -1527.715          48.000  
C25  22629594.509   117838234.726       -2564.994          48.000                                                                  
C33  26306801.542   136986413.591       -3673.137          38.000                                                                  
C09  37458487.012   195056171.231        -321.121          43.000    37458472.398   150829747.078        -248.339          48.000  
G10  22471305.285   118087506.279       -3758.951          41.000    22471303.223    92016227.893       -2928.699          41.000  
G12  24079833.024   126540368.440       -3826.576          33.000    24079824.162    98602854.283       -2982.193          36.000  
G26  22044329.434   115843734.155        2934.914          40.000    22044325.628    90267829.971        2287.037          41.000  
G28  20559820.851   108042585.625        -138.165          47.000    20559809.131    84188981.114        -107.727          48.000  
C16  36619749.838   190688645.294        -445.432          48.000    36619736.539   147452502.655        -344.552          48.000  
C13  36470656.310   189912277.090       -1645.171          44.000    36470646.985   146852181.270       -1272.140          47.000  
C06  36094869.302   187955455.830        -351.902          46.000    36094851.050   145339006.908        -272.219          48.000  
C37  24192517.779   125976788.955        2054.497          43.000                                                                  
C20  26401421.050   137479132.045        2836.658          41.000                                                                  
C32  22181011.690   115502345.669         936.130          50.000                                                                  
G25  21077149.565   110761167.976       -2817.610          44.000    21077141.149    86307369.778       -2195.565          43.000  
> 2025 10 21 05 35 47.0790000  0 21                     
G03  24079617.037   126539238.942        2609.305          34.000    24079614.636    98601999.180        2033.079          38.000  
G32  20271491.674   106527409.743        -696.552          50.000    20271482.252    83008329.034        -542.719          45.000  
G31  21267735.323   111762702.769        1403.060          46.000    21267724.680    87087776.036        1092.970          44.000  
G29  23706871.663   124580452.181        1813.034          41.000    23706865.919    97075652.709        1412.684          34.000  
C23  21516838.777   112043823.181        -141.642          50.000                                                                  
C07  40479298.741   210786332.553         847.079          34.000    40479321.646   162993453.708         655.164          41.000  
C08  37030941.537   192829829.600       -1975.416          42.000    37030925.327   149108189.976       -1527.700          48.000  
C25  22629614.219   117838337.325       -2565.012          48.000                                                                  
C33  26306829.745   136986560.544       -3673.650          38.000                                                                  
C09  37458489.469   195056184.081        -321.255          43.000    37458474.849   150829757.003        -248.181          48.000  
G10  22471333.889   118087656.625       -3758.767          41.000    22471331.827    92016345.050       -2928.822          41.000  
G12  24079862.143   126540521.535       -3827.174          33.000    24079853.276    98602973.560       -2982.059          36.000  
G26  22044307.092   115843616.746        2935.083          40.000    22044303.295    90267738.500        2286.861          41.000  
G28  20559821.930   108042591.158        -138.281          47.000    20559810.178    84188985.420        -107.697          48.000  
C16  36619753.246   190688663.118        -445.520          48.000    36619739.950   147452516.438        -344.578          48.000  
C13  36470668.941   189912342.899       -1645.264          44.000    36470659.610   146852232.151       -1272.106          47.000  
C06  36094872.011   187955469.907        -351.924          46.000    36094853.736   145339017.794        -272.197          48.000  
C37  24192502.010   125976706.776        2054.495          43.000                                                                  
C20  26401399.271   137479018.582        2836.646          41.000                                                                  
C32  22181004.481   115502308.227         936.066          50.000                                                                  
G25  21077171.049   110761280.676       -2817.579          44.000    21077162.572    86307457.599       -2195.573          43.000  
> 2025 10 21 05 35 47.1190000  0 21                     
G03  24079597.169   126539134.572        2609.138          34.000    24079594.762    98601917.823        2033.528          38.000  
G32  20271496.964   106527437.603        -696.534          50.000    20271487.544    83008350.740        -542.707          45.000  
G31  21267724.638   111762646.646        1403.069          46.000    21267713.990    87087732.299        1093.176          43.000  
G29  23706857.842   124580379.652        1813.152          41.000    23706852.114    97075596.165        1413.341          34.000  
C23  21516839.877   112043828.840        -141.530          50.000                                                                  
C07  40479292.243   210786298.653         847.471          34.000    40479315.160   162993427.507         655.104          41.000  
C08  37030956.729   192829908.631       -1975.622          42.000    37030940.492   149108251.088       -1527.770          48.000  
C25  22629633.925   117838439.926       -2565.055          48.000                                                                  
C33  26306857.970   136986707.475       -3673.563          38.000                                                                  
C09  37458491.949   195056196.932        -321.309          43.000    37458477.340   150829766.936        -248.234          48.000  
G10  22471362.492   118087806.964       -3758.534          41.000    22471360.461    92016462.216       -2929.076          41.000  
G12  24079891.319   126540674.636       -3827.495          33.000    24079882.397    98603092.849       -2982.190          36.000  
G26  22044284.770   115843499.340        2935.119          40.000    22044280.958    90267647.007        2287.159          41.000  
G28  20559822.978   108042596.684        -138.202          47.000    20559811.216    84188989.724        -107.611          48.000  
C16  36619756.663   190688680.935        -445.450          48.000    36619743.387   147452530.215        -344.482          48.000  
C13  36470681.573   189912408.699       -1645.127          44.000    36470672.252   146852283.031       -1272.068          47.000  
C06  36094874.740   187955483.975        -351.760          46.000    36094856.421   145339028.671        -272.013          48.000  
C37  24192486.202   125976624.608        2054.316          43.000                                                                  
C20  26401377.475   137478905.097        2836.957          41.000                                                                  
C32  22180997.321   115502270.780         936.119          50.000                                                                  
G25  21077192.479   110761393.374       -2817.499          44.000    21077183.991    86307545.416       -2195.498          43.000  
> 2025 10 21 05 35 47.1590000  0 21                     
G03  24079577.294   126539030.178        2609.469          34.000    24079574.898    98601836.477        2033.596          38.000  
G32  20271502.313   106527465.469        -696.633          50.000    20271492.837    83008372.450        -542.769          45.000  
G31  21267713.974   111762590.529        1402.963          46.000    21267703.292    87087688.562        1093.305          44.000  
G29  23706844.066   124580307.140        1812.939          41.000    23706838.321    97075539.672        1412.761          34.000  
C23  21516840.967   112043834.505        -141.572          50.000                                                                  
C07  40479285.718   210786264.773         847.192          34.000    40479308.657   162993401.306         655.046          41.000  
C08  37030971.929   192829987.652       -1975.583          42.000    37030955.663   149108312.185       -1527.551          48.000  
C25  22629653.644   117838542.516       -2564.873          48.000                                                                  
C33  26306886.193   136986854.408       -3673.438          38.000                                                                  
C09  37458494.415   195056209.774        -321.226          43.000    37458479.830   150829776.868        -248.274          48.000  
G10  22471391.124   118087957.322       -3758.761          41.000    22471389.077    92016579.383       -2929.231          41.000  
G12  24079920.457   126540827.708       -3827.024          33.000    24079911.525    98603212.131       -2982.198          36.000  
G26  22044262.420   115843381.924        2935.276          40.000    22044258.610    90267555.512        2287.354          41.000  
G28  20559824.043   108042602.214        -138.232          47.000    20559812.282    84188994.029        -107.623          48.000  
C16  36619760.091   190688698.753        -445.418          48.000    36619746.809   147452543.994        -344.490          48.000  
C13  36470694.211   189912474.493       -1644.966          44.000    36470684.907   146852333.906       -1271.965          47.000  
C06  36094877.467   187955498.056        -351.930          46.000    36094859.151   145339039.556        -272.078          48.000  
C37  24192470.432   125976542.426        2054.443          43.000                                                                  
C20  26401355.672   137478791.630        2836.774          41.000                                                                  
C32  22180990.176   115502233.329         936.215          50.000                                                                  
G25  21077213.917   110761506.081       -2817.646          44.000    21077205.413    86307633.229       -2195.366          43.000  
> 2025 10 21 05 35 47.1990000  0 21                     
G03  24079557.413   126538925.762        2610.217          34.000    24079555.019    98601755.123        2033.778          38.000  
G32  20271507.598   106527493.331        -696.626          50.000    20271498.125    83008394.165        -542.892          45.000  
G31  21267703.304   111762534.411        1402.926          46.000    21267692.610    87087644.826        1093.334          44.000  
G29  23706830.265   124580234.626        1812.814          41.000    23706824.524    97075483.172        1412.478          34.000  
C23  21516841.996   112043840.172        -141.665          50.000                                                                  
C07  40479279.212   210786230.888         847.148          34.000    40479302.169   162993375.125         654.631          41.000  
C08  37030987.113   192830066.668       -1975.481          42.000    37030970.842   149108373.297       -1527.715          48.000  
C25  22629673.351   117838645.111       -2564.874          48.000                                                                  
C33  26306914.407   136987001.333       -3673.285          38.000                                                                  
C09  37458496.876   195056222.611        -321.022          43.000    37458482.285   150829786.804        -248.349          48.000  
G10  22471419.733   118088107.671       -3758.788          41.000    22471417.692    92016696.544       -2929.137          41.000  
G12  24079949.592   126540980.773       -3826.766          33.000    24079940.672    98603331.428       -2982.417          36.000  
G26  22044240.073   115843264.510        2935.316          40.000    22044236.258    90267464.012        2287.500          41.000  
G28  20559825.094   108042607.743        -138.269          47.000    20559813.335    84188998.344        -107.837          48.000  
C16  36619763.509   190688716.581        -445.581          48.000    36619750.255   147452557.778        -344.587          48.000  
C13  36470706.839   189912540.288       -1644.890          44.000    36470697.552   146852384.787       -1272.020          47.000  
C06  36094880.166   187955512.143        -352.120          46.000    36094861.874   145339050.446        -272.219          48.000  
C37  24192454.643   125976460.258        2054.250          43.000                                                                  
C20  26401333.891   137478678.158        2836.768          41.000                                                                  
C32  22180982.951   115502195.886         936.136          50.000                                                                  
G25  21077235.354   110761618.785       -2817.669          44.000    21077226.845    86307721.049       -2195.471          43.000  
> 2025 10 21 05 35 47.2390000  0 21                     
G03  24079537.569   126538821.393        2609.625          34.000    24079535.163    98601673.806        2033.263          38.000  
G32  20271512.887   106527521.197        -696.681          50.000    20271503.424    83008415.879        -542.897          45.000  
G31  21267692.627   111762478.299        1402.811          46.000    21267681.939    87087601.106        1093.103          43.000  
G29  23706816.468   124580162.108        1812.804          41.000    23706810.711    97075426.669        1412.411          34.000  
C23  21516843.067   112043845.843        -141.788          50.000                                                                  
C07  40479272.725   210786197.020         846.848          34.000    40479295.702   162993348.930         654.686          41.000  
C08  37031002.292   192830145.706       -1975.815          42.000    37030986.025   149108434.405       -1527.754          48.000  
C25  22629693.053   117838747.707       -2564.895          48.000                                                                  
C33  26306942.641   136987148.268       -3673.334          38.000                                                                  
C09  37458499.328   195056235.459        -321.107          43.000    37458484.722   150829796.745        -248.520          48.000  
G10  22471448.346   118088258.029       -3758.912          41.000    22471446.307    92016813.703       -2929.021          41.000  
G12  24079978.723   126541133.868       -3827.118          33.000    24079969.797    98603450.720       -2982.386          36.000  
G26  22044217.731   115843147.115        2934.995          40.000    22044213.910    90267372.539        2287.051          41.000  
G28  20559826.171   108042613.276        -138.324          47.000    20559814.397    84189002.661        -107.965          48.000  
C16  36619766.938   190688734.411        -445.733          48.000    36619753.685   147452571.561        -344.599          48.000  
C13  36470719.467   189912606.095       -1645.043          44.000    36470710.206   146852435.674       -1272.143          47.000  
C06  36094882.856   187955526.222        -352.074          46.000    36094864.589   145339061.337        -272.307          48.000  
C37  24192438.852   125976378.092        2054.109          43.000                                                                  
C20  26401312.084   137478564.693        2836.603          41.000                                                                  
C32  22180975.733   115502158.444         936.046          50.000                                                                  
G25  21077256.808   110761731.500       -2817.857          44.000    21077248.295    86307808.878       -2195.652          43.000  
> 2025 10 21 05 35 47.2790000  0 21                     
G03  24079517.703   126538717.024        2609.305          34.000    24079515.316    98601592.474        2033.300          38.000  
G32  20271518.195   106527549.063        -696.693          50.000    20271508.712    83008437.597        -542.958          45.000  
G31  21267681.941   111762422.185        1402.825          46.000    21267671.268    87087557.383        1093.016          44.000  
G29  23706802.682   124580089.581        1813.030          41.000    23706796.935    97075370.168        1412.381          34.000  
C23  21516844.140   112043851.513        -141.816          50.000                                                                  
C07  40479266.233   210786163.153         846.625          34.000    40479289.172   162993322.736         654.757          41.000  
C08  37031017.451   192830224.726       -1975.630          42.000    37031001.210   149108495.512       -1527.726          48.000  
C25  22629712.717   117838850.313       -2565.127          48.000                                                                  
C33  26306970.859   136987295.204       -3673.402          38.000                                                                  
C09  37458501.787   195056248.300        -321.063          43.000    37458487.170   150829806.680        -248.460          48.000  
G10  22471476.952   118088408.399       -3759.168          41.000    22471474.927    92016930.857       -2928.908          41.000  
G12  24080007.857   126541286.945       -3827.043          33.000    24079998.911    98603570.000       -2982.167          36.000  
G26  22044195.398   115843029.723        2934.769          40.000    22044191.576    90267281.076        2286.627          41.000  
G28  20559827.211   108042618.809        -138.348          47.000    20559815.450    84189006.975        -107.953          48.000  
C16  36619770.329   190688752.237        -445.725          48.000    36619757.112   147452585.347        -344.642          48.000  
C13  36470732.078   189912671.904       -1645.200          44.000    36470722.835   146852486.565       -1272.270          47.000  
C06  36094885.574   187955540.294        -351.928          46.000    36094867.282   145339072.224        -272.268          48.000  
C37  24192423.040   125976295.917        2054.221          43.000                                                                  
C20  26401290.288   137478451.231        2836.542          41.000                                                                  
C32  22180968.524   115502121.007         935.914          50.000                                                                  
G25  21077278.255   110761844.205       -2817.765          44.000    21077269.745    86307896.717       -2195.938          43.000  
> 2025 10 21 05 35 47.3190000  0 21                     
G03  24079497.885   126538612.641        2609.369          34.000    24079495.429    98601511.136        2033.378          38.000  
G32  20271523.541   106527576.934        -696.779          50.000    20271514.017    83008459.317        -543.025          45.000  
G31  21267671.276   111762366.071        1402.821          46.000    21267660.583    87087513.653        1093.115          44.000  
G29  23706788.881   124580017.057        1813.108          41.000    23706783.124    97075313.650        1412.666          34.000  
C23  21516845.230   112043857.187        -141.897          50.000                                                                  
C07  40479259.733   210786129.285         846.546          34.000    40479282.651   162993296.528         655.028          41.000  
C08  37031032.637   192830303.763       -1975.861          42.000    37031016.386   149108556.626       -1527.834          48.000  
C25  22629732.406   117838952.918       -2565.174          48.000                                                                  
C33  26306999.085   136987442.137       -3673.365          38.000                                                                  
C09  37458504.236   195056261.158        -321.309          43.000    37458489.633   150829816.607        -248.282          48.000  
G10  22471505.571   118088558.755       -3759.070          41.000    22471503.545    92017048.017       -2928.975          41.000  
G12  24080036.946   126541440.046       -3827.313          33.000    24080028.044    98603689.285       -2982.159          36.000  
G26  22044173.077   115842912.323        2934.807          40.000    22044169.234    90267189.594        2286.787          41.000  
G28  20559828.268   108042624.342        -138.367          47.000    20559816.495    84189011.283        -107.813          48.000  
C16  36619773.749   190688770.058        -445.605          48.000    36619760.539   147452599.131        -344.647          48.000  
C13  36470744.721   189912737.711       -1645.234          44.000    36470735.477   146852537.443       -1272.067          47.000  
C06  36094888.251   187955554.376        -352.008          46.000    36094869.966   145339083.109        -272.194          48.000  
C37  24192407.269   125976213.739        2054.355          43.000                                                                  
C20  26401268.501   137478337.767        2836.517          41.000                                                                  
C32  22180961.320   115502083.573         935.822          50.000                                                                  
G25  21077299.699   110761956.906       -2817.596          44.000    21077291.184    86307984.532       -2195.664          43.000  
> 2025 10 21 05 35 47.3590000  0 21                     
G03  24079478.035   126538508.248        2609.623          34.000    24079475.569    98601429.805        2033.286          38.000  
G32  20271528.847   106527604.797        -696.674          50.000    20271519.308    83008481.024        -542.797          45.000  
G31  21267660.588   111762309.940        1403.159          46.000    21267649.900    87087469.930        1093.055          44.000  
G29  23706775.079   124579944.545        1812.951          41.000    23706769.315    97075257.111        1413.262          34.000  
C23  21516846.334   112043862.851        -141.717          50.000                                                                  
C07  40479253.203   210786095.403         846.865          34.000    40479276.153   162993270.328         655.038          41.000  
C08  37031047.804   192830382.788       -1975.714          42.000    37031031.550   149108617.730       -1527.684          48.000  
C25  22629752.134   117839055.511       -2564.971          48.000                                                                  
C33  26307027.312   136987589.075       -3673.457          38.000                                                                  
C09  37458506.728   195056274.002        -321.206          43.000    37458492.125   150829826.543        -248.334          48.000  
G10  22471534.169   118088709.087       -3758.549          41.000    22471532.157    92017165.169       -2928.815          41.000  
G12  24080066.093   126541593.154       -3827.628          33.000    24080057.178    98603808.550       -2981.708          36.000  
G26  22044150.738   115842794.920        2934.987          40.000    22044146.893    90267098.105        2287.086          41.000  
G28  20559829.298   108042629.868        -138.239          47.000    20559817.546    84189015.585        -107.587          48.000  
C16  36619777.157   190688787.874        -445.437          48.000    36619763.962   147452612.904        -344.453          48.000  
C13  36470757.385   189912803.508       -1645.054          44.000    36470748.111   146852588.324       -1272.003          47.000  
C06  36094890.955   187955568.450        -351.902          46.000    36094872.660   145339093.992        -272.094          48.000  
C37  24192391.519   125976131.564        2054.344          43.000                                                                  
C20  26401246.701   137478224.288        2836.798          41.000                                                                  
C32  22180954.163   115502046.124         936.075          50.000                                                                  
G25  21077321.143   110762069.602       -2817.478          44.000    21077312.627    86308072.350       -2195.505          43.000  
> 2025 10 21 05 35 47.3990000  0 21                     
G03  24079458.205   126538403.828        2610.428          34.000    24079455.689    98601348.443        2033.828          38.000  
G32  20271534.152   106527632.659        -696.600          50.000    20271524.596    83008502.731        -542.674          45.000  
G31  21267649.905   111762253.809        1403.300          46.000    21267639.199    87087426.204        1093.091          44.000  
G29  23706761.272   124579872.015        1813.176          41.000    23706755.518    97075200.596        1413.070          34.000  
C23  21516847.454   112043868.511        -141.563          50.000                                                                  
C07  40479246.683   210786061.489         847.533          34.000    40479269.660   162993244.130         654.979          41.000  
C08  37031062.984   192830461.813       -1975.652          42.000    37031046.717   149108678.829       -1527.531          48.000  
C25  22629771.825   117839158.097       -2564.714          48.000                                                                  
C33  26307055.556   136987736.004       -3673.303          38.000                                                                  
C09  37458509.214   195056286.836        -320.939          43.000    37458494.592   150829836.471        -248.239          48.000  
G10  22471562.790   118088859.449       -3758.842          41.000    22471560.763    92017282.340       -2929.168          41.000  
G12  24080095.230   126541746.214       -3827.034          33.000    24080086.305    98603927.840       -2981.994          36.000  
G26  22044128.379   115842677.505        2935.265          40.000    22044124.547    90267006.620        2287.159          41.000  
G28  20559830.334   108042635.396        -138.214          47.000    20559818.622    84189019.892        -107.605          48.000  
C16  36619780.607   190688805.689        -445.344          48.000    36619767.402   147452626.674        -344.295          48.000  
C13  36470770.038   189912869.305       -1644.953          44.000    36470760.775   146852639.202       -1271.961          47.000  
C06  36094893.656   187955582.520        -351.779          46.000    36094875.381   145339104.870        -271.960          48.000  
C37  24192375.735   125976049.387        2054.417          43.000                                                                  
C20  26401224.898   137478110.816        2836.804          41.000                                                                  
C32  22180946.984   115502008.675         936.182          50.000                                                                  
G25  21077342.590   110762182.305       -2817.529          44.000    21077334.077    86308160.173       -2195.524          43.000  
> 2025 10 21 05 35 47.4390000  0 21                     
G03  24079438.333   126538299.464        2609.645          34.000    24079435.810    98601267.115        2033.434          38.000  
G32  20271539.457   106527660.543        -697.032          50.000    20271529.913    83008524.459        -543.045          45.000  
G31  21267639.238   111762197.712        1402.693          46.000    21267628.523    87087382.482        1092.969          43.000  
G29  23706747.461   124579799.512        1812.736          41.000    23706741.712    97075144.122        1412.168          34.000  
C23  21516848.537   112043874.197        -142.020          50.000                                                                  
C07  40479240.158   210786027.629         846.898          34.000    40479263.159   162993217.944         654.682          41.000  
C08  37031078.187   192830540.848       -1975.853          42.000    37031061.893   149108739.946       -1527.832          48.000  
C25  22629791.529   117839260.710       -2565.171          48.000                                                                  
C33  26307083.788   136987882.956       -3673.716          38.000                                                                  
C09  37458511.675   195056299.699        -321.402          43.000    37458497.078   150829846.413        -248.516          48.000  
G10  22471591.402   118089009.843       -3759.641          41.000    22471589.364    92017399.515       -2929.400          41.000  
G12  24080124.366   126541899.298       -3827.097          33.000    24080115.433    98604047.161       -2982.760          36.000  
G26  22044106.039   115842560.115        2934.886          40.000    22044102.231    90266915.152        2286.787          41.000  
G28  20559831.411   108042640.947        -138.684          47.000    20559819.699    84189024.219        -108.075          48.000  
C16  36619784.029   190688823.524        -445.727          48.000    36619770.833   147452640.466        -344.652          48.000  
C13  36470782.688   189912935.127       -1645.429          44.000    36470773.431   146852690.094       -1272.244          47.000  
C06  36094896.376   187955596.606        -352.079          46.000    36094878.082   145339115.764        -272.253          48.000  
C37  24192359.950   125975967.226        2054.066          43.000                                                                  
C20  26401203.126   137477997.368        2836.322          41.000                                                                  
C32  22180939.777   115501971.257         935.612          50.000                                                                  
G25  21077364.043   110762295.033       -2818.060          44.000    21077355.528    86308248.004       -2195.775          43.000  
> 2025 10 21 05 35 47.4790000  0 21                     
G03  24079418.513   126538195.154        2608.193          34.000    24079415.946    98601185.838        2032.299          38.000  
G32  20271544.788   106527688.484        -698.307          50.000    20271535.231    83008546.231        -544.129          45.000  
G31  21267628.577   111762141.668        1401.450          46.000    21267617.878    87087338.811        1092.045          44.000  
G29  23706733.673   124579727.067        1811.512          41.000    23706727.926    97075087.684        1411.081          34.000  
C23  21516849.648   112043879.936        -143.207          50.000                                                                  
C07  40479233.643   210785993.830         845.328          34.000    40479256.680   162993191.795         653.856          41.000  
C08  37031093.369   192830619.945       -1977.092          42.000    37031077.070   149108801.117       -1528.955          48.000  
C25  22629811.228   117839363.377       -2566.413          48.000                                                                  
C33  26307112.019   136988029.958       -3674.881          38.000                                                                  
C09  37458514.146   195056312.614        -322.622          43.000    37458499.573   150829856.400        -249.458          48.000  
G10  22471620.033   118089160.263       -3760.503          41.000    22471618.010    92017516.723       -2930.137          41.000  
G12  24080153.527   126542052.471       -3828.774          33.000    24080144.567    98604166.506       -2983.627          36.000  
G26  22044083.715   115842442.798        2933.326          40.000    22044079.903    90266823.724        2285.896          41.000  
G28  20559832.463   108042646.552        -139.966          47.000    20559820.776    84189028.587        -109.052          48.000  
C16  36619787.490   190688841.416        -446.977          48.000    36619774.257   147452654.301        -345.630          48.000  
C13  36470795.333   189913001.004       -1646.654          44.000    36470786.065   146852741.039       -1273.341          47.000  
C06  36094899.123   187955610.762        -353.469          46.000    36094880.792   145339126.705        -273.243          48.000  
C37  24192344.196   125975885.129        2052.771          43.000                                                                  
C20  26401181.341   137477883.978        2834.949          41.000                                                                  
C32  22180932.581   115501933.892         934.359          50.000                                                                  
G25  21077385.510   110762407.820       -2819.385          44.000    21077377.003    86308335.879       -2196.622          43.000  
> 2025 10 21 05 35 47.5190000  0 21                     
G03  24079398.663   126538090.881        2606.881          34.000    24079396.122    98601104.573        2031.497          38.000  
G32  20271550.121   106527716.437        -699.059          50.000    20271540.549    83008568.018        -544.833          45.000  
G31  21267617.936   111762085.652        1400.399          46.000    21267607.213    87087295.161        1091.228          44.000  
G29  23706719.905   124579654.644        1810.511          41.000    23706714.162    97075031.238        1410.815          34.000  
C23  21516850.785   112043885.699        -144.117          50.000                                                                  
C07  40479227.194   210785960.047         844.421          34.000    40479250.200   162993165.659         653.285          41.000  
C08  37031108.550   192830699.063       -1978.026          42.000    37031092.254   149108862.296       -1529.655          48.000  
C25  22629830.950   117839466.069       -2567.388          48.000                                                                  
C33  26307140.258   136988176.978       -3675.676          38.000                                                                  
C09  37458516.627   195056325.549        -323.492          43.000    37458502.069   150829866.399        -250.107          48.000  
G10  22471648.665   118089310.702       -3761.134          41.000    22471646.650    92017633.931       -2930.439          41.000  
G12  24080182.678   126542205.642       -3829.497          33.000    24080173.728    98604285.866       -2984.252          36.000  
G26  22044061.418   115842325.488        2932.529          40.000    22044057.565    90266732.305        2285.368          41.000  
G28  20559833.537   108042652.170        -140.674          47.000    20559821.838    84189032.964        -109.644          48.000  
C16  36619790.895   190688859.334        -447.989          48.000    36619777.694   147452668.160        -346.495          48.000  
C13  36470808.005   189913066.896       -1647.425          44.000    36470798.737   146852792.002       -1274.180          47.000  
C06  36094901.859   187955624.928        -354.276          46.000    36094883.526   145339137.661        -273.950          48.000  
C37  24192328.404   125975803.046        2051.930          43.000                                                                  
C20  26401159.580   137477770.587        2834.454          41.000                                                                  
C32  22180925.425   115501896.545         933.533          50.000                                                                  
G25  21077406.972   110762520.622       -2820.256          44.000    21077398.489    86308423.792       -2197.704          43.000  
> 2025 10 21 05 35 47.5590000  0 21                     
G03  24079378.834   126537986.678        2604.923          34.000    24079376.279    98601023.338        2030.594          38.000  
G32  20271555.449   106527744.455        -700.662          50.000    20271545.879    83008589.854        -546.110          45.000  
G31  21267607.257   111762029.673        1399.161          46.000    21267596.528    87087251.535        1090.374          44.000  
G29  23706706.115   124579582.258        1809.298          41.000    23706700.367    97074974.831        1409.977          34.000  
C23  21516851.914   112043891.508        -145.463          50.000                                                                  
C07  40479220.692   210785926.312         843.043          34.000    40479243.729   162993139.581         651.881          41.000  
C08  37031123.737   192830778.218       -1979.211          42.000    37031107.456   149108923.514       -1530.683          48.000  
C25  22629850.670   117839568.815       -2568.897          48.000                                                                  
C33  26307168.509   136988324.062       -3677.304          38.000                                                                  
C09  37458519.092   195056338.539        -324.955          43.000    37458504.583   150829876.441        -251.240          48.000  
G10  22471677.305   118089461.200       -3762.603          41.000    22471675.294    92017751.216       -2931.995          41.000  
G12  24080211.817   126542358.853       -3830.615          33.000    24080202.882    98604405.262       -2985.177          36.000  
G26  22044039.089   115842208.231        2931.122          40.000    22044035.241    90266640.942        2284.027          41.000  
G28  20559834.584   108042657.854        -142.285          47.000    20559822.924    84189037.390        -110.852          48.000  
C16  36619794.328   190688877.290        -449.242          48.000    36619781.129   147452682.046        -347.434          48.000  
C13  36470820.670   189913132.832       -1648.627          44.000    36470811.413   146852842.986       -1274.946          47.000  
C06  36094904.559   187955639.134        -355.454          46.000    36094886.238   145339148.651        -274.945          48.000  
C37  24192312.660   125975721.012        2050.630          43.000                                                                  
C20  26401137.817   137477657.273        2832.697          41.000                                                                  
C32  22180918.253   115501859.242         932.280          50.000                                                                  
G25  21077428.432   110762633.458       -2821.282          44.000    21077419.973    86308511.715       -2198.479          43.000  
> 2025 10 21 05 35 47.5990000  0 21                     
G03  24079359.030   126537882.522        2603.536          34.000    24079356.462    98600942.179        2028.962          38.000  
G32  20271560.784   106527772.539        -702.352          50.000    20271551.229    83008611.735        -547.309          45.000  
G31  21267596.628   111761973.784        1397.235          46.000    21267585.920    87087207.993        1088.662          44.000  
G29  23706692.366   124579509.979        1807.107          41.000    23706686.616    97074918.513        1408.264          34.000  
C23  21516853.059   112043897.405        -147.441          50.000                                                                  
C07  40479214.220   210785892.639         841.503          34.000    40479237.271   162993113.548         650.614          41.000  
C08  37031138.966   192830857.471       -1981.309          42.000    37031122.687   149108984.782       -1531.885          48.000  
C25  22629870.424   117839671.622       -2570.447          48.000                                                                  
C33  26307196.776   136988471.213       -3679.043          38.000                                                                  
C09  37458521.599   195056351.593        -326.555          43.000    37458507.085   150829886.543        -252.666          48.000  
G10  22471705.976   118089611.765       -3764.275          41.000    22471703.974    92017868.543       -2933.322          41.000  
G12  24080240.983   126542512.177       -3832.917          33.000    24080232.066    98604524.713       -2986.436          36.000  
G26  22044016.784   115842091.047        2929.414          40.000    22044012.964    90266549.643        2282.412          41.000  
G28  20559835.695   108042663.600        -143.939          47.000    20559824.010    84189041.866        -112.122          48.000  
C16  36619797.800   190688895.334        -451.120          48.000    36619784.600   147452695.992        -348.778          48.000  
C13  36470833.367   189913198.862       -1650.609          44.000    36470824.100   146852894.040       -1276.363          47.000  
C06  36094907.308   187955653.437        -357.506          46.000    36094888.975   145339159.705        -276.407          48.000  
C37  24192296.960   125975639.067        2048.655          43.000                                                                  
C20  26401116.084   137477544.013        2831.146          41.000                                                                  
C32  22180911.103   115501822.027         930.370          50.000                                                                  
G25  21077449.915   110762746.391       -2823.242          44.000    21077441.481    86308599.713       -2199.960          43.000  
> 2025 10 21 05 35 47.6390000  0 21                     
G03  24079339.213   126537778.286        2604.512          34.000    24079336.642    98600860.985        2029.012          38.000  
G32  20271566.144   106527800.587        -702.184          50.000    20271556.570    83008633.596        -547.261          45.000  
G31  21267585.984   111761917.853        1397.248          46.000    21267575.283    87087164.401        1088.875          44.000  
G29  23706678.611   124579437.642        1807.247          41.000    23706672.861    97074862.188        1407.672          34.000  
C23  21516854.143   112043903.262        -147.464          50.000                                                                  
C07  40479207.759   210785858.941         841.483          35.000    40479230.815   162993087.489         650.727          41.000  
C08  37031154.167   192830936.684       -1981.343          42.000    37031137.900   149109046.035       -1531.990          48.000  
C25  22629890.154   117839774.398       -2570.321          48.000                                                                  
C33  26307225.029   136988618.312       -3678.561          38.000                                                                  
C09  37458524.077   195056364.611        -326.344          43.000    37458509.584   150829896.615        -252.585          48.000  
G10  22471734.643   118089762.315       -3764.548          41.000    22471732.635    92017985.868       -2933.750          41.000  
G12  24080270.171   126542665.452       -3832.948          33.000    24080261.247    98604644.127       -2986.201          36.000  
G26  22043994.477   115841973.821        2929.667          40.000    22043990.682    90266458.306        2282.567          41.000  
G28  20559836.782   108042669.307        -143.634          47.000    20559825.101    84189046.319        -112.036          48.000  
C16  36619801.278   190688913.342        -451.182          48.000    36619788.076   147452709.915        -348.803          48.000  
C13  36470846.041   189913264.860       -1650.837          44.000    36470836.789   146852945.071       -1276.484          47.000  
C06  36094910.043   187955667.704        -357.684          46.000    36094891.705   145339170.740        -276.589          48.000  
C37  24192281.212   125975557.096        2048.352          43.000                                                                  
C20  26401094.311   137477430.728        2831.213          41.000                                                                  
C32  22180903.969   115501784.773         930.379          50.000                                                                  
G25  21077471.415   110762859.300       -2823.598          44.000    21077462.975    86308687.689       -2200.135          43.000  
> 2025 10 21 05 35 47.6790000  0 21                     
G03  24079319.369   126537674.000        2606.036          34.000    24079316.809    98600779.747        2029.994          38.000  
G32  20271571.471   106527828.578        -700.779          50.000    20271561.908    83008655.396        -545.907          45.000  
G31  21267575.329   111761861.853        1398.711          46.000    21267564.612    87087120.775        1089.786          44.000  
G29  23706664.831   124579365.225        1808.967          41.000    23706659.070    97074805.752        1409.481          34.000  
C23  21516855.206   112043909.047        -145.958          50.000                                                                  
C07  40479201.261   210785825.171         842.959          35.000    40479224.349   162993061.387         651.716          41.000  
C08  37031169.341   192831015.830       -1979.849          42.000    37031153.084   149109107.240       -1530.989          48.000  
C25  22629909.833   117839877.117       -2568.982          48.000                                                                  
C33  26307253.271   136988765.369       -3677.348          38.000                                                                  
C09  37458526.551   195056377.581        -325.232          43.000    37458512.081   150829906.635        -251.436          48.000  
G10  22471763.278   118089912.789       -3763.058          41.000    22471761.263    92018103.107       -2932.148          41.000  
G12  24080299.296   126542818.636       -3831.091          33.000    24080290.414    98604763.506       -2985.326          36.000  
G26  22043972.174   115841856.553        2930.794          40.000    22043968.347    90266366.918        2283.739          41.000  
G28  20559837.871   108042674.960        -142.242          47.000    20559826.180    84189050.723        -110.864          48.000  
C16  36619804.708   190688931.268        -449.470          48.000    36619791.530   147452723.782        -347.651          48.000  
C13  36470858.668   189913330.767       -1649.149          44.000    36470849.438   146852996.040       -1275.248          47.000  
C06  36094912.764   187955681.882        -355.931          46.000    36094894.450   145339181.712        -275.392          48.000  
C37  24192265.417   125975475.024        2050.238          43.000                                                                  
C20  26401072.537   137477317.361        2833.026          41.000                                                                  
C32  22180896.755   115501747.448         931.932          50.000                                                                  
G25  21077492.888   110762972.117       -2821.921          44.000    21077484.447    86308775.608       -2198.998          43.000  
> 2025 10 21 05 35 47.7190000  0 21                     
G03  24079299.509   126537569.691        2607.332          34.000    24079296.983    98600698.480        2031.139          38.000  
G32  20271576.803   106527856.556        -699.726          50.000    20271567.226    83008677.196        -545.138          45.000  
G31  21267564.671   111761805.844        1399.824          46.000    21267553.945    87087077.122        1090.853          43.000  
G29  23706651.049   124579292.812        1810.002          41.000    23706645.284    97074749.310        1410.519          34.000  
C23  21516856.276   112043914.826        -144.920          50.000                                                                  
C07  40479194.765   210785791.380         844.177          35.000    40479217.832   162993035.259         652.826          41.000  
C08  37031184.533   192831094.961       -1978.713          42.000    37031168.280   149109168.425       -1530.031          48.000  
C25  22629929.555   117839979.824       -2567.981          48.000                                                                  
C33  26307281.497   136988912.410       -3676.357          38.000                                                                  
C09  37458529.037   195056390.530        -324.150          43.000    37458514.580   150829916.644        -250.513          48.000  
G10  22471791.931   118090063.256       -3762.034          41.000    22471789.865    92018220.344       -2931.203          41.000  
G12  24080328.476   126542971.829       -3830.188          33.000    24080319.560    98604882.880       -2984.663          36.000  
G26  22043949.839   115841739.258        2931.923          40.000    22043946.021    90266275.517        2284.702          41.000  
G28  20559838.936   108042680.599        -141.217          47.000    20559827.242    84189055.122        -110.138          48.000  
C16  36619808.143   190688949.189        -448.375          48.000    36619794.957   147452737.643        -346.822          48.000  
C13  36470871.340   189913396.679       -1648.171          44.000    36470862.087   146853046.996       -1274.249          47.000  
C06  36094915.497   187955696.058        -354.766          46.000    36094897.178   145339192.675        -274.438          48.000  
C37  24192249.659   125975392.950        2051.418          43.000                                                                  
C20  26401050.763   137477203.997        2834.003          41.000                                                                  
C32  22180889.571   115501710.119         932.931          50.000                                                                  
G25  21077514.342   110763084.940       -2820.979          44.000    21077505.888    86308863.515       -2198.082          43.000  
> 2025 10 21 05 35 47.7590000  0 21                     
G03  24079279.696   126537465.440        2606.857          34.000    24079277.138    98600617.245        2031.190          38.000  
G32  20271582.148   106527884.546        -699.509          50.000    20271572.543    83008699.016        -545.241          45.000  
G31  21267554.028   111761749.848        1400.099          46.000    21267543.286    87087033.479        1091.205          43.000  
G29  23706637.271   124579220.412        1810.233          41.000    23706631.505    97074692.866        1411.135          34.000  
C23  21516857.375   112043920.610        -144.493          50.000                                                                  
C07  40479188.281   210785757.601         844.622          34.000    40479211.349   162993009.151         652.951          41.000  
C08  37031199.743   192831174.102       -1978.347          42.000    37031183.453   149109229.618       -1529.710          48.000  
C25  22629949.296   117840082.539       -2567.680          48.000                                                                  
C33  26307309.760   136989059.483       -3676.529          38.000                                                                  
C09  37458531.536   195056403.496        -323.945          43.000    37458517.052   150829926.658        -250.193          48.000  
G10  22471820.574   118090213.734       -3761.818          41.000    22471818.504    92018337.603       -2931.197          41.000  
G12  24080357.623   126543125.020       -3829.680          33.000    24080348.720    98605002.261       -2984.409          36.000  
G26  22043927.524   115841621.975        2932.231          40.000    22043923.695    90266184.126        2284.931          41.000  
G28  20559840.038   108042686.261        -141.223          47.000    20559828.325    84189059.527        -109.949          48.000  
C16  36619811.554   190688967.128        -448.186          48.000    36619798.387   147452751.511        -346.572          48.000  
C13  36470883.993   189913462.600       -1647.860          44.000    36470874.753   146853097.964       -1273.998          47.000  
C06  36094918.217   187955710.251        -354.507          46.000    36094899.913   145339203.643        -274.086          48.000  
C37  24192233.890   125975310.891        2051.754          44.000                                                                  
C20  26401028.967   137477090.650        2834.064          41.000                                                                  
C32  22180882.412   115501672.804         933.120          50.000                                                                  
G25  21077535.828   110763197.764       -2820.535          44.000    21077527.369    86308951.429       -2197.741          43.000  
> 2025 10 21 05 35 47.7990000  0 21                     
G03  24079259.914                        2604.314          34.000    24079257.306    98600536.080        2029.750          38.000  
G32  20271587.474   106527912.661        -702.054          50.000    20271577.884    83008720.911        -546.871          45.000  
G31  21267543.385   111761693.951        1398.207          46.000    21267532.649    87086989.921        1089.717          43.000  
G29  23706623.507   124579148.129        1808.069          41.000    23706617.729    97074636.536        1409.265          34.000  
C23  21516858.523   112043926.500        -146.449          50.000                                                                  
C07  40479181.817                         840.984          34.000    40479204.902   162992983.111         651.537          41.000  
C08  37031214.953   192831253.349       -1980.353          42.000    37031198.648   149109290.899       -1531.360          48.000  
C25  22629969.054   117840185.365       -2569.884          48.000                                                                  
C33  26307338.046   136989206.648       -3678.540          38.000                                                                  
C09  37458534.046   195056416.566        -326.019          43.000    37458519.553   150829936.753        -251.680          48.000  
G10  22471849.215   118090364.322       -3763.943          41.000    22471847.147    92018454.955       -2933.147          41.000  
G12  24080386.764   126543278.342       -3832.060          33.000    24080377.870    98605121.705       -2985.646          36.000  
G26  22043905.197   115841504.795        2930.253          40.000    22043901.391    90266092.804        2283.643          41.000  
G28  20559841.152   108042692.036        -143.671          47.000    20559829.399    84189064.018        -111.749          48.000  
C16  36619815.012   190688985.159        -450.060          48.000    36619801.835   147452765.457        -348.024          48.000  
C13  36470896.655   189913528.618       -1649.689          44.000    36470887.425   146853149.018       -1275.586          47.000  
C06  36094920.958   187955724.547        -356.514          46.000    36094902.672   145339214.683        -275.365          48.000  
C37  24192218.170   125975228.943        2049.656          44.000                                                                  
C20  26401007.204   137476977.430        2831.311          41.000                                                                  
C32  22180875.267   115501635.594         931.048          50.000                                                                  
G25  21077557.306   110763310.689       -2822.341          44.000    21077548.861    86309039.418       -2199.080          43.000  
> 2025 10 21 05 35 47.8390000  0 21                     
G03  24079240.102                        2601.847          34.000    24079237.513    98600455.003        2027.532          38.000  
G32  20271592.843   106527940.833        -704.146          50.000    20271583.243    83008742.860        -548.578          45.000  
G31  21267532.762   111761638.142        1395.830          46.000    21267522.055    87086946.455        1087.418          43.000  
G29  23706609.777   124579075.948        1805.272          41.000    23706604.000    97074580.274        1407.058          34.000  
C23  21516859.692   112043932.490        -149.070          50.000                                                                  
C07  40479175.365                         838.918          34.000    40479198.459   162992957.156         649.411          41.000  
C08  37031230.215   192831332.692       -1982.881          42.000    37031213.923   149109352.236       -1533.153          48.000  
C25  22629988.825   117840288.265       -2572.178          48.000                                                                  
C33  26307366.326   136989353.872       -3680.455          38.000                                                                  
C09  37458536.580   195056429.709        -328.215          43.000    37458522.114   150829946.925        -253.807          48.000  
G10  22471877.869   118090514.993       -3766.372          41.000    22471875.825    92018572.343       -2934.700          41.000  
G12  24080415.983   126543431.747       -3834.584          33.000    24080407.068    98605241.238       -2987.773          36.000  
G26  22043882.929   115841387.717        2927.521          40.000    22043879.115    90266001.578        2281.301          41.000  
G28  20559842.281   108042697.861        -145.581          47.000    20559830.513    84189068.560        -113.416          48.000  
C16  36619818.526   190689003.308        -452.959          48.000    36619805.349   147452779.484        -350.148          48.000  
C13  36470909.350   189913594.753       -1652.546          44.000    36470900.153   146853200.155       -1277.841          47.000  
C06  36094923.739   187955738.941        -359.188          46.000    36094905.439   145339225.806        -277.451          48.000  
C37  24192202.457   125975147.103        2046.828          43.000                                                                  
C20  26400985.524   137476864.254        2829.352          41.000                                                                  
C32  22180868.151   115501598.457         928.818          50.000                                                                  
G25  21077578.831   110763423.732       -2825.222          44.000    21077570.371    86309127.505       -2201.436          43.000  
> 2025 10 21 05 35 47.8790000  0 21                     
G03  24079220.313                        2602.496          34.000    24079217.726    98600373.830        2028.275          38.000  
G32  20271598.208   106527968.879        -702.449          50.000    20271588.584    83008764.733        -547.717          45.000  
G31  21267522.124   111761582.242        1396.439          46.000    21267511.416    87086902.885        1088.204          43.000  
G29  23706596.015   124579003.619        1806.697          41.000    23706590.250                        1407.291          34.000  
C23  21516860.812   112043938.361        -148.038          50.000                                                                  
C07  40479168.874                         841.993          34.000    40479191.995   162992931.110         650.198          41.000  
C08  37031245.408   192831411.901       -1981.506          42.000    37031229.138   149109413.517       -1532.812          48.000  
C25  22630008.565   117840391.049       -2570.874          48.000                                                                  
C33  26307394.604   136989500.965       -3678.618          38.000                                                                  
C09  37458539.106   195056442.732        -326.843          43.000    37458524.632   150829957.016        -253.212          48.000  
G10  22471906.520   118090665.538       -3764.917          41.000    22471904.487    92018689.666       -2934.038          41.000  
G12  24080445.174   126543585.071       -3834.386          33.000    24080436.266    98605360.734       -2988.029          36.000  
G26  22043860.608   115841270.509        2928.833          40.000    22043856.816    90265910.262        2281.968          41.000  
G28  20559843.411   108042703.572        -143.964          47.000    20559831.616    84189073.020        -112.396          48.000  
C16  36619822.004   190689021.326        -451.823          48.000    36619808.843   147452793.423        -349.461          48.000  
C13  36470922.024   189913660.733       -1651.022          44.000    36470912.850   146853251.203       -1277.207          47.000  
C06  36094926.452   187955753.215        -358.174          46.000    36094908.162   145339236.864        -277.212          48.000  
C37  24192186.730   125975065.127        2047.964          43.000                                                                  
C20  26400963.740   137476750.934        2831.610          41.000                                                                  
C32  22180860.986   115501561.218         929.819          50.000                                                                  
G25  21077600.317   110763536.666       -2824.581          44.000    21077591.869    86309215.506       -2200.972          43.000  
> 2025 10 21 05 35 47.9190000  0 21                     
G03  24079200.441                        2607.697          34.000    24079197.843    98600292.460        2032.424          38.000  
G32  20271603.467   106527996.739        -697.925          50.000    20271593.877    83008786.442        -544.042          45.000  
G31  21267511.422   111761526.114        1401.058          46.000    21267500.721    87086859.155        1091.696          43.000  
G29  23706582.188   124578931.096        1811.153          41.000    23706576.443                        1411.441          34.000  
C23  21516861.916   112043944.017        -143.358          50.000                                                                  
C07  40479162.341                         846.511          34.000    40479185.468   162992904.891         654.117          41.000  
C08  37031260.584   192831490.908       -1976.891          42.000    37031244.291   149109474.608       -1528.881          48.000  
C25  22630028.250   117840493.620       -2566.016          48.000                                                                  
C33  26307422.835                       -3674.379          38.000                                                                  
C09  37458541.552   195056455.554        -322.237          43.000    37458527.098   150829966.938        -249.536          48.000  
G10  22471935.111   118090815.864       -3759.909          41.000    22471933.068    92018806.822       -2930.375          41.000  
G12  24080474.314                       -3828.584          33.000    24080465.385    98605479.973       -2983.225          36.000  
G26  22043838.256   115841153.083        2933.774          40.000    22043834.450    90265818.776        2285.590          41.000  
G28  20559844.434   108042709.086        -139.233          47.000    20559832.639    84189077.327        -108.826          48.000  
C16  36619825.415   190689039.110        -446.739          48.000    36619812.208   147452807.177        -345.488          48.000  
C13  36470934.659   189913726.529       -1646.676          44.000    36470925.475   146853302.062       -1273.242          47.000  
C06  36094929.145   187955767.250        -353.131          46.000    36094910.828   145339247.736        -273.544          48.000  
C37  24192170.960   125974982.938        2052.643          43.000                                                                  
C20  26400941.946                        2835.456          41.000                                                                  
C32  22180853.822   115501523.768         934.412          50.000                                                                  
G25  21077621.738   110763649.336       -2819.257          44.000    21077613.316    86309303.316       -2196.937          43.000  
> 2025 10 21 05 35 47.9590000  0 21                     
G03  24079180.558                        2610.797          34.000    24079177.969    98600211.119        2033.997          38.000  
G32  20271608.748   106528024.618        -696.310          50.000    20271599.178    83008808.164        -542.607          45.000  
G31  21267500.713   111761469.972        1403.533          46.000    21267490.027    87086815.410        1093.683          43.000  
G29  23706568.353   124578858.531        1813.979          41.000    23706562.631                        1412.351          34.000  
C23  21516862.989   112043949.671        -141.100          50.000                                                                  
C07  40479155.797                         848.634          34.000    40479178.935   162992878.687         655.549          41.000  
C08  37031275.723   192831569.915       -1974.739          42.000    37031259.431   149109535.695       -1526.990          48.000  
C25  22630047.908   117840596.218       -2564.280          48.000                                                                  
C33  26307451.037                       -3672.991          38.000                                                                  
C09  37458544.018   195056468.392        -320.352          43.000    37458529.526   150829976.864        -247.906          48.000  
G10  22471963.694   118090966.220       -3758.146          41.000    22471961.669    92018923.963       -2928.393          41.000  
G12  24080503.421                       -3826.359          33.000    24080494.473    98605599.225       -2981.133          36.000  
G26  22043815.882   115841035.677        2935.680          40.000    22043812.091    90265727.279        2287.538          41.000  
G28  20559845.463   108042714.639        -137.952          47.000    20559833.677    84189081.646        -107.513          48.000  
C16  36619828.827   190689056.908        -444.531          48.000    36619815.599   147452820.933        -343.658          48.000  
C13  36470947.253   189913792.316       -1644.439          44.000    36470938.063   146853352.926       -1271.359          47.000  
C06  36094931.888   187955781.304        -350.964          46.000    36094913.508   145339258.587        -271.375          48.000  
C37  24192155.149   125974900.742        2055.034          43.000                                                                  
C20  26400920.140   137476524.016        2837.177          41.000                                                                  
C32  22180846.584   115501486.331         936.353          50.000                                                                  
G25  21077643.188   110763762.023       -2816.917          44.000    21077634.731    86309391.109       -2194.757          43.000  
> 2025 10 21 05 35 47.9990000  0 21                     
G03  24079160.710                        2606.770          34.000    24079158.161    98600129.939        2031.471          38.000  
G32  20271614.093                        -700.389          50.000    20271604.509    83008830.065        -545.752          45.000  
G31  21267490.052                        1399.922          46.000    21267479.377    87086771.843        1091.130          43.000  
G29  23706554.566                        1810.554          41.000    23706548.854                        1410.085          34.000  
C23  21516864.123                        -144.743          50.000                                                                  
C07  40479149.304                         844.119          34.000    40479172.458                         652.469          41.000  
C08  37031290.937                       -1978.901          42.000    37031274.665   149109596.975       -1530.022          48.000  
C25  22630067.683                       -2568.366          48.000                                                                  
C33  26307479.295                       -3677.100          38.000                                                                  
C09  37458546.534                        -324.365          43.000    37458532.033   150829986.958        -250.656          48.000  
G10  22471992.333                       -3762.242          41.000    22471990.323    92019041.303       -2931.514          41.000  
G12  24080532.591                       -3829.250          33.000    24080523.647                       -2984.233          36.000  
G26  22043793.559                        2931.644          40.000    22043789.798                        2284.370          41.000  
G28  20559846.555                        -141.974          47.000    20559834.789    84189086.140        -110.651          48.000  
C16  36619832.273                        -448.398          48.000    36619819.071   147452834.890        -346.797          48.000  
C13  36470959.923                       -1647.977          44.000    36470950.744   146853403.980       -1274.309          47.000  
C06  36094934.638                        -354.819          46.000    36094916.249   145339269.638        -274.231          48.000  
C37  24192139.394                        2051.479          43.000                                                                  
C20  26400898.400                        2833.252          41.000                                                                  
C32  22180839.433                         932.619          50.000                                                                  
G25  21077664.653                       -2820.874          44.000    21077656.237    86309479.113       -2197.858          43.000  
> 2025 10 21 05 35 48.0390000  0 21                     
G03  24079140.926                        2603.011          34.000    24079138.357                        2028.639          38.000  
G32  20271619.484                        -702.976          50.000    20271609.878    83008851.974        -547.460          45.000  
G31  21267479.442                        1396.779          46.000    21267468.794    87086728.346        1088.474          44.000  
G29  23706540.865                        1806.744          41.000    23706535.143                        1408.235          34.000  
C23  21516865.278                        -147.934          50.000                                                                  
C07  40479142.894                         840.155          34.000    40479166.057                         650.211          41.000  
C08  37031306.207                       -1981.805          42.000    37031289.924   149109658.300       -1532.395          48.000  
C25  22630087.425                       -2570.902          48.000                                                                  
C33  26307507.573                       -3679.378          38.000                                                                  
C09  37458549.077                        -327.083          43.000    37458534.568   150829997.094        -252.756          48.000  
G10  22472021.028                       -3765.310          41.000    22472019.009                       -2933.791          41.000  
G12  24080561.832                       -3833.737          33.000    24080552.844                       -2987.085          36.000  
G26  22043771.293                        2928.595          40.000    22043767.529                        2282.531          41.000  
G28  20559847.697                        -144.501          47.000    20559835.883    84189090.644        -112.384          48.000  
C16  36619835.761                        -451.683          48.000    36619822.589   147452848.888        -349.188          48.000  
C13  36470972.646                       -1651.184          44.000    36470963.468   146853455.080       -1276.677          47.000  
C06  36094937.420                        -358.091          46.000    36094919.046   145339280.740        -276.637          48.000  
C37  24192123.687                        2048.038          43.000                                                                  
C20  26400876.678                        2830.896          41.000                                                                  
C32  22180832.324                         929.871          50.000                                                                  
G25  21077686.169                       -2824.171          44.000    21077677.763                       -2200.659          43.000  
> 2025 10 21 05 35 48.0790000  0 21                     
G03  24079121.130                        2604.716          34.000    24079118.524                        2029.369          38.000  
G32  20271624.803                        -700.741          50.000    20271615.243    83008873.788        -546.241          45.000  
G31  21267468.782                        1398.427          46.000    21267458.148    87086684.729        1089.340          44.000  
G29  23706527.095                        1807.882          41.000    23706521.384                        1409.397          34.000  
C23  21516866.466                        -146.419          50.000                                                                  
C07  40479136.402                         842.679          34.000    40479159.591                         651.889          41.000  
C08  37031321.393                       -1979.999          42.000    37031305.136   149109719.502       -1531.158          48.000  
C25  22630107.121                       -2569.048          48.000                                                                  
C33  26307535.838                       -3676.923          38.000                                                                  
C09  37458551.575                        -325.076          43.000    37458537.046   150830007.120        -251.622          48.000  
G10  22472049.670                       -3763.172          41.000    22472047.665                       -2932.554          41.000  
G12  24080591.017                       -3832.831          33.000    24080582.003                       -2985.973          36.000  
G26  22043748.968                        2930.794          40.000    22043745.248                        2283.704          41.000  
G28  20559848.779                        -142.218          47.000    20559836.977    84189095.042        -110.938          48.000  
C16  36619839.238                        -449.874          48.000    36619826.080                        -347.894          48.000  
C13  36470985.307                       -1649.502          44.000    36470976.132   146853506.065       -1275.678          47.000  
C06  36094940.169                        -356.287          46.000    36094921.799   145339291.730        -275.780          48.000  
C37  24192107.966                        2049.692          43.000                                                                  
C20  26400854.898                        2833.057          41.000                                                                  
C32  22180825.150                         931.667          50.000                                                                  
G25  21077707.651                       -2822.674          44.000    21077699.247                       -2199.478          43.000  
> 2025 10 21 05 35 48.1190000  0 21                     
G03  24079101.274                        2609.357          34.000    24079098.644                        2032.952          38.000  
G32  20271630.065                        -696.608          50.000    20271620.537                        -542.944          45.000  
G31  21267458.067                        1402.670          46.000    21267447.458                        1092.913          43.000  
G29  23706513.262                        1812.854          41.000    23706507.553                        1413.048          34.000  
C23  21516867.553                        -141.820          50.000                                                                  
C07  40479129.855                         847.602          34.000    40479153.042                         655.335          41.000  
C08  37031336.561                       -1975.224          42.000    37031320.310                       -1527.624          48.000  
C25  22630126.828                       -2564.615          48.000                                                                  
C33  26307564.010                       -3673.129          38.000                                                                  
C09  37458554.009                        -321.079          43.000    37458539.496                        -248.143          48.000  
G10  22472078.251                       -3758.562          41.000    22472076.233                       -2929.020          41.000  
G12  24080620.105                       -3826.616          33.000    24080611.098                       -2982.050          36.000  
G26  22043726.595                        2934.881          40.000    22043722.885                        2287.009          41.000  
G28  20559849.784                        -137.927          47.000    20559837.988                        -107.568          48.000  
C16  36619842.639                        -445.092          48.000    36619829.459                        -344.336          48.000  
C13  36470997.945                       -1645.065          44.000    36470988.748                       -1272.287          47.000  
C06  36094942.812                        -351.840          46.000    36094924.461                        -272.213          48.000  
C37  24192092.170                        2054.509          43.000                                                                  
C20  26400833.076                        2837.115          41.000                                                                  
C32  22180817.937                         935.763          50.000                                                                  
G25  21077729.071                       -2817.765          44.000    21077720.673                       -2195.991          43.000  
> 2025 10 21 05 35 48.1590000  0 21                     
G03  24079081.369                        2612.396          34.000    24079078.755                        2035.241          38.000  
G32  20271635.353                        -694.295          50.000    20271625.796                        -541.059          45.000  
G31  21267447.354                        1405.219          46.000    21267436.760                        1095.260          43.000  
G29  23706499.435                        1815.569          41.000    23706493.732                        1414.701          34.000  
C23  21516868.594                        -139.283          50.000                                                                  
C07  40479123.346                         850.213          34.000    40479146.516                         657.131          41.000  
C08  37031351.702                       -1972.746          42.000    37031335.444                       -1525.624          48.000  
C25  22630146.499                       -2562.328          48.000                                                                  
C33  26307592.231                       -3671.112          38.000                                                                  
C09  37458556.427                        -318.408          43.000    37458541.918                        -246.126          48.000  
G10  22472106.849                       -3756.350          41.000    22472104.799                       -2927.064          41.000  
G12  24080649.194                       -3823.457          33.000    24080640.197                       -2980.013          36.000  
G26  22043704.214                        2937.579          40.000    22043700.523                        2288.899          41.000  
G28  20559850.815                        -135.767          47.000    20559839.001                        -105.817          48.000  
C16  36619845.997                        -442.751          48.000    36619832.836                        -342.278          48.000  
C13  36471010.533                       -1642.538          44.000    36471001.358                       -1269.992          47.000  
C06  36094945.459                        -349.159          46.000    36094927.094                        -270.001          48.000  
C37  24192076.339                        2056.766          43.000                                                                  
C20  26400811.255                        2839.350          41.000                                                                  
C32  22180810.719                         938.197          50.000                                                                  
G25  21077750.495                       -2815.343          44.000    21077742.093                       -2193.737          43.000  
> 2025 10 21 05 35 48.1990000  0 21                     
G03  24079061.466                        2613.295          34.000    24079058.867                        2036.168          38.000  
G32  20271640.646                        -693.717          50.000    20271631.071                        -540.353          45.000  
G31  21267436.625                        1406.297          46.000    21267426.075                        1096.030          43.000  
G29  23706485.634                        1816.281          41.000    23706479.903                        1415.930          34.000  
C23  21516869.626                        -138.512          50.000                                                                  
C07  40479116.828                         849.646          34.000    40479139.994                         657.365          41.000  
C08  37031366.884                       -1972.444          42.000    37031350.556                       -1524.998          48.000  
C25  22630166.182                       -2561.777          48.000                                                                  
C33  26307620.424                       -3669.946          38.000                                                                  
C09  37458558.878                        -317.698          43.000    37458544.385                        -245.433          48.000  
G10  22472135.420                       -3755.570          41.000    22472133.412                       -2926.583          41.000  
G12  24080678.295                       -3823.700          33.000    24080669.293                       -2979.193          36.000  
G26  22043681.842                        2938.360          40.000    22043678.176                        2289.615          41.000  
G28  20559851.851                        -135.291          47.000    20559840.056                        -105.292          48.000  
C16  36619849.360                        -442.003          48.000    36619836.222                        -341.577          48.000  
C13  36471023.162                       -1641.584          44.000    36471013.972                       -1269.182          47.000  
C06  36094948.145                        -348.159          46.000    36094929.777                        -269.131          48.000  
C37  24192060.520                        2057.412          43.000                                                                  
C20  26400789.417                        2840.057          41.000                                                                  
C32  22180803.513                         939.089          50.000                                                                  
G25  21077771.940                       -2814.482          44.000    21077763.527                       -2193.197          43.000  
> 2025 10 21 05 35 48.2390000  0 21                     
G03  24079041.653                        2611.304          34.000    24079039.001                        2035.129          38.000  
G32  20271645.917                        -695.037          50.000    20271636.368                        -541.313          45.000  
G31  21267425.930                        1405.406          46.000    21267415.383                        1095.322          43.000  
G29  23706471.830                        1815.334          41.000    23706466.124                        1414.751          34.000  
C23  21516870.715                        -139.742          50.000                                                                  
C07  40479110.326                         849.122          34.000    40479133.464                         656.952          41.000  
C08  37031382.047                       -1973.669          42.000    37031365.696                       -1525.872          48.000  
C25  22630185.904                       -2562.951          48.000                                                                  
C33  26307648.642                       -3670.633          38.000                                                                  
C09  37458561.356                        -319.069          43.000    37458546.876                        -246.414          48.000  
G10  22472164.015                       -3757.075          41.000    22472162.010                       -2927.415          41.000  
G12  24080707.404                       -3824.258          33.000    24080698.390                       -2980.347          36.000  
G26  22043659.495                        2937.147          40.000    22043655.840                        2288.583          41.000  
G28  20559852.862                        -136.462          47.000    20559841.108                        -106.274          48.000  
C16  36619852.819                        -443.177          48.000    36619839.640                        -342.557          48.000  
C13  36471035.817                       -1642.849          44.000    36471026.609                       -1270.062          47.000  
C06  36094950.872                        -349.471          46.000    36094932.467                        -270.052          48.000  
C37  24192044.737                        2056.609          43.000                                                                  
C20  26400767.634                        2838.757          41.000                                                                  
C32  22180796.347                         938.067          50.000                                                                  
G25  21077793.360                       -2815.535          44.000    21077784.988                       -2193.792          43.000  
> 2025 10 21 05 35 48.2790000  0 21                     
G03  24079021.790                        2609.702          34.000    24079019.162                        2033.290          38.000  
G32  20271651.231                        -697.624          50.000    20271641.673                        -543.653          45.000  
G31  21267415.263                        1402.588          46.000    21267404.696                        1092.965          43.000  
G29  23706458.054                        1812.731          41.000    23706452.337                        1412.006          34.000  
C23  21516871.854                        -142.216          50.000                                                                  
C07  40479103.838                         846.794          34.000    40479126.966                         655.198          41.000  
C08  37031397.232                       -1976.369          42.000    37031380.939                       -1528.000          48.000  
C25  22630205.625                       -2565.485          48.000                                                                  
C33  26307676.887                       -3673.962          38.000                                                                  
C09  37458563.858                        -321.316          43.000    37458549.340                        -248.308          48.000  
G10  22472192.638                       -3759.434          41.000    22472190.648                       -2929.232          41.000  
G12  24080736.582                       -3828.105          33.000    24080727.556                       -2982.251          36.000  
G26  22043637.174                        2934.520          40.000    22043633.504                        2286.640          41.000  
G28  20559853.905                        -139.142          47.000    20559842.162                        -108.295          48.000  
C16  36619856.304                        -445.666          48.000    36619843.095                        -344.637          48.000  
C13  36471048.471                       -1645.130          44.000    36471039.239                       -1272.295          47.000  
C06  36094953.642                        -351.925          46.000    36094935.199                        -271.934          48.000  
C37  24192028.967                        2054.358          43.000                                                                  
C20  26400745.889                        2836.017          41.000                                                                  
C32  22180789.204                         935.239          50.000                                                                  
G25  21077814.808                       -2818.086          44.000    21077806.447                       -2196.152          43.000  
> 2025 10 21 05 35 48.3190000  0 21                     
G03  24079002.019                        2605.948          35.000    24078999.335                        2030.936          38.000  
G32  20271656.592                        -699.876          50.000    20271647.005                        -545.507          45.000  
G31  21267404.616                        1399.798          46.000    21267394.053                        1090.693          43.000  
G29  23706444.297                        1809.982          41.000    23706438.573                        1409.868          34.000  
C23  21516872.974                        -144.889          50.000                                                                  
C07  40479097.354                         844.516          34.000    40479120.488                         652.574          41.000  
C08  37031412.447                       -1978.545          42.000    37031396.168                       -1530.042          48.000  
C25  22630225.365                       -2567.971          48.000                                                                  
C33  26307705.166                       -3676.263          38.000                                                                  
C09  37458566.380                        -323.778          43.000    37458551.864                        -250.587          48.000  
G10  22472221.306                       -3762.253          41.000    22472219.285                       -2931.266          41.000  
G12  24080765.769                       -3830.360          33.000    24080756.723                       -2984.581          36.000  
G26  22043614.887                        2931.723          40.000    22043611.182                        2284.533          41.000  
G28  20559854.995                        -141.400          47.000    20559843.252                        -110.199          48.000  
C16  36619859.773                        -448.374          48.000    36619846.590                        -346.790          48.000  
C13  36471061.148                       -1648.201          44.000    36471051.904                       -1274.450          47.000  
C06  36094956.403                        -354.700          46.000    36094937.961                        -274.534          48.000  
C37  24192013.231                        2051.461          43.000                                                                  
C20  26400724.128                        2833.704          41.000                                                                  
C32  22180782.048                         932.799          50.000                                                                  
G25  21077836.342                       -2821.132          44.000    21077827.917                       -2198.103          43.000  
> 2025 10 21 05 35 48.3590000  0 21                     
G03  24078982.180                        2605.883          35.000    24078979.496                        2030.450          38.000  
G32  20271661.906                        -700.035          50.000    20271652.335                        -545.575          45.000  
G31  21267393.955                        1399.532          46.000    21267383.393                        1090.231          43.000  
G29  23706430.524                        1809.223          41.000    23706424.818                        1409.359          34.000  
C23  21516874.073                        -145.295          50.000                                                                  
C07  40479090.865                         843.902          34.000    40479114.030                         652.411          41.000  
C08  37031427.644                       -1978.922          42.000    37031411.372                       -1530.413          48.000  
C25  22630245.109                       -2568.237          48.000                                                                  
C33  26307733.399                       -3676.669          38.000                                                                  
C09  37458568.859                        -324.155          43.000    37458554.362                        -250.971          48.000  
G10  22472249.929                       -3762.471          41.000    22472247.939                       -2931.805          41.000  
G12  24080794.916                       -3830.579          33.000    24080785.883                       -2984.894          36.000  
G26  22043592.558                        2931.332          40.000    22043588.854                        2284.132          41.000  
G28  20559856.079                        -141.467          47.000    20559844.321                        -110.516          48.000  
C16  36619863.219                        -448.656          48.000    36619850.020                        -347.233          48.000  
C13  36471073.783                       -1648.429          44.000    36471064.565                       -1274.793          47.000  
C06  36094959.112                        -355.209          46.000    36094940.682                        -274.811          48.000  
C37  24191997.479                        2050.892          44.000                                                                  
C20  26400702.324                        2833.881          41.000                                                                  
C32  22180774.893                         932.497          50.000                                                                  
G25  21077857.823                       -2821.489          44.000    21077849.388                       -2198.599          43.000  
> 2025 10 21 05 35 48.3990000  0 21                     
G03  24078962.304                        2607.561          34.000    24078959.665                        2031.133          38.000  
G32  20271667.231                        -699.194          50.000    20271657.676                        -545.019          45.000  
G31  21267383.306                        1400.334          46.000    21267372.729                        1091.027          43.000  
G29  23706416.757                        1810.273          41.000    23706411.031                        1410.956          34.000  
C23  21516875.144                        -144.330          50.000                                                                  
C07  40479084.343                         845.127          34.000    40479107.525                         653.391          41.000  
C08  37031442.802                       -1978.222          42.000    37031426.551                       -1529.695          48.000  
C25  22630264.795                       -2567.108          48.000                                                                  
C33  26307761.620                       -3675.924          38.000                                                                  
C09  37458571.314                        -323.483          43.000    37458556.836                        -250.322          48.000  
G10  22472278.553                       -3761.144          41.000    22472276.578                       -2930.812          41.000  
G12  24080824.068                       -3829.382          33.000    24080815.004                       -2983.778          36.000  
G26  22043570.253                        2932.471          40.000    22043566.527                        2285.244          41.000  
G28  20559857.163                        -140.631          47.000    20559845.403                        -109.674          48.000  
C16  36619866.633                        -447.738          48.000    36619853.411                        -346.450          48.000  
C13  36471086.411                       -1647.417          44.000    36471077.210                       -1274.140          47.000  
C06  36094961.806                        -354.143          46.000    36094943.381                        -274.106          48.000  
C37  24191981.708                        2051.656          44.000                                                                  
C20  26400680.533                        2834.875          41.000                                                                  
C32  22180767.669                         933.378          50.000                                                                  
G25  21077879.297                       -2820.426          44.000    21077870.853                       -2197.700          43.000  
> 2025 10 21 05 35 48.4390000  0 21                     
G03  24078942.439                        2608.840          35.000    24078939.786                        2031.949          38.000  
G32  20271672.539                        -698.366          50.000    20271662.982                        -544.290          45.000  
G31  21267372.623                        1401.328          46.000    21267362.049                        1091.592          43.000  
G29  23706402.949                        1811.343          41.000    23706397.232                        1411.682          34.000  
C23  21516876.204                        -143.460          50.000                                                                  
C07  40479077.818                         846.210          34.000    40479100.999                         654.079          41.000  
C08  37031457.988                       -1977.196          42.000    37031441.744                       -1528.867          48.000  
C25  22630284.495                       -2566.325          48.000                                                                  
C33  26307789.806                       -3674.714          38.000                                                                  
C09  37458573.783                        -322.621          43.000    37458559.291                        -249.398          48.000  
G10  22472307.176                       -3760.407          41.000    22472305.205                       -2930.375          41.000  
G12  24080853.232                       -3828.123          33.000    24080844.143                       -2982.828          36.000  
G26  22043547.920                        2933.645          40.000    22043544.193                        2285.885          41.000  
G28  20559858.229                        -139.880          47.000    20559846.459                        -108.960          48.000  
C16  36619870.035                        -446.712          48.000    36619856.833                        -345.488          48.000  
C13  36471099.035                       -1646.460          44.000    36471089.833                       -1273.263          47.000  
C06  36094964.488                        -353.257          46.000    36094946.070                        -273.270          48.000  
C37  24191965.918                        2052.571          44.000                                                                  
C20  26400658.758                        2835.571          41.000                                                                  
C32  22180760.446                         934.177          50.000                                                                  
G25  21077900.743                       -2819.351          44.000    21077892.304                       -2197.103          43.000  
> 2025 10 21 05 35 48.4790000  0 21                     
G03  24078922.601                        2608.016          35.000    24078919.922                        2032.256          38.000  
G32  20271677.832                        -698.023          50.000    20271668.295                        -543.922          45.000  
G31  21267361.950                        1401.691          46.000    21267351.359                        1092.208          43.000  
G29  23706389.133                        1811.851          41.000    23706383.428                        1412.507          34.000  
C23  21516877.299                        -143.026          50.000                                                                  
C07  40479071.309                         846.214          34.000    40479094.515                         654.375          41.000  
C08  37031473.188                       -1976.584          42.000    37031456.935                       -1528.471          48.000  
C25  22630304.229                       -2565.891          48.000                                                                  
C33  26307818.053                       -3674.402          38.000                                                                  
C09  37458576.262                        -321.916          43.000    37458561.724                        -248.834          48.000  
G10  22472335.793                       -3759.640          41.000    22472333.815                       -2929.987          41.000  
G12  24080882.389                       -3828.480          33.000    24080873.289                       -2982.909          36.000  
G26  22043525.585                        2933.867          40.000    22043521.855                        2286.022          41.000  
G28  20559859.294                        -139.435          47.000    20559847.507                        -108.594          48.000  
C16  36619873.477                        -446.292          48.000    36619860.282                        -345.073          48.000  
C13  36471111.688                       -1646.143          44.000    36471102.460                       -1272.832          47.000  
C06  36094967.219                        -352.842          46.000    36094948.766                        -272.689          48.000  
C37  24191950.138                        2053.113          44.000                                                                  
C20  26400636.943                        2835.614          41.000                                                                  
C32  22180753.293                         934.630          50.000                                                                  
G25  21077922.203                       -2818.893          44.000    21077913.751                       -2196.606          43.000  
> 2025 10 21 05 35 48.5190000  0 21                     
G03  24078902.765                        2607.754          35.000    24078900.048                        2032.913          38.000  
G32  20271683.153                        -698.131          50.000    20271673.607    83009112.898        -543.875          45.000  
G31  21267351.285                        1401.683          46.000    21267340.686                        1092.358          43.000  
G29  23706375.331                        1811.789          41.000    23706369.639                        1411.937          34.000  
C23  21516878.389                        -143.004          50.000                                                                  
C07  40479064.834                         845.879          34.000    40479087.997                         654.177          41.000  
C08  37031488.354                       -1976.566          42.000    37031472.140   149110391.829       -1528.439          48.000  
C25  22630323.927                       -2566.109          48.000                                                                  
C33  26307846.266                       -3674.460          38.000                                                                  
C09  37458578.740                        -321.759          43.000    37458564.208   150830116.465        -248.727          48.000  
G10  22472364.416                       -3760.064          41.000    22472362.462                       -2929.855          41.000  
G12  24080911.559                       -3828.469          33.000    24080902.412                       -2983.293          36.000  
G26  22043503.257                        2933.756          40.000    22043499.540                        2285.899          41.000  
G28  20559860.360                        -139.545          47.000    20559848.573    84189142.648        -108.502          48.000  
C16  36619876.925                        -446.485          48.000    36619863.713                        -345.007          48.000  
C13  36471124.309                       -1646.038          44.000    36471115.082                       -1272.779          47.000  
C06  36094969.941                        -352.783          46.000    36094951.477                        -272.639          48.000  
C37  24191934.361                        2053.280          44.000                                                                  
C20  26400615.143                        2835.596          41.000                                                                  
C32  22180746.073                         934.579          50.000                                                                  
G25  21077943.653                       -2819.134          44.000    21077935.224                       -2196.631          43.000  
> 2025 10 21 05 35 48.5590000  0 21                     
G03  24078882.910                        2606.639          35.000    24078880.189                        2031.388          38.000  
G32  20271688.467                        -699.179          50.000    20271678.912    83009134.700        -544.721          45.000  
G31  21267340.633                        1400.680          46.000    21267330.025                        1091.609          43.000  
G29  23706361.557                        1810.643          41.000    23706355.845                        1410.364          34.000  
C23  21516879.505                        -144.049          50.000                                                                  
C07  40479058.333                         844.922          34.000    40479081.492                         653.509          41.000  
C08  37031503.539                       -1977.651          42.000    37031487.304   149110453.017       -1529.326          48.000  
C25  22630343.632                       -2567.206          48.000                                                                  
C33  26307874.497                       -3675.448          38.000                                                                  
C09  37458581.206                        -323.000          43.000    37458566.674   150830126.475        -249.758          48.000  
G10  22472393.041                       -3761.420          41.000    22472391.095                       -2930.682          41.000  
G12  24080940.735                       -3829.011          33.000    24080931.548                       -2984.279          36.000  
G26  22043480.907                        2932.609          40.000    22043477.208                        2285.172          41.000  
G28  20559861.449                        -140.466          47.000    20559849.639    84189147.046        -109.552          48.000  
C16  36619880.383                        -447.540          48.000    36619867.155                        -346.073          48.000  
C13  36471136.962                       -1647.212          44.000    36471127.741   146854116.869       -1273.600          47.000  
C06  36094972.676                        -353.828          46.000    36094954.193   145339422.501        -273.507          48.000  
C37  24191918.605                        2052.251          44.000                                                                  
C20  26400593.339                        2834.686          41.000                                                                  
C32  22180738.897                         933.565          50.000                                                                  
G25  21077965.110                       -2820.317          44.000    21077956.680                       -2197.505          43.000  
> 2025 10 21 05 35 48.5990000  0 21                     
G03  24078863.068                        2606.605          35.000    24078860.343                        2030.917          38.000  
G32  20271693.822                        -699.595          50.000    20271684.241    83009156.502        -545.113          45.000  
G31  21267329.963                        1400.114          46.000    21267319.376    87086116.616        1091.090          43.000  
G29  23706347.790                        1810.172          41.000    23706342.075                        1409.805          34.000  
C23  21516880.578                        -144.560          50.000                                                                  
C07  40479051.841                         844.598          34.000    40479075.006                         653.379          41.000  
C08  37031518.765                       -1978.077          42.000    37031502.513   149110514.201       -1529.696          48.000  
C25  22630363.376                       -2567.476          48.000                                                                  
C33  26307902.754                       -3675.512          38.000                                                                  
C09  37458583.708                        -323.576          43.000    37458569.177   150830136.478        -250.134          48.000  
G10  22472421.683                       -3761.722          41.000    22472419.751    92020799.362       -2930.983          41.000  
G12  24080969.900                       -3830.295          33.000    24080960.695                       -2984.459          36.000  
G26  22043458.606                        2932.259          40.000    22043454.898    90264264.457        2284.812          41.000  
G28  20559862.556                        -140.906          47.000    20559850.719    84189151.439        -109.924          48.000  
C16  36619883.792                        -447.995          48.000    36619870.596   147453042.137        -346.424          48.000  
C13  36471149.614                       -1647.774          44.000    36471140.395   146854167.829       -1274.008          47.000  
C06  36094975.401                        -354.248          46.000    36094956.934   145339433.460        -273.962          48.000  
C37  24191902.843                        2051.715          44.000                                                                  
C20  26400571.552                        2834.290          41.000                                                                  
C32  22180731.709                         933.121          50.000                                                                  
G25  21077986.570                       -2820.708          44.000    21077978.182    86310797.260       -2198.279          43.000  
> 2025 10 21 05 35 48.6390000  0 21                     
G03  24078843.235                        2607.391          35.000    24078840.484                        2031.438          38.000  
G32  20271699.141                        -699.714          50.000    20271689.543    83009178.302        -545.258          45.000  
G31  21267319.292                        1400.153          46.000    21267308.722    87086072.970        1090.920          43.000  
G29  23706334.010                        1810.239          41.000    23706328.285                        1410.738          34.000  
C23  21516881.703                        -144.517          50.000                                                                  
C07  40479045.310                         845.105          34.000    40479068.503                         653.257          41.000  
C08  37031533.951                       -1978.549          42.000    37031517.713   149110575.379       -1529.707          48.000  
C25  22630383.104                       -2567.410          48.000                                                                  
C33  26307931.002                       -3675.430          38.000                                                                  
C09  37458586.212                        -323.491          43.000    37458571.680   150830146.480        -250.256          48.000  
G10  22472450.315                       -3761.759          41.000    22472448.387    92020916.599       -2931.147          41.000  
G12  24080999.064                       -3830.131          34.000    24080989.836                       -2984.060          36.000  
G26  22043436.294                        2932.128          40.000    22043432.561    90264173.044        2285.019          41.000  
G28  20559863.626                        -140.973          47.000    20559851.797    84189155.830        -110.040          48.000  
C16  36619887.219                        -447.801          48.000    36619874.024   147453055.976        -346.329          48.000  
C13  36471162.252                       -1647.612          44.000    36471153.052   146854218.784       -1274.107          47.000  
C06  36094978.105                        -354.191          46.000    36094959.654   145339444.408        -273.975          48.000  
C37  24191887.079                        2051.583          44.000                                                                  
C20  26400549.794                        2834.149          41.000                                                                  
C32  22180724.552                         933.086          50.000                                                                  
G25  21078008.022                       -2820.688          44.000    21077999.643    86310885.155       -2197.943          43.000  
> 2025 10 21 05 35 48.6790000  0 21                     
G03  24078823.389                        2607.172          35.000    24078820.632                        2030.535          38.000  
G32  20271704.448                        -700.316          50.000    20271694.877    83009200.129        -545.762          45.000  
G31  21267308.646                        1399.674          46.000    21267298.077    87086029.340        1090.614          43.000  
G29  23706320.248                        1809.453          41.000    23706314.509                        1410.308          34.000  
C23  21516882.797                        -145.218          50.000                                                                  
C07  40479038.829                         844.464          34.000    40479061.983   162992407.947         652.734          41.000  
C08  37031549.160                       -1979.088          42.000    37031532.909   149110636.592       -1530.307          48.000  
C25  22630402.817                       -2568.121          48.000                                                                  
C33  26307959.259                       -3676.521          38.000                                                                  
C09  37458588.683                        -324.011          43.000    37458574.163   150830156.507        -250.750          48.000  
G10  22472478.941                       -3762.047          41.000    22472477.034    92021033.868       -2931.709          41.000  
G12  24081028.249                       -3829.856          34.000    24081018.983                       -2983.992          36.000  
G26  22043413.992                        2931.442          40.000    22043410.240    90264081.670        2284.367          41.000  
G28  20559864.706                        -141.833          47.000    20559852.874    84189160.248        -110.541          48.000  
C16  36619890.649                        -448.485          48.000    36619877.487   147453069.849        -346.838          48.000  
C13  36471174.919                       -1648.363          44.000    36471165.701   146854269.768       -1274.648          47.000  
C06  36094980.803                        -354.836          46.000    36094962.346   145339455.386        -274.487          48.000  
C37  24191871.305                        2050.912          44.000                                                                  
C20  26400528.000                        2833.624          41.000                                                                  
C32  22180717.387                         932.347          50.000                                                                  
G25  21078029.498                       -2821.343          44.000    21078021.133    86310973.093       -2198.468          43.000  
> 2025 10 21 05 35 48.7190000  0 21                     
G03  24078803.536                        2605.862          35.000    24078800.804    98598666.905        2030.202          38.000  
G32  20271709.772   106528555.666        -700.638          50.000    20271700.218    83009221.959        -545.980          45.000  
G31  21267297.984   111760405.215        1399.248          46.000    21267287.414    87085985.726        1090.249          43.000  
G29  23706306.480                        1809.065          41.000    23706300.729                        1409.482          34.000  
C23  21516883.928   112044058.915        -145.703          50.000                                                                  
C07  40479032.343                         843.870          34.000    40479055.505   162992381.850         652.330          41.000  
C08  37031564.389                       -1979.364          42.000    37031548.139   149110697.802       -1530.481          48.000  
C25  22630422.539                       -2568.599          48.000                                                                  
C33  26307987.515                       -3677.243          38.000                                                                  
C09  37458591.187                        -324.592          43.000    37458576.662   150830166.540        -251.015          48.000  
G10  22472507.590                       -3762.483          41.000    22472505.674    92021151.139       -2932.019          41.000  
G12  24081057.401                       -3830.921          34.000    24081048.151                       -2985.077          36.000  
G26  22043391.670                        2931.164          40.000    22043387.956    90263990.312        2283.860          41.000  
G28  20559865.774   108042821.182        -142.133          47.000    20559853.941    84189164.663        -110.657          48.000  
C16  36619894.092                        -449.013          48.000    36619880.957   147453083.726        -347.104          48.000  
C13  36471187.565                       -1648.795          44.000    36471178.391   146854320.759       -1274.956          47.000  
C06  36094983.532                        -355.300          46.000    36094965.036   145339466.373        -274.817          48.000  
C37  24191855.527                        2050.505          44.000                                                                  
C20  26400506.242                        2833.148          41.000                                                                  
C32  22180710.241   115500776.548         931.985          50.000                                                                  
G25  21078050.973                       -2821.755          44.000    21078042.605    86311061.035       -2198.724          43.000  
> 2025 10 21 05 35 48.7590000  0 21                     
G03  24078783.739                        2605.789          35.000    24078780.963    98598585.656        2030.713          38.000  
G32  20271715.114   106528583.654        -700.104          50.000    20271705.552    83009243.770        -545.619          45.000  
G31  21267287.330   111760349.212        1399.662          46.000    21267276.754    87085942.087        1090.593          43.000  
G29  23706292.684                        1809.603          41.000    23706286.950                        1410.230          34.000  
C23  21516885.042   112044064.706        -145.244          50.000                                                                  
C07  40479025.842                         844.824          34.000    40479049.015   162992355.720         652.824          41.000  
C08  37031579.588                       -1978.727          42.000    37031563.347   149110758.993       -1530.094          48.000  
C25  22630442.244                       -2567.996          48.000                                                                  
C33  26308015.757                       -3676.423          38.000                                                                  
C09  37458593.663                        -323.988          43.000    37458579.163   150830176.540        -250.431          48.000  
G10  22472536.205                       -3762.121          41.000    22472534.299    92021268.391       -2931.727          41.000  
G12  24081086.598                       -3831.097          34.000    24081077.302                       -2985.164          36.000  
G26  22043369.362                        2931.857          40.000    22043365.619    90263898.920        2284.296          41.000  
G28  20559866.864   108042826.824        -141.516          47.000    20559855.005    84189169.057        -110.162          48.000  
C16  36619897.563                        -448.436          48.000    36619884.385   147453097.586        -346.813          48.000  
C13  36471200.241                       -1648.281          44.000    36471191.056   146854371.730       -1274.629          47.000  
C06  36094986.267                        -354.786          46.000    36094967.754   145339477.336        -274.474          48.000  
C37  24191839.761                        2051.057          44.000                                                                  
C20  26400484.434                        2833.740          41.000                                                                  
C32  22180703.091   115500739.226         932.557          50.000                                                                  
G25  21078072.449   110766017.935       -2821.492          44.000    21078064.072    86311148.958       -2198.385          43.000  
> 2025 10 21 05 35 48.7990000  0 21                     
G03  24078763.855                        2606.577          35.000    24078761.099    98598504.384        2031.533          38.000  
G32  20271720.439   106528611.608        -699.186          50.000    20271710.881    83009265.551        -544.836          45.000  
G31  21267276.656   111760293.178        1400.464          46.000    21267266.095    87085898.424        1091.298          43.000  
G29  23706278.924                        1810.895          41.000    23706273.159                        1410.883          34.000  
C23  21516886.139   112044070.456        -144.214          50.000                                                                  
C07  40479019.344                         845.270          34.000    40479042.513   162992329.571         653.529          41.000  
C08  37031594.761                       -1977.622          42.000    37031578.508   149110820.159       -1529.415          48.000  
C25  22630461.960   117842752.318       -2567.172          48.000                                                                  
C33  26308044.000                       -3675.418          38.000                                                                  
C09  37458596.142                        -322.961          43.000    37458581.644   150830186.521        -249.755          48.000  
G10  22472564.844                       -3761.339          41.000    22472562.923    92021385.612       -2930.930          41.000  
G12  24081115.732                       -3829.276          34.000    24081106.454                       -2983.862          36.000  
G26  22043347.039                        2932.674          40.000    22043343.281    90263807.500        2285.139          41.000  
G28  20559867.941   108042832.432        -140.497          47.000    20559856.066    84189173.431        -109.534          48.000  
C16  36619900.981                        -447.483          48.000    36619887.783   147453111.410        -345.957          48.000  
C13  36471212.878                       -1647.190          44.000    36471203.697   146854422.672       -1273.895          47.000  
C06  36094988.981   187956078.337        -354.045          46.000    36094970.467   145339488.265        -273.634          48.000  
C37  24191823.988   125973176.745        2051.957          43.000                                                                  
C20  26400462.617                        2834.821          41.000                                                                  
C32  22180695.917   115500701.873         933.473          50.000                                                                  
G25  21078093.909   110766130.730       -2820.399          44.000    21078085.534    86311236.850       -2197.593          43.000  
> 2025 10 21 05 35 48.8390000  0 21                     
G03  24078744.023                        2606.586          35.000    24078741.246    98598423.113        2031.805          38.000  
G32  20271725.754   106528639.591        -699.388          50.000    20271716.215    83009287.352        -544.870          45.000  
G31  21267265.988   111760237.159        1400.555          46.000    21267255.434    87085854.768        1091.466          43.000  
G29  23706265.124   124577264.877        1810.994          41.000    23706259.373                        1410.570          34.000  
C23  21516887.267   112044076.224        -144.073          50.000                                                                  
C07  40479012.837                         845.084          34.000    40479035.988   162992303.432         653.569          41.000  
C08  37031609.953                       -1977.671          42.000    37031593.694   149110881.335       -1529.314          48.000  
C25  22630481.661   117842855.006       -2567.095          48.000                                                                  
C33  26308072.228                       -3675.479          38.000                                                                  
C09  37458598.589   195056752.470        -322.897          43.000    37458584.121   150830196.514        -249.705          48.000  
G10  22472593.482                       -3761.184          41.000    22472591.543    92021502.842       -2930.786          41.000  
G12  24081144.879                       -3829.091          34.000    24081135.600                       -2984.015          36.000  
G26  22043324.722                        2932.532          40.000    22043320.946    90263716.103        2285.078          41.000  
G28  20559869.006   108042838.062        -140.564          47.000    20559857.119    84189177.818        -109.576          48.000  
C16  36619904.390   190689450.454        -447.261          48.000    36619891.213   147453125.248        -345.815          48.000  
C13  36471225.516                       -1647.079          44.000    36471216.337   146854473.612       -1273.539          47.000  
C06  36094991.729   187956092.487        -353.733          46.000    36094973.184   145339499.203        -273.387          48.000  
C37  24191808.217   125973094.654        2052.302          43.000                                                                  
C20  26400440.860                        2834.424          41.000                                                                  
C32  22180688.740   115500664.540         933.485          50.000                                                                  
G25  21078115.387   110766243.547       -2820.305          44.000    21078106.984    86311324.770       -2197.804          43.000  
> 2025 10 21 05 35 48.8790000  0 21                     
G03  24078724.215                        2605.182          35.000    24078721.417                        2029.843          38.000  
G32  20271731.063   106528667.668        -701.281          50.000    20271721.542    83009309.231        -546.418          45.000  
G31  21267255.343   111760181.229        1398.917          46.000    21267244.796    87085811.190        1090.100          44.000  
G29  23706251.355                        1808.540          41.000    23706245.621                        1409.680          34.000  
C23  21516888.425   112044082.094        -145.918          50.000                                                                  
C07  40479006.390                         842.803          34.000    40479029.526   162992277.371         652.145          41.000  
C08  37031625.158                       -1979.400          42.000    37031608.900   149110942.588       -1530.712          48.000  
C25  22630501.423                       -2568.949          48.000                                                                  
C33  26308100.487                       -3677.008          38.000                                                                  
C09  37458601.106                        -324.827          43.000    37458586.623   150830206.587        -251.234          48.000  
G10  22472622.129                       -3762.910          41.000    22472620.202    92021620.155       -2932.218          41.000  
G12  24081174.048                       -3830.702          34.000    24081164.745                       -2985.687          36.000  
G26  22043302.434                        2930.630          40.000    22043298.649    90263624.782        2283.572          41.000  
G28  20559870.087   108042843.788        -142.468          47.000    20559858.212    84189182.279        -111.041          48.000  
C16  36619907.857                        -449.243          48.000    36619894.684   147453139.166        -347.315          48.000  
C13  36471238.206                       -1648.836          44.000    36471228.996   146854524.638       -1274.974          47.000  
C06  36094994.438   187956106.737        -355.439          46.000    36094975.915   145339510.223        -274.788          48.000  
C37  24191792.506                        2050.424          43.000                                                                  
C20  26400419.096                        2832.556          41.000                                                                  
C32  22180681.653   115500627.311         931.522          50.000                                                                  
G25  21078136.861   110766356.448       -2821.868          44.000    21078128.480    86311412.751       -2199.001          43.000  
> 2025 10 21 05 35 48.9190000  0 21                     
G03  24078704.380                        2604.846          35.000    24078701.590    98598260.768        2029.294          38.000  
G32  20271736.406   106528695.723        -701.748          50.000    20271726.890    83009331.098        -546.931          45.000  
G31  21267244.711   111760125.305        1398.054          46.000    21267234.144    87085767.603        1089.580          44.000  
G29  23706237.596   124577120.254        1807.877          41.000    23706231.866                        1408.576          34.000  
C23  21516889.599   112044087.956        -146.685          50.000                                                                  
C07  40478999.907                         842.969          34.000    40479023.048   162992251.296         651.758          41.000  
C08  37031640.379                       -1980.064          42.000    37031624.098   149111003.836       -1531.318          48.000  
C25  22630521.168   117843060.567       -2569.608          48.000                                                                  
C33  26308128.762                       -3677.446          38.000                                                                  
C09  37458603.598                        -325.563          43.000    37458589.126   150830216.652        -251.792          48.000  
G10  22472650.773                       -3763.690          41.000    22472648.845    92021737.459       -2932.764          41.000  
G12  24081203.213                       -3831.829          34.000    24081193.922                       -2986.138          36.000  
G26  22043280.090                        2930.025          40.000    22043276.344    90263533.456        2282.957          41.000  
G28  20559871.153   108042849.502        -143.146          47.000    20559859.297    84189186.728        -111.481          48.000  
C16  36619911.357                        -449.888          48.000    36619898.171   147453153.078        -347.908          48.000  
C13  36471250.901                       -1649.759          44.000    36471241.702   146854575.662       -1275.648          47.000  
C06  36094997.172   187956120.988        -356.299          46.000    36094978.666   145339521.246        -275.540          48.000  
C37  24191776.773   125972930.695        2049.451          43.000                                                                  
C20  26400397.368                        2832.355          41.000                                                                  
C32  22180674.519   115500590.063         930.916          50.000                                                                  
G25  21078158.346   110766469.362       -2822.827          44.000    21078149.975    86311500.725       -2199.471          43.000  
> 2025 10 21 05 35 48.9590000  0 21                     
G03  24078684.535                        2604.524          35.000    24078681.750    98598179.565        2029.492          38.000  
G32  20271741.716   106528723.788        -702.014          50.000    20271732.227    83009352.964        -547.018          45.000  
G31  21267234.082   111760069.373        1397.833          46.000    21267223.488    87085724.024        1089.246          44.000  
G29  23706223.834   124577047.911        1807.905          41.000    23706218.091                        1408.878          34.000  
C23  21516890.724   112044093.820        -146.993          50.000                                                                  
C07  40478993.413                         843.012          34.000    40479016.574   162992225.224         651.536          41.000  
C08  37031655.594   192833547.762       -1980.745          42.000    37031639.308   149111065.076       -1531.384          48.000  
C25  22630540.934   117843163.346       -2569.847          48.000                                                                  
C33  26308157.036                       -3677.848          38.000                                                                  
C09  37458606.101   195056791.529        -325.811          43.000    37458591.630   150830226.719        -252.039          48.000  
G10  22472679.404   118094727.443       -3764.084          41.000    22472677.492    92021854.768       -2932.991          41.000  
G12  24081232.396                       -3832.572          34.000    24081223.097                       -2985.948          36.000  
G26  22043257.801   115838103.033        2930.017          40.000    22043254.022    90263442.117        2282.989          41.000  
G28  20559872.228   108042855.226        -143.488          47.000    20559860.379    84189191.189        -111.780          48.000  
C16  36619914.842   190689504.440        -450.216          48.000    36619901.622   147453166.994        -348.222          48.000  
C13  36471263.588   189915439.577       -1650.192          44.000    36471254.406   146854626.691       -1276.006          47.000  
C06  36094999.863   187956135.232        -356.527          46.000    36094981.376   145339532.263        -275.770          48.000  
C37  24191761.054   125972848.704        2049.272          43.000                                                                  
C20  26400375.622   137473689.339        2832.361          41.000                                                                  
C32  22180667.384   115500552.825         930.576          50.000                                                                  
G25  21078179.824   110766582.271       -2823.139          44.000    21078171.447    86311588.712       -2199.862          43.000  
> 2025 10 21 05 35 48.9990000  0 21                     
G03  24078664.726                        2604.686          35.000    24078661.915    98598098.344        2030.062          38.000  
G32  20271747.061   106528751.821        -701.381          50.000    20271737.555    83009374.807        -546.466          45.000  
G31  21267223.461   111760013.405        1398.530          46.000    21267212.855    87085680.431        1089.413          44.000  
G29  23706210.074   124576975.540        1808.602          41.000    23706204.294                        1409.406          34.000  
C23  21516891.839   112044099.653        -146.451          50.000                                                                  
C07  40478986.935                         843.510          34.000    40479010.087   162992199.138         651.791          41.000  
C08  37031670.775   192833626.939       -1980.099          42.000    37031654.528   149111126.305       -1531.106          48.000  
C25  22630560.665   117843266.089       -2569.135          48.000                                                                  
C33  26308185.285                       -3677.487          38.000                                                                  
C09  37458608.569   195056804.505        -325.051          43.000    37458594.101   150830236.755        -251.439          48.000  
G10  22472708.069   118094877.967       -3763.671          41.000    22472706.121    92021972.048       -2932.429          41.000  
G12  24081261.564                       -3830.927          34.000    24081252.256                       -2984.852          36.000  
G26  22043235.500   115837985.798        2930.427          40.000    22043231.722    90263350.747        2283.704          41.000  
G28  20559873.309   108042860.913        -142.804          47.000    20559861.491    84189195.617        -111.188          48.000  
C16  36619918.286   190689522.396        -449.538          48.000    36619905.085   147453180.881        -347.706          48.000  
C13  36471276.238   189915505.524       -1649.477          44.000    36471267.064   146854677.691       -1275.550          47.000  
C06  36095002.591   187956149.443        -355.912          46.000    36094984.082   145339543.251        -275.253          48.000  
C37  24191745.277   125972766.681        2049.904          43.000                                                                  
C20  26400353.845   137473576.015        2832.733          41.000                                                                  
C32  22180660.197   115500515.551         931.222          50.000                                                                  
G25  21078201.295   110766695.154       -2822.668          44.000    21078192.934    86311676.674       -2199.548          43.000  
> 2025 10 21 05 35 49.0390000  0 21                     
G03  24078644.870                        2606.073          35.000    24078642.078    98598017.124        2030.403          38.000  
G32  20271752.397   106528779.835        -700.597          50.000    20271742.877    83009396.630        -545.782          45.000  
G31  21267212.822   111759957.430        1399.106          46.000    21267202.202    87085636.810        1090.078          44.000  
G29  23706196.310   124576903.164        1809.164          41.000    23706190.512                        1409.318          34.000  
C23  21516892.937   112044105.463        -145.646          50.000                                                                  
C07  40478980.431                         844.010          34.000    40479003.575   162992173.021         652.548          41.000  
C08  37031685.966   192833706.091       -1979.203          42.000    37031669.737   149111187.515       -1530.538          48.000  
C25  22630580.394   117843368.811       -2568.337          48.000                                                                  
C33  26308213.511   136993764.429       -3676.956          38.000                                                                  
C09  37458611.052   195056817.466        -324.290          43.000    37458596.580   150830246.775        -250.771          48.000  
G10  22472736.685   118095028.455       -3762.649          41.000    22472734.752    92022089.314       -2931.845          41.000  
G12  24081290.719                       -3829.995          34.000    24081281.409    98608821.926       -2984.502          36.000  
G26  22043213.153   115837868.536        2931.151          40.000    22043209.391    90263259.370        2284.244          41.000  
G28  20559874.404   108042866.575        -141.864          47.000    20559862.544    84189200.035        -110.620          48.000  
C16  36619921.723   190689540.326        -448.631          48.000    36619908.502   147453194.747        -346.990          48.000  
C13  36471288.863   189915571.458       -1648.756          44.000    36471279.712   146854728.672       -1274.865          47.000  
C06  36095005.311   187956163.638        -355.188          46.000    36094986.817   145339554.229        -274.701          48.000  
C37  24191729.535   125972684.638        2050.699          43.000                                                                  
C20  26400332.082   137473462.665        2833.545          41.000                                                                  
C32  22180652.976   115500478.258         931.999          50.000                                                                  
G25  21078222.771   110766808.012       -2821.880          44.000    21078214.410    86311764.609       -2198.786          43.000  
> 2025 10 21 05 35 49.0790000  0 21                     
G03  24078625.008                        2606.505          35.000    24078622.220    98597935.863        2031.273          38.000  
G32  20271757.722   106528807.799        -699.244          50.000    20271748.194    83009418.429        -545.015          45.000  
G31  21267202.139   111759901.400        1400.430          46.000    21267191.532    87085593.149        1091.174          44.000  
G29  23706182.511   124576830.731        1810.504          41.000    23706176.719                        1410.993          34.000  
C23  21516894.007   112044111.226        -144.365          50.000                                                                  
C07  40478973.925                         844.872          34.000    40478997.080   162992146.870         653.629          41.000  
C08  37031701.167   192833785.201       -1977.975          42.000    37031684.929   149111248.682       -1529.449          48.000  
C25  22630600.079   117843471.488       -2567.097          48.000                                                                  
C33  26308241.709                       -3675.207          38.000                                                                  
C09  37458613.512   195056830.383        -323.075          43.000    37458599.082   150830256.762        -249.830          48.000  
G10  22472765.315   118095178.898       -3761.356          41.000    22472763.368    92022206.533       -2930.627          41.000  
G12  24081319.873                       -3829.582          34.000    24081310.555    98608941.307       -2984.219          36.000  
G26  22043190.817   115837751.230        2932.336          40.000    22043187.060    90263167.971        2284.970          41.000  
G28  20559875.467   108042872.188        -140.485          47.000    20559863.605    84189204.413        -109.570          48.000  
C16  36619925.156   190689558.210        -447.318          48.000    36619911.927   147453208.581        -346.014          48.000  
C13  36471301.476   189915637.343       -1647.424          44.000    36471292.344   146854779.615       -1273.809          47.000  
C06  36095008.065   187956177.785        -353.934          46.000    36094989.536   145339565.167        -273.693          48.000  
C37  24191713.774   125972602.551        2051.875          43.000                                                                  
C20  26400310.297   137473349.267        2834.869          41.000                                                                  
C32  22180645.804   115500440.912         933.356          50.000                                                                  
G25  21078244.227   110766920.808       -2820.300          44.000    21078235.887    86311852.511       -2197.737          43.000  
> 2025 10 21 05 35 49.1190000  0 21                     
G03  24078605.165                        2607.128          35.000    24078602.367    98597854.579        2032.117          38.000  
G32  20271763.000   106528835.734        -698.160          50.000    20271753.510    83009440.192        -544.027          45.000  
G31  21267191.474   111759845.336        1401.659          46.000    21267180.857    87085549.458        1092.255          44.000  
G29  23706168.721   124576758.266        1811.671          41.000    23706162.924                        1411.806          34.000  
C23  21516895.099   112044116.957        -143.203          50.000                                                                  
C07  40478967.432                         845.924          34.000    40478990.581   162992120.689         654.617          41.000  
C08  37031716.357   192833864.274       -1976.746          42.000    37031700.095   149111309.829       -1528.579          48.000  
C25  22630619.786   117843574.130       -2565.942          48.000                                                                  
C33  26308269.910   136994058.414       -3674.438          38.000                                                                  
C09  37458615.990   195056843.260        -321.799          43.000    37458601.550   150830266.727        -248.999          48.000  
G10  22472793.937   118095329.293       -3759.853          41.000    22472791.992    92022323.739       -2929.864          41.000  
G12  24081349.002                       -3828.664          34.000    24081339.703    98609060.638       -2983.332          36.000  
G26  22043168.465   115837633.888        2933.603          40.000    22043164.726    90263076.533        2285.935          41.000  
G28  20559876.530   108042877.775        -139.441          47.000    20559864.638    84189208.767        -108.685          48.000  
C16  36619928.585   190689576.075        -446.375          48.000    36619915.378   147453222.392        -345.192          48.000  
C13  36471314.108   189915703.187       -1646.096          44.000    36471304.979   146854830.533       -1272.886          47.000  
C06  36095010.769   187956191.899        -352.777          46.000    36094992.244   145339576.076        -272.697          48.000  
C37  24191698.000   125972520.431        2053.033          43.000                                                                  
C20  26400288.501   137473235.846        2835.803          41.000                                                                  
C32  22180638.634   115500403.544         934.386          50.000                                                                  
G25  21078265.687   110767033.581       -2819.175          44.000    21078257.337    86311940.376       -2196.656          43.000  
> 2025 10 21 05 35 49.1590000  0 21                     
G03  24078585.335                        2608.262          35.000    24078582.515    98597773.280        2032.688          38.000  
G32  20271768.321   106528863.659        -697.682          50.000    20271758.835    83009461.956        -543.744          45.000  
G31  21267180.799   111759789.260        1402.314          46.000    21267170.185    87085505.759        1092.788          44.000  
G29  23706154.920   124576685.795        1812.256          41.000    23706149.114                        1412.232          34.000  
C23  21516896.194   112044122.673        -142.525          50.000                                                                  
C07  40478960.940                         846.826          34.000    40478984.093   162992094.511         654.884          41.000  
C08  37031731.540   192833943.319       -1975.830          42.000    37031715.293   149111370.961       -1528.043          48.000  
C25  22630639.494   117843676.767       -2565.459          48.000                                                                  
C33  26308298.144   136994205.384       -3673.866          38.000                                                                  
C09  37458618.444   195056856.135        -321.355          43.000    37458604.019   150830276.680        -248.525          48.000  
G10  22472822.569   118095479.696       -3759.475          41.000    22472820.613    92022440.940       -2929.576          41.000  
G12  24081378.147                       -3827.880          34.000    24081368.849    98609179.950       -2982.579          36.000  
G26  22043146.119   115837516.528        2934.341          40.000    22043142.410    90262985.086        2286.484          41.000  
G28  20559877.607   108042883.358        -139.081          47.000    20559865.686    84189213.113        -108.301          48.000  
C16  36619932.032   190689593.914        -445.602          48.000    36619918.827   147453236.183        -344.553          48.000  
C13  36471326.724   189915769.018       -1645.385          44.000    36471317.627   146854881.443       -1272.419          47.000  
C06  36095013.480   187956205.993        -352.015          46.000    36094994.958   145339586.979        -272.205          48.000  
C37  24191682.223   125972438.299        2053.694          43.000                                                                  
C20  26400266.717   137473122.408        2836.389          41.000                                                                  
C32  22180631.448   115500366.157         935.043          50.000                                                                  
G25  21078287.166   110767146.345       -2818.627          44.000    21078278.816    86312028.247       -2196.305          43.000  
> 2025 10 21 05 35 49.1990000  0 21                     
G03  24078565.473                        2608.843          35.000    24078562.677    98597692.043        2031.698          38.000  
G32  20271773.649   106528891.639        -698.676          50.000    20271764.150    83009483.756        -544.415          45.000  
G31  21267170.139   111759733.238        1401.469          46.000    21267159.514    87085462.110        1091.957          44.000  
G29  23706141.129   124576613.375        1811.419          41.000    23706135.347                        1410.979          34.000  
C23  21516897.307   112044128.443        -143.368          50.000                                                                  
C07  40478954.441                         846.050          34.000    40478977.613   162992068.379         653.943          41.000  
C08  37031746.742   192834022.440       -1976.982          42.000    37031730.465   149111432.133       -1528.648          48.000  
C25  22630659.229   117843779.458       -2566.448          48.000                                                                  
C33  26308326.354   136994352.401       -3674.718          38.000                                                                  
C09  37458620.939   195056869.054        -322.216          43.000    37458606.529   150830286.663        -249.011          48.000  
G10  22472851.206   118095630.154       -3760.545          41.000    22472849.235    92022558.178       -2930.294          41.000  
G12  24081407.326                       -3828.883          34.000    24081397.966    98609299.286       -2982.753          36.000  
G26  22043123.789   115837399.221        2933.578          40.000    22043120.087    90262893.680        2285.841          41.000  
G28  20559878.663   108042888.991        -140.112          47.000    20559866.753    84189217.497        -109.009          48.000  
C16  36619935.468   190689611.814        -446.589          48.000    36619922.256   147453250.029        -345.385          48.000  
C13  36471339.376   189915834.918       -1646.487          44.000    36471330.286   146854932.393       -1273.060          47.000  
C06  36095016.200   187956220.135        -352.679          46.000    36094997.679   145339597.918        -272.772          48.000  
C37  24191666.468   125972356.221        2052.843          43.000                                                                  
C20  26400244.941   137473009.028        2835.315          41.000                                                                  
C32  22180624.303   115500328.829         934.077          50.000                                                                  
G25  21078308.628   110767259.162       -2819.568          44.000    21078300.275    86312116.153       -2196.938          43.000  
> 2025 10 21 05 35 49.2390000  0 21                     
G03  24078545.648                        2607.643          35.000    24078542.822    98597610.785        2031.448          38.000  
G32  20271778.963   106528919.626        -699.421          50.000    20271769.485    83009505.564        -544.957          45.000  
G31  21267159.468   111759677.241        1400.455          46.000    21267148.859    87085418.476        1091.183          44.000  
G29  23706127.364   124576540.964        1810.724          41.000    23706121.579                        1410.700          34.000  
C23  21516898.434   112044134.235        -144.303          50.000                                                                  
C07  40478947.983                         845.388          34.000    40478971.141   162992042.248         653.360          41.000  
C08  37031761.953   192834101.570       -1977.822          42.000    37031745.652   149111493.319       -1529.314          48.000  
C25  22630678.948   117843882.155       -2567.152          48.000                                                                  
C33  26308354.605   136994499.419       -3675.230          38.000                                                                  
C09  37458623.451   195056881.996        -323.217          43.000    37458609.000   150830296.668        -249.758          48.000  
G10  22472879.853   118095780.615       -3761.243          41.000    22472877.883    92022675.417       -2930.805          41.000  
G12  24081436.534                       -3829.644          34.000    24081427.105    98609418.670       -2983.907          36.000  
G26  22043101.470   115837281.946        2932.450          40.000    22043097.784    90262802.297        2284.998          41.000  
G28  20559879.756   108042894.632        -140.863          47.000    20559867.825    84189221.895        -109.686          48.000  
C16  36619938.936   190689629.729        -447.480          48.000    36619925.692   147453263.881        -346.042          48.000  
C13  36471352.036   189915900.830       -1647.384          44.000    36471342.960   146854983.358       -1273.779          47.000  
C06  36095018.915   187956234.312        -353.768          46.000    36095000.375   145339608.879        -273.569          48.000  
C37  24191650.727   125972274.165        2051.907          43.000                                                                  
C20  26400223.143   137472895.651        2834.589          41.000                                                                  
C32  22180617.125   115500291.509         933.338          50.000                                                                  
G25  21078330.102   110767372.008       -2820.638          44.000    21078321.754    86312204.080       -2197.750          43.000  
> 2025 10 21 05 35 49.2790000  0 21                     
G03  24078525.793                        2606.469          35.000    24078522.985    98597529.525        2031.340          38.000  
G32  20271784.329   106528947.627        -700.041          50.000    20271774.812    83009527.382        -545.455          45.000  
G31  21267148.817   111759621.234        1400.032          46.000    21267138.223    87085374.833        1090.924          44.000  
G29  23706113.598   124576468.559        1810.222          41.000    23706107.774                        1411.041          34.000  
C23  21516899.529   112044140.028        -144.853          50.000                                                                  
C07  40478941.487                         845.033          34.000    40478964.628   162992016.120         653.054          41.000  
C08  37031777.138   192834180.712       -1978.520          42.000    37031760.864   149111554.512       -1529.805          48.000  
C25  22630698.663   117843984.862       -2567.710          48.000                                                                  
C33  26308382.851   136994646.449       -3675.728          38.000                                                                  
C09  37458625.933   195056894.936        -323.673          43.000    37458611.485   150830306.682        -250.328          48.000  
G10  22472908.492   118095931.093       -3761.932          41.000    22472906.516    92022792.667       -2931.262          41.000  
G12  24081465.710                       -3830.009          34.000    24081456.250    98609538.072       -2984.873          36.000  
G26  22043079.139   115837164.656        2932.091          40.000    22043075.477    90262710.906        2284.662          41.000  
G28  20559880.851   108042900.277        -141.260          47.000    20559868.934    84189226.291        -110.010          48.000  
C16  36619942.353   190689647.647        -448.013          48.000    36619929.105   147453277.734        -346.385          48.000  
C13  36471364.681   189915966.734       -1647.743          44.000    36471355.634   146855034.326       -1274.222          47.000  
C06  36095021.630   187956248.485        -354.330          46.000    36095003.088   145339619.836        -273.949          48.000  
C37  24191634.965   125972192.102        2051.511          43.000                                                                  
C20  26400201.360   137472782.275        2834.186          41.000                                                                  
C32  22180609.952   115500254.199         932.760          50.000                                                                  
G25  21078351.569   110767484.850       -2821.208          44.000    21078343.234    86312292.010       -2198.275          43.000  
> 2025 10 21 05 35 49.3190000  0 21                     
G03  24078505.976                        2605.017          35.000    24078503.154    98597448.327        2030.195          38.000  
G32  20271789.667   106528975.675        -701.233          50.000    20271780.156    83009549.242        -546.488          45.000  
G31  21267138.172   111759565.295        1398.597          46.000    21267127.590    87085331.235        1089.963          44.000  
G29  23706099.826   124576396.201        1809.083          41.000    23706094.004                        1410.031          34.000  
C23  21516900.632   112044145.872        -146.072          50.000                                                                  
C07  40478935.017                         843.330          34.000    40478958.132   162991990.020         652.381          41.000  
C08  37031792.346   192834259.899       -1979.708          42.000    37031776.066   149111615.743       -1530.753          48.000  
C25  22630718.397   117844087.620       -2568.933          48.000                                                                  
C33  26308411.120   136994793.553       -3677.415          38.000                                                                  
C09  37458628.431   195056907.932        -324.897          43.000    37458613.975   150830316.732        -251.248          48.000  
G10  22472937.133   118096081.622       -3763.219          41.000    22472935.157    92022909.964       -2932.336          41.000  
G12  24081494.904                       -3831.169          34.000    24081485.427    98609657.488       -2985.664          36.000  
G26  22043056.812   115837047.433        2930.676          40.000    22043053.190    90262619.550        2283.873          41.000  
G28  20559881.961   108042905.980        -142.596          47.000    20559870.037    84189230.738        -111.115          48.000  
C16  36619945.793   190689665.610        -449.095          48.000    36619932.566   147453291.617        -347.109          48.000  
C13  36471377.353   189916032.693       -1648.900          44.000    36471368.308   146855085.335       -1275.185          47.000  
C06  36095024.344   187956262.696        -355.356          46.000    36095005.817   145339630.834        -274.895          48.000  
C37  24191619.247   125972110.097        2050.269          43.000                                                                  
C20  26400179.606   137472668.969        2832.739          41.000                                                                  
C32  22180602.780   115500216.945         931.410          50.000                                                                  
G25  21078373.067   110767597.731       -2822.153          44.000    21078364.699    86312379.979       -2199.221          43.000  
> 2025 10 21 05 35 49.3590000  0 21                     
G03  24078486.157                        2603.280          35.000    24078483.348    98597367.186        2028.615          38.000  
G32  20271795.004   106529003.812        -703.427          50.000    20271785.515    83009571.164        -548.097          45.000  
G31  21267127.527   111759509.425        1396.719          46.000    21267116.984    87085287.704        1088.357          44.000  
G29  23706086.065   124576323.941        1806.818          41.000    23706080.251                        1408.228          34.000  
C23  21516901.794   112044151.798        -148.062          50.000                                                                  
C07  40478928.574                         841.144          34.000    40478951.657   162991963.993         650.734          41.000  
C08  37031807.565   192834339.164       -1981.639          42.000    37031791.298   149111677.041       -1532.419          48.000  
C25  22630738.153   117844190.460       -2570.993          48.000                                                                  
C33  26308439.368   136994940.722       -3679.472          38.000                                                                  
C09  37458630.937   195056921.014        -327.034          43.000    37458616.469   150830326.845        -252.865          48.000  
G10  22472965.798   118096232.234       -3765.303          41.000    22472963.809    92023027.316       -2933.791          41.000  
G12  24081524.077                       -3832.909          34.000    24081514.620    98609776.938       -2986.539          36.000  
G26  22043034.511   115836930.284        2928.674          40.000    22043030.883    90262528.276        2282.024          41.000  
G28  20559883.056   108042911.768        -144.751          47.000    20559871.155    84189235.249        -112.830          48.000  
C16  36619949.252   190689683.656        -451.083          48.000    36619936.044   147453305.579        -348.863          48.000  
C13  36471390.029   189916098.743       -1651.086          44.000    36471380.967   146855136.407       -1276.762          47.000  
C06  36095027.113   187956277.017        -357.731          46.000    36095008.601   145339641.899        -276.521          48.000  
C37  24191603.504   125972028.176        2048.184          43.000                                                                  
C20  26400157.860   137472555.736        2830.676          41.000                                                                  
C32  22180595.614   115500179.774         929.306          50.000                                                                  
G25  21078394.569   110767710.711       -2824.341          44.000    21078386.193    86312468.017       -2200.912          43.000  
> 2025 10 21 05 35 49.3990000  0 21                     
G03  24078466.370                        2601.143          35.000    24078463.559    98597286.127        2026.548          38.000  
G32  20271800.409   106529032.002        -705.195          50.000    20271790.905    83009593.134        -549.560          45.000  
G31  21267116.923   111759453.641        1394.467          46.000    21267106.357    87085244.242        1086.494          43.000  
G29  23706072.326   124576251.773        1804.226          41.000    23706066.514                        1406.313          34.000  
C23  21516902.961   112044157.797        -150.182          50.000                                                                  
C07  40478922.136                         839.562          34.000    40478945.208   162991938.025         649.055          41.000  
C08  37031822.829   192834418.497       -1983.575          42.000    37031806.545   149111738.392       -1534.007          48.000  
C25  22630757.938   117844293.367       -2572.965          48.000                                                                  
C33  26308467.673   136995087.963       -3681.412          38.000                                                                  
C09  37458633.479   195056934.140        -328.598          43.000    37458619.000   150830337.002        -254.238          48.000  
G10  22472994.473   118096382.913       -3767.352          41.000    22472992.488    92023144.722       -2935.345          41.000  
G12  24081553.281                       -3835.211          34.000    24081543.820    98609896.476       -2988.347          36.000  
G26  22043012.239   115836813.210        2926.567          40.000    22043008.626    90262437.053        2280.348          41.000  
G28  20559884.170   108042917.608        -146.454          47.000    20559872.303    84189239.802        -114.197          48.000  
C16  36619952.763   190689701.775        -453.181          48.000    36619939.541   147453319.598        -350.627          48.000  
C13  36471402.735   189916164.869       -1653.312          44.000    36471393.659   146855187.535       -1278.404          47.000  
C06  36095029.902   187956291.398        -359.811          46.000    36095011.381   145339653.018        -278.148          48.000  
C37  24191587.779   125971946.322        2046.179          43.000                                                                  
C20  26400136.164   137472442.556        2829.071          41.000                                                                  
C32  22180588.520   115500142.669         927.330          50.000                                                                  
G25  21078416.082   110767823.770       -2826.608          44.000    21078407.721    86312556.109       -2202.522          43.000  
> 2025 10 21 05 35 49.4390000  0 21                     
G03  24078446.573                        2601.973          35.000    24078443.735    98597204.992        2027.034          38.000  
G32  20271805.774   106529060.082        -703.502          50.000    20271796.260    83009615.009        -548.092          45.000  
G31  21267106.298   111759397.725        1396.105          46.000    21267095.724    87085200.669        1087.897          43.000  
G29  23706058.577   124576179.459        1805.854          41.000    23706052.769                        1407.319          34.000  
C23  21516904.103   112044163.684        -148.809          50.000                                                                  
C07  40478915.661                         841.505          34.000    40478938.749   162991911.977         650.029          41.000  
C08  37031838.014   192834497.719       -1982.115          42.000    37031821.779   149111799.656       -1532.875          48.000  
C25  22630777.677   117844396.147       -2571.151          48.000                                                                  
C33  26308495.907                       -3679.115          38.000                                                                  
C09  37458635.966   195056947.154        -326.917          43.000    37458621.530   150830347.079        -253.133          48.000  
G10  22473023.104                       -3765.007          41.000    22473021.181    92023262.046       -2934.268          41.000  
G12  24081582.472                       -3833.585          34.000    24081572.996    98610015.927       -2987.405          36.000  
G26  22042989.959   115836696.027        2928.012          40.000    22042986.351    90262345.747        2281.342          41.000  
G28  20559885.261   108042923.324        -144.470          47.000    20559873.410    84189244.264        -112.762          48.000  
C16  36619956.222   190689719.773        -451.583          48.000    36619943.006   147453333.515        -349.333          48.000  
C13  36471415.418   189916230.859       -1651.575          44.000    36471406.355   146855238.569       -1277.199          47.000  
C06  36095032.646   187956305.652        -358.163          46.000    36095014.141   145339664.054        -277.189          48.000  
C37  24191572.020   125971864.383        2047.013          43.000                                                                  
C20  26400114.413   137472329.252        2831.079          41.000                                                                  
C32  22180581.336   115500105.440         929.005          50.000                                                                  
G25  21078437.587   110767936.698       -2825.074          44.000    21078429.217    86312644.114       -2201.549          43.000  
> 2025 10 21 05 35 49.4790000  0 21                     
G03  24078426.702                        2606.532          35.000    24078423.879                        2030.767          38.000  
G32  20271811.078                        -700.395          50.000    20271801.580    83009636.818        -545.928          45.000  
G31  21267095.622   111759341.695        1399.274          46.000    21267085.062    87085157.017        1090.190          43.000  
G29  23706044.781                        1809.557          41.000    23706038.971                        1409.640          34.000  
C23  21516905.228                        -145.542          50.000                                                                  
C07  40478909.144                         844.301          34.000    40478932.245   162991885.828         652.602          41.000  
C08  37031853.197                       -1978.639          42.000    37031836.976   149111860.823       -1530.346          48.000  
C25  22630797.385                       -2568.132          48.000                                                                  
C33  26308524.125                       -3676.354          38.000                                                                  
C09  37458638.439                        -324.210          43.000    37458624.028   150830357.060        -250.612          48.000  
G10  22473051.732                       -3762.463          41.000    22473049.818    92023379.283       -2931.877          41.000  
G12  24081611.608                       -3830.809          34.000    24081602.125    98610135.275       -2984.988          36.000  
G26  22042967.623                        2931.499          40.000    22042964.042    90262254.337        2283.990          41.000  
G28  20559886.319                        -141.614          47.000    20559874.504    84189248.638        -110.211          48.000  
C16  36619959.640                        -448.370          48.000    36619946.398   147453347.335        -346.674          48.000  
C13  36471428.044                       -1648.496          44.000    36471418.984   146855289.518       -1274.831          47.000  
C06  36095035.379                        -354.958          46.000    36095016.854   145339674.981        -274.567          48.000  
C37  24191556.273                        2050.972          43.000                                                                  
C20  26400092.633                        2834.015          41.000                                                                  
C32  22180574.198                         932.149          50.000                                                                  
G25  21078459.020                       -2821.505          44.000    21078450.689    86312732.010       -2198.799          43.000  
> 2025 10 21 05 35 49.5190000  0 21                     
G03  24078406.883                        2607.882          35.000    24078404.002                        2032.808          38.000  
G32  20271816.397   106529116.002        -698.532          50.000    20271806.899    83009658.594        -544.328          45.000  
G31  21267084.959   111759285.634        1401.478          46.000    21267074.376    87085113.318        1092.185          43.000  
G29  23706030.989                        1811.531          41.000    23706025.173                        1411.075          34.000  
C23  21516906.338                        -143.412          50.000                                                                  
C07  40478902.637                         846.458          34.000    40478925.729   162991859.628         654.820          41.000  
C08  37031868.338                       -1976.666          42.000    37031852.124   149111921.953       -1528.415          48.000  
C25  22630817.111                       -2566.272          48.000                                                                  
C33  26308552.333                       -3674.256          38.000                                                                  
C09  37458640.910                        -322.086          43.000    37458626.477   150830367.017        -248.933          48.000  
G10  22473080.339                       -3760.464          41.000    22473078.429    92023496.483       -2930.051          41.000  
G12  24081640.738                       -3828.225          34.000    24081631.263    98610254.603       -2983.321          36.000  
G26  22042945.297                        2933.633          40.000    22042941.688    90262162.894        2285.929          41.000  
G28  20559887.362   108042934.549        -139.709          47.000    20559875.575    84189252.998        -108.765          48.000  
C16  36619963.018                        -446.330          48.000    36619949.812   147453361.127        -344.833          48.000  
C13  36471440.666                       -1646.150          44.000    36471431.627   146855340.430       -1272.971          47.000  
C06  36095038.009                        -352.687          46.000    36095019.556   145339685.878        -272.642          48.000  
C37  24191540.470                        2053.120          43.000                                                                  
C20  26400070.853                        2835.608          41.000                                                                  
C32  22180567.008                         934.172          50.000                                                                  
G25  21078480.489                       -2819.583          44.000    21078472.125    86312819.884       -2196.994          43.000  
> 2025 10 21 05 35 49.5590000  0 21                     
G03  24078387.048                        2608.563          35.000    24078384.150                        2032.543          38.000  
G32  20271821.716   106529143.969        -698.232          50.000    20271812.213    83009680.380        -543.950          45.000  
G31  21267074.264   111759229.593        1401.985          46.000    21267063.714    87085069.650        1092.499          43.000  
G29  23706017.192                        1811.970          41.000    23706011.381                        1411.699          34.000  
C23  21516907.440                        -143.040          50.000                                                                  
C07  40478896.127                         846.424          34.000    40478919.260   162991833.464         655.006          41.000  
C08  37031883.526                       -1976.393          42.000    37031867.307   149111983.112       -1528.162          48.000  
C25  22630836.801                       -2565.873          48.000                                                                  
C33  26308580.561                       -3674.068          38.000                                                                  
C09  37458643.390                        -321.708          43.000    37458628.969   150830376.987        -248.547          48.000  
G10  22473108.976                       -3759.943          41.000    22473107.064    92023613.686       -2929.485          41.000  
G12  24081669.857                       -3828.590          34.000    24081660.404    98610373.950       -2982.970          36.000  
G26  22042922.984                        2933.564          40.000    22042919.356    90262071.479        2286.177          41.000  
G28  20559888.426   108042940.167        -139.508          47.000    20559876.637    84189257.373        -108.636          48.000  
C16  36619966.446                        -446.046          48.000    36619953.245   147453374.949        -344.672          48.000  
C13  36471453.295                       -1645.959          44.000    36471444.265   146855391.360       -1272.523          47.000  
C06  36095040.690                        -352.244          46.000    36095022.224   145339696.802        -272.307          48.000  
C37  24191524.692                        2053.517          43.000                                                                  
C20  26400049.076                        2835.846          41.000                                                                  
C32  22180559.817                         934.492          50.000                                                                  
G25  21078501.943   110768275.079       -2819.133          44.000    21078493.581    86312907.776       -2196.564          43.000  
> 2025 10 21 05 35 49.5990000  0 21                     
G03  24078367.180                        2607.094          35.000    24078364.300                        2031.749          38.000  
G32  20271827.039   106529171.942        -698.537          50.000    20271817.544    83009702.171        -544.156          45.000  
G31  21267063.603   111759173.574        1401.530          46.000    21267053.061    87085025.996        1092.129          43.000  
G29  23706003.417                        1811.484          41.000    23705997.592                        1412.159          34.000  
C23  21516908.565                        -143.375          50.000                                                                  
C07  40478889.624                         845.805          34.000    40478912.784   162991807.319         654.440          41.000  
C08  37031898.716                       -1976.799          42.000    37031882.484   149112044.290       -1528.664          48.000  
C25  22630856.514                       -2566.090          48.000                                                                  
C33  26308608.823                       -3674.429          38.000                                                                  
C09  37458645.897   195056998.758        -321.683          43.000    37458631.470   150830386.972        -248.866          48.000  
G10  22473137.617                       -3760.485          41.000    22473135.669    92023730.921       -2929.982          41.000  
G12  24081698.986                       -3828.479          34.000    24081689.554    98610493.327       -2983.543          36.000  
G26  22042900.657                        2933.448          40.000    22042897.038    90261980.078        2285.788          41.000  
G28  20559889.466   108042945.793        -139.886          47.000    20559877.708    84189261.763        -109.094          48.000  
C16  36619969.888                        -446.381          48.000    36619956.669   147453388.796        -345.287          48.000  
C13  36471465.936                       -1646.211          44.000    36471456.928   146855442.310       -1272.915          47.000  
C06  36095043.420                        -352.664          46.000    36095024.927   145339707.739        -272.628          48.000  
C37  24191508.912                        2053.125          43.000                                                                  
C20  26400027.308                        2835.456          41.000                                                                  
C32  22180552.647                         934.213          50.000                                                                  
G25  21078523.380                       -2819.736          44.000    21078515.048    86312995.695       -2197.092          43.000  
> 2025 10 21 05 35 49.6390000  0 21                     
G03  24078347.339                        2606.626          35.000    24078344.485                        2031.365          38.000  
G32  20271832.334   106529199.931        -699.176          50.000    20271822.887    83009723.981        -544.745          45.000  
G31  21267052.935   111759117.565        1400.864          46.000    21267042.416    87084982.365        1091.368          43.000  
G29  23705989.639                        1810.695          41.000    23705983.827                        1410.465          34.000  
C23  21516909.691   112044192.496        -144.047          50.000                                                                  
C07  40478883.140                         845.547          34.000    40478906.307   162991781.182         653.899          41.000  
C08  37031913.902                       -1977.541          42.000    37031897.713   149112105.478       -1529.275          48.000  
C25  22630876.253                       -2566.833          48.000                                                                  
C33  26308637.089                       -3675.536          38.000                                                                  
C09  37458648.404                        -322.523          43.000    37458633.962   150830396.984        -249.711          48.000  
G10  22473166.253                       -3761.091          41.000    22473164.295    92023848.156       -2930.475          41.000  
G12  24081728.147                       -3829.085          34.000    24081718.713    98610612.693       -2983.828          36.000  
G26  22042878.359                        2932.722          40.000    22042874.727    90261888.683        2285.325          41.000  
G28  20559890.517   108042951.430        -140.448          47.000    20559878.770    84189266.156        -109.509          48.000  
C16  36619973.338                        -446.996          48.000    36619960.109   147453402.645        -345.820          48.000  
C13  36471478.600                       -1647.023          44.000    36471469.613   146855493.273       -1273.529          47.000  
C06  36095046.169                        -353.424          46.000    36095027.664   145339718.691        -273.228          48.000  
C37  24191493.166                        2052.083          43.000                                                                  
C20  26400005.528                        2834.955          41.000                                                                  
C32  22180545.501   115499918.748         933.466          50.000                                                                  
G25  21078544.862   110768500.744       -2820.278          44.000    21078536.524    86313083.625       -2197.745          43.000  
> 2025 10 21 05 35 49.6790000  0 21                     
G03  24078327.513                        2606.771          35.000    24078324.643    98596717.372        2031.376          38.000  
G32  20271837.684   106529227.912        -699.422          50.000    20271828.216    83009745.784        -544.979          45.000  
G31  21267042.287   111759061.553        1400.491          46.000    21267031.749    87084938.718        1091.224          43.000  
G29  23705975.848                        1810.486          41.000    23705970.042                        1410.916          34.000  
C23  21516910.786   112044198.271        -144.225          50.000                                                                  
C07  40478876.636                         845.496          34.000    40478899.815   162991755.024         653.956          41.000  
C08  37031929.099                       -1977.770          42.000    37031912.923   149112166.655       -1529.386          48.000  
C25  22630895.939   117845012.210       -2567.054          48.000                                                                  
C33  26308665.339                       -3675.060          38.000                                                                  
C09  37458650.873   195057024.616        -322.926          43.000    37458636.433   150830406.971        -249.766          48.000  
G10  22473194.865   118097436.116       -3761.118          41.000    22473192.964    92023965.411       -2931.109          41.000  
G12  24081757.287                       -3829.189          34.000    24081747.860    98610732.051       -2983.844          36.000  
G26  22042856.059   115835992.171        2932.581          40.000    22042852.417    90261797.284        2285.100          41.000  
G28  20559891.607   108042957.054        -140.582          47.000    20559879.860    84189270.537        -109.528          48.000  
C16  36619976.752   190689827.071        -447.090          48.000    36619963.509   147453416.483        -345.947          48.000  
C13  36471491.269                       -1647.256          44.000    36471482.263   146855544.224       -1273.694          47.000  
C06  36095048.901   187956390.480        -353.552          46.000    36095030.403   145339729.628        -273.369          48.000  
C37  24191477.381   125971371.824        2051.898          43.000                                                                  
C20  26399983.748   137471648.870        2834.961          41.000                                                                  
C32  22180538.294   115499881.421         933.267          50.000                                                                  
G25  21078566.332   110768613.577       -2820.645          44.000    21078557.983    86313171.541       -2197.902          43.000  
> 2025 10 21 05 35 49.7190000  0 21                     
G03  24078307.683                        2607.041          35.000    24078304.782    98596636.115        2031.399          38.000  
G32  20271842.998   106529255.884        -699.360          50.000    20271833.537    83009767.581        -545.010          45.000  
G31  21267031.613   111759005.522        1400.609          46.000    21267021.082    87084895.055        1091.427          43.000  
G29  23705962.070   124575672.428        1810.917          41.000    23705956.250                        1411.069          34.000  
C23  21516911.909   112044204.028        -144.036          50.000                                                                  
C07  40478870.139                         845.711          34.000    40478893.319   162991728.877         653.754          41.000  
C08  37031944.309   192835051.437       -1977.684          42.000    37031928.113   149112227.820       -1529.249          48.000  
C25  22630915.670   117845114.881       -2566.882          48.000                                                                  
C33  26308693.575                       -3675.023          38.000                                                                  
C09  37458653.335   195057037.521        -322.769          43.000    37458638.911   150830416.948        -249.579          48.000  
G10  22473223.496   118097586.549       -3760.921          41.000    22473221.595    92024082.636       -2930.930          41.000  
G12  24081786.429                       -3829.120          34.000    24081777.008    98610851.370       -2983.225          36.000  
G26  22042833.731   115835874.857        2932.769          40.000    22042830.106    90261705.873        2285.210          41.000  
G28  20559892.654   108042962.668        -140.417          47.000    20559880.928    84189274.911        -109.406          48.000  
C16  36619980.177   190689844.950        -446.979          48.000    36619966.920   147453430.301        -345.640          48.000  
C13  36471503.934                       -1647.031          44.000    36471494.926   146855595.175       -1273.787          47.000  
C06  36095051.614   187956404.611        -353.339          46.000    36095033.116   145339740.566        -273.466          48.000  
C37  24191461.616   125971289.730        2052.136          43.000                                                                  
C20  26399961.971   137471535.466        2835.083          41.000                                                                  
C32  22180531.147   115499844.079         933.436          50.000                                                                  
G25  21078587.804   110768726.379       -2820.276          44.000    21078579.434    86313259.441       -2197.679          43.000  
> 2025 10 21 05 35 49.7590000  0 21                     
G03  24078287.839                        2607.321          35.000    24078284.916    98596554.860        2031.329          38.000  
G32  20271848.334   106529283.872        -699.668          50.000    20271838.865    83009789.393        -545.274          45.000  
G31  21267020.952   111758949.503        1400.436          46.000    21267010.419    87084851.401        1091.350          43.000  
G29  23705948.294   124575600.020        1810.402          41.000    23705942.475                        1410.791          34.000  
C23  21516913.003   112044209.814        -144.479          50.000                                                                  
C07  40478863.639                         845.537          34.000    40478886.843   162991702.732         653.546          41.000  
C08  37031959.488   192835130.555       -1977.968          42.000    37031943.310   149112289.000       -1529.489          48.000  
C25  22630935.385   117845217.574       -2567.222          48.000                                                                  
C33  26308721.814   136996411.131       -3675.270          38.000                                                                  
C09  37458655.816   195057050.446        -323.113          43.000    37458641.412   150830426.942        -249.816          48.000  
G10  22473252.119   118097737.007       -3761.337          41.000    22473250.233    92024199.888       -2931.323          41.000  
G12  24081815.579                       -3829.225          34.000    24081806.151    98610970.736       -2983.766          36.000  
G26  22042811.428   115835757.565        2932.459          40.000    22042807.767    90261614.480        2284.908          41.000  
G28  20559893.737   108042968.304        -140.826          47.000    20559882.012    84189279.304        -109.729          48.000  
C16  36619983.584   190689862.845        -447.281          48.000    36619970.372   147453444.136        -345.820          48.000  
C13  36471516.581   189916757.925       -1647.369          44.000    36471507.581   146855646.137       -1274.053          47.000  
C06  36095054.280   187956418.767        -353.743          46.000    36095035.810   145339751.512        -273.673          48.000  
C37  24191445.848   125971207.661        2051.816          43.000                                                                  
C20  26399940.197   137471422.083        2834.662          41.000                                                                  
C32  22180523.968   115499806.764         932.992          50.000                                                                  
G25  21078609.265   110768839.209       -2820.623          44.000    21078600.896    86313347.361       -2197.941          43.000  
> 2025 10 21 05 35 49.7990000  0 21                     
G03  24078268.018                        2605.571          34.000    24078265.087    98596473.690        2029.694          38.000  
G32  20271853.661   106529311.946        -701.560          50.000    20271844.188    83009811.266        -546.648          45.000  
G31  21267010.310   111758893.566        1398.829          46.000    21266999.763    87084807.825        1089.858          43.000  
G29  23705934.530   124575527.681        1808.786          41.000    23705928.698                        1409.297          34.000  
C23  21516914.125   112044215.678        -146.246          50.000                                                                  
C07  40478857.143                         843.115          34.000    40478880.367   162991676.645         652.355          41.000  
C08  37031974.683   192835209.754       -1979.672          42.000    37031958.490   149112350.239       -1530.770          48.000  
C25  22630955.129   117845320.347       -2569.000          48.000                                                                  
C33  26308750.044                       -3677.416          38.000                                                                  
C09  37458658.305   195057063.452        -324.882          43.000    37458643.901   150830436.996        -251.070          48.000  
G10  22473280.767   118097887.559       -3763.313          41.000    22473278.900    92024317.187       -2932.427          41.000  
G12  24081844.729                       -3831.589          34.000    24081835.325    98611090.178       -2985.582          36.000  
G26  22042789.114   115835640.360        2930.589          40.000    22042785.462    90261523.147        2283.619          41.000  
G28  20559894.812   108042974.029        -142.810          47.000    20559883.108    84189283.769        -111.383          48.000  
C16  36619987.080   190689880.821        -449.028          48.000    36619973.842   147453458.030        -347.038          48.000  
C13  36471529.249                       -1649.085          44.000    36471520.249   146855697.146       -1275.120          47.000  
C06  36095056.989   187956432.994        -355.314          46.000    36095038.539   145339762.510        -274.756          48.000  
C37  24191430.111   125971125.657        2050.389          43.000                                                                  
C20  26399918.447   137471308.795        2832.501          41.000                                                                  
C32  22180516.816   115499769.526         931.264          50.000                                                                  
G25  21078630.756   110768952.113       -2822.238          44.000    21078622.371    86313435.342       -2199.244          43.000  
> 2025 10 21 05 35 49.8390000  0 21                     
G03  24078248.241                        2601.278          35.000    24078245.294    98596392.571        2028.004          38.000  
G32  20271859.003   106529340.189        -705.639          50.000    20271849.549    83009833.262        -549.613          45.000  
G31  21266999.673   111758837.797        1395.000          46.000    21266989.144    87084764.354        1087.173          43.000  
G29  23705920.796                        1805.094          41.000    23705914.985                        1405.844          34.000  
C23  21516915.312   112044221.703        -150.000          50.000                                                                  
C07  40478850.705                         839.693          34.000    40478873.914   162991650.685         649.359          41.000  
C08  37031989.921                       -1983.839          42.000    37031973.759   149112411.601       -1533.605          48.000  
C25  22630974.937                       -2572.912          48.000                                                                  
C33  26308778.349                       -3680.908          38.000                                                                  
C09  37458660.859                        -328.647          43.000    37458646.431   150830447.163        -253.844          48.000  
G10  22473309.431                       -3767.063          41.000    22473307.559    92024434.613       -2935.347          41.000  
G12  24081873.907                       -3834.922          34.000    24081864.530    98611209.706       -2987.968          36.000  
G26  22042766.825                        2926.526          40.000    22042763.182    90261431.933        2280.781          41.000  
G28  20559895.900   108042979.910        -146.722          47.000    20559884.208    84189288.345        -114.246          48.000  
C16  36619990.607   190689898.953        -452.746          48.000    36619977.365   147453472.055        -350.056          48.000  
C13  36471541.977                       -1652.653          44.000    36471532.966   146855748.273       -1277.756          47.000  
C06  36095059.785                        -359.266          46.000    36095041.282   145339773.625        -277.429          48.000  
C37  24191414.409   125971043.816        2046.766          43.000                                                                  
C20  26399896.742                        2828.680          41.000                                                                  
C32  22180509.756   115499732.448         927.463          50.000                                                                  
G25  21078652.255   110769065.198       -2826.304          44.000    21078643.872    86313523.445       -2202.161          43.000  
> 2025 10 21 05 35 49.8790000  0 21                     
G03  24078228.490                        2598.115          34.000    24078225.546    98596311.606        2024.675          38.000  
G32  20271864.395   106529368.491        -708.347          50.000    20271854.946    83009855.325        -552.025          45.000  
G31  21266989.093   111758782.127        1391.582          46.000    21266978.550    87084720.980        1084.238          43.000  
G29  23705907.071                        1801.638          41.000    23705901.303                        1403.963          34.000  
C23  21516916.499   112044227.828        -153.383          50.000                                                                  
C07  40478844.306                         837.082          34.000    40478867.474   162991624.808         646.642          41.000  
C08  37032005.191                       -1986.987          42.000    37031988.981   149112473.041       -1536.273          48.000  
C25  22630994.748   117845526.302       -2575.973          48.000                                                                  
C33  26308806.664                       -3684.320          38.000                                                                  
C09  37458663.421                        -331.686          43.000    37458649.001   150830457.412        -256.442          48.000  
G10  22473338.131                       -3770.285          41.000    22473336.264    92024552.102       -2937.685          41.000  
G12  24081903.108                       -3838.537          34.000    24081893.748    98611329.364       -2991.180          36.000  
G26  22042744.590                        2923.500          40.000    22042740.947    90261340.821        2277.772          41.000  
G28  20559897.041   108042985.863        -149.561          47.000    20559885.347    84189292.987        -116.583          48.000  
C16  36619994.130                        -456.382          48.000    36619980.868   147453486.172        -352.989          48.000  
C13  36471554.709                       -1655.869          44.000    36471545.688   146855799.493       -1280.529          47.000  
C06  36095062.587                        -362.522          46.000    36095044.095   145339784.844        -280.442          48.000  
C37  24191398.722                        2043.091          43.000                                                                  
C20  26399875.068                        2825.842          41.000                                                                  
C32  22180502.634   115499695.465         924.197          50.000                                                                  
G25  21078673.793   110769178.383       -2829.834          44.000    21078665.421    86313611.646       -2205.092          43.000  
> 2025 10 21 05 35 49.9190000  0 21                     
G03  24078208.739                        2596.870          35.000    24078205.782    98596230.631        2023.350          38.000  
G32  20271869.773   106529396.800        -709.304          50.000    20271860.337    83009877.393        -552.925          45.000  
G31  21266978.502   111758726.443        1390.474          46.000    21266967.970    87084677.597        1083.234          43.000  
G29  23705893.360                        1800.444          41.000    23705887.568                        1402.958          34.000  
C23  21516917.649                        -154.071          50.000                                                                  
C07  40478837.912                         835.261          34.000    40478861.028   162991598.924         645.782          41.000  
C08  37032020.441                       -1987.451          42.000    37032004.252   149112534.474       -1537.121          48.000  
C25  22631014.501                       -2576.783          48.000                                                                  
C33  26308834.959                       -3684.679          38.000                                                                  
C09  37458665.957                        -332.545          43.000    37458651.549   150830467.655        -257.314          48.000  
G10  22473366.822                       -3771.067          41.000    22473364.954    92024669.599       -2938.626          41.000  
G12  24081932.333                       -3839.663          34.000    24081922.969    98611448.966       -2991.544          36.000  
G26  22042722.329                        2922.838          40.000    22042718.711    90261249.671        2277.261          41.000  
G28  20559898.202   108042991.819        -150.488          47.000    20559886.487    84189297.631        -117.358          48.000  
C16  36619997.591                        -457.093          48.000    36619984.373   147453500.259        -353.613          48.000  
C13  36471567.453                       -1657.114          44.000    36471558.403   146855850.709       -1281.583          47.000  
C06  36095065.402                        -363.367          46.000    36095046.882   145339796.047        -281.403          48.000  
C37  24191383.013                        2041.949          43.000                                                                  
C20  26399853.363                        2825.293          41.000                                                                  
C32  22180495.526                         923.317          50.000                                                                  
G25  21078695.334                       -2830.669          44.000    21078686.962    86313699.833       -2206.027          43.000  
> 2025 10 21 05 35 49.9590000  0 21                     
G03  24078188.963                        2596.749          35.000    24078186.007    98596149.649        2023.173          38.000  
G32  20271875.155   106529425.154        -710.119          50.000    20271865.754    83009899.492        -553.564          45.000  
G31  21266967.925   111758670.784        1389.929          46.000    21266957.401    87084634.232        1082.804          43.000  
G29  23705879.628                        1799.834          41.000    23705873.870                        1401.834          34.000  
C23  21516918.802                        -154.825          50.000                                                                  
C07  40478831.479                         834.390          34.000    40478854.603   162991573.034         645.882          41.000  
C08  37032035.707                       -1988.200          42.000    37032019.502   149112595.928       -1537.557          48.000  
C25  22631034.266   117845732.357       -2577.567          48.000                                                                  
C33  26308863.286                       -3685.977          38.000                                                                  
C09  37458668.474                        -333.253          43.000    37458654.109   150830477.924        -257.822          48.000  
G10  22473395.537                       -3771.918          41.000    22473393.682    92024787.129       -2939.285          41.000  
G12  24081961.567                       -3840.279          34.000    24081952.189    98611568.606       -2991.981          36.000  
G26  22042700.067                        2921.950          40.000    22042696.452    90261158.560        2276.689          41.000  
G28  20559899.372   108042997.815        -151.233          47.000    20559887.641    84189302.305        -117.889          48.000  
C16  36620001.083                        -457.537          48.000    36619987.848   147453514.368        -353.898          48.000  
C13  36471580.137                       -1657.788          44.000    36471571.087   146855901.939       -1282.001          47.000  
C06  36095068.179                        -363.873          46.000    36095049.673   145339807.259        -281.628          48.000  
C37  24191367.304                        2041.377          43.000                                                                  
C20  26399831.639                        2824.457          41.000                                                                  
C32  22180488.419                         922.720          50.000                                                                  
G25  21078716.869                       -2830.902          44.000    21078708.506    86313788.035       -2206.373          43.000  
> 2025 10 21 05 35 49.9990000  0 21                     
G03  24078169.225                        2595.480          35.000    24078166.247    98596068.745        2022.125          38.000  
G32  20271880.579   106529453.534        -710.400          50.000    20271871.157    83009921.602        -553.583          45.000  
G31  21266957.358   111758615.176        1389.312          46.000    21266946.831    87084590.909        1082.318          43.000  
G29  23705865.912                        1799.175          41.000    23705860.164                        1402.338          34.000  
C23  21516919.999   112044246.244        -155.486          50.000                                                                  
C07  40478825.063                         834.581          34.000    40478848.173   162991547.196         645.435          41.000  
C08  37032050.951                       -1988.788          42.000    37032034.792   149112657.404       -1537.703          48.000  
C25  22631054.050   117845835.433       -2577.855          48.000                                                                  
C33  26308891.600                       -3686.490          38.000                                                                  
C09  37458671.050                        -333.925          43.000    37458656.649   150830488.220        -258.130          48.000  
G10  22473424.279                       -3772.296          41.000    22473422.394    92024904.684       -2939.668          41.000  
G12  24081990.787                       -3840.100          34.000    24081981.406    98611688.297       -2992.773          36.000  
G26  22042677.835                        2921.368          40.000    22042674.208    90261067.466        2276.543          41.000  
G28  20559900.536   108043003.842        -151.569          47.000    20559888.807    84189306.997        -118.036          48.000  
C16  36620004.602                        -458.093          48.000    36619991.380   147453528.506        -354.171          48.000  
C13  36471592.874                       -1658.302          44.000    36471583.836   146855953.204       -1282.396          47.000  
C06  36095070.978                        -364.796          46.000    36095052.470   145339818.510        -282.019          48.000  
C37  24191351.601                        2040.939          43.000                                                                  
C20  26399809.960                        2824.219          41.000                                                                  
C32  22180481.313                         922.198          50.000                                                                  
G25  21078738.418   110769517.953       -2831.875          44.000    21078730.071    86313876.258       -2206.495          43.000  
> 2025 10 21 05 35 50.0390000  0 21                     
G03  24078149.415                        2599.070          35.000    24078146.463                        2025.753          38.000  
G32  20271885.946                        -705.871          50.000    20271876.499    83009943.542        -549.931          45.000  
G31  21266946.727                        1393.218          46.000    21266936.223                        1085.892          43.000  
G29  23705852.171                        1802.890          41.000    23705846.441                        1405.563          34.000  
C23  21516921.156                        -151.579          50.000                                                                  
C07  40478818.603                         838.909          34.000    40478841.700                         648.854          41.000  
C08  37032066.168                       -1984.474          42.000    37032050.011   149112718.723       -1534.481          48.000  
C25  22631073.806                       -2573.492          47.000                                                                  
C33  26308919.870                       -3681.492          38.000                                                                  
C09  37458673.611                        -329.534          43.000    37458659.127   150830498.344        -254.653          48.000  
G10  22473452.933                       -3768.002          41.000    22473451.076                       -2935.979          41.000  
G12  24082019.972                       -3836.350          34.000    24082010.607                       -2989.762          36.000  
G26  22042655.527                        2925.673          40.000    22042651.929                        2279.981          41.000  
G28  20559901.636                        -146.954          47.000    20559889.901    84189311.513        -114.319          48.000  
C16  36620008.093                        -454.008          48.000    36619994.865   147453542.490        -351.085          48.000  
C13  36471605.582                       -1654.224          44.000    36471596.540   146856004.301       -1279.113          47.000  
C06  36095073.700                        -360.997          46.000    36095055.204   145339829.600        -278.912          48.000  
C37  24191335.899                        2044.934          43.000                                                                  
C20  26399788.196                        2828.693          41.000                                                                  
C32  22180474.193                         926.318          50.000                                                                  
G25  21078759.914                       -2827.956          44.000    21078751.605    86313964.333       -2203.492          43.000  
> 2025 10 21 05 35 50.0790000  0 21                     
G03  24078129.528                        2606.212          35.000    24078126.581                        2030.894          38.000  
G32  20271891.264                        -699.882          50.000    20271881.775                        -545.265          45.000  
G31  21266936.039                        1400.011          46.000    21266925.526                        1091.065          43.000  
G29  23705838.355                        1809.774          41.000    23705832.615                        1410.618          34.000  
C23  21516922.238                        -144.887          50.000                                                                  
C07  40478812.068                         845.379          34.000    40478835.168                         654.028          41.000  
C08  37032081.317                       -1977.893          42.000    37032065.173                       -1529.687          48.000  
C25  22631093.508                       -2567.435          47.000                                                                  
C33  26308948.088                       -3675.503          38.000                                                                  
C09  37458676.047                        -323.203          43.000    37458661.565                        -249.918          48.000  
G10  22473481.537                       -3761.864          41.000    22473479.683                       -2931.149          41.000  
G12  24082049.094                       -3829.661          34.000    24082039.707                       -2984.496          36.000  
G26  22042633.167                        2932.200          40.000    22042629.603                        2284.897          41.000  
G28  20559902.662                        -140.863          47.000    20559890.913                        -109.930          48.000  
C16  36620011.527                        -447.531          48.000    36619998.259                        -345.803          48.000  
C13  36471618.202                       -1647.607          44.000    36471609.162                       -1273.966          47.000  
C06  36095076.377                        -354.098          46.000    36095057.870                        -273.885          48.000  
C37  24191320.127                        2051.567          43.000                                                                  
C20  26399766.372                        2834.473          41.000                                                                  
C32  22180467.008                         932.729          50.000                                                                  
G25  21078781.353                       -2821.371          44.000    21078773.044                       -2197.827          43.000  
> 2025 10 21 05 35 50.1190000  0 21                     
G03  24078109.641                        2609.500          35.000    24078106.733                        2032.816          38.000  
G32  20271896.575                        -697.625          50.000    20271887.101                        -543.699          45.000  
G31  21266925.382                        1402.430          46.000    21266914.837                        1092.766          43.000  
G29  23705824.561                        1812.653          41.000    23705818.820                        1412.232          34.000  
C23  21516923.323                        -142.299          50.000                                                                  
C07  40478805.565                         847.529          34.000    40478828.651                         655.397          41.000  
C08  37032096.503                       -1975.741          42.000    37032080.367                       -1527.977          48.000  
C25  22631113.220                       -2565.262          47.000                                                                  
C33  26308976.303                       -3673.352          38.000                                                                  
C09  37458678.503                        -320.773          43.000    37458664.041                        -248.203          48.000  
G10  22473510.154                       -3759.402          41.000    22473508.301                       -2929.443          41.000  
G12  24082078.239                       -3827.460          34.000    24082068.832                       -2982.173          36.000  
G26  22042610.821                        2934.366          40.000    22042607.263                        2286.352          41.000  
G28  20559903.728                        -138.867          47.000    20559891.964                        -108.270          48.000  
C16  36620014.925                        -445.156          48.000    36620001.649                        -344.127          48.000  
C13  36471630.824                       -1645.244          44.000    36471621.795                       -1272.142          47.000  
C06  36095079.035                        -351.318          46.000    36095060.579                        -271.913          48.000  
C37  24191304.333                        2054.005          43.000                                                                  
C20  26399744.574                        2836.859          41.000                                                                  
C32  22180459.811                         935.151          50.000                                                                  
G25  21078802.808                       -2818.641          44.000    21078794.480                       -2196.211          43.000  
> 2025 10 21 05 35 50.1590000  0 21                     
G03  24078089.775                        2609.393          35.000    24078086.891                        2033.867          38.000  
G32  20271901.897                        -697.037          50.000    20271892.399                        -543.171          45.000  
G31  21266914.714                        1403.335          46.000    21266904.174                        1093.547          43.000  
G29  23705810.784                        1813.446          41.000    23705805.015                        1412.982          34.000  
C23  21516924.460                        -141.576          50.000                                                                  
C07  40478799.023                         848.389          34.000    40478822.139                         655.806          41.000  
C08  37032111.686                       -1974.981          42.000    37032095.557                       -1527.222          48.000  
C25  22631132.962                       -2564.438          47.000                                                                  
C33  26309004.539                       -3672.782          38.000                                                                  
C09  37458680.994                        -320.376          43.000    37458666.527                        -247.513          48.000  
G10  22473538.773                       -3758.572          41.000    22473536.927                       -2928.906          41.000  
G12  24082107.381                       -3826.512          34.000    24082097.960                       -2981.752          36.000  
G26  22042588.484                        2935.133          40.000    22042584.950                        2286.828          41.000  
G28  20559904.761                        -138.080          47.000    20559893.017                        -107.721          48.000  
C16  36620018.343                        -444.410          48.000    36620005.061                        -343.692          48.000  
C13  36471643.486                       -1644.467          44.000    36471634.419                       -1271.639          47.000  
C06  36095081.742                        -350.706          46.000    36095063.299                        -271.104          48.000  
C37  24191288.573                        2054.623          43.000                                                                  
C20  26399722.784                        2837.451          41.000                                                                  
C32  22180452.677                         935.768          50.000                                                                  
G25  21078824.257                       -2817.776          44.000    21078815.924                       -2195.869          43.000  
> 2025 10 21 05 35 50.1990000  0 21                     
G03  24078069.992                        2608.898          35.000    24078067.040                        2033.002          38.000  
G32  20271907.194                        -697.782          50.000    20271897.710                        -543.667          45.000  
G31  21266904.017                        1402.429          46.000    21266893.494                        1092.964          43.000  
G29  23705797.008                        1812.697          41.000    23705791.223                        1412.847          34.000  
C23  21516925.618                        -142.436          50.000                                                                  
C07  40478792.544                         847.139          34.000    40478815.635                         655.090          41.000  
C08  37032126.895                       -1975.688          42.000    37032110.731                       -1527.579          48.000  
C25  22631152.730                       -2565.130          47.000                                                                  
C33  26309032.786                       -3673.534          38.000                                                                  
C09  37458683.502                        -320.721          43.000    37458668.993                        -248.043          48.000  
G10  22473567.381                       -3759.192          41.000    22473565.544                       -2929.191          41.000  
G12  24082136.523                       -3827.065          34.000    24082127.127                       -2982.113          36.000  
G26  22042566.144                        2934.573          40.000    22042562.626                        2286.758          41.000  
G28  20559905.815                        -138.873          47.000    20559894.076                        -108.148          48.000  
C16  36620021.758                        -445.130          48.000    36620008.508                        -344.454          48.000  
C13  36471656.173                       -1645.184          44.000    36471647.074                       -1272.030          47.000  
C06  36095084.507                        -351.754          46.000    36095066.018                        -271.594          48.000  
C37  24191272.812                        2054.083          43.000                                                                  
C20  26399701.032                        2836.371          41.000                                                                  
C32  22180445.553                         935.045          50.000                                                                  
G25  21078845.707                       -2818.486          44.000    21078837.413                       -2196.337          43.000  
> 2025 10 21 05 35 50.2390000  0 21                     
G03  24078050.157                        2608.246          35.000    24078047.198                        2031.886          38.000  
G32  20271912.520                        -698.888          50.000    20271903.035                        -544.622          46.000  
G31  21266893.343                        1401.385          46.000    21266882.846                        1091.875          43.000  
G29  23705783.231                        1811.348          41.000    23705777.456                        1411.579          34.000  
C23  21516926.769                        -143.604          50.000                                                                  
C07  40478786.059                         845.812          34.000    40478809.138                         654.438          41.000  
C08  37032142.080                       -1977.012          42.000    37032125.920                       -1528.543          48.000  
C25  22631172.466                       -2566.219          47.000                                                                  
C33  26309061.031                       -3674.467          38.000                                                                  
C09  37458686.001                        -322.030          43.000    37458671.489                        -249.043          48.000  
G10  22473596.007                       -3760.232          41.000    22473594.186                       -2930.212          41.000  
G12  24082165.712                       -3828.746          34.000    24082156.275                       -2982.350          36.000  
G26  22042543.827                        2933.035          40.000    22042540.302                        2285.679          41.000  
G28  20559906.882                        -140.082          47.000    20559895.152                        -109.113          48.000  
C16  36620025.229                        -446.467          48.000    36620011.947                        -345.119          48.000  
C13  36471668.826                       -1646.206          44.000    36471659.727                       -1273.020          47.000  
C06  36095087.245                        -352.688          46.000    36095068.727                        -272.866          48.000  
C37  24191257.067                        2052.849          43.000                                                                  
C20  26399679.271                        2835.449          41.000                                                                  
C32  22180438.442                         933.896          50.000                                                                  
G25  21078867.163                       -2819.774          44.000    21078858.885                       -2197.321          43.000  
> 2025 10 21 05 35 50.2790000  0 21                     
G03  24078030.321                        2606.859          35.000    24078027.380                        2031.268          38.000  
G32  20271917.844                        -699.714          50.000    20271908.378                        -545.264          46.000  
G31  21266882.698                        1400.565          46.000    21266872.202                        1091.227          43.000  
G29  23705769.460                        1810.698          41.000    23705763.697                        1409.983          34.000  
C23  21516927.918                        -144.520          50.000                                                                  
C07  40478779.562                         845.504          34.000    40478802.650                         653.895          41.000  
C08  37032157.272                       -1977.838          42.000    37032141.125                       -1529.517          48.000  
C25  22631192.212                       -2567.084          47.000                                                                  
C33  26309089.285                       -3675.312          38.000                                                                  
C09  37458688.495                        -322.934          43.000    37458673.972                        -249.705          48.000  
G10  22473624.659                       -3761.072          41.000    22473622.837                       -2931.045          41.000  
G12  24082194.869                       -3829.397          34.000    24082185.453                       -2984.178          36.000  
G26  22042521.538                        2932.394          40.000    22042517.984                        2284.890          41.000  
G28  20559907.957                        -140.845          47.000    20559896.231                        -109.778          48.000  
C16  36620028.666                        -447.105          48.000    36620015.383                        -345.819          48.000  
C13  36471681.519                       -1647.285          44.000    36471672.420                       -1273.909          47.000  
C06  36095089.969                        -353.479          46.000    36095071.460                        -273.522          48.000  
C37  24191241.329                        2051.731          43.000                                                                  
C20  26399657.497                        2834.790          41.000                                                                  
C32  22180431.274                         932.967          50.000                                                                  
G25  21078888.638                       -2820.840          44.000    21078880.362                       -2198.170          43.000  
> 2025 10 21 05 35 50.3190000  0 21                     
G03  24078010.490                        2606.338          35.000    24078007.560                        2030.334          38.000  
G32  20271923.175                        -700.359          50.000    20271913.736                        -545.841          46.000  
G31  21266872.030                        1399.796          46.000    21266861.559                        1090.669          43.000  
G29  23705755.691                        1809.953          41.000    23705749.918                        1410.333          34.000  
C23  21516929.002                        -145.091          50.000                                                                  
C07  40478773.069                         844.960          34.000    40478796.159                         653.203          41.000  
C08  37032172.448                       -1978.329          42.000    37032156.294                       -1529.995          48.000  
C25  22631211.928                       -2567.793          47.000                                                                  
C33  26309117.526                       -3675.889          38.000                                                                  
C09  37458690.972                        -323.420          43.000    37458676.452                        -250.331          48.000  
G10  22473653.293                       -3762.136          41.000    22473651.482                       -2931.738          41.000  
G12  24082223.980                       -3829.857          34.000    24082214.612                       -2985.121          36.000  
G26  22042499.223                        2931.564          40.000    22042495.667                        2284.151          41.000  
G28  20559909.014                        -141.382          47.000    20559897.305                        -110.229          48.000  
C16  36620032.086                        -447.690          48.000    36620018.797                        -346.288          48.000  
C13  36471694.206                       -1647.921          44.000    36471685.089                       -1274.426          47.000  
C06  36095092.654                        -354.164          46.000    36095074.190                        -274.098          48.000  
C37  24191225.557                        2051.156          43.000                                                                  
C20  26399635.733                        2834.351          41.000                                                                  
C32  22180424.073                         932.326          50.000                                                                  
G25  21078910.126                       -2821.508          44.000    21078901.830                       -2198.566          43.000  
> 2025 10 21 05 35 50.3590000  0 21                     
G03  24077990.654                        2605.532          35.000    24077987.732                        2029.981          38.000  
G32  20271928.510                        -700.699          50.000    20271919.040    83010118.002        -545.936          46.000  
G31  21266861.375                        1399.433          46.000    21266850.899                        1090.417          43.000  
G29  23705741.933                        1809.260          41.000    23705736.129                        1410.202          34.000  
C23  21516930.086                        -145.443          50.000                                                                  
C07  40478766.595                         845.086          34.000    40478789.684                         652.974          41.000  
C08  37032187.640                       -1978.637          42.000    37032171.518   149113208.112       -1530.208          48.000  
C25  22631231.662                       -2568.164          47.000                                                                  
C33  26309145.765                       -3676.267          38.000                                                                  
C09  37458693.474                        -323.774          43.000    37458678.980   150830578.228        -250.405          48.000  
G10  22473681.937                       -3762.520          41.000    22473680.099                       -2931.678          41.000  
G12  24082253.124                       -3830.366          34.000    24082243.765                       -2984.907          36.000  
G26  22042476.892                        2931.439          40.000    22042473.340                        2284.381          41.000  
G28  20559910.085                        -141.595          47.000    20559898.389    84189346.622        -110.498          48.000  
C16  36620035.535                        -448.115          48.000    36620022.229                        -346.584          48.000  
C13  36471706.870                       -1648.325          44.000    36471697.762   146856411.902       -1274.715          47.000  
C06  36095095.370                        -354.540          46.000    36095076.906   145339917.084        -274.358          48.000  
C37  24191209.825                        2051.017          43.000                                                                  
C20  26399613.969                        2834.039          41.000                                                                  
C32  22180416.924                         931.924          50.000                                                                  
G25  21078931.598                       -2821.824          44.000    21078923.307                       -2198.943          43.000  
