     3.04           OBSERVATION DATA    M: Mixed            RINEX VERSION / TYPE
RTKCONV 2.4.3 b34                       20251105 023559 UTC PGM / RUN BY / DATE 
format: u-blox UBX                                          COMMENT             
log: D:\GPdata\11_05\fingure_120_11_5_1.ubx                 COMMENT             
                                                            MARKER NAME         
                                                            MARKER NUMBER       
                                                            MARKER TYPE         
                                                            OBSERVER / AGENCY   
                                                            REC # / TYPE / VERS 
                                                            ANT # / TYPE        
        0.0000        0.0000        0.0000                  APPROX POSITION XYZ 
        0.0000        0.0000        0.0000                  ANTENNA: DELTA H/E/N
G    8 C1C L1C D1C S1C C2L L2L D2L S2L                      SYS / # / OBS TYPES 
R    8 C1C L1C D1C S1C C2C L2C D2C S2C                      SYS / # / OBS TYPES 
E    8 C1C L1C D1C S1C C7Q L7Q D7Q S7Q                      SYS / # / OBS TYPES 
J    8 C1C L1C D1C S1C C2L L2L D2L S2L                      SYS / # / OBS TYPES 
C    8 C2I L2I D2I S2I C7I L7I D7I S7I                      SYS / # / OBS TYPES 
  2025    11    05    02    29   15.3630000     GPS         TIME OF FIRST OBS   
  2025    11    05    02    29   42.8830000     GPS         TIME OF LAST OBS    
G L1C                                                       SYS / PHASE SHIFT   
G L2L  0.00000                                              SYS / PHASE SHIFT   
R L1C                                                       SYS / PHASE SHIFT   
R L2C                                                       SYS / PHASE SHIFT   
E L1C  0.00000                                              SYS / PHASE SHIFT   
E L7Q  0.00000                                              SYS / PHASE SHIFT   
J L1C                                                       SYS / PHASE SHIFT   
J L2L  0.00000                                              SYS / PHASE SHIFT   
C L2I                                                       SYS / PHASE SHIFT   
C L7I                                                       SYS / PHASE SHIFT   
  7 R05  1 R11  5 R12  6 R13 -2 R14 -7 R15  0 R27  3        GLONASS SLOT / FRQ #
 C1C    0.000 C1P    0.000 C2C    0.000 C2P    0.000        GLONASS COD/PHS/BIS 
                                                            END OF HEADER       
> 2025 11 05 02 29 15.3630000  0 39                     
G10  21419574.891   112560625.3971        522.214          50.000    21419573.905    87709574.7881        407.074          46.000  
G28  23658879.760   124328256.8141       2328.268          40.000    23658878.846    96879159.3921       1814.006          43.000  
G15  25888637.745   136045697.1861      -3324.150          34.000    25888646.608   106009666.9011      -2590.003          34.000  
G32  22685575.462   119213503.8101       1417.759          47.000    22685575.518    92893638.4341       1104.739          44.000  
G12  22698856.822   119283298.4861        271.057          46.000    22698854.632    92948016.3641        211.202          42.000  
G25  22140074.246   116346881.0031       2161.592          43.000    22140075.545    90659913.2681       1684.258          42.000  
C06  37544734.009   195505283.0821         97.281          44.000    37544722.937   151177042.5311         75.162          45.000  
C08  36827159.137   191768682.8051       -471.094          46.000    36827147.123   148287660.5661       -364.307          49.000  
C14  22704330.044   118227405.2191          1.894          47.000    22704319.821    91420888.4191          1.432          49.000  
C09  38801125.026   202047639.6341        197.890          42.000    38801117.817   156236022.4461        153.253          48.000  
C13  36792197.518   191586629.2681       -139.001          48.000    36792193.484   148146916.1291       -107.593          47.000  
C16  37733568.396   196488591.7921        -69.611          48.000    37733562.819   151937422.2961        -53.933          48.000  
R09  22790985.738   121702542.3531      -3738.553          32.000    22790987.332    94657575.0621      -2907.010          37.000  
R10  20391673.448   108699092.5881       -633.707          46.000                                                                  
R11  21687214.433   115889909.5251       3255.047          45.000    21687213.330    90136588.5161       2531.683          49.000  
R08  20727818.134   110996525.7131        689.544          49.000    20727812.589    86330609.5471        536.271          47.000  
R07  22139630.264   118515170.8481      -2170.513          48.000    22139627.447    92178457.1711      -1688.235          48.000  
R23  25030059.711   133893934.5761      -3806.534          34.000                                                                  
G23  21711606.811   114095262.0211      -2576.746          46.000    21711605.488    88905391.9581      -2007.947          47.000  
J02  38632307.029   203014143.5211        -41.174          40.000    38632309.034   158192846.9471        -32.145          41.000  
E06  24782902.761   130235032.3411       -767.275          47.000    24782905.896    99790492.0741       -588.016          50.000  
E09  24666407.776   129622847.5501        126.554          48.000    24666410.154    99321411.3821         97.086          51.000  
E31  25921051.735   136216047.2011       1643.039          44.000    25921056.136   104373354.5931       1258.936          47.000  
C33  23466907.034   122198345.9981       1342.142          49.000                                                                  
C24  22550719.661   117427517.2271        625.446          49.000                                                                  
R24  24330338.204                3      -1649.639          18.000    24330336.763                       -1285.599          31.000  
R01  23351521.093                1       2881.570          26.000                                                                  
E36  26436147.828   138922890.1441      -1797.285          43.000    26436153.090   106447430.3831      -1377.095          46.000  
E05  25973046.537   136489271.7631       1500.638          38.000    25973052.307   104582717.1661       1150.030          45.000  
E04  26056297.357   136926765.7001      -1556.415          41.000    26056300.048   104917921.2921      -1192.678          45.000  
J03  38293929.719   201235952.3301       -767.970          34.000    38293938.706   156807266.7531       -598.618          40.000  
G18  26259841.119   137996398.3641      -3537.386          28.000    26259860.368   107529700.4771      -2756.213          38.000  
E23  26766340.245   140658054.1771       -811.025          32.000    26766345.084   107776979.7851       -621.471          41.000  
G31  26342668.631   138431660.0081       3219.993          32.000    26342677.789                1       2510.310          30.000  
J07  38067641.891   200046809.4671       -262.125          39.000    38067640.500   155880624.9881       -204.362          45.000  
E11  26926569.111   141500072.3851      -3228.711          33.000    26926576.533   108422160.5151      -2474.077          40.000  
E34                                                                  27901906.766                         510.576          29.000  
G24                                                                  23596276.076                       -2732.880          27.000  
J04                                                                  39325544.336   161031529.6851        292.137          47.000  
> 2025 11 05 02 29 15.4030000  0 39                     
G10  21419570.923   112560604.503         522.233          50.000    21419569.913    87709558.512         406.932          46.000  
G28  23658862.036   124328163.689        2328.155          40.000    23658861.129    96879086.822        1814.132          43.000  
G15  25888663.050   136045830.136       -3323.962          34.000    25888671.912   106009770.464       -2589.321          34.000  
G32  22685564.640   119213447.096        1417.824          47.000    22685564.699    92893594.235        1104.875          44.000  
G12  22698854.762   119283287.641         271.051          46.000    22698852.561    92948007.905         211.337          42.000  
G25  22140057.782   116346794.546        2161.483          43.000    22140059.081    90659845.893        1684.375          42.000  
C06  37544733.261   195505279.190          97.253          44.000    37544722.209   151177039.523          75.151          45.000  
C08  36827162.754   191768701.645        -471.002          46.000    36827150.733   148287675.135        -364.246          49.000  
C14  22704330.016   118227405.135           2.014          47.000    22704319.812    91420888.350           1.603          49.000  
C09  38801123.503   202047631.705         198.090          42.000    38801116.277   156236016.319         153.177          48.000  
C13  36792198.611   191586634.825        -138.965          48.000    36792194.553   148146920.420        -107.397          47.000  
C16  37733568.937   196488594.573         -69.532          48.000    37733563.355   151937424.445         -53.815          48.000  
R09  22791013.743   121702691.876       -3738.321          32.000    22791015.335    94657691.353       -2907.159          37.000  
R10  20391678.239   108699117.938        -633.783          46.000                                                                  
R11  21687190.067   115889779.323        3255.066          45.000    21687188.962    90136487.245        2531.726          49.000  
R08  20727812.998   110996498.134         689.474          49.000    20727807.420    86330588.093         536.315          47.000  
R07  22139646.486   118515257.657       -2170.306          48.000    22139643.674    92178524.686       -1687.995          48.000  
R23  25030088.169   133894086.817       -3806.199          34.000                                                                  
G23  21711626.402   114095365.085       -2576.678          46.000    21711625.076    88905472.266       -2007.825          47.000  
J02  38632307.341   203014145.161         -41.083          40.000    38632309.328   158192848.215         -31.873          41.000  
E06  24782908.646   130235063.034        -767.348          47.000    24782911.738    99790515.591        -588.004          50.000  
E09  24666406.713   129622842.474         126.747          48.000    24666409.189    99321407.495          97.131          51.000  
E31  25921039.194   136215981.474        1643.079          44.000    25921043.659   104373304.227        1259.050          47.000  
C33  23466896.720   122198292.301        1342.297          49.000                                                                  
C24  22550714.868   117427492.208         625.458          49.000                                                                  
R24  24330350.034                3      -1649.639          18.000    24330349.125                       -1285.124          31.000  
R01  23351499.460                        2881.556          26.000                                                                  
E36  26436161.418   138922962.025       -1797.129          43.000    26436166.794   106447485.465       -1377.105          46.000  
E05  25973035.066   136489211.703        1501.184          38.000    25973040.930   104582671.172        1149.896          45.000  
E04  26056309.196   136926827.967       -1556.531          41.000    26056311.894   104917968.991       -1192.528          45.000  
J03  38293935.595   201235983.040        -767.722          34.000    38293944.532   156807290.690        -598.447          40.000  
G18  26259868.007   137996539.869       -3537.469          28.000    26259887.278   107529810.751       -2756.663          38.000  
E23  26766346.415   140658086.632        -811.275          32.000    26766351.243   107777004.630        -621.237          41.000  
G31  26342644.139   138431531.252        3219.151          32.000    26342653.316                        2508.900          30.000  
J07  38067643.887   200046819.952        -262.193          39.000    38067642.489   155880633.164        -204.448          45.000  
E11  26926593.686   141500201.545       -3228.845          33.000    26926601.080   108422259.472       -2473.979          40.000  
E34                                                                  27901901.708                         510.785          29.000  
G24                                                                  23596302.803                       -2732.848          27.000  
J04                                                                  39325541.495   161031517.995         292.181          47.000  
> 2025 11 05 02 29 15.4430000  0 39                     
G10  21419566.943   112560583.610         522.265          50.000    21419565.952    87709542.234         406.895          46.000  
G28  23658844.313   124328070.549        2328.373          40.000    23658843.412    96879014.256        1814.100          43.000  
G15  25888688.321   136045963.048       -3323.219          34.000    25888697.223   106009874.067       -2589.614          34.000  
G32  22685553.874   119213390.386        1417.797          47.000    22685553.921    92893550.055        1104.609          44.000  
G12  22698852.705   119283276.800         270.995          46.000    22698850.505    92947999.452         211.304          42.000  
G25  22140041.346   116346708.092        2161.362          43.000    22140042.612    90659778.541        1683.983          42.000  
C06  37544732.482   195505275.290          97.389          44.000    37544721.470   151177036.517          75.134          45.000  
C08  36827166.368   191768720.499        -471.246          46.000    36827154.338   148287689.708        -364.319          49.000  
C14  22704330.016   118227405.057           1.967          47.000    22704319.793    91420888.288           1.588          49.000  
C09  38801122.006   202047623.778         198.158          42.000    38801114.743   156236010.190         153.196          48.000  
C13  36792199.686   191586640.386        -139.001          48.000    36792195.629   148146924.723        -107.501          47.000  
C16  37733569.495   196488597.360         -69.635          48.000    37733563.885   151937426.599         -53.863          48.000  
R09  22791041.727   121702841.370       -3737.654          32.000    22791043.379    94657807.666       -2907.735          37.000  
R10  20391682.991   108699143.288        -633.807          46.000                                                                  
R11  21687165.680   115889649.123        3255.005          45.000    21687164.606    90136385.980        2531.628          49.000  
R08  20727807.856   110996470.553         689.487          49.000    20727802.280    86330566.650         536.126          47.000  
R07  22139662.694   118515344.470       -2170.272          48.000    22139659.897    92178592.211       -1688.071          48.000  
R23  25030116.636   133894239.055       -3806.032          34.000                                                                  
G23  21711646.038   114095468.156       -2576.776          46.000    21711644.677    88905552.579       -2007.855          47.000  
J02  38632307.643   203014146.805         -41.077          40.000    38632309.652   158192849.497         -31.998          41.000  
E06  24782914.488   130235093.730        -767.428          47.000    24782917.599    99790539.107        -587.968          50.000  
E09  24666405.735   129622837.402         126.800          48.000    24666408.250    99321403.615          97.056          51.000  
E31  25921026.683   136215915.751        1643.023          44.000    25921031.169   104373253.871        1258.945          47.000  
C33  23466886.433   122198238.609        1342.296          49.000                                                                  
C24  22550710.046   117427467.194         625.378          49.000                                                                  
R24  24330362.177                3      -1649.639          18.000    24330361.481                       -1284.953          31.000  
R01  23351477.954                        2881.335          26.000                                                                  
E36  26436175.109   138923033.909       -1797.093          43.000    26436180.493   106447540.556       -1377.229          46.000  
E05  25973023.628   136489151.665        1501.074          38.000    25973029.517   104582625.162        1150.057          45.000  
E04  26056321.000   136926890.228       -1556.543          41.000    26056323.725   104918016.701       -1192.661          45.000  
J03  38293941.447   201236013.779        -768.200          34.000    38293950.368   156807314.628        -598.422          40.000  
G18  26259894.896   137996681.362       -3537.416          28.000    26259914.207   107529921.023       -2756.897          38.000  
E23  26766352.578   140658119.041        -810.719          32.000    26766357.409   107777029.485        -621.290          41.000  
G31  26342619.606   138431402.414        3220.223          32.000    26342628.800                        2508.438          30.000  
J07  38067645.885   200046830.437        -262.197          39.000    38067644.486   155880641.338        -204.460          45.000  
E11  26926618.279   141500330.735       -3229.420          33.000    26926625.637   108422358.447       -2474.231          40.000  
E34                                                                  27901896.622                         510.896          29.000  
G24                                                                  23596329.566                       -2733.403          27.000  
J04                                                                  39325538.621   161031506.302         292.286          47.000  
> 2025 11 05 02 29 15.4830000  0 39                     
G10  21419562.928   112560562.717         522.283          50.000    21419561.966    87709525.950         407.000          46.000  
G28  23658826.602   124327977.423        2328.238          40.000    23658825.670    96878941.693        1814.017          43.000  
G15  25888713.599   136046095.962       -3322.859          34.000    25888722.512   106009977.649       -2589.494          35.000  
G32  22685543.089   119213333.681        1417.686          47.000    22685543.145    92893505.876        1104.438          44.000  
G12  22698850.638   119283265.961         270.914          46.000    22698848.441    92947991.015         211.005          42.000  
G25  22140024.921   116346621.662        2160.853          43.000    22140026.159    90659711.174        1684.038          42.000  
C06  37544731.730   195505271.413          97.048          44.000    37544720.726   151177033.508          75.167          45.000  
C08  36827169.984   191768739.350        -471.344          46.000    36827157.970   148287704.286        -364.429          49.000  
C14  22704329.976   118227404.984           1.850          47.000    22704319.784    91420888.232           1.455          49.000  
C09  38801120.483   202047615.858         198.012          42.000    38801113.217   156236004.067         153.077          48.000  
C13  36792200.744   191586645.954        -139.185          48.000    36792196.705   148146929.028        -107.605          47.000  
C16  37733569.998   196488600.153         -69.797          48.000    37733564.426   151937428.758         -53.960          48.000  
R09  22791069.700   121702990.842       -3736.932          32.000    22791071.414    94657923.968       -2907.767          37.000  
R10  20391687.759   108699168.652        -634.093          46.000                                                                  
R11  21687141.338   115889518.928        3254.883          45.000    21687140.248    90136284.714        2531.628          49.000  
R08  20727802.708   110996442.981         689.343          49.000    20727797.123    86330545.202         536.122          47.000  
R07  22139678.940   118515431.294       -2170.469          48.000    22139676.126    92178659.746       -1688.305          48.000  
R23  25030145.123   133894391.299       -3806.063          34.000                                                                  
G23  21711665.662   114095571.229       -2576.843          46.000    21711664.311    88905632.896       -2007.941          47.000  
J02  38632307.931   203014148.440         -40.998          40.000    38632309.976   158192850.778         -32.035          41.000  
E06  24782920.311   130235124.424        -767.411          47.000    24782923.453    99790562.623        -587.921          50.000  
E09  24666404.881   129622832.336         126.721          48.000    24666407.321    99321399.735          97.009          51.000  
E31  25921014.139   136215850.028        1643.033          44.000    25921018.632   104373203.510        1258.957          47.000  
C33  23466876.109   122198184.919        1342.252          49.000                                                                  
C24  22550705.223   117427442.189         625.164          49.000                                                                  
R24  24330374.202                3      -1649.639          18.000    24330373.857                       -1285.952          31.000  
R01  23351456.024                        2881.260          26.000                                                                  
E36  26436188.819   138923105.814       -1797.445          43.000    26436194.178   106447595.643       -1377.244          46.000  
E05  25973012.205   136489091.622        1501.090          38.000    25973018.066   104582579.161        1150.042          45.000  
E04  26056332.897   136926952.499       -1556.739          41.000    26056335.562   104918064.404       -1192.631          45.000  
J03  38293947.295   201236044.504        -768.135          34.000    38293956.204   156807338.570        -598.480          40.000  
G18  26259921.816   137996822.859       -3537.389          28.000    26259941.137   107530031.275       -2756.555          38.000  
E23  26766358.749   140658151.503        -811.286          32.000    26766363.592   107777054.350        -621.478          41.000  
G31  26342595.088   138431273.611        3220.220          32.000    26342604.267                        2508.991          30.000  
J07  38067647.887   200046840.951        -262.643          39.000    38067646.478   155880649.506        -204.308          45.000  
E11  26926642.834   141500459.873       -3228.837          33.000    26926650.220   108422457.418       -2474.218          40.000  
E34                                                                  27901891.556                         510.950          29.000  
G24                                                                  23596356.203                       -2733.593          27.000  
J04                                                                  39325535.752   161031494.613         292.261          47.000  
> 2025 11 05 02 29 15.5230000  0 39                     
G10  21419558.968   112560541.828         522.222          50.000    21419557.987    87709509.673         406.908          46.000  
G28  23658808.891   124327884.309        2327.928          40.000    23658807.957    96878869.121        1814.106          43.000  
G15  25888738.906   136046228.921       -3323.389          34.000    25888747.821   106010081.274       -2590.311          35.000  
G32  22685532.306   119213276.980        1417.552          47.000    22685532.344    92893461.683        1104.630          44.000  
G12  22698848.580   119283255.122         270.919          46.000    22698846.405    92947982.573         210.968          42.000  
G25  22140008.501   116346535.225        2160.760          43.000    22140009.724    90659643.823        1683.830          42.000  
C06  37544730.993   195505267.533          96.930          44.000    37544719.988   151177030.504          75.102          45.000  
C08  36827173.619   191768758.198        -471.332          46.000    36827161.587   148287718.861        -364.423          49.000  
C14  22704329.965   118227404.906           1.878          47.000    22704319.778    91420888.181           1.273          49.000  
C09  38801118.970   202047607.933         198.037          42.000    38801111.704   156235997.943         153.059          48.000  
C13  36792201.833   191586651.526        -139.331          48.000    36792197.780   148146933.331        -107.611          47.000  
C16  37733570.542   196488602.946         -69.871          48.000    37733564.960   151937430.917         -54.017          48.000  
R09  22791097.661   121703140.392       -3738.055          32.000    22791099.458    94658040.274       -2907.776          37.000  
R10  20391692.521   108699194.004        -633.986          46.000                                                                  
R11  21687116.947   115889388.732        3254.871          45.000    21687115.865    90136183.453        2531.525          49.000  
R08  20727797.548   110996415.407         689.308          49.000    20727791.962    86330523.757         536.091          47.000  
R07  22139695.175   118515518.128       -2170.764          48.000    22139692.352    92178727.281       -1688.416          48.000  
R23  25030173.600   133894543.548       -3806.160          34.000                                                                  
G23  21711685.248   114095674.304       -2576.929          46.000    21711683.932    88905713.214       -2008.014          47.000  
J02  38632308.238   203014150.102         -41.385          40.000    38632310.268   158192852.069         -32.244          41.000  
E06  24782926.175   130235155.119        -767.403          47.000    24782929.310    99790586.140        -587.928          50.000  
E09  24666403.963   129622827.273         126.625          48.000    24666406.366    99321395.854          96.985          51.000  
E31  25921001.634   136215784.303        1643.093          44.000    25921006.137   104373153.150        1258.954          47.000  
C33  23466865.783   122198131.236        1342.106          49.000                                                                  
C24  22550700.423   117427417.183         625.087          49.000                                                                  
R24  24330386.534                3      -1649.639          18.000    24330386.241                       -1285.547          31.000  
R01  23351434.312                        2881.091          26.000                                                                  
E36  26436202.482   138923177.705       -1797.400          43.000    26436207.835   106447650.730       -1377.242          46.000  
E05  25973000.786   136489031.587        1501.006          38.000    25973006.633   104582533.153        1150.135          45.000  
E04  26056344.769   136927014.764       -1556.674          41.000    26056347.442   104918112.121       -1192.823          45.000  
J03  38293953.159   201236075.234        -768.224          34.000    38293962.041   156807362.517        -598.629          40.000  
G18  26259948.716   137996964.365       -3537.520          28.000    26259968.073   107530141.546       -2756.682          38.000  
E23  26766364.920   140658183.948        -811.317          32.000    26766369.774   107777079.217        -621.648          41.000  
G31  26342570.544   138431144.803        3220.286          32.000    26342579.786                        2508.714          30.000  
J07  38067649.900   200046851.453        -262.659          39.000    38067648.478   155880657.674        -204.225          45.000  
E11  26926667.415   141500589.035       -3228.966          33.000    26926674.813   108422556.386       -2474.234          40.000  
E34                                                                  27901886.463                         510.717          29.000  
G24                                                                  23596382.791                       -2733.607          27.000  
J04                                                                  39325532.893   161031482.925         292.205          47.000  
> 2025 11 05 02 29 15.5630000  0 39                     
G10  21419555.009   112560520.946         522.056          50.000    21419554.017    87709493.406         406.711          46.000  
G28  23658791.155   124327791.182        2327.995          40.000    23658790.233    96878796.558        1814.057          43.000  
G15  25888764.211   136046361.888       -3323.999          34.000    25888773.140   106010184.876       -2590.331          34.000  
G32  22685521.532   119213220.272        1417.608          47.000    22685521.563    92893417.499        1104.610          44.000  
G12  22698846.522   119283244.287         270.844          46.000    22698844.346    92947974.135         210.883          42.000  
G25  22139992.046   116346448.776        2160.996          43.000    22139993.276    90659576.463        1683.859          42.000  
C06  37544730.266   195505263.649          96.942          44.000    37544719.237   151177027.507          74.912          45.000  
C08  36827177.266   191768777.043        -471.216          46.000    36827165.196   148287733.438        -364.471          49.000  
C14  22704329.970   118227404.834           1.789          47.000    22704319.766    91420888.126           1.253          49.000  
C09  38801117.459   202047600.013         197.969          42.000    38801110.188   156235991.819         153.048          48.000  
C13  36792202.921   191586657.097        -139.380          48.000    36792198.851   148146937.632        -107.574          47.000  
C16  37733571.102   196488605.735         -69.826          48.000    37733565.488   151937433.075         -54.034          48.000  
R09  22791125.709   121703289.934       -3738.610          32.000    22791127.466    94658156.560       -2907.353          37.000  
R10  20391697.268   108699219.364        -634.067          46.000                                                                  
R11  21687092.569   115889258.534        3254.865          45.000    21687091.526    90136082.191        2531.506          49.000  
R08  20727792.413   110996387.840         689.158          49.000    20727786.802    86330502.312         536.041          47.000  
R07  22139711.408   118515604.955       -2170.767          48.000    22139708.550    92178794.803       -1688.224          48.000  
R23  25030202.064   133894695.804       -3806.344          34.000                                                                  
G23  21711704.857   114095777.380       -2576.978          46.000    21711703.543    88905793.533       -2008.032          47.000  
J02  38632308.538   203014151.763         -41.608          40.000    38632310.586   158192853.353         -32.268          41.000  
E06  24782932.020   130235185.820        -767.503          47.000    24782935.157    99790609.663        -588.029          50.000  
E09  24666402.996   129622822.210         126.569          48.000    24666405.405    99321391.978          96.914          51.000  
E31  25920989.192   136215718.587        1642.920          44.000    25920993.628   104373102.797        1258.841          47.000  
C33  23466855.483   122198077.552        1342.065          49.000                                                                  
C24  22550695.658   117427392.173         625.144          49.000                                                                  
R24  24330398.646                3      -1649.639          18.000    24330398.601                       -1285.701          31.000  
R01  23351412.987                        2881.267          26.000                                                                  
E36  26436216.184   138923249.599       -1797.419          43.000    26436221.546   106447705.818       -1377.220          46.000  
E05  25972989.367   136488971.557        1500.824          38.000    25972995.222   104582487.151        1150.057          45.000  
E04  26056356.621   136927077.030       -1556.665          42.000    26056359.283   104918159.833       -1192.884          45.000  
J03  38293959.003   201236105.979        -768.536          34.000    38293967.895   156807386.467        -598.754          40.000  
G18  26259975.656                       -3537.731          28.000    26259994.990   107530251.818       -2756.832          38.000  
E23  26766371.084   140658216.397        -811.243          32.000    26766375.975   107777104.085        -621.745          41.000  
G31  26342546.018   138431016.015        3219.951          32.000    26342555.300                        2508.621          30.000  
J07  38067651.872   200046861.925        -262.137          39.000    38067650.467   155880665.850        -204.365          45.000  
E11  26926692.049   141500718.228       -3229.467          33.000    26926699.393   108422655.366       -2474.417          40.000  
E34                                                                  27901881.378                         510.791          29.000  
G24                                                                  23596409.233                       -2733.061          27.000  
J04                                                                  39325530.040   161031471.241         292.094          47.000  
> 2025 11 05 02 29 15.6030000  0 39                     
G10  21419551.030   112560500.067         521.939          50.000    21419550.045    87709477.133         406.724          46.000  
G28  23658773.436   124327698.074        2327.665          40.000    23658772.511    96878723.999        1813.937          43.000  
G15  25888789.511   136046494.837       -3323.961          34.000    25888798.436   106010288.482       -2590.347          34.000  
G32  22685510.740   119213163.573        1417.484          47.000    22685510.768    92893373.307        1104.720          44.000  
G12  22698844.476   119283233.455         270.735          46.000    22698842.282    92947965.695         210.895          42.000  
G25  22139975.581   116346362.330        2161.100          43.000    22139976.836    90659509.108        1683.823          42.000  
C06  37544729.503   195505259.771          96.854          44.000    37544718.479   151177024.508          74.859          45.000  
C08  36827180.850   191768795.902        -471.429          46.000    36827168.832   148287748.017        -364.502          49.000  
C14  22704329.928   118227404.773           1.543          47.000    22704319.757    91420888.070           1.312          49.000  
C09  38801115.938   202047592.100         197.813          42.000    38801108.671   156235985.693         153.093          48.000  
C13  36792203.982   191586662.662        -139.252          48.000    36792199.927   148146941.943        -107.739          47.000  
C16  37733571.653   196488608.522         -69.768          48.000    37733566.018   151937435.233         -54.019          48.000  
R09  22791153.685   121703439.464       -3738.639          32.000    22791155.447    94658272.855       -2907.313          37.000  
R10  20391702.007   108699244.733        -634.242          46.000                                                                  
R11  21687068.205   115889128.340        3254.828          45.000    21687067.168    90135980.928        2531.506          49.000  
R08  20727787.243   110996360.273         689.110          49.000    20727781.662    86330480.868         536.024          47.000  
R07  22139727.618   118515691.783       -2170.787          48.000    22139724.752    92178862.340       -1688.383          48.000  
R23  25030230.531   133894848.062       -3806.538          34.000                                                                  
G23  21711724.479   114095880.462       -2577.063          46.000    21711723.173    88905873.854       -2008.081          47.000  
J02  38632308.852   203014153.415         -41.521          40.000    38632310.887   158192854.648         -32.437          41.000  
E06  24782937.878   130235216.519        -767.545          47.000    24782941.004    99790633.191        -588.164          50.000  
E09  24666402.120   129622817.155         126.406          48.000    24666404.398    99321388.101          96.884          51.000  
E31  25920976.673   136215652.870        1642.888          44.000    25920981.118   104373052.444        1258.776          47.000  
C33  23466845.146   122198023.865        1342.098          49.000                                                                  
C24  22550690.877   117427367.165         625.132          49.000                                                                  
R24  24330410.704                3      -1649.639          17.000    24330410.968                       -1285.608          31.000  
R01  23351391.344                        2881.323          26.000                                                                  
E36  26436229.917   138923321.502       -1797.560          43.000    26436235.230   106447760.908       -1377.267          46.000  
E05  25972977.985   136488911.533        1500.614          38.000    25972983.789   104582441.155        1149.917          45.000  
E04  26056368.435   136927139.294       -1556.654          42.000    26056371.148   104918207.551       -1193.002          45.000  
J03  38293964.850   201236136.731        -768.778          34.000    38293973.744   156807410.405        -598.596          40.000  
G18  26260002.544                       -3537.866          28.000    26260021.947   107530362.094       -2756.908          38.000  
E23  26766377.258   140658248.896        -812.052          32.000    26766382.170   107777128.956        -621.809          41.000  
G31  26342521.519   138430887.204        3220.220          32.000    26342530.777                        2509.706          30.000  
J07  38067653.845   200046872.403        -261.971          39.000    38067652.483   155880674.037        -204.649          45.000  
E11  26926716.673   141500847.363       -3228.816          33.000    26926723.976   108422754.314       -2473.961          40.000  
E34                                                                  27901876.329                         510.281          29.000  
G24                                                                  23596435.771                       -2732.767          27.000  
J04                                                                  39325527.192   161031459.562         291.978          47.000  
> 2025 11 05 02 29 15.6430000  0 39                     
G10  21419547.050   112560479.191         521.842          50.000    21419546.056    87709460.866         406.632          46.000  
G28  23658755.712   124327604.950        2327.817          40.000    23658754.801    96878651.441        1813.876          43.000  
G15  25888814.845   136046627.799       -3324.030          34.000    25888823.754   106010392.068       -2589.933          34.000  
G32  22685499.927   119213106.871        1417.475          47.000    22685499.971    92893329.125        1104.606          44.000  
G12  22698842.430   119283222.625         270.688          46.000    22698840.239    92947957.254         210.978          42.000  
G25  22139959.131   116346275.884        2161.122          43.000    22139960.390    90659441.747        1683.873          42.000  
C06  37544728.787   195505255.890          96.894          44.000    37544717.734   151177021.501          74.989          45.000  
C08  36827184.460   191768814.761        -471.521          46.000    36827172.449   148287762.595        -364.484          49.000  
C14  22704329.944   118227404.707           1.520          47.000    22704319.740    91420888.021           1.227          49.000  
C09  38801114.404   202047584.185         197.797          42.000    38801107.153   156235979.574         152.979          48.000  
C13  36792205.048   191586668.237        -139.374          48.000    36792200.986   148146946.253        -107.806          47.000  
C16  37733572.182   196488611.316         -69.852          48.000    37733566.548   151937437.397         -54.123          48.000  
R09  22791181.699   121703589.005       -3738.735          32.000    22791183.457    94658389.162       -2907.608          37.000  
R10  20391706.772   108699270.092        -634.130          46.000                                                                  
R11  21687043.833   115888998.158        3254.602          45.000    21687042.817    90135879.676        2531.292          49.000  
R08  20727782.095   110996332.704         689.125          49.000    20727776.502    86330459.425         536.038          47.000  
R07  22139743.830   118515778.608       -2170.710          48.000    22139740.958    92178929.872       -1688.367          48.000  
R23  25030258.997   133895000.315       -3806.528          34.000                                                                  
G23  21711744.096   114095983.538       -2577.002          46.000    21711742.776    88905954.180       -2008.197          47.000  
J02  38632309.151   203014155.063         -41.333          40.000    38632311.168   158192855.933         -32.292          41.000  
E06  24782943.709   130235247.214        -767.468          47.000    24782946.849    99790656.716        -588.186          50.000  
E09  24666401.220   129622812.106         126.237          48.000    24666403.408    99321384.226          96.849          51.000  
E31  25920964.182   136215587.157        1642.792          44.000    25920968.609   104373002.089        1258.798          47.000  
C33  23466834.858   122197970.184        1342.010          49.000                                                                  
C24  22550686.069   117427342.164         625.030          49.000                                                                  
R24  24330422.903                3      -1649.639          17.000    24330423.336                       -1285.392          31.000  
R01  23351369.833                        2881.795          26.000                                                                  
E36  26436243.562   138923393.403       -1797.590          43.000    26436248.899   106447815.999       -1377.313          46.000  
E05  25972966.601   136488851.505        1500.570          38.000    25972972.332   104582395.162        1149.805          45.000  
E04  26056380.295   136927201.553       -1556.544          42.000    26056383.010   104918255.265       -1192.959          45.000  
J03  38293970.666   201236167.450        -768.411          34.000    38293979.576   156807434.366        -598.905          40.000  
G18  26260029.456                       -3537.925          28.000    26260048.879   107530472.344       -2756.584          38.000  
E23  26766383.443   140658281.336        -811.519          32.000    26766388.298   107777153.828        -621.867          41.000  
G31  26342496.995   138430758.419        3219.951          32.000    26342506.261                        2508.456          30.000  
J07  38067655.837   200046882.904        -262.329          39.000    38067654.501   155880682.224        -204.765          45.000  
E11  26926741.276   141500976.522       -3228.886          33.000    26926748.526   108422853.291       -2474.242          40.000  
E34                                                                  27901871.260                         510.540          29.000  
G24                                                                  23596462.433                       -2732.777          27.000  
J04                                                                  39325524.350   161031447.886         291.855          47.000  
> 2025 11 05 02 29 15.6830000  0 39                     
G10  21419543.073   112560458.317         521.774          50.000    21419542.089    87709444.602         406.590          46.000  
G28  23658737.973   124327511.823        2327.996          40.000    23658737.100    96878578.881        1813.950          43.000  
G15  25888840.130   136046760.750       -3323.876          34.000    25888849.041   106010495.652       -2589.687          34.000  
G32  22685489.113   119213050.167        1417.517          47.000    22685489.187    92893284.947        1104.451          44.000  
G12  22698840.371   119283211.798         270.614          46.000    22698838.168    92947948.817         210.912          42.000  
G25  22139942.672   116346189.445        2161.027          43.000    22139943.952    90659374.404        1683.625          42.000  
C06  37544728.066   195505252.005          97.013          44.000    37544716.991   151177018.499          75.037          45.000  
C08  36827188.102   191768833.620        -471.539          45.000    36827176.071   148287777.178        -364.575          49.000  
C14  22704329.942   118227404.644           1.492          47.000    22704319.722    91420887.971           1.169          49.000  
C09  38801112.871   202047576.271         197.753          42.000    38801105.633   156235973.460         152.830          48.000  
C13  36792206.136   191586673.805        -139.307          48.000    36792202.062   148146950.566        -107.886          47.000  
C16  37733572.683   196488614.119         -70.052          48.000    37733567.088   151937439.558         -54.111          48.000  
R09  22791209.711   121703738.525       -3738.343          32.000    22791211.439    94658505.467       -2907.769          37.000  
R10  20391711.519   108699295.461        -634.255          46.000                                                                  
R11  21687019.457   115888867.974        3254.516          45.000    21687018.448    90135778.423        2531.232          49.000  
R08  20727776.950   110996305.139         689.102          49.000    20727771.385    86330437.993         535.838          47.000  
R07  22139760.050   118515865.442       -2170.864          48.000    22139757.187    92178997.411       -1688.484          48.000  
R23  25030287.493   133895152.580       -3806.643          34.000                                                                  
G23  21711763.748   114096086.632       -2577.313          46.000    21711762.390    88906034.508       -2008.240          47.000  
J02  38632309.456   203014156.712         -41.258          40.000    38632311.481   158192857.228         -32.399          41.000  
E06  24782949.593   130235277.917        -767.560          47.000    24782952.677    99790680.240        -588.193          50.000  
E09  24666400.212   129622807.047         126.307          48.000    24666402.486    99321380.355          96.767          51.000  
E31  25920951.717   136215521.445        1642.723          44.000    25920956.085   104372951.741        1258.714          47.000  
C33  23466824.561   122197916.508        1341.891          49.000                                                                  
C24  22550681.254   117427317.166         624.916          49.000                                                                  
R24  24330435.111                3      -1649.639          17.000    24330435.696                       -1285.830          31.000  
R01  23351347.973                        2881.824          26.000                                                                  
E36  26436257.243   138923465.307       -1797.634          43.000    26436262.600   106447871.096       -1377.406          46.000  
E05  25972955.164   136488791.469        1500.697          38.000    25972960.875   104582349.166        1149.785          45.000  
E04  26056392.101   136927263.830       -1556.830          42.000    26056394.869   104918302.975       -1192.857          45.000  
J03  38293976.533   201236198.147        -767.594          34.000    38293985.421   156807458.312        -598.756          40.000  
G18  26260056.419                       -3538.051          28.000    26260075.810   107530582.602       -2756.504          38.000  
E23  26766389.623   140658313.784        -811.165          32.000    26766394.452   107777178.696        -621.825          41.000  
G31  26342472.463   138430629.648        3219.499          32.000    26342481.776                        2508.260          31.000  
J07  38067657.848   200046893.421        -262.761          39.000    38067656.494   155880690.404        -204.701          45.000  
E11  26926765.836   141501105.694       -3229.054          33.000    26926773.101   108422952.278       -2474.558          40.000  
E34                                                                  27901866.173                         510.460          29.000  
G24                                                                  23596489.014                       -2733.010          27.000  
J04                                                                  39325521.486   161031436.205         291.924          47.000  
> 2025 11 05 02 29 15.7230000  0 39                     
G10  21419539.088   112560437.443         521.769          50.000    21419538.117    87709428.333         406.646          46.000  
G28  23658720.244   124327418.698        2328.031          40.000    23658719.365    96878506.321        1813.976          43.000  
G15  25888865.426   136046893.701       -3323.836          34.000    25888874.347   106010599.256       -2590.010          34.000  
G32  22685478.322   119212993.468        1417.467          47.000    22685478.414    92893240.769        1104.363          44.000  
G12  22698838.314   119283200.976         270.493          46.000    22698836.118    92947940.380         210.902          42.000  
G25  22139926.224   116346103.003        2161.016          43.000    22139927.502    90659307.042        1683.820          42.000  
C06  37544727.329   195505248.126          96.945          44.000    37544716.235   151177015.499          75.016          45.000  
C08  36827191.740   191768852.479        -471.539          45.000    36827179.690   148287791.762        -364.618          49.000  
C14  22704329.951   118227404.576           1.589          47.000    22704319.688    91420887.920           1.159          49.000  
C09  38801111.358   202047568.348         197.937          42.000    38801104.123   156235967.340         152.902          48.000  
C13  36792207.193   191586679.381        -139.398          48.000    36792203.129   148146954.876        -107.837          47.000  
C16  37733573.200   196488616.920         -70.109          48.000    37733567.643   151937441.719         -54.096          48.000  
R09  22791237.703   121703888.051       -3738.154          32.000    22791239.445    94658621.759       -2907.521          37.000  
R10  20391716.271   108699320.842        -634.513          46.000                                                                  
R11  21686995.109   115888737.793        3254.443          45.000    21686994.087    90135677.170        2531.232          49.000  
R08  20727771.793   110996277.576         689.052          49.000    20727766.203    86330416.552         535.916          47.000  
R07  22139776.281   118515952.280       -2170.986          48.000    22139773.409    92179064.948       -1688.519          48.000  
R23  25030315.942   133895304.840       -3806.745          34.000                                                                  
G23  21711783.355   114096189.725       -2577.417          46.000    21711782.009    88906114.835       -2008.252          47.000  
J02  38632309.756   203014158.365         -41.298          40.000    38632311.786   158192858.520         -32.405          41.000  
E06  24782955.452   130235308.621        -767.630          47.000    24782958.518    99790703.764        -588.154          50.000  
E09  24666399.211   129622801.989         126.357          48.000    24666401.529    99321376.481          96.772          51.000  
E31  25920939.208   136215455.739        1642.607          44.000    25920943.576   104372901.394        1258.653          47.000  
C33  23466814.277   122197862.834        1341.812          49.000                                                                  
C24  22550676.450   117427292.172         624.811          49.000                                                                  
R24  24330447.620                3      -1649.639          17.000    24330448.044   101193456.709       -1285.540          31.000  
R01  23351326.086                        2881.223          26.000                                                                  
E36  26436270.935   138923537.212       -1797.688          43.000    26436276.299   106447926.194       -1377.485          46.000  
E05  25972943.738   136488731.442        1500.652          38.000    25972949.455   104582303.177        1149.704          45.000  
E04  26056403.975   136927326.112       -1557.028          42.000    26056406.714   104918350.687       -1192.818          45.000  
J03  38293982.393   201236228.888        -768.037          34.000    38293991.277   156807482.268        -598.853          40.000  
G18  26260083.376                       -3538.298          28.000    26260102.769   107530692.879       -2756.780          38.000  
E23  26766395.788   140658346.253        -811.449          32.000    26766400.579   107777203.574        -621.896          41.000  
G31  26342447.951   138430500.861        3219.545          32.000    26342457.308                        2508.582          31.000  
J07  38067659.849   200046903.929        -262.883          39.000    38067658.501   155880698.584        -204.599          45.000  
E11  26926790.415   141501234.869       -3229.271          33.000    26926797.684   108423051.251       -2474.458          40.000  
E34                                                                  27901861.110                         510.362          29.000  
G24                                                                  23596515.655                       -2732.859          27.000  
J04                                                                  39325518.617   161031424.516         292.103          47.000  
> 2025 11 05 02 29 15.7630000  0 39                     
G10  21419535.107   112560416.560         521.955          50.000    21419534.142    87709412.062         406.732          46.000  
G28  23658702.554   124327325.598        2327.605          40.000    23658701.677    96878433.764        1813.944          43.000  
G15  25888890.724   136047026.655       -3323.978          34.000    25888899.674   106010702.850       -2589.879          34.000  
G32  22685467.517   119212936.775        1417.344          47.000    22685467.635    92893196.595        1104.292          44.000  
G12  22698836.243   119283190.146         270.610          46.000    22698834.075    92947931.940         210.997          42.000  
G25  22139909.775   116346016.569        2160.916          43.000    22139911.070    90659239.689        1683.829          42.000  
C06  37544726.597   195505244.252          96.835          44.000    37544715.485   151177012.499          74.990          45.000  
C08  36827195.365   191768871.327        -471.295          46.000    36827183.307   148287806.345        -364.612          49.000  
C14  22704329.961   118227404.509           1.641          47.000    22704319.676    91420887.867           1.248          49.000  
C09  38801109.820   202047560.430         197.917          42.000    38801102.604   156235961.219         152.946          48.000  
C13  36792208.243   191586684.952        -139.349          48.000    36792204.197   148146959.186        -107.812          47.000  
C16  37733573.708   196488619.716         -70.026          48.000    37733568.188   151937443.881         -54.087          48.000  
R09  22791265.723   121704037.575       -3737.946          32.000    22791267.471    94658738.056       -2907.429          37.000  
R10  20391721.041   108699346.207        -634.316          46.000                                                                  
R11  21686970.751   115888607.611        3254.455          45.000    21686969.715    90135575.913        2531.311          49.000  
R08  20727766.631   110996250.011         689.078          49.000    20727761.070    86330395.110         535.985          47.000  
R07  22139792.503   118516039.117       -2171.011          48.000    22139789.651    92179132.489       -1688.573          48.000  
R23  25030344.435   133895457.079       -3806.353          34.000                                                                  
G23  21711802.955   114096292.800       -2577.100          46.000    21711801.630    88906195.161       -2008.209          47.000  
J02  38632310.067   203014160.011         -41.196          40.000    38632312.082   158192859.803         -32.240          41.000  
E06  24782961.315   130235339.328        -767.710          47.000    24782964.355    99790727.289        -588.150          50.000  
E09  24666398.183   129622796.927         126.471          48.000    24666400.582    99321372.603          96.855          51.000  
E31  25920926.658   136215390.030        1642.637          44.000    25920931.089   104372851.040        1258.739          47.000  
C33  23466803.981   122197809.157        1341.834          49.000                                                                  
C24  22550671.641   117427267.177         624.812          49.000                                                                  
R24  24330460.351                3      -1649.639          17.000    24330460.441                       -1285.682          31.000  
R01  23351304.670                        2880.847          26.000                                                                  
E36  26436284.643   138923609.117       -1797.650          43.000    26436289.982   106447981.289       -1377.484          46.000  
E05  25972932.308   136488671.407        1500.775          38.000    25972938.028   104582257.182        1149.761          45.000  
E04  26056415.767   136927388.378       -1556.881          42.000    26056418.607   104918398.398       -1192.784          45.000  
J03  38293988.233   201236259.635        -768.413          34.000    38293997.124   156807506.205        -598.563          40.000  
G18  26260110.286                       -3538.140          28.000    26260129.715   107530803.146       -2756.703          38.000  
E23  26766401.940   140658378.691        -811.136          33.000    26766406.736   107777228.436        -621.708          41.000  
G31  26342423.436   138430372.058        3219.914          32.000    26342432.762                        2509.470          31.000  
J07  38067661.865   200046914.442        -262.970          39.000    38067660.519   155880706.756        -204.407          45.000  
E11  26926815.045   141501364.049       -3229.523          33.000    26926822.273   108423150.226       -2474.486          40.000  
E34                                                                  27901856.034                         510.583          29.000  
G24                                                                  23596542.355                       -2733.154          27.000  
J04                                                                  39325515.780   161031412.835         292.015          47.000  
> 2025 11 05 02 29 15.8030000  0 39                     
G10  21419531.127   112560395.681         521.979          50.000    21419530.168    87709395.793         406.719          46.000  
G28  23658684.844   124327232.481        2327.746          40.000    23658683.972    96878361.203        1813.995          43.000  
G15  25888916.060   136047159.629       -3324.308          34.000    25888924.955   106010806.461       -2590.206          34.000  
G32  22685456.731   119212880.076        1417.415          47.000    22685456.864    92893152.410        1104.467          44.000  
G12  22698834.165   119283179.315         270.677          46.000    22698832.022    92947923.500         210.971          42.000  
G25  22139893.333   116345930.138        2160.770          43.000    22139894.629    90659172.342        1683.716          42.000  
C06  37544725.900   195505240.373          96.893          44.000    37544714.746   151177009.501          74.938          45.000  
C08  36827198.994   191768890.176        -471.185          45.000    36827186.927   148287820.923        -364.532          49.000  
C14  22704329.963   118227404.446           1.574          47.000    22704319.660    91420887.815           1.267          49.000  
C09  38801108.304   202047552.518         197.804          42.000    38801101.083   156235955.090         153.147          48.000  
C13  36792209.316   191586690.523        -139.331          48.000    36792205.273   148146963.493        -107.739          47.000  
C16  37733574.214   196488622.502         -69.799          48.000    37733568.722   151937446.043         -54.082          48.000  
R09  22791293.708   121704187.115       -3738.274          32.000    22791295.468    94658854.378       -2907.831          37.000  
R10  20391725.803   108699371.575        -634.254          46.000                                                                  
R11  21686946.378   115888477.418        3254.687          45.000    21686945.342    90135474.657        2531.348          49.000  
R08  20727761.470   110996222.444         689.141          49.000    20727755.932    86330373.672         535.947          47.000  
R07  22139808.701   118516125.947       -2170.869          48.000    22139805.870    92179200.027       -1688.550          48.000  
R23  25030372.890   133895609.340       -3806.504          34.000                                                                  
G23  21711822.565   114096395.872       -2576.892          46.000    21711821.239    88906275.482       -2008.099          47.000  
J02  38632310.374   203014161.674         -41.451          40.000    38632312.395   158192861.088         -32.204          41.000  
E06  24782967.111   130235370.028        -767.629          47.000    24782970.196    99790750.820        -588.250          50.000  
E09  24666397.178   129622791.865         126.535          48.000    24666399.624    99321368.725          96.910          51.000  
E31  25920914.152   136215324.311        1642.798          44.000    25920918.568   104372800.689        1258.741          47.000  
C33  23466793.698   122197755.470        1342.032          49.000                                                                  
C24  22550666.850   117427242.174         624.951          49.000                                                                  
R24  24330472.668                3      -1649.639          17.000    24330472.804                       -1286.089          31.000  
R01  23351283.107                        2880.871          26.000                                                                  
E36  26436298.299   138923681.011       -1797.456          43.000    26436303.647   106448036.383       -1377.408          46.000  
E05  25972920.959   136488611.381        1500.665          38.000    25972926.626   104582211.182        1149.880          45.000  
E04  26056427.608   136927450.641       -1556.707          42.000    26056430.455   104918446.112       -1192.858          45.000  
J03  38293994.111   201236290.390        -768.726          34.000    38294002.987   156807530.151        -598.600          40.000  
G18  26260137.197                       -3537.439          28.000    26260156.650   107530913.414       -2756.649          38.000  
E23  26766408.119   140658411.144        -811.291          32.000    26766412.896   107777253.296        -621.559          41.000  
G31  26342398.931   138430243.267        3219.830          32.000    26342408.243                        2509.685          30.000  
J07  38067663.855   200046924.914        -262.253          39.000    38067662.515   155880714.930        -204.345          45.000  
E11  26926839.656   141501493.227       -3229.392          33.000    26926846.863   108423249.200       -2474.452          40.000  
E34                                                                  27901850.963                         510.325          29.000  
G24                                                                  23596569.108                       -2732.734          27.000  
J04                                                                  39325512.927   161031401.144         292.194          47.000  
> 2025 11 05 02 29 15.8430000  0 39                     
G10  21419527.161   112560374.802         521.979          50.000    21419526.199    87709379.522         406.732          46.000  
G28  23658667.133   124327139.366        2327.845          40.000    23658666.265    96878288.642        1813.994          43.000  
G15  25888941.365   136047292.560       -3323.734          34.000    25888950.255   106010910.063       -2590.138          34.000  
G32  22685445.954   119212823.375        1417.447          47.000    22685446.071    92893108.217        1104.706          44.000  
G12  22698832.096   119283168.488         270.669          46.000    22698829.975    92947915.063         210.932          42.000  
G25  22139876.879   116345843.707        2160.724          43.000    22139878.190    90659104.982        1683.871          42.000  
C06  37544725.161   195505236.488          97.025          44.000    37544714.002   151177006.502          74.974          45.000  
C08  36827202.588   191768909.031        -471.295          46.000    36827190.547   148287835.500        -364.465          49.000  
C14  22704329.955   118227404.379           1.615          47.000    22704319.641    91420887.766           1.221          49.000  
C09  38801106.785   202047544.606         197.774          42.000    38801099.571   156235948.967         153.127          48.000  
C13  36792210.356   191586696.096        -139.319          48.000    36792206.336   148146967.799        -107.697          47.000  
C16  37733574.734   196488625.292         -69.745          48.000    37733569.265   151937448.199         -53.985          48.000  
R09  22791321.708   121704336.650       -3738.349          32.000    22791323.477    94658970.677       -2907.601          37.000  
R10  20391730.562   108699396.944        -634.261          46.000                                                                  
R11  21686922.012   115888347.228        3254.761          45.000    21686920.962    90135373.402        2531.378          49.000  
R08  20727756.331   110996194.878         689.167          49.000    20727750.777    86330352.229         536.010          47.000  
R07  22139824.907   118516212.788       -2170.990          48.000    22139822.083    92179267.570       -1688.600          48.000  
R23  25030401.337   133895761.582       -3806.316          34.000                                                                  
G23  21711842.183   114096498.963       -2577.161          46.000    21711840.853    88906355.807       -2008.093          47.000  
J02  38632310.701   203014163.345         -41.760          40.000    38632312.699   158192862.373         -32.153          41.000  
E06  24782972.938   130235400.728        -767.551          47.000    24782976.028    99790774.343        -588.152          50.000  
E09  24666396.226   129622786.805         126.520          48.000    24666398.664    99321364.848          96.914          51.000  
E31  25920901.623   136215258.596        1642.851          44.000    25920906.102   104372750.340        1258.720          47.000  
C33  23466783.381   122197701.787        1342.067          49.000                                                                  
C24  22550662.042   117427217.176         624.936          49.000                                                                  
R24  24330485.244                3      -1645.590          17.000    24330485.136                       -1286.606          31.000  
R01  23351261.407                        2880.936          26.000                                                                  
E36  26436312.028   138923752.916       -1797.553          43.000    26436317.339   106448091.478       -1377.408          46.000  
E05  25972909.512   136488551.352        1500.698          38.000    25972915.184   104582165.174        1150.110          45.000  
E04  26056439.473   136927512.913       -1556.735          42.000    26056442.267   104918493.825       -1192.869          45.000  
J03  38293999.955   201236321.123        -768.507          34.000    38294008.813   156807554.110        -598.877          40.000  
G18  26260164.115                       -3537.565          28.000    26260183.569   107531023.663       -2756.319          38.000  
E23  26766414.256   140658443.590        -811.225          33.000    26766419.062   107777278.182        -621.920          41.000  
G31  26342374.422   138430114.442        3220.377          32.000    26342383.774                        2507.921          31.000  
J07  38067665.845   200046935.385        -261.789          39.000    38067664.505   155880723.112        -204.465          45.000  
E11  26926864.195   141501622.374       -3228.951          33.000    26926871.431   108423348.161       -2474.160          40.000  
E34                                                                  27901845.893                         510.191          29.000  
G24                                                                  23596595.602                       -2732.635          27.000  
J04                                                                  39325510.105   161031389.462         292.089          47.000  
> 2025 11 05 02 29 15.8830000  0 39                     
G10  21419523.224   112560353.933         521.763          50.000    21419522.229    87709363.260         406.583          46.000  
G28  23658649.416   124327046.243        2328.009          40.000    23658648.538    96878216.075        1814.114          43.000  
G15  25888966.677   136047425.502       -3323.647          34.000    25888975.529   106011013.651       -2589.893          34.000  
G32  22685435.157   119212766.664        1417.646          47.000    22685435.262    92893064.030        1104.711          44.000  
G12  22698830.051   119283157.670         270.506          46.000    22698827.939    92947906.631         210.789          42.000  
G25  22139860.435   116345757.271        2160.790          43.000    22139861.738    90659037.625        1683.902          42.000  
C06  37544724.432   195505232.611          96.956          44.000    37544713.243   151177003.501          74.993          45.000  
C08  36827206.190   191768927.886        -471.375          46.000    36827194.158   148287850.079        -364.465          49.000  
C14  22704329.951   118227404.313           1.605          47.000    22704319.640    91420887.709           1.359          49.000  
C09  38801105.275   202047536.691         197.788          42.000    38801098.042   156235942.848         153.018          48.000  
C13  36792211.438   191586701.665        -139.240          48.000    36792207.407   148146972.103        -107.642          47.000  
C16  37733575.268   196488628.093         -69.932          48.000    37733569.791   151937450.364         -54.085          48.000  
R09  22791349.708   121704486.208       -3738.847          32.000    22791351.496    94659086.982       -2907.597          37.000  
R10  20391735.328   108699422.324        -634.484          46.000                                                                  
R11  21686897.663   115888217.045        3254.657          45.000    21686896.572    90135272.141        2531.488          49.000  
R08  20727751.177   110996167.314         689.116          49.000    20727745.600    86330330.791         535.978          47.000  
R07  22139841.122   118516299.616       -2170.842          48.000    22139838.303    92179335.102       -1688.439          48.000  
R23  25030429.778   133895913.823       -3806.122          34.000                                                                  
G23  21711861.789   114096602.045       -2577.142          46.000    21711860.464    88906436.127       -2008.020          47.000  
J02  38632310.980   203014164.977         -41.131          40.000    38632313.002   158192863.668         -32.339          41.000  
E06  24782978.736   130235431.423        -767.427          47.000    24782981.882    99790797.865        -588.092          50.000  
E09  24666395.206   129622781.745         126.531          48.000    24666397.701    99321360.970          96.944          51.000  
E31  25920889.095   136215192.882        1642.858          44.000    25920893.620   104372699.986        1258.788          47.000  
C33  23466773.038   122197648.112        1341.946          49.000                                                                  
C24  22550657.234   117427192.176         624.955          49.000                                                                  
R24  24330497.441                3      -1645.590          18.000    24330497.465                       -1284.518          31.000  
R01  23351239.809                        2880.907          26.000                                                                  
E36  26436325.743   138923824.820       -1797.573          43.000    26436331.020   106448146.567       -1377.295          46.000  
E05  25972898.057   136488491.312        1500.882          38.000    25972903.731   104582119.176        1150.051          45.000  
E04  26056451.356   136927575.185       -1556.732          42.000    26056454.127   104918541.540       -1192.903          45.000  
J03  38294005.796   201236351.840        -768.052          34.000    38294014.662   156807578.052        -598.688          40.000  
G18  26260191.041                       -3537.730          28.000    26260210.503   107531133.937       -2756.661          38.000  
E23  26766420.423   140658476.002        -810.599          32.000    26766425.218   107777303.052        -621.876          41.000  
G31  26342349.968   138429985.675        3219.647          32.000    26342359.273                        2508.171          31.000  
J07  38067667.846   200046945.892        -262.278          39.000    38067666.516   155880731.291        -204.485          45.000  
E11  26926888.787   141501751.538       -3228.980          33.000    26926896.009   108423447.135       -2474.229          40.000  
E34                                                                  27901840.837                         510.283          29.000  
G24                                                                  23596622.242                       -2732.943          27.000  
J04                                                                  39325507.264   161031377.773         292.163          47.000  
> 2025 11 05 02 29 15.9230000  0 39                     
G10  21419519.234   112560333.057         521.807          50.000    21419518.265    87709347.000         406.455          46.000  
G28  23658631.680   124326953.123        2328.044          40.000    23658630.817    96878143.523        1813.903          43.000  
G15  25888991.972   136047558.443       -3323.588          34.000    25889000.823   106011117.221       -2589.440          34.000  
G32  22685424.384   119212709.965        1417.510          47.000    22685424.484    92893019.843        1104.701          44.000  
G12  22698828.005   119283146.847         270.510          46.000    22698825.884    92947898.200         210.679          42.000  
G25  22139843.992   116345670.834        2160.855          43.000    22139845.277    90658970.275        1683.826          42.000  
C06  37544723.673   195505228.723          97.125          44.000    37544712.497   151177000.498          75.044          45.000  
C08  36827209.827   191768946.746        -471.484          46.000    36827197.786   148287864.663        -364.606          49.000  
C14  22704329.955   118227404.246           1.640          47.000    22704319.612    91420887.662           1.225          49.000  
C09  38801103.771   202047528.774         197.844          42.000    38801096.520   156235936.725         153.031          48.000  
C13  36792212.500   191586707.231        -139.191          48.000    36792208.474   148146976.412        -107.727          47.000  
C16  37733575.782   196488630.890         -69.989          48.000    37733570.321   151937452.524         -54.050          48.000  
R09  22791377.678   121704635.739       -3738.555          32.000    22791379.508    94659203.274       -2907.373          37.000  
R10  20391740.103   108699447.702        -634.525          46.000                                                                  
R11  21686873.290   115888086.860        3254.608          45.000    21686872.209    90135170.889        2531.372          49.000  
R08  20727746.030   110996139.750         689.091          49.000    20727740.445    86330309.354         535.935          47.000  
R07  22139857.343   118516386.447       -2170.785          48.000    22139854.532    92179402.631       -1688.301          48.000  
R23  25030458.243   133896066.079       -3806.298          34.000                                                                  
G23  21711881.438   114096705.139       -2577.344          46.000    21711880.072    88906516.452       -2008.093          47.000  
J02  38632311.298   203014166.626         -41.098          40.000    38632313.316   158192864.955         -32.240          41.000  
E06  24782984.588   130235462.122        -767.430          47.000    24782987.705    99790821.383        -587.988          50.000  
E09  24666394.253   129622776.689         126.440          48.000    24666396.732    99321357.095          96.912          51.000  
E31  25920876.674   136215127.172        1642.774          44.000    25920881.087   104372649.629        1258.877          47.000  
C33  23466762.722   122197594.431        1341.972          49.000                                                                  
C24  22550652.409   117427167.171         625.064          49.000                                                                  
R24  24330509.645                3      -1645.590          18.000    24330509.865                       -1286.233          30.000  
R01  23351218.284                        2880.813          26.000                                                                  
E36  26436339.421   138923896.723       -1797.584          43.000    26436344.698   106448201.660       -1377.289          46.000  
E05  25972886.616   136488431.283        1500.771          38.000    25972892.352   104582073.178        1149.987          45.000  
E04  26056463.227   136927637.455       -1556.744          42.000    26056465.968   104918589.253       -1192.890          45.000  
J03  38294011.644   201236382.593        -768.569          34.000    38294020.496   156807602.003        -598.732          40.000  
G18  26260217.937                       -3537.465          28.000    26260237.450   107531244.211       -2756.851          38.000  
E23  26766426.648   140658508.523        -811.994          32.000    26766431.412   107777327.921        -621.772          41.000  
G31  26342325.447   138429856.869        3219.996          32.000    26342334.771                        2507.794          30.000  
J07  38067669.853   200046956.397        -262.501          39.000    38067668.516   155880739.468        -204.486          45.000  
E11  26926913.317   141501880.725       -3229.309          33.000    26926920.604   108423546.095       -2474.066          40.000  
E34                                                                  27901835.781                         510.781          29.000  
G24                                                                  23596648.943                       -2732.948          27.000  
J04                                                                  39325504.408   161031366.089         292.101          47.000  
> 2025 11 05 02 29 15.9630000  0 39                     
G10  21419515.256   112560312.182         521.844          50.000    21419514.280    87709330.737         406.461          46.000  
G28  23658613.967   124326860.009        2327.939          40.000    23658613.089    96878070.969        1813.855          43.000  
G15  25889017.274   136047691.397       -3323.756          34.000    25889026.111   106011220.823       -2589.843          34.000  
G32  22685413.585   119212653.259        1417.590          47.000    22685413.676    92892975.662        1104.574          44.000  
G12  22698825.924   119283136.021         270.578          46.000    22698823.827    92947889.764         210.770          42.000  
G25  22139827.564   116345584.397        2160.872          43.000    22139828.803    90658902.919        1683.875          42.000  
C06  37544722.949   195505224.846          96.984          44.000    37544711.765   151176997.496          75.027          45.000  
C08  36827213.467   191768965.607        -471.558          46.000    36827201.406   148287879.244        -364.587          49.000  
C14  22704329.962   118227404.182           1.601          47.000    22704319.613    91420887.615           1.168          49.000  
C09  38801102.261   202047520.864         197.775          42.000    38801095.013   156235930.609         152.893          48.000  
C13  36792213.527   191586712.806        -139.337          48.000    36792209.552   148146980.720        -107.715          47.000  
C16  37733576.311   196488633.678         -69.843          48.000    37733570.866   151937454.681         -53.992          48.000  
R09  22791405.652   121704785.262       -3738.286          32.000    22791407.485    94659319.564       -2907.230          37.000  
R10  20391744.869   108699473.078        -634.502          46.000                                                                  
R11  21686848.927   115887956.678        3254.565          45.000    21686847.847    90135069.642        2531.219          49.000  
R08  20727740.906   110996112.190         688.996          49.000    20727735.310    86330287.915         535.942          47.000  
R07  22139873.551   118516473.285       -2170.908          48.000    22139870.746    92179470.164       -1688.267          48.000  
R23  25030486.710   133896218.354       -3806.652          34.000                                                                  
G23  21711901.062   114096808.229       -2577.350          46.000    21711899.708    88906596.783       -2008.264          47.000  
J02  38632311.626   203014168.286         -41.330          40.000    38632313.636   158192866.245         -32.292          41.000  
E06  24782990.424   130235492.825        -767.509          47.000    24782993.562    99790844.904        -587.991          50.000  
E09  24666393.345   129622771.635         126.369          48.000    24666395.707    99321353.216          96.937          51.000  
E31  25920864.180   136215061.456        1642.845          44.000    25920868.572   104372599.283        1258.765          47.000  
C33  23466752.404   122197540.753        1341.946          49.000                                                                  
C24  22550647.600   117427142.177         624.904          49.000                                                                  
R24  24330522.086                3      -1645.590          18.000    24330522.246                       -1286.921          30.000  
R01  23351196.587                        2881.016          26.000                                                                  
E36  26436353.126   138923968.630       -1797.626          43.000    26436358.375   106448256.751       -1377.277          46.000  
E05  25972875.250   136488371.250        1500.803          38.000    25972880.926   104582027.174        1150.044          45.000  
E04  26056475.107   136927699.721       -1556.666          42.000    26056477.817   104918636.974       -1193.025          45.000  
J03  38294017.487   201236413.321        -768.406          34.000    38294026.345   156807625.942        -598.560          40.000  
G18  26260244.868                       -3537.778          28.000    26260264.388   107531354.474       -2756.751          38.000  
E23  26766432.840   140658540.990        -811.939          32.000    26766437.554   107777352.793        -621.756          41.000  
G31  26342300.915   138429728.105        3219.358          32.000    26342310.289                        2508.700          31.000  
J07  38067671.860   200046966.906        -262.764          39.000    38067670.536   155880747.647        -204.518          45.000  
E11  26926937.906   141502009.891       -3229.318          33.000    26926945.197   108423645.070       -2474.223          40.000  
E34                                                                  27901830.703                         510.265          29.000  
G24                                                                  23596675.554                       -2732.836          27.000  
J04                                                                  39325501.563   161031354.410         291.978          47.000  
> 2025 11 05 02 29 16.0030000  0 39                     
G10  21419511.279   112560291.313         521.739          50.000    21419510.296    87709314.471         406.517          46.000  
G28  23658596.284   124326766.908        2327.623          40.000    23658595.386    96877998.418        1813.801          43.000  
G15  25889042.581   136047824.384       -3324.377          34.000    25889051.429   106011324.464       -2590.859          34.000  
G32  22685402.804   119212596.561        1417.478          47.000    22685402.874    92892931.484        1104.461          44.000  
G12  22698823.872   119283125.202         270.473          46.000    22698821.764    92947881.344         210.515          42.000  
G25  22139811.121   116345497.972        2160.656          43.000    22139812.330    90658835.582        1683.563          42.000  
C06  37544722.208   195505220.965          96.978          44.000    37544711.006   151176994.502          74.892          45.000  
C08  36827217.102   191768984.468        -471.558          46.000    36827205.033   148287893.830        -364.667          49.000  
C14  22704329.958   118227404.127           1.424          47.000    22704319.600    91420887.566           1.150          49.000  
C09  38801100.727   202047512.941         197.971          42.000    38801093.493   156235924.493         152.870          48.000  
C13  36792214.610   191586718.383        -139.471          48.000    36792210.624   148146985.031        -107.782          47.000  
C16  37733576.855   196488636.475         -69.930          48.000    37733571.404   151937456.843         -54.033          48.000  
R09  22791433.626   121704934.791       -3738.193          32.000    22791435.478    94659435.884       -2907.637          37.000  
R10  20391749.631   108699498.459        -634.552          46.000                                                                  
R11  21686824.568   115887826.503        3254.406          45.000    21686823.478    90134968.397        2531.091          49.000  
R08  20727735.746   110996084.632         688.916          49.000    20727730.173    86330266.483         535.810          47.000  
R07  22139889.784   118516560.127       -2171.040          48.000    22139886.958    92179537.712       -1688.579          48.000  
R23  25030515.182   133896370.615       -3806.612          34.000                                                                  
G23  21711920.679   114096911.321       -2577.368          46.000    21711919.327    88906677.118       -2008.417          47.000  
J02  38632311.950   203014169.952         -41.609          40.000    38632313.955   158192867.525         -32.126          41.000  
E06  24782996.293   130235523.534        -767.682          47.000    24782999.424    99790868.432        -588.128          50.000  
E09  24666392.421   129622766.579         126.346          48.000    24666394.732    99321349.346          96.803          51.000  
E31  25920851.713   136214995.751        1642.727          44.000    25920856.088   104372548.935        1258.692          47.000  
C33  23466742.092   122197487.079        1341.852          49.000                                                                  
C24  22550642.813   117427117.186         624.750          49.000                                                                  
R24  24330534.484                3      -1651.164          18.000    24330534.605                       -1285.856          31.000  
R01  23351174.744                        2881.129          26.000                                                                  
E36  26436366.767   138924040.536       -1797.625          43.000    26436372.098   106448311.851       -1377.427          46.000  
E05  25972863.789   136488311.215        1500.883          38.000    25972869.496   104581981.180        1149.916          45.000  
E04  26056487.000   136927762.008       -1556.974          42.000    26056489.642   104918684.693       -1193.038          45.000  
J03  38294023.326   201236444.073        -768.734          34.000    38294032.190   156807649.890        -598.633          40.000  
G18  26260271.809                       -3537.654          28.000    26260291.322   107531464.747       -2756.934          38.000  
E23  26766439.032   140658573.466        -811.902          32.000    26766443.742   107777377.671        -621.883          41.000  
G31  26342276.410   138429599.317        3219.483          32.000    26342285.762                        2510.087          30.000  
J07  38067673.851   200046977.396        -262.503          39.000    38067672.538   155880755.831        -204.654          45.000  
E11  26926962.515   141502139.032       -3228.893          33.000    26926969.783   108423744.048       -2474.418          40.000  
E34                                                                  27901825.638                         510.437          29.000  
G24                                                                  23596702.327                       -2733.017          27.000  
J04                                                                  39325498.712   161031342.730         291.929          47.000  
> 2025 11 05 02 29 16.0430000  0 39                     
G10  21419507.331   112560270.449         521.591          50.000    21419506.344    87709298.214         406.419          46.000  
G28  23658578.576   124326673.799        2327.582          40.000    23658577.651    96877925.866        1813.764          43.000  
G15  25889067.900   136047957.347       -3324.354          34.000    25889076.727   106011428.070       -2590.635          34.000  
G32  22685392.023   119212539.875        1417.213          47.000    22685392.094    92892887.310        1104.356          44.000  
G12  22698821.820   119283114.392         270.252          46.000    22698819.705    92947872.920         210.520          42.000  
G25  22139794.663   116345411.552        2160.465          43.000    22139795.872    90658768.230        1683.650          42.000  
C06  37544721.471   195505217.090          96.909          44.000    37544710.260   151176991.503          74.913          45.000  
C08  36827220.727   191769003.331        -471.606          46.000    36827208.665   148287908.415        -364.673          49.000  
C14  22704329.957   118227404.071           1.344          47.000    22704319.591    91420887.528           0.969          49.000  
C09  38801099.199   202047505.027         197.970          42.000    38801091.971   156235918.372         152.953          48.000  
C13  36792215.692   191586723.959        -139.490          48.000    36792211.706   148146989.348        -107.910          47.000  
C16  37733577.365   196488639.283         -70.144          48.000    37733571.948   151937459.014         -54.220          48.000  
R09  22791461.685   121705084.352       -3738.979          32.000    22791463.489    94659552.214       -2908.141          37.000  
R10  20391754.391   108699523.844        -634.658          46.000                                                                  
R11  21686800.205   115887696.327        3254.352          45.000    21686799.118    90134867.148        2531.128          49.000  
R08  20727730.600   110996057.074         688.899          49.000    20727725.025    86330245.052         535.729          47.000  
R07  22139906.013   118516646.971       -2171.149          48.000    22139903.186    92179605.261       -1688.739          48.000  
R23  25030543.655   133896522.900       -3807.051          34.000                                                                  
G23  21711940.283   114097014.413       -2577.374          46.000    21711938.949    88906757.458       -2008.569          47.000  
J02  38632312.272   203014171.607         -41.542          40.000    38632314.269   158192868.823         -32.384          41.000  
E06  24783002.163   130235554.241        -767.722          47.000    24783005.260    99790891.966        -588.295          50.000  
E09  24666391.436   129622761.527         126.287          48.000    24666393.757    99321345.480          96.681          51.000  
E31  25920839.197   136214930.042        1642.710          44.000    25920843.612   104372498.590        1258.628          47.000  
C33  23466731.770   122197433.407        1341.771          49.000                                                                  
C24  22550638.005   117427092.204         624.547          49.000                                                                  
R24  24330546.963                3      -1651.164          18.000    24330546.948                       -1286.097          31.000  
R01  23351153.007                        2881.155          26.000                                                                  
E36  26436380.433   138924112.447       -1797.743          43.000    26436385.787   106448366.964       -1377.684          46.000  
E05  25972852.324   136488251.181        1500.900          38.000    25972858.079   104581935.193        1149.742          45.000  
E04  26056498.826   136927824.276       -1556.868          42.000    26056501.494   104918732.401       -1192.855          45.000  
J03  38294029.171   201236474.805        -768.569          34.000    38294038.033   156807673.846        -598.839          40.000  
G18  26260298.742                       -3537.989          28.000    26260318.261   107531575.017       -2756.916          38.000  
E23  26766445.227   140658605.919        -811.516          32.000    26766449.930   107777402.554        -622.006          41.000  
G31  26342251.914   138429470.522        3219.636          32.000    26342261.226                        2510.550          30.000  
J07  38067675.843   200046987.884        -262.303          39.000    38067674.531   155880764.021        -204.784          45.000  
E11  26926987.051   141502268.234       -3229.571          33.000    26926994.372   108423843.027       -2474.519          40.000  
E34                                                                  27901820.583                         510.640          29.000  
G24                                                                  23596729.095                       -2733.217          27.000  
J04                                                                  39325495.865   161031331.052         291.862          47.000  
> 2025 11 05 02 29 16.0830000  0 39                     
G10  21419503.339   112560249.583         521.555          50.000    21419502.372    87709281.953         406.444          46.000  
G28  23658560.861   124326580.681        2327.769          40.000    23658559.930    96877853.316        1813.729          43.000  
G15  25889093.200   136048090.301       -3324.134          34.000    25889102.043   106011531.673       -2590.322          34.000  
G32  22685381.228   119212483.177        1417.300          47.000    22685381.282    92892843.144        1104.130          44.000  
G12  22698819.760   119283103.574         270.333          46.000    22698817.654    92947864.487         210.646          42.000  
G25  22139778.211   116345325.130        2160.437          43.000    22139779.416    90658700.892        1683.471          42.000  
C06  37544720.731   195505213.222          96.749          44.000    37544709.514   151176988.508          74.829          45.000  
C08  36827224.331   191769022.194        -471.631          46.000    36827212.295   148287923.004        -364.752          49.000  
C14  22704329.951   118227404.019           1.245          47.000    22704319.566    91420887.485           0.961          49.000  
C09  38801097.680   202047497.125         197.692          42.000    38801090.451   156235912.253         152.966          48.000  
C13  36792216.752   191586729.542        -139.594          48.000    36792212.779   148146993.660        -107.867          47.000  
C16  37733577.879   196488642.082         -70.083          48.000    37733572.474   151937461.175         -54.131          48.000  
R09  22791489.745   121705233.921       -3739.367          32.000    22791491.468    94659668.520       -2908.002          37.000  
R10  20391759.163   108699549.234        -634.822          46.000                                                                  
R11  21686775.852   115887566.163        3254.102          45.000    21686774.759    90134765.901        2531.134          49.000  
R08  20727725.449   110996029.516         688.894          49.000    20727719.869    86330223.622         535.707          47.000  
R07  22139922.226   118516733.813       -2171.147          48.000    22139919.398    92179672.811       -1688.843          48.000  
R23  25030572.097   133896675.142       -3806.482          34.000                                                                  
G23  21711959.917   114097117.508       -2577.411          46.000    21711958.562    88906837.787       -2008.405          47.000  
J02  38632312.603   203014173.268         -41.499          40.000    38632314.599   158192870.114         -32.407          41.000  
E06  24783007.990   130235584.948        -767.731          47.000    24783011.121    99790915.499        -588.376          50.000  
E09  24666390.482   129622756.475         126.244          48.000    24666392.770    99321341.607          96.705          51.000  
E31  25920826.702   136214864.335        1642.662          44.000    25920831.099   104372448.252        1258.487          47.000  
C33  23466721.477   122197379.734        1341.754          49.000                                                                  
C24  22550633.216   117427067.214         624.602          49.000                                                                  
R24  24330559.093                3      -1651.164          18.000    24330559.301                       -1285.518          31.000  
R01  23351131.570                        2881.319          26.000                                                                  
E36  26436394.166   138924184.362       -1797.865          43.000    26436399.480   106448422.057       -1377.534          46.000  
E05  25972840.946   136488191.168        1500.539          38.000    25972846.650   104581889.200        1149.758          45.000  
E04  26056510.696   136927886.551       -1556.895          42.000    26056513.354   104918780.106       -1192.700          45.000  
J03  38294035.023   201236505.527        -768.208          34.000    38294043.879   156807697.813        -599.150          40.000  
G18  26260325.639                       -3538.137          28.000    26260345.187   107531685.266       -2756.471          38.000  
E23  26766451.408   140658638.388        -811.549          33.000    26766456.132   107777427.443        -622.246          41.000  
G31  26342227.403   138429341.731        3219.721          32.000    26342236.742                        2509.549          31.000  
J07  38067677.839   200046998.392        -262.587          39.000    38067676.527   155880772.197        -204.571          45.000  
E11  26927011.571   141502397.414       -3229.688          33.000    26927018.988   108423942.005       -2474.534          40.000  
E34                                                                  27901815.473                         510.105          29.000  
G24                                                                  23596755.983                       -2733.177          27.000  
J04                                                                  39325492.996   161031319.371         291.911          47.000  
> 2025 11 05 02 29 16.1230000  0 39                     
G10  21419499.374   112560228.718         521.543          50.000    21419498.410    87709265.702         406.278          46.000  
G28  23658543.138   124326487.574        2327.660          40.000    23658542.217    96877780.754        1813.945          43.000  
G15  25889118.494   136048223.227       -3323.503          34.000    25889127.340   106011635.275       -2590.143          34.000  
G32  22685370.410   119212426.473        1417.492          47.000    22685370.492    92892798.962        1104.308          44.000  
G12  22698817.710   119283092.761         270.304          46.000    22698815.594    92947856.058         210.686          42.000  
G25  22139761.752   116345238.695        2160.691          43.000    22139762.944    90658633.549        1683.472          42.000  
C06  37544719.976   195505209.349          96.748          44.000    37544708.778   151176985.521          74.676          45.000  
C08  36827227.956   191769041.051        -471.509          46.000    36827215.916   148287937.590        -364.703          49.000  
C14  22704329.951   118227403.955           1.433          47.000    22704319.549    91420887.440           1.052          49.000  
C09  38801096.165   202047489.216         197.625          42.000    38801088.920   156235906.137         152.903          48.000  
C13  36792217.841   191586735.121        -139.563          48.000    36792213.848   148146997.977        -107.953          47.000  
C16  37733578.397   196488644.880         -70.023          48.000    37733573.020   151937463.340         -54.151          48.000  
R09  22791517.790   121705383.491       -3739.426          32.000    22791519.495    94659784.815       -2907.718          37.000  
R10  20391763.904   108699574.623        -634.842          46.000                                                                  
R11  21686751.500   115887435.990        3254.156          45.000    21686750.388    90134664.654        2531.140          49.000  
R08  20727720.304   110996001.960         688.876          49.000    20727714.729    86330202.190         535.727          47.000  
R07  22139938.447   118516820.658       -2171.163          48.000    22139935.608    92179740.354       -1688.718          48.000  
R23  25030600.532   133896827.380       -3806.158          34.000                                                                  
G23  21711979.533   114097220.597       -2577.301          46.000    21711978.167    88906918.119       -2008.380          47.000  
J02  38632312.934   203014174.915         -41.271          40.000    38632314.921   158192871.416         -32.562          41.000  
E06  24783013.839   130235615.655        -767.729          47.000    24783016.961    99790939.026        -588.293          50.000  
E09  24666389.540   129622751.426         126.203          48.000    24666391.793    99321337.731          96.811          51.000  
E31  25920814.216   136214798.635        1642.550          44.000    25920818.582   104372397.906        1258.521          47.000  
C33  23466711.150   122197326.063        1341.710          49.000                                                                  
C24  22550628.430   117427042.226         624.631          49.000                                                                  
R24  24330571.393                3      -1652.414          18.000    24330571.666                       -1285.489          31.000  
R01  23351109.981                3       2881.083          26.000                                                                  
E36  26436407.838   138924256.276       -1797.874          43.000    26436413.132   106448477.161       -1377.596          46.000  
E05  25972829.527   136488131.145        1500.477          38.000    25972835.223   104581843.214        1149.636          45.000  
E04  26056522.536   136927948.824       -1556.897          42.000    26056525.213   104918827.828       -1192.884          45.000  
J03  38294040.849   201236536.261        -768.318          34.000    38294049.749   156807721.765        -599.008          40.000  
G18  26260352.534                       -3537.988          28.000    26260372.116   107531795.557       -2757.013          38.000  
E23  26766457.602   140658670.840        -811.380          32.000    26766462.275   107777452.317        -622.063          41.000  
G31  26342202.883   138429212.939        3219.749          32.000    26342212.223                        2507.673          31.000  
J07  38067679.846   200047008.888        -262.534          39.000    38067678.519   155880780.375        -204.482          45.000  
E11  26927036.210   141502526.591       -3229.669          33.000    26927043.565   108424040.993       -2474.686          40.000  
E34                                                                  27901810.423                         510.210          29.000  
G24                                                                  23596782.760                       -2733.258          27.000  
J04                                                                  39325490.140   161031307.683         292.090          47.000  
> 2025 11 05 02 29 16.1630000  0 39                     
G10  21419495.421   112560207.857         521.489          50.000    21419494.448    87709249.443         406.353          46.000  
G28  23658525.420   124326394.460        2327.731          40.000    23658524.485    96877708.200        1813.859          43.000  
G15  25889143.788   136048356.212       -3324.095          34.000    25889152.642   106011738.869       -2589.879          34.000  
G32  22685359.628   119212369.780        1417.391          47.000    22685359.701    92892754.780        1104.460          44.000  
G12  22698815.658   119283081.942         270.390          46.000    22698813.522    92947847.621         210.840          42.000  
G25  22139745.325   116345152.270        2160.642          43.000    22139746.485    90658566.193        1683.752          42.000  
C06  37544719.228   195505205.472          96.849          44.000    37544708.034   151176982.516          74.950          45.000  
C08  36827231.588   191769059.909        -471.442          46.000    36827219.537   148287952.170        -364.569          49.000  
C14  22704329.943   118227403.887           1.615          47.000    22704319.552    91420887.391           1.143          49.000  
C09  38801094.657   202047481.302         197.747          42.000    38801087.383   156235900.013         153.042          48.000  
C13  36792218.936   191586740.697        -139.459          48.000    36792214.913   148147002.286        -107.825          47.000  
C16  37733578.912   196488647.677         -69.977          48.000    37733573.563   151937465.505         -54.170          48.000  
R09  22791545.807   121705532.993       -3738.435          32.000    22791547.486    94659901.130       -2907.889          37.000  
R10  20391768.672   108699600.006        -634.680          46.000                                                                  
R11  21686727.149   115887305.810        3254.401          45.000    21686726.014    90134563.408        2531.134          49.000  
R08  20727715.139   110995974.405         688.852          49.000    20727709.579    86330180.751         535.878          47.000  
R07  22139954.675   118516907.501       -2171.133          48.000    22139951.833    92179807.892       -1688.555          48.000  
R23  25030628.975   133896979.612       -3805.868          34.000                                                                  
G23  21711999.166   114097323.691       -2577.295          46.000    21711997.788    88906998.456       -2008.423          47.000  
J02  38632313.240   203014176.569         -41.280          40.000    38632315.226   158192872.697         -32.294          41.000  
E06  24783019.653   130235646.361        -767.704          47.000    24783022.787    99790962.548        -588.156          50.000  
E09  24666388.523   129622746.367         126.342          48.000    24666390.818    99321333.857          96.841          51.000  
E31  25920801.738   136214732.926        1642.611          44.000    25920806.064   104372347.559        1258.599          47.000  
C33  23466700.885   122197272.384        1341.857          49.000                                                                  
C24  22550623.673   117427017.238         624.639          49.000                                                                  
R24  24330584.009                3      -1652.414          18.000    24330584.029                       -1286.508          31.000  
R01  23351088.342                2       2881.555          26.000                                                                  
E36  26436421.509   138924328.182       -1797.766          43.000    26436426.789   106448532.272       -1377.715          46.000  
E05  25972818.118   136488071.123        1500.442          38.000    25972823.798   104581797.218        1149.752          45.000  
E04  26056534.413   136928011.102       -1556.981          42.000    26056537.071   104918875.545       -1192.916          45.000  
J03  38294046.719   201236566.991        -768.220          34.000    38294055.577   156807745.710        -598.756          40.000  
G18  26260379.471                       -3537.776          28.000    26260399.053   107531905.816       -2756.658          38.000  
E23  26766463.799   140658703.347        -812.183          32.000    26766468.463   107777477.187        -621.903          41.000  
G31  26342178.387   138429084.146        3219.815          32.000    26342187.723                        2508.085          30.000  
J07  38067681.857   200047019.388        -262.563          39.000    38067680.511   155880788.562        -204.608          45.000  
E11  26927060.760   141502655.770       -3229.571          33.000    26927068.171   108424139.966       -2474.527          40.000  
E34                                                                  27901805.342                         510.038          29.000  
G24                                                                  23596809.452                       -2733.644          27.000  
J04                                                                  39325487.293   161031295.996         292.157          47.000  
> 2025 11 05 02 29 16.2030000  0 39                     
G10  21419491.450   112560186.992         521.544          50.000    21419490.465    87709233.178         406.500          46.000  
G28  23658507.709   124326301.347        2327.762          40.000    23658506.768    96877635.648        1813.821          43.000  
G15  25889169.087   136048489.165       -3323.930          34.000    25889177.917   106011842.449       -2589.507          34.000  
G32  22685348.834   119212313.075        1417.568          47.000    22685348.886    92892710.600        1104.496          44.000  
G12  22698813.588   119283071.124         270.422          46.000    22698811.470    92947839.202         210.596          42.000  
G25  22139728.867   116345065.835        2160.808          43.000    22139730.036    90658498.847        1683.669          42.000  
C06  37544718.464   195505201.582          97.129          44.000    37544707.292   151176979.515          75.020          45.000  
C08  36827235.228   191769078.764        -471.411          46.000    36827223.160   148287966.751        -364.520          49.000  
C14  22704329.919   118227403.825           1.603          47.000    22704319.535    91420887.340           1.231          49.000  
C09  38801093.133   202047473.383         197.910          42.000    38801085.851   156235893.897         152.959          48.000  
C13  36792220.010   191586746.267        -139.325          48.000    36792215.986   148147006.592        -107.684          47.000  
C16  37733579.481   196488650.473         -69.926          48.000    37733574.083   151937467.671         -54.188          48.000  
R09  22791573.798   121705682.487       -3737.631          32.000    22791575.481    94660017.446       -2907.989          37.000  
R10  20391773.405   108699625.391        -634.669          46.000                                                                  
R11  21686702.761   115887175.631        3254.492          45.000    21686701.639    90134462.157        2531.219          49.000  
R08  20727709.978   110995946.843         688.991          49.000    20727704.431    86330159.317         535.877          47.000  
R07  22139970.900   118516994.335       -2170.972          48.000    22139968.048    92179875.431       -1688.473          48.000  
R23  25030657.429   133897131.869       -3806.103          34.000                                                                  
G23  21712018.797   114097426.783       -2577.332          46.000    21712017.408    88907078.783       -2008.270          47.000  
J02  38632313.532   203014178.224         -41.301          40.000    38632315.527   158192873.978         -32.084          41.000  
E06  24783025.442   130235677.057        -767.509          47.000    24783028.619    99790986.071        -588.081          50.000  
E09  24666387.534   129622741.307         126.449          48.000    24666389.839    99321329.982          96.873          51.000  
E31  25920789.183   136214667.216        1642.700          44.000    25920793.569   104372297.203        1258.795          47.000  
C33  23466690.568   122197218.705        1341.913          49.000                                                                  
C24  22550618.884   117426992.239         624.849          49.000                                                                  
R24  24330596.338                3      -1652.414          18.000    24330596.395                       -1285.548          31.000  
R01  23351066.722                2       2881.100          26.000                                                                  
E36  26436435.179   138924400.087       -1797.675          43.000    26436440.479   106448587.366       -1377.526          46.000  
E05  25972806.638   136488011.089        1500.723          38.000    25972812.371   104581751.212        1150.015          45.000  
E04  26056546.205   136928073.364       -1556.747          42.000    26056548.911   104918923.262       -1192.944          45.000  
J03  38294052.570   201236597.741        -768.521          34.000    38294061.435   156807769.649        -598.576          40.000  
G18  26260406.396                       -3537.637          28.000    26260425.981   107532016.061       -2756.240          38.000  
E23  26766469.957   140658735.794        -811.691          32.000    26766474.628   107777502.053        -621.704          41.000  
G31  26342153.876   138428955.373        3219.495          32.000    26342163.190                        2509.084          30.000  
J07  38067683.843   200047029.893        -262.626          39.000    38067682.517   155880796.729        -204.316          45.000  
E11  26927085.312   141502784.912       -3228.931          33.000    26927092.766   108424238.919       -2474.092          40.000  
E34                                                                  27901800.260                         509.996          29.000  
G24                                                                  23596836.104                       -2733.548          27.000  
J04                                                                  39325484.454   161031284.317         292.015          47.000  
> 2025 11 05 02 29 16.2430000  0 39                     
G10  21419487.453   112560166.120         521.717          50.000    21419486.467    87709216.917         406.550          46.000  
G28  23658489.992   124326208.217        2328.072          40.000    23658489.060    96877563.092        1813.821          43.000  
G15  25889194.384   136048622.115       -3323.740          34.000    25889203.204   106011946.037       -2589.555          34.000  
G32  22685338.023   119212256.373        1417.576          47.000    22685338.089    92892666.407        1104.747          44.000  
G12  22698811.534   119283060.311         270.344          46.000    22698809.407    92947830.770         210.683          42.000  
G25  22139712.430   116344979.403        2160.843          43.000    22139713.581    90658431.509        1683.504          42.000  
C06  37544717.692   195505197.690          97.262          44.000    37544706.537   151176976.507          75.177          45.000  
C08  36827238.840   191769097.621        -471.460          45.000    36827226.779   148287981.326        -364.410          49.000  
C14  22704329.921   118227403.767           1.515          47.000    22704319.517    91420887.291           1.234          49.000  
C09  38801091.615   202047465.466         197.940          42.000    38801084.336   156235887.770         153.090          48.000  
C13  36792221.102   191586751.832        -139.124          48.000    36792217.043   148147010.894        -107.562          47.000  
C16  37733580.028   196488653.274         -69.994          48.000    37733574.607   151937469.832         -54.102          48.000  
R09  22791601.784   121705832.015       -3737.869          32.000    22791603.503    94660133.768       -2908.153          37.000  
R10  20391778.161   108699650.773        -634.607          46.000                                                                  
R11  21686678.397   115887045.447        3254.602          45.000    21686677.291    90134360.905        2531.262          49.000  
R08  20727704.825   110995919.282         689.053          49.000    20727699.286    86330137.880         535.894          47.000  
R07  22139987.129   118517081.172       -2170.931          48.000    22139984.255    92179942.971       -1688.452          48.000  
R23  25030685.893   133897284.147       -3806.760          34.000                                                                  
G23  21712038.409   114097529.875       -2577.332          46.000    21712037.007    88907159.112       -2008.221          47.000  
J02  38632313.835   203014179.869         -41.183          40.000    38632315.854   158192875.264         -32.095          41.000  
E06  24783031.245   130235707.754        -767.419          47.000    24783034.459    99791009.596        -588.096          50.000  
E09  24666386.544   129622736.243         126.564          48.000    24666388.878    99321326.103          96.948          51.000  
E31  25920776.713   136214601.514        1642.624          44.000    25920781.055   104372246.849        1258.864          47.000  
C33  23466680.279   122197165.024        1341.981          49.000                                                                  
C24  22550614.095   117426967.244         624.889          49.000                                                                  
R24  24330608.386                3      -1652.414          18.000    24330608.806                       -1286.284          31.000  
R01  23351045.180                2       2881.118          26.000                                                                  
E36  26436448.907   138924472.001       -1797.725          43.000    26436454.141   106448642.454       -1377.312          46.000  
E05  25972795.190   136487951.049        1500.935          38.000    25972800.951   104581705.206        1150.150          45.000  
E04  26056558.067   136928135.629       -1556.635          42.000    26056560.717   104918970.969       -1192.786          45.000  
J03  38294058.399   201236628.463        -768.393          34.000    38294067.292   156807793.606        -598.818          40.000  
G18  26260433.332                       -3537.583          28.000    26260452.896   107532126.301       -2755.922          38.000  
E23  26766476.110   140658768.261        -811.680          32.000    26766480.790   107777526.915        -621.567          41.000  
G31  26342129.387   138428826.591        3219.548          32.000    26342138.682                        2509.427          30.000  
J07  38067685.825   200047040.371        -262.232          39.000    38067684.512   155880804.907        -204.360          45.000  
E11  26927109.976   141502914.102       -3229.402          33.000    26927117.329   108424337.901       -2474.354          40.000  
E34                                                                  27901795.197                         510.021          29.000  
G24                                                                  23596862.909                       -2732.902          27.000  
J04                                                                  39325481.611   161031272.627         292.157          47.000  
> 2025 11 05 02 29 16.2830000  0 39                     
G10  21419483.469   112560145.243         521.883          50.000    21419482.479    87709200.649         406.641          46.000  
G28  23658472.277   124326115.108        2327.891          40.000    23658471.350    96877490.535        1813.859          43.000  
G15  25889219.685   136048755.052       -3323.449          34.000    25889228.505   106012049.649       -2590.060          34.000  
G32  22685327.227   119212199.671        1417.573          47.000    22685327.305    92892622.221        1104.712          44.000  
G12  22698809.455   119283049.491         270.449          46.000    22698807.341    92947822.344         210.644          42.000  
G25  22139695.986   116344892.966        2160.924          43.000    22139697.119    90658364.153        1683.720          42.000  
C06  37544716.925   195505193.811          97.097          44.000    37544705.799   151176973.496          75.247          45.000  
C08  36827242.440   191769116.472        -471.344          45.000    36827230.401   148287995.904        -364.423          49.000  
C14  22704329.917   118227403.700           1.613          47.000    22704319.492    91420887.241           1.258          49.000  
C09  38801090.095   202047457.534         198.226          42.000    38801082.799   156235881.643         153.183          48.000  
C13  36792222.181   191586757.401        -139.154          48.000    36792218.110   148147015.207        -107.715          47.000  
C16  37733580.568   196488656.058         -69.713          48.000    37733575.143   151937471.986         -53.907          48.000  
R09  22791629.796   121705981.605       -3739.154          32.000    22791631.526    94660250.054       -2907.504          37.000  
R10  20391782.917   108699676.153        -634.525          46.000                                                                  
R11  21686654.042   115886915.268        3254.516          45.000    21686652.950    90134259.656        2531.250          49.000  
R08  20727699.697   110995891.718         689.120          49.000    20727694.167    86330116.445         535.894          47.000  
R07  22140003.338   118517168.001       -2170.763          48.000    22140000.470    92180010.507       -1688.412          48.000  
R23  25030714.338   133897436.410       -3806.874          34.000                                                                  
G23  21712058.045   114097632.965       -2577.264          46.000    21712056.611    88907239.439       -2008.203          47.000  
J02  38632314.156   203014181.520         -41.250          40.000    38632316.164   158192876.544         -32.022          41.000  
E06  24783037.141   130235738.451        -767.389          47.000    24783040.302    99791033.117        -588.060          50.000  
E09  24666385.509   129622731.174         126.718          48.000    24666387.942    99321322.223          97.007          51.000  
E31  25920764.180   136214535.801        1642.727          44.000    25920768.537   104372196.497        1258.858          47.000  
C33  23466669.979   122197111.339        1342.094          49.000                                                                  
C24  22550609.279   117426942.248         624.932          49.000                                                                  
R24  24330620.649                3      -1652.414          18.000    24330621.171                       -1285.846          31.000  
R01  23351023.503                2       2881.671          26.000                                                                  
E36  26436462.555   138924543.900       -1797.565          43.000    26436467.815   106448697.550       -1377.331          46.000  
E05  25972783.691   136487890.999        1501.193          38.000    25972789.529   104581659.208        1150.063          45.000  
E04  26056569.971   136928197.899       -1556.684          42.000    26056572.586   104919018.682       -1192.785          45.000  
J03  38294064.235   201236659.178        -768.071          34.000    38294073.147   156807817.540        -598.528          40.000  
G18  26260460.246                       -3537.611          28.000    26260479.829   107532236.570       -2756.369          38.000  
E23  26766482.247   140658800.729        -811.738          32.000    26766486.964   107777551.793        -621.799          41.000  
G31  26342104.894   138428697.792        3219.909          32.000    26342114.136                        2509.283          30.000  
J07  38067687.824   200047050.851        -262.018          39.000    38067686.510   155880813.083        -204.403          45.000  
E11  26927134.553   141503043.246       -3228.787          33.000    26927141.905   108424436.868       -2474.268          40.000  
E34                                                                  27901790.124                         510.144          29.000  
G24                                                                  23596889.467                       -2733.255          27.000  
J04                                                                  39325478.746   161031260.939         292.200          47.000  
> 2025 11 05 02 29 16.3230000  0 39                     
G10  21419479.502   112560124.373         521.814          50.000    21419478.513    87709184.381         406.709          46.000  
G28  23658454.573   124326022.005        2327.664          40.000    23658453.623    96877417.987        1813.706          43.000  
G15  25889245.002   136048887.999       -3323.581          34.000    25889253.831   106012153.258       -2590.279          34.000  
G32  22685316.427   119212142.961        1417.681          47.000    22685316.518    92892578.038        1104.635          44.000  
G12  22698807.384   119283038.672         270.464          46.000    22698805.276    92947813.913         210.703          42.000  
G25  22139679.532   116344806.533        2160.863          43.000    22139680.648    90658296.799        1683.829          42.000  
C06  37544716.181   195505189.936          96.929          44.000    37544705.064   151176970.499          75.032          45.000  
C08  36827246.063   191769135.332        -471.478          45.000    36827234.031   148288010.484        -364.465          49.000  
C14  22704329.894   118227403.637           1.564          47.000    22704319.488    91420887.189           1.289          49.000  
C09  38801088.557   202047449.619         198.034          42.000    38801081.269   156235875.523         153.062          48.000  
C13  36792223.257   191586762.970        -139.203          48.000    36792219.182   148147019.515        -107.721          47.000  
C16  37733581.087   196488658.847         -69.687          48.000    37733575.686   151937474.145         -53.919          48.000  
R09  22791657.807   121706131.166       -3739.353          32.000    22791659.522    94660366.357       -2907.517          37.000  
R10  20391787.697   108699701.541        -634.654          46.000                                                                  
R11  21686629.679   115886785.091        3254.406          45.000    21686628.592    90134158.409        2531.177          49.000  
R08  20727694.523   110995864.155         689.093          49.000    20727689.015    86330095.002         536.006          47.000  
R07  22140019.569   118517254.844       -2170.949          48.000    22140016.709    92180078.046       -1688.463          48.000  
R23  25030742.796   133897588.637       -3806.256          34.000                                                                  
G23  21712077.643   114097736.049       -2577.155          46.000    21712076.227    88907319.769       -2008.240          47.000  
J02  38632314.489   203014183.170         -41.282          40.000    38632316.470   158192877.838         -32.272          41.000  
E06  24783043.031   130235769.148        -767.388          47.000    24783046.144    99791056.639        -588.039          50.000  
E09  24666384.584   129622726.112         126.664          48.000    24666386.980    99321318.344          96.987          51.000  
E31  25920751.647   136214470.085        1642.878          44.000    25920756.051   104372146.157        1258.653          47.000  
C33  23466659.655   122197057.659        1342.041          49.000                                                                  
C24  22550604.494   117426917.261         624.773          49.000                                                                  
R24  24330632.991                3      -1655.856          18.000    24330633.552                       -1286.451          31.000  
R01  23351001.694                2       2881.694          26.000                                                                  
E36  26436476.242   138924615.805       -1797.588          43.000    26436481.554   106448752.647       -1377.367          46.000  
E05  25972772.275   136487830.972        1500.912          38.000    25972778.095   104581613.204        1150.100          45.000  
E04  26056581.810   136928260.158       -1556.537          42.000    26056584.458   104919066.386       -1192.676          45.000  
J03  38294070.068   201236689.939        -768.640          34.000    38294078.995   156807841.483        -598.506          40.000  
G18  26260487.158                       -3536.948          28.000    26260506.749   107532346.827       -2756.407          38.000  
E23  26766488.460   140658833.177        -811.404          32.000    26766493.145   107777576.681        -622.067          41.000  
G31  26342080.399   138428568.964        3220.493          32.000    26342089.609                        2509.891          30.000  
J07  38067689.824   200047061.355        -262.375          39.000    38067688.492   155880821.261        -204.435          45.000  
E11  26927159.165   141503172.433       -3229.389          33.000    26927166.521   108424535.841       -2474.328          40.000  
E34                                                                  27901785.042                         510.420          29.000  
G24                                                                  23596915.998                       -2732.736          27.000  
J04                                                                  39325475.889   161031249.258         292.064          47.000  
> 2025 11 05 02 29 16.3630000  0 39                     
G10  21419475.563   112560103.513         521.573          50.000    21419474.542    87709168.129         406.412          46.000  
G28  23658436.844   124325928.886        2327.864          40.000    23658435.906    96877345.429        1813.803          43.000  
G15  25889270.319   136049020.965       -3324.060          34.000    25889279.117   106012256.860       -2590.348          34.000  
G32  22685305.639   119212086.270        1417.409          47.000    22685305.754    92892533.855        1104.536          44.000  
G12  22698805.323   119283027.861         270.291          46.000    22698803.237    92947805.493         210.581          42.000  
G25  22139663.083   116344720.116        2160.536          43.000    22139664.222    90658229.444        1683.890          42.000  
C06  37544715.443   195505186.062          96.822          44.000    37544704.311   151176967.507          74.819          45.000  
C08  36827249.668   191769154.192        -471.539          45.000    36827237.663   148288025.067        -364.557          49.000  
C14  22704329.903   118227403.581           1.407          47.000    22704319.482    91420887.144           1.169          49.000  
C09  38801087.034   202047441.711         197.782          42.000    38801079.753   156235869.409         152.899          48.000  
C13  36792224.327   191586768.552        -139.465          48.000    36792220.255   148147023.825        -107.770          47.000  
C16  37733581.617   196488661.645         -69.849          48.000    37733576.230   151937476.302         -53.917          48.000  
R09  22791685.820   121706280.682       -3738.548          32.000    22791687.528    94660482.674       -2907.746          37.000  
R10  20391792.438   108699726.932        -634.787          46.000                                                                  
R11  21686605.316   115886654.922        3254.223          45.000    21686604.236    90134057.164        2531.079          49.000  
R08  20727689.375   110995836.599         688.948          49.000    20727683.868    86330073.562         536.044          47.000  
R07  22140035.806   118517341.683       -2170.994          48.000    22140032.946    92180145.591       -1688.603          48.000  
R23  25030771.249   133897740.882       -3806.155          33.000                                                                  
G23  21712097.251   114097839.141       -2577.240          46.000    21712095.849    88907400.107       -2008.417          47.000  
J02  38632314.804   203014184.821         -41.326          40.000    38632316.797   158192879.134         -32.415          41.000  
E06  24783048.947   130235799.853        -767.531          47.000    24783051.939    99791080.162        -588.067          50.000  
E09  24666383.673   129622721.059         126.452          48.000    24666386.011    99321314.467          96.952          51.000  
E31  25920739.185   136214404.380        1642.763          44.000    25920743.537   104372095.812        1258.587          47.000  
C33  23466649.336   122197003.990        1341.806          49.000                                                                  
C24  22550599.677   117426892.278         624.604          49.000                                                                  
R24  24330645.348                3      -1655.856          18.000    24330645.955                       -1286.961          31.000  
R01  23350980.330                2       2881.370          26.000                                                                  
E36  26436489.970   138924687.716       -1797.678          43.000    26436495.235   106448807.745       -1377.434          46.000  
E05  25972760.840   136487770.943        1500.762          38.000    25972766.668   104581567.205        1150.034          45.000  
E04  26056593.636   136928322.425       -1556.591          42.000    26056596.315   104919114.088       -1192.577          45.000  
J03  38294075.918   201236720.661        -768.355          34.000    38294084.856   156807865.431        -598.671          40.000  
G18  26260514.074                       -3537.134          28.000    26260533.689   107532457.096       -2756.681          38.000  
E23  26766494.623   140658865.618        -811.065          32.000    26766499.357   107777601.570        -622.264          41.000  
G31  26342055.867   138428440.173        3220.099          32.000    26342065.121                        2508.774          30.000  
J07  38067691.824   200047071.855        -262.529          39.000    38067690.507   155880829.449        -204.681          45.000  
E11  26927183.734   141503301.592       -3229.264          33.000    26927191.107   108424634.811       -2474.297          40.000  
E34                                                                  27901779.964                         510.739          29.000  
G24                                                                  23596942.586                       -2732.651          27.000  
J04                                                                  39325473.027   161031237.569         292.132          47.000  
> 2025 11 05 02 29 16.4030000  0 39                     
G10  21419471.615   112560082.658         521.352          50.000    21419470.582    87709151.879         406.222          46.000  
G28  23658419.124   124325835.775        2327.826          40.000    23658418.183    96877272.879        1813.759          43.000  
G15  25889295.632   136049153.940       -3324.465          34.000    25889304.408   106012360.444       -2590.008          34.000  
G32  22685294.859   119212029.577        1417.263          47.000    22685294.978    92892489.672        1104.519          44.000  
G12  22698803.285   119283017.054         270.138          46.000    22698801.186    92947797.077         210.462          42.000  
G25  22139646.652   116344633.700        2160.358          43.000    22139647.795    90658162.116        1683.427          42.000  
C06  37544714.699   195505182.189          96.754          44.000    37544703.583   151176964.513          74.782          45.000  
C08  36827253.289   191769173.053        -471.533          45.000    36827241.296   148288039.655        -364.697          49.000  
C14  22704329.887   118227403.527           1.314          47.000    22704319.474    91420887.105           0.974          49.000  
C09  38801085.516   202047433.806         197.590          42.000    38801078.232   156235863.286         152.977          48.000  
C13  36792225.402   191586774.132        -139.563          48.000    36792221.324   148147028.136        -107.806          47.000  
C16  37733582.146   196488664.444         -69.979          48.000    37733576.767   151937478.467         -54.063          48.000  
R09  22791713.797   121706430.176       -3737.600          32.000    22791715.530    94660598.988       -2907.771          37.000  
R10  20391797.189   108699752.330        -634.980          46.000                                                                  
R11  21686580.946   115886524.757        3254.059          45.000    21686579.871    90133955.917        2531.085          49.000  
R08  20727684.216   110995809.042         688.893          49.000    20727678.747    86330052.131         535.854          46.000  
R07  22140052.053   118517428.537       -2171.263          48.000    22140049.152    92180213.140       -1688.732          48.000  
R23  25030799.700   133897893.158       -3806.688          34.000                                                                  
G23  21712116.869   114097942.241       -2577.478          46.000    21712115.456    88907480.446       -2008.521          48.000  
J02  38632315.117   203014186.485         -41.559          40.000    38632317.123   158192880.415         -32.228          41.000  
E06  24783054.837   130235830.556        -767.587          47.000    24783057.792    99791103.685        -588.082          50.000  
E09  24666382.792   129622716.008         126.294          48.000    24666385.024    99321310.597          96.814          51.000  
E31  25920726.706   136214338.677        1642.638          44.000    25920731.012   104372045.470        1258.524          47.000  
C33  23466639.008   122196950.317        1341.758          49.000                                                                  
C24  22550594.850   117426867.295         624.520          49.000                                                                  
R24  24330657.938                3      -1655.856          18.000    24330658.321                       -1286.008          31.000  
R01  23350958.318                2       2880.928          26.000                                                                  
E36  26436503.661   138924759.634       -1797.883          43.000    26436508.931   106448862.854       -1377.618          46.000  
E05  25972749.426   136487710.914        1500.700          38.000    25972755.249   104581521.207        1149.962          45.000  
E04  26056605.514   136928384.697       -1556.737          42.000    26056608.182   104919161.809       -1192.878          45.000  
J03  38294081.757   201236751.390        -768.240          34.000    38294090.698   156807889.387        -598.866          40.000  
G18  26260541.005                       -3537.704          28.000    26260560.620   107532567.361       -2756.775          38.000  
E23  26766500.783   140658898.122        -811.966          32.000    26766505.556   107777626.447        -622.128          41.000  
G31  26342031.358   138428311.375        3220.090          33.000    26342040.651                        2508.034          30.000  
J07  38067693.822   200047082.369        -262.813          39.000    38067692.503   155880837.628        -204.604          45.000  
E11  26927208.374   141503430.733       -3228.782          33.000    26927215.679   108424733.775       -2474.185          40.000  
E34                                                                  27901774.905   112348883.197         510.769          29.000  
G24                                                                  23596969.440                       -2732.728          27.000  
J04                                                                  39325470.200   161031225.883         292.132          47.000  
> 2025 11 05 02 29 16.4430000  0 39                     
G10  21419467.626   112560061.802         521.323          50.000    21419466.620    87709135.632         406.106          46.000  
G28  23658401.385   124325742.676        2327.565          40.000    23658400.469    96877200.326        1813.760          43.000  
G15  25889320.921   136049286.880       -3324.033          34.000    25889329.698   106012464.047       -2590.132          34.000  
G32  22685284.102   119211972.880        1417.275          47.000    22685284.188    92892445.494        1104.430          44.000  
G12  22698801.246   119283006.249         270.041          46.000    22698799.141    92947788.647         210.621          42.000  
G25  22139630.196   116344547.273        2160.537          43.000    22139631.335    90658094.775        1683.420          42.000  
C06  37544713.946   195505178.305          96.907          44.000    37544702.839   151176961.512          74.856          45.000  
C08  36827256.893   191769191.911        -471.472          45.000    36827244.923   148288054.242        -364.746          49.000  
C14  22704329.900   118227403.464           1.437          47.000    22704319.468    91420887.062           0.981          49.000  
C09  38801084.013   202047425.903         197.487          42.000    38801076.712   156235857.171         152.870          48.000  
C13  36792226.455   191586779.708        -139.484          48.000    36792222.406   148147032.450        -107.886          47.000  
C16  37733582.680   196488667.243         -70.026          48.000    37733577.310   151937480.630         -54.120          48.000  
R09  22791741.800   121706579.752       -3738.609          32.000    22791743.543    94660715.294       -2907.668          37.000  
R10  20391801.950   108699777.726        -635.014          46.000                                                                  
R11  21686556.605   115886394.579        3254.272          45.000    21686555.504    90133854.669        2531.122          49.000  
R08  20727679.058   110995781.487         688.863          49.000    20727673.599    86330030.705         535.628          46.000  
R07  22140068.283   118517515.383       -2171.260          48.000    22140065.354    92180280.684       -1688.705          48.000  
R23  25030828.177   133898045.418       -3806.726          33.000                                                                  
G23  21712136.523   114098045.341       -2577.588          46.000    21712135.056    88907560.783       -2008.508          48.000  
J02  38632315.419   203014188.140         -41.472          40.000    38632317.418   158192881.707         -32.324          41.000  
E06  24783060.697   130235861.269        -767.769          47.000    24783063.671    99791127.215        -588.216          50.000  
E09  24666381.790   129622710.955         126.241          48.000    24666384.120    99321306.723          96.784          51.000  
E31  25920714.199   136214272.984        1642.392          44.000    25920718.519   104371995.127        1258.526          47.000  
C33  23466628.709   122196896.645        1341.741          49.000                                                                  
C24  22550590.068   117426842.313         624.487          49.000                                                                  
R24  24330670.312                3      -1662.159          19.000    24330670.646                       -1284.493          31.000  
R01  23350936.937                2       2880.693          26.000                                                                  
E36  26436517.357   138924831.550       -1797.966          43.000    26436522.622   106448917.961       -1377.722          46.000  
E05  25972737.986   136487650.885        1500.647          38.000    25972743.824   104581475.212        1149.872          45.000  
E04  26056617.393   136928446.985       -1557.102          42.000    26056620.058   104919209.534       -1193.095          45.000  
J03  38294087.599   201236782.157        -768.974          34.000    38294096.568   156807913.335        -598.825          40.000  
G18  26260567.957                       -3537.546          28.000    26260587.562   107532677.642       -2757.063          38.000  
E23  26766506.934   140658930.612        -812.328          32.000    26766511.718   107777651.315        -621.870          41.000  
G31  26342006.862   138428182.641        3218.833          32.000    26342016.143                        2508.615          30.000  
J07  38067695.797   200047092.860        -262.588          39.000    38067694.499   155880845.812        -204.615          45.000  
E11  26927232.981   141503559.881       -3228.695          33.000    26927240.268   108424832.760       -2474.477          40.000  
E34                                                                  27901769.833                         510.474          29.000  
G24                                                                  23596996.079                       -2732.336          27.000  
J04                                                                  39325467.343   161031214.198         292.114          47.000  
> 2025 11 05 02 29 16.4830000  0 39                     
G10  21419463.629   112560040.943         521.379          50.000    21419462.662    87709119.380         406.194          46.000  
G28  23658383.677   124325649.569        2327.555          40.000    23658382.756    96877127.776        1813.709          43.000  
G15  25889346.191   136049419.830       -3323.945          34.000    25889354.996   106012567.644       -2589.976          34.000  
G32  22685273.306   119211916.180        1417.351          47.000    22685273.419    92892401.313        1104.482          44.000  
G12  22698799.199   119282995.443         270.053          46.000    22698797.084    92947780.224         210.572          42.000  
G25  22139613.723   116344460.853        2160.481          43.000    22139614.891    90658027.443        1683.251          42.000  
C06  37544713.221   195505174.421          97.017          44.000    37544702.096   151176958.512          74.904          45.000  
C08  36827260.501   191769210.770        -471.478          45.000    36827248.543   148288068.822        -364.618          49.000  
C14  22704329.886   118227403.407           1.424          47.000    22704319.465    91420887.013           1.096          49.000  
C09  38801082.501   202047417.976         197.898          42.000    38801075.179   156235851.049         152.953          48.000  
C13  36792227.530   191586785.285        -139.441          48.000    36792223.487   148147036.757        -107.751          47.000  
C16  37733583.246   196488670.038         -69.971          48.000    37733577.854   151937482.793         -54.109          48.000  
R09  22791769.802   121706729.288       -3738.533          32.000    22791771.530    94660831.603       -2907.690          37.000  
R10  20391806.697   108699803.121        -634.972          46.000                                                                  
R11  21686532.243   115886264.404        3254.315          45.000    21686531.138    90133753.424        2531.110          49.000  
R08  20727673.925   110995753.932         688.839          49.000    20727668.486    86330009.273         535.714          46.000  
R07  22140084.492   118517602.225       -2171.154          48.000    22140081.597    92180348.227       -1688.669          48.000  
R23  25030856.655   133898197.680       -3806.745          33.000                                                                  
G23  21712156.125   114098148.443       -2577.637          46.000    21712154.682    88907641.119       -2008.460          48.000  
J02  38632315.733   203014189.782         -41.212          40.000    38632317.749   158192883.002         -32.373          41.000  
E06  24783066.504   130235891.971        -767.678          47.000    24783069.507    99791150.744        -588.260          50.000  
E09  24666380.791   129622705.899         126.302          48.000    24666383.156    99321302.848          96.819          51.000  
E31  25920701.683   136214207.281        1642.429          44.000    25920706.013   104371944.773        1258.683          47.000  
C33  23466618.379   122196842.967        1341.845          49.000                                                                  
C24  22550585.288   117426817.317         624.717          49.000                                                                  
R24  24330682.711                3      -1662.159          19.000    24330683.063                       -1285.505          31.000  
R01  23350915.366                2       2880.823          26.000                                                                  
E36  26436531.013   138924903.465       -1797.941          43.000    26436536.301   106448973.060       -1377.633          46.000  
E05  25972726.588   136487590.849        1500.779          38.000    25972732.370   104581429.214        1149.912          45.000  
E04  26056629.236   136928509.256       -1556.938          42.000    26056631.869   104919257.253       -1193.101          45.000  
J03  38294093.459   201236812.897        -768.883          34.000    38294102.417   156807937.286        -598.835          40.000  
G18  26260594.895                       -3537.917          28.000    26260614.497   107532787.879       -2756.337          38.000  
E23  26766513.064   140658963.074        -811.997          32.000    26766517.895   107777676.183        -621.702          41.000  
G31  26341982.356   138428053.828        3219.594          32.000    26341991.633                        2509.057          30.000  
J07  38067697.769   200047103.325        -261.928          39.000    38067696.496   155880853.986        -204.459          45.000  
E11  26927257.507   141503689.074       -3229.425          33.000    26927264.825   108424931.743       -2474.602          40.000  
E34                                                                  27901764.761                         509.939          29.000  
G24                                                                  23597022.874                       -2732.753          27.000  
J04                                                                  39325464.492   161031202.507         292.218          47.000  
> 2025 11 05 02 29 16.5230000  0 39                     
G10  21419459.636   112560020.076         521.564          50.000    21419458.672    87709103.112         406.545          46.000  
G28  23658365.952   124325556.443        2327.925          40.000    23658365.031    96877055.227        1813.678          43.000  
G15  25889371.492   136049552.787       -3324.107          34.000    25889380.315   106012671.238       -2589.929          34.000  
G32  22685262.502   119211859.477        1417.482          47.000    22685262.619    92892357.128        1104.587          44.000  
G12  22698797.114   119282984.627         270.233          46.000    22698795.025    92947771.784         210.844          42.000  
G25  22139597.259   116344374.417        2160.714          43.000    22139598.434    90657960.090        1683.567          42.000  
C06  37544712.460   195505170.539          97.034          44.000    37544701.355   151176955.508          74.994          45.000  
C08  36827264.124   191769229.633        -471.564          45.000    36827252.157   148288083.400        -364.502          49.000  
C14  22704329.871   118227403.348           1.449          47.000    22704319.447    91420886.961           1.219          49.000  
C09  38801080.963   202047410.036         198.347          42.000    38801073.660   156235844.926         153.021          48.000  
C13  36792228.631   191586790.853        -139.288          48.000    36792224.542   148147041.065        -107.721          47.000  
C16  37733583.821   196488672.829         -69.853          48.000    37733578.406   151937484.954         -54.082          48.000  
R09  22791797.767   121706878.861       -3739.193          32.000    22791799.506    94660947.910       -2907.678          37.000  
R10  20391811.453   108699828.518        -634.997          46.000                                                                  
R11  21686507.884   115886134.228        3254.358          45.000    21686506.759    90133652.178        2531.122          49.000  
R08  20727668.772   110995726.376         688.833          49.000    20727663.338    86329987.834         535.872          46.000  
R07  22140100.713   118517689.061       -2170.995          48.000    22140097.834    92180415.771       -1688.663          48.000  
R23  25030885.119   133898349.943       -3806.847          33.000                                                                  
G23  21712175.737   114098251.546       -2577.631          46.000    21712174.303    88907721.452       -2008.362          48.000  
J02  38632316.038   203014191.434         -41.300          40.000    38632318.050   158192884.291         -32.275          41.000  
E06  24783072.264   130235922.674        -767.637          47.000    24783075.349    99791174.265        -588.152          50.000  
E09  24666379.758   129622700.840         126.387          48.000    24666382.210    99321298.971          96.861          51.000  
E31  25920689.116   136214141.566        1642.673          44.000    25920693.533   104371894.424        1258.713          47.000  
C33  23466608.111   122196789.291        1341.895          49.000                                                                  
C24  22550580.469   117426792.328         624.719          49.000                                                                  
R24  24330695.315                3      -1662.159          19.000    24330695.415                       -1286.071          31.000  
R01  23350893.724                2       2880.882          26.000                                                                  
E36  26436544.673   138924975.367       -1797.719          43.000    26436549.963   106449028.162       -1377.572          46.000  
E05  25972715.175   136487530.808        1500.943          38.000    25972720.965   104581383.213        1149.976          45.000  
E04  26056641.052   136928571.518       -1556.727          42.000    26056643.715   104919304.963       -1192.936          45.000  
J03  38294099.290   201236843.584        -767.836          34.000    38294108.254   156807961.223        -598.625          40.000  
G18  26260621.828                       -3537.831          28.000    26260641.429   107532898.137       -2756.250          38.000  
E23  26766519.231   140658995.548        -811.919          32.000    26766524.059   107777701.062        -621.787          41.000  
G31  26341957.832   138427925.038        3219.625          32.000    26341967.128                        2508.772          31.000  
J07  38067699.770   200047113.819        -262.149          39.000    38067698.500   155880862.149        -204.198          45.000  
E11  26927282.098   141503818.266       -3229.699          33.000    26927289.405   108425030.691       -2474.080          40.000  
E34                                                                  27901759.708                         510.063          29.000  
G24                                                                  23597049.546                       -2733.445          27.000  
J04                                                                  39325461.622   161031190.822         292.150          47.000  
> 2025 11 05 02 29 16.5630000  0 39                     
G10  21419455.682   112559999.212         521.601          50.000    21419454.658    87709086.851         406.593          46.000  
G28  23658348.229   124325463.338        2327.691          40.000    23658347.302    96876982.670        1813.852          43.000  
G15  25889396.791   136049685.725       -3323.856          34.000    25889405.625   106012774.843       -2590.093          34.000  
G32  22685251.686   119211802.775        1417.531          47.000    22685251.823    92892312.942        1104.616          44.000  
G12  22698795.037   119282973.815         270.278          46.000    22698792.968    92947763.353         210.861          42.000  
G25  22139580.824   116344287.985        2160.742          43.000    22139581.998    90657892.749        1683.509          42.000  
C06  37544711.716   195505166.661          96.965          44.000    37544700.616   151176952.508          75.019          45.000  
C08  36827267.750   191769248.498        -471.649          45.000    36827255.782   148288097.984        -364.557          49.000  
C14  22704329.870   118227403.288           1.476          47.000    22704319.421    91420886.919           1.118          49.000  
C09  38801079.428   202047402.124         198.046          42.000    38801072.145   156235838.798         153.146          48.000  
C13  36792229.707   191586796.423        -139.227          48.000    36792225.608   148147045.374        -107.764          47.000  
C16  37733584.407   196488675.617         -69.731          48.000    37733578.948   151937487.113         -54.009          48.000  
R09  22791825.713   121707028.385       -3738.492          32.000    22791827.534    94661064.229       -2907.836          37.000  
R10  20391816.214   108699853.907        -634.843          46.000                                                                  
R11  21686483.541   115886004.068        3254.089          45.000    21686482.418    90133550.934        2531.085          49.000  
R08  20727663.631   110995698.814         688.960          49.000    20727658.215    86329966.405         535.795          46.000  
R07  22140116.939   118517775.906       -2171.102          48.000    22140114.067    92180483.314       -1688.635          48.000  
R23  25030913.607   133898502.176       -3806.221          33.000                                                                  
G23  21712195.350   114098354.642       -2577.490          46.000    21712193.925    88907801.787       -2008.368          48.000  
J02  38632316.333   203014193.094         -41.438          40.000    38632318.355   158192885.578         -32.193          41.000  
E06  24783078.115   130235953.369        -767.474          47.000    24783081.161    99791197.789        -588.103          50.000  
E09  24666378.760   129622695.772         126.605          48.000    24666381.228    99321295.094          96.902          51.000  
E31  25920676.634   136214075.861        1642.664          44.000    25920681.016   104371844.080        1258.656          47.000  
C33  23466597.797   122196735.617        1341.849          49.000                                                                  
C24  22550575.651   117426767.342         624.659          49.000                                                                  
R24  24330707.519                3      -1657.462          19.000    24330707.829                       -1286.235          31.000  
R01  23350871.837                2       2881.563          27.000                                                                  
E36  26436558.381   138925047.281       -1797.787          43.000    26436563.656   106449083.262       -1377.535          46.000  
E05  25972703.737   136487470.781        1500.770          38.000    25972709.547   104581337.216        1149.938          45.000  
E04  26056652.904   136928633.794       -1556.824          42.000    26056655.547   104919352.672       -1192.801          45.000  
J03  38294105.152   201236874.312        -767.917          34.000    38294114.102   156807985.167        -598.615          40.000  
G18  26260648.762                       -3537.438          28.000    26260668.364   107533008.397       -2756.349          38.000  
E23  26766525.462   140659027.986        -811.270          32.000    26766530.240   107777725.939        -621.853          41.000  
G31  26341933.330   138427796.241        3219.842          32.000    26341942.621                        2508.255          31.000  
J07  38067701.793   200047124.335        -262.708          39.000    38067700.507   155880870.329        -204.359          45.000  
E11  26927306.688   141503947.466       -3230.064          33.000    26927314.004   108425129.664       -2474.140          40.000  
E34                                                                  27901754.619                         509.793          29.000  
G24                                                                  23597076.155                       -2733.279          27.000  
J04                                                                  39325458.758   161031179.140         292.039          47.000  
> 2025 11 05 02 29 16.6030000  0 39                     
G10  21419451.732   112559978.358         521.422          50.000    21419450.691    87709070.598         406.395          46.000  
G28  23658330.508   124325370.242        2327.372          40.000    23658329.578    96876910.113        1813.940          43.000  
G15  25889422.086   136049818.675       -3323.786          34.000    25889430.936   106012878.472       -2590.456          34.000  
G32  22685240.910   119211746.074        1417.521          47.000    22685241.040    92892268.768        1104.423          44.000  
G12  22698792.966   119282963.008         270.183          46.000    22698790.919    92947754.949         210.364          42.000  
G25  22139564.379   116344201.568        2160.470          43.000    22139565.550    90657825.407        1683.507          42.000  
C06  37544710.997   195505162.782          96.947          44.000    37544699.863   151176949.511          74.930          45.000  
C08  36827271.386   191769267.359        -471.631          45.000    36827259.411   148288112.571        -364.685          49.000  
C14  22704329.837   118227403.227           1.479          47.000    22704319.413    91420886.876           1.032          49.000  
C09  38801077.899   202047394.218         197.744          42.000    38801070.635   156235832.688         152.868          48.000  
C13  36792230.757   191586802.004        -139.441          48.000    36792226.680   148147049.692        -107.935          47.000  
C16  37733584.939   196488678.420         -69.978          47.000    37733579.502   151937489.274         -54.031          48.000  
R09  22791853.725   121707177.909       -3738.144          32.000    22791855.541    94661180.552       -2908.077          37.000  
R10  20391820.970   108699879.304        -634.908          46.000                                                                  
R11  21686459.178   115885873.905        3253.979          45.000    21686458.068    90133449.693        2531.018          49.000  
R08  20727658.496   110995671.267         688.763          48.000    20727653.062    86329944.979         535.657          46.000  
R07  22140133.176   118517862.753       -2171.154          48.000    22140130.273    92180550.861       -1688.689          48.000  
R23  25030942.086   133898654.425       -3806.175          33.000                                                                  
G23  21712214.960   114098457.744       -2577.539          46.000    21712213.521    88907882.130       -2008.533          48.000  
J02  38632316.646   203014194.747         -41.424          40.000    38632318.659   158192886.856         -31.992          41.000  
E06  24783083.996   130235984.072        -767.528          47.000    24783086.992    99791221.312        -588.096          50.000  
E09  24666377.874   129622690.721         126.425          48.000    24666380.278    99321291.223          96.808          51.000  
E31  25920664.161   136214010.159        1642.604          44.000    25920668.507   104371793.737        1258.570          47.000  
C33  23466587.488   122196681.942        1341.830          49.000                                                                  
C24  22550570.830   117426742.367         624.438          48.000                                                                  
R24  24330719.948                3      -1655.104          20.000    24330720.227                       -1285.562          31.000  
R01  23350849.902                2       2881.391          26.000                                                                  
E36  26436572.090   138925119.200       -1797.905          43.000    26436577.335   106449138.363       -1377.523          46.000  
E05  25972692.319   136487410.747        1500.831          38.000    25972698.117   104581291.221        1149.874          45.000  
E04  26056664.676   136928696.063       -1556.813          42.000    26056667.399   104919400.392       -1192.871          45.000  
J03  38294111.011   201236905.039        -767.953          34.000    38294119.976   156808009.113        -598.627          40.000  
G18  26260675.650                       -3537.569          28.000    26260695.303   107533118.675       -2756.828          38.000  
E23  26766531.553   140659060.443        -811.227          32.000    26766536.443   107777750.837        -622.259          41.000  
G31  26341908.820   138427667.464        3219.579          32.000    26341918.101                        2509.160          31.000  
J07  38067703.822   200047134.852        -262.979          39.000    38067702.506   155880878.509        -204.496          45.000  
E11  26927331.306   141504076.607       -3229.244          33.000    26927338.597   108425228.630       -2474.129          40.000  
E34                                                                  27901749.579                         509.880          29.000  
G24                                                                  23597102.988                       -2733.139          27.000  
J04                                                                  39325455.909   161031167.457         292.015          47.000  
> 2025 11 05 02 29 16.6430000  0 39                     
G10  21419447.754   112559957.505         521.311          50.000    21419446.718    87709054.350         406.223          46.000  
G28  23658312.824   124325277.142        2327.329          40.000    23658311.879    96876837.551        1814.077          43.000  
G15  25889447.380   136049951.606       -3323.393          34.000    25889456.216   106012982.044       -2589.713          35.000  
G32  22685230.116   119211689.377        1417.428          46.000    22685230.251    92892224.599        1104.233          44.000  
G12  22698790.903   119282952.210         269.995          46.000    22698788.849    92947746.549         209.991          42.000  
G25  22139547.956   116344115.174        2159.933          43.000    22139549.119    90657758.070        1683.423          42.000  
C06  37544710.240   195505158.914          96.720          44.000    37544699.116   151176946.514          74.894          45.000  
C08  36827275.007   191769286.215        -471.484          45.000    36827263.042   148288127.163        -364.825          49.000  
C14  22704329.832   118227403.181           1.197          47.000    22704319.407    91420886.844           0.820          49.000  
C09  38801076.393   202047386.314         197.558          42.000    38801069.105   156235826.571         152.845          48.000  
C13  36792231.834   191586807.585        -139.551          48.000    36792227.760   148147054.008        -107.947          47.000  
C16  37733585.477   196488681.222         -70.065          47.000    37733580.042   151937491.446         -54.227          48.000  
R09  22791881.778   121707327.486       -3738.839          32.000    22791883.571    94661296.884       -2908.418          37.000  
R10  20391825.724   108699904.715        -635.206          46.000                                                                  
R11  21686434.807   115885743.738        3254.028          45.000    21686433.714    90133348.460        2530.823          49.000  
R08  20727653.352   110995643.722         688.621          48.000    20727647.946    86329923.555         535.576          46.000  
R07  22140149.389   118517949.603       -2171.257          48.000    22140146.506    92180618.412       -1688.780          48.000  
R23  25030970.560   133898806.691       -3806.599          33.000                                                                  
G23  21712234.576   114098560.843       -2577.521          45.000    21712233.148    88907962.474       -2008.636          48.000  
J02  38632316.958   203014196.394         -41.224          40.000    38632318.978   158192888.145         -32.137          41.000  
E06  24783089.884   130236014.774        -767.534          46.000    24783092.865    99791244.842        -588.191          50.000  
E09  24666376.978   129622685.671         126.281          48.000    24666379.336    99321287.352          96.773          51.000  
E31  25920651.632   136213944.453        1642.617          44.000    25920655.994   104371743.399        1258.461          47.000  
C33  23466577.176   122196628.272        1341.760          48.000                                                                  
C24  22550566.038   117426717.390         624.353          48.000                                                                  
R24  24330732.352                3      -1655.104          20.000    24330732.629                       -1287.406          31.000  
R01  23350828.245                2       2881.528          27.000                                                                  
E36  26436585.797   138925191.127       -1798.112          43.000    26436591.039   106449193.467       -1377.571          46.000  
E05  25972680.893   136487350.727        1500.573          38.000    25972686.695   104581245.224        1149.877          45.000  
E04  26056676.544   136928758.332       -1556.788          42.000    26056679.227   104919448.104       -1192.848          45.000  
J03  38294116.875   201236935.818        -768.945          34.000    38294125.832   156808033.078        -599.040          40.000  
G18  26260702.588                       -3537.510          28.000    26260722.234   107533228.946       -2756.957          38.000  
E23  26766537.726   140659092.936        -811.853          32.000    26766542.644   107777775.723        -622.297          41.000  
G31  26341884.288   138427538.655        3219.833          32.000    26341893.600                        2508.609          31.000  
J07  38067705.819   200047145.329        -262.347          39.000    38067704.513   155880886.697        -204.680          45.000  
E11  26927355.900   141504205.759       -3228.802          33.000    26927363.192   108425327.606       -2474.284          40.000  
E34                                                                  27901744.513                         510.230          29.000  
G24                                                                  23597129.443                       -2733.052          27.000  
J04                                                                  39325453.082   161031155.781         291.880          47.000  
> 2025 11 05 02 29 16.6830000  0 39                     
G10  21419443.790   112559936.648         521.330          50.000    21419442.731    87709038.109         406.027          46.000  
G28  23658295.103   124325184.029        2327.600          40.000    23658294.149    96876765.001        1813.870          43.000  
G15  25889472.690   136050084.596       -3324.313          34.000    25889481.508   106013085.619       -2589.336          35.000  
G32  22685219.347   119211632.682        1417.338          46.000    22685219.455    92892180.423        1104.301          44.000  
G12  22698788.863   119282941.422         269.714          46.000    22698786.779    92947738.125         210.265          42.000  
G25  22139531.530   116344028.766        2159.944          43.000    22139532.689    90657690.753        1683.049          42.000  
C06  37544709.509   195505155.040          96.754          44.000    37544698.366   151176943.511          75.007          45.000  
C08  36827278.613   191769305.076        -471.484          45.000    36827266.663   148288141.749        -364.746          49.000  
C14  22704329.798   118227403.135           1.108          47.000    22704319.388    91420886.803           0.891          49.000  
C09  38801074.873   202047378.408         197.525          42.000    38801067.585   156235820.453         152.885          48.000  
C13  36792232.882   191586813.166        -139.532          47.000    36792228.821   148147058.324        -107.971          47.000  
C16  37733586.017   196488684.026         -70.159          47.000    37733580.578   151937493.604         -54.071          48.000  
R09  22791909.789   121707477.029       -3738.697          32.000    22791911.590    94661413.196       -2908.104          37.000  
R10  20391830.465   108699930.125        -635.342          46.000                                                                  
R11  21686410.450   115885613.577        3253.973          44.000    21686409.356    90133247.216        2530.969          49.000  
R08  20727648.199   110995616.169         688.686          48.000    20727642.782    86329902.123         535.691          46.000  
R07  22140165.627   118518036.456       -2171.350          48.000    22140162.741    92180685.960       -1688.782          48.000  
R23  25030999.001   133898958.913       -3805.881          33.000                                                                  
G23  21712254.194   114098663.948       -2577.637          45.000    21712252.777    88908042.815       -2008.606          48.000  
J02  38632317.275   203014198.050         -41.322          40.000    38632319.301   158192889.445         -32.436          41.000  
E06  24783095.760   130236045.490        -767.776          46.000    24783098.702    99791268.373        -588.255          50.000  
E09  24666376.033   129622680.615         126.303          48.000    24666378.373    99321283.480          96.753          51.000  
E31  25920639.170   136213878.760        1642.410          44.000    25920643.477   104371693.063        1258.373          47.000  
C33  23466566.858   122196574.608        1341.603          48.000                                                                  
C24  22550561.258   117426692.413         624.305          48.000                                                                  
R24  24330744.791                3      -1655.104          20.000    24330744.971                       -1286.716          31.000  
R01  23350806.536                2       2881.520          26.000                                                                  
E36  26436599.507   138925263.054       -1798.250          43.000    26436604.710   106449248.578       -1377.731          46.000  
E05  25972669.537   136487290.693        1500.675          38.000    25972675.258   104581199.227        1149.890          45.000  
E04  26056688.450   136928820.614       -1556.972          41.000    26056691.131   104919495.818       -1192.848          45.000  
J03  38294122.731   201236966.563        -768.961          34.000    38294131.680   156808057.028        -598.896          40.000  
G18  26260729.478                       -3537.529          28.000    26260749.156   107533339.166       -2756.042          38.000  
E23  26766543.899   140659125.430        -812.295          32.000    26766548.833   107777800.615        -622.367          41.000  
G31  26341859.797   138427409.861        3219.780          32.000    26341869.082                        2510.046          31.000  
J07  38067707.801   200047155.832        -262.448          39.000    38067706.519   155880894.885        -204.758          45.000  
E11  26927380.526   141504334.926       -3228.869          33.000    26927387.770   108425426.596       -2474.612          40.000  
E34                                                                  27901739.408                         510.126          29.000  
G24                                                                  23597156.164                       -2733.389          27.000  
J04                                                                  39325450.207   161031144.099         291.955          47.000  
> 2025 11 05 02 29 16.7230000  0 39                     
G10  21419439.824   112559915.793         521.306          50.000    21419438.761    87709021.861         406.077          46.000  
G28  23658277.384   124325090.921        2327.656          40.000    23658276.422    96876692.445        1813.876          43.000  
G15  25889497.992   136050217.574       -3324.528          34.000    25889506.806   106013189.233       -2589.893          34.000  
G32  22685208.567   119211575.987        1417.303          46.000    22685208.658    92892136.239        1104.464          44.000  
G12  22698786.801   119282930.618         269.895          46.000    22698784.716    92947729.709         210.308          42.000  
G25  22139515.088   116343942.347        2160.210          43.000    22139516.241    90657623.398        1683.527          42.000  
C06  37544708.780   195505151.163          96.842          44.000    37544697.621   151176940.514          74.924          45.000  
C08  36827282.236   191769323.939        -471.545          45.000    36827270.290   148288156.328        -364.569          49.000  
C14  22704329.795   118227403.076           1.250          47.000    22704319.383    91420886.760           1.001          49.000  
C09  38801073.331   202047370.489         197.792          42.000    38801066.066   156235814.333         152.954          48.000  
C13  36792233.952   191586818.739        -139.417          47.000    36792229.886   148147062.634        -107.849          47.000  
C16  37733586.575   196488686.823         -70.057          47.000    37733581.115   151937495.770         -54.151          48.000  
R09  22791937.788   121707626.598       -3739.064          32.000    22791939.577    94661529.478       -2907.396          37.000  
R10  20391835.228   108699955.525        -635.171          46.000                                                                  
R11  21686386.078   115885483.404        3254.193          44.000    21686385.000    90133145.975        2531.006          49.000  
R08  20727643.042   110995588.620         688.693          48.000    20727637.624    86329880.688         535.798          46.000  
R07  22140181.835   118518123.301       -2171.232          48.000    22140178.973    92180753.507       -1688.725          48.000  
R23  25031027.459   133899111.186       -3806.494          33.000                                                                  
G23  21712273.826   114098767.052       -2577.625          45.000    21712272.415    88908123.152       -2008.490          48.000  
J02  38632317.599   203014199.713         -41.525          40.000    38632319.616   158192890.738         -32.458          41.000  
E06  24783101.619   130236076.196        -767.745          46.000    24783104.523    99791291.904        -588.305          50.000  
E09  24666375.066   129622675.562         126.304          48.000    24666377.374    99321279.606          96.785          51.000  
E31  25920626.688   136213813.063        1642.382          44.000    25920630.967   104371642.721        1258.443          47.000  
C33  23466556.554   122196520.937        1341.658          48.000                                                                  
C24  22550556.483   117426667.424         624.524          48.000                                                                  
R24  24330756.644                3      -1655.104          20.000    24330757.376                       -1286.628          31.000  
R01  23350784.545                2       2881.335          26.000                                                                  
E36  26436613.115   138925334.961       -1797.929          43.000    26436618.391   106449303.677       -1377.614          46.000  
E05  25972658.125   136487230.674        1500.510          38.000    25972663.853   104581153.228        1149.938          45.000  
E04  26056700.308   136928882.890       -1556.948          41.000    26056702.950   104919543.534       -1192.887          45.000  
J03  38294128.576   201236997.304        -768.765          34.000    38294137.529   156808080.976        -598.779          40.000  
G18  26260756.446                       -3537.772          28.000    26260776.084   107533449.434       -2756.358          38.000  
E23  26766550.066   140659157.895        -811.996          32.000    26766555.024   107777825.495        -622.184          41.000  
G31  26341835.282   138427281.098        3219.210          32.000    26341844.539                        2509.250          31.000  
J07  38067709.782   200047166.300        -261.868          39.000    38067708.506   155880903.065        -204.664          45.000  
E11  26927405.103   141504464.095       -3228.963          33.000    26927412.327   108425525.577       -2474.649          40.000  
E34                                                                  27901734.333                         510.390          29.000  
G24                                                                  23597182.862                       -2733.518          27.000  
J04                                                                  39325447.354   161031132.400         292.312          47.000  
> 2025 11 05 02 29 16.7630000  0 39                     
G10  21419435.878   112559894.944         521.214          50.000    21419434.787    87709005.611         406.151          46.000  
G28  23658259.663   124324997.808        2327.814          40.000    23658258.711    96876619.899        1813.640          43.000  
G15  25889523.302   136050350.546       -3324.467          34.000    25889532.119   106013292.858       -2590.404          35.000  
G32  22685197.774   119211519.292        1417.327          46.000    22685197.870    92892092.051        1104.644          44.000  
G12  22698784.725   119282919.810         270.094          46.000    22698782.670    92947721.295         210.317          42.000  
G25  22139498.627   116343855.910        2160.673          43.000    22139499.796    90657556.060        1683.494          42.000  
C06  37544708.037   195505147.295          96.709          44.000    37544696.882   151176937.518          74.895          45.000  
C08  36827285.856   191769342.796        -471.448          45.000    36827273.899   148288170.913        -364.606          49.000  
C14  22704329.789   118227403.024           1.264          47.000    22704319.370    91420886.715           1.077          49.000  
C09  38801071.824   202047362.562         198.093          42.000    38801064.538   156235808.212         152.997          48.000  
C13  36792235.022   191586824.314        -139.386          47.000    36792230.946   148147066.939        -107.678          47.000  
C16  37733587.155   196488689.619         -69.979          47.000    37733581.640   151937497.935         -54.163          48.000  
R09  22791965.786   121707776.133       -3738.616          32.000    22791967.577    94661645.811       -2908.008          37.000  
R10  20391839.994   108699980.927        -635.101          46.000                                                                  
R11  21686361.709   115885353.236        3254.211          45.000    21686360.632    90133044.737        2530.963          49.000  
R08  20727637.889   110995561.069         688.712          48.000    20727632.475    86329859.265         535.659          46.000  
R07  22140198.061   118518210.143       -2171.113          48.000    22140195.191    92180821.060       -1688.819          48.000  
R23  25031055.920   133899263.441       -3806.462          33.000                                                                  
G23  21712293.428   114098870.150       -2577.496          45.000    21712292.043    88908203.493       -2008.514          48.000  
J02  38632317.928   203014201.369         -41.504          40.000    38632319.927   158192892.029         -32.384          41.000  
E06  24783107.441   130236106.896        -767.630          46.000    24783110.379    99791315.428        -588.207          50.000  
E09  24666374.086   129622670.510         126.281          48.000    24666376.392    99321275.731          96.833          51.000  
E31  25920614.166   136213747.365        1642.380          44.000    25920618.491   104371592.378        1258.512          47.000  
C33  23466546.225   122196467.270        1341.633          48.000                                                                  
C24  22550551.677   117426642.448         624.459          48.000                                                                  
R24  24330769.223                3      -1655.104          20.000    24330769.746                       -1286.042          31.000  
R01  23350763.204                2       2881.335          27.000                                                                  
E36  26436626.765   138925406.868       -1797.774          43.000    26436632.050   106449358.782       -1377.609          46.000  
E05  25972646.708   136487170.635        1500.734          38.000    25972652.440   104581107.229        1149.975          45.000  
E04  26056712.195   136928945.169       -1556.996          41.000    26056714.798   104919591.246       -1192.849          45.000  
J03  38294134.434   201237028.046        -768.688          34.000    38294143.389   156808104.919        -598.634          40.000  
G18  26260783.363                       -3537.776          28.000    26260803.018   107533559.693       -2756.450          38.000  
E23  26766556.238   140659190.374        -811.955          32.000    26766561.174   107777850.383        -622.189          41.000  
G31  26341810.768   138427152.312        3219.396          32.000    26341820.017                        2508.443          31.000  
J07  38067711.786   200047176.813        -262.467          39.000    38067710.504   155880911.242        -204.485          45.000  
E11  26927429.668   141504593.246       -3228.802          33.000    26927436.873   108425624.535       -2474.281          40.000  
E34                                                                  27901729.236                         510.365          29.000  
G24                                                                  23597209.729                       -2733.328          27.000  
J04                                                                  39325444.484   161031120.716         292.219          47.000  
> 2025 11 05 02 29 16.8030000  0 39                     
G10  21419431.900   112559874.095         521.190          50.000    21419430.824    87708989.357         406.275          46.000  
G28  23658241.959   124324904.699        2327.720          40.000    23658240.993    96876547.361        1813.417          43.000  
G15  25889548.575   136050483.492       -3323.898          34.000    25889557.417   106013396.482       -2590.698          34.000  
G32  22685186.968   119211462.600        1417.296          46.000    22685187.078    92892047.870        1104.564          44.000  
G12  22698782.679   119282909.003         270.168          46.000    22698780.631    92947712.867         210.578          42.000  
G25  22139482.186   116343769.486        2160.694          43.000    22139483.355    90657488.724        1683.466          42.000  
C06  37544707.301   195505143.413          96.867          44.000    37544696.139   151176934.520          74.904          45.000  
C08  36827289.496   191769361.665        -471.649          45.000    36827277.534   148288185.497        -364.600          49.000  
C14  22704329.775   118227402.968           1.351          47.000    22704319.369    91420886.667           1.152          49.000  
C09  38801070.303   202047354.651         197.951          42.000    38801063.022   156235802.089         153.046          48.000  
C13  36792236.090   191586829.890        -139.429          48.000    36792232.017   148147071.248        -107.672          47.000  
C16  37733587.702   196488692.419         -70.012          47.000    37733582.176   151937500.100         -54.163          48.000  
R09  22791993.790   121707925.666       -3738.268          32.000    22791995.576    94661762.103       -2907.520          36.000  
R10  20391844.748   108700006.331        -635.128          46.000                                                                  
R11  21686337.346   115885223.078        3253.979          45.000    21686336.292    90132943.497        2530.981          49.000  
R08  20727632.730   110995533.511         688.869          49.000    20727627.306    86329837.837         535.666          46.000  
R07  22140214.280   118518296.988       -2171.118          48.000    22140211.423    92180888.609       -1688.805          48.000  
R23  25031084.359   133899415.729       -3807.132          33.000                                                                  
G23  21712313.040   114098973.260       -2577.667          46.000    21712311.687    88908283.837       -2008.588          48.000  
J02  38632318.241   203014203.014         -41.274          40.000    38632320.237   158192893.311         -32.154          41.000  
E06  24783113.229   130236137.591        -767.445          46.000    24783116.210    99791338.951        -588.108          50.000  
E09  24666373.109   129622665.452         126.366          48.000    24666375.396    99321271.855          96.880          51.000  
E31  25920601.615   136213681.664        1642.458          44.000    25920605.996   104371542.039        1258.501          47.000  
C33  23466535.947   122196413.588        1341.899          48.000                                                                  
C24  22550546.907   117426617.463         624.570          48.000                                                                  
R24  24330781.650                3      -1651.768          20.000    24330782.139                       -1285.773          31.000  
R01  23350741.842                2       2880.882          27.000                                                                  
E36  26436640.504   138925478.790       -1797.947          43.000    26436645.750   106449413.890       -1377.700          46.000  
E05  25972635.278   136487110.596        1500.874          38.000    25972641.006   104581061.227        1150.018          45.000  
E04  26056723.999   136929007.428       -1556.675          42.000    26056726.633   104919638.973       -1193.083          45.000  
J03  38294140.274   201237058.749        -767.900          34.000    38294149.230   156808128.871        -598.773          40.000  
G18  26260810.285                       -3537.473          28.000    26260829.930   107533669.953       -2756.514          38.000  
E23  26766562.442   140659222.865        -812.150          32.000    26766567.310   107777875.264        -622.086          41.000  
G31  26341786.268   138427023.512        3219.684          32.000    26341795.533                        2508.468          31.000  
J07  38067713.790   200047187.304        -262.355          39.000    38067712.509   155880919.415        -204.334          45.000  
E11  26927454.245   141504722.451       -3229.714          33.000    26927461.442   108425723.520       -2474.480          40.000  
E34                                                                  27901724.125                         509.861          29.000  
G24                                                                  23597236.448                       -2733.252          27.000  
J04                                                                  39325441.625   161031109.033         292.113          47.000  
> 2025 11 05 02 29 16.8430000  0 39                     
G10  21419427.927   112559853.244         521.202          50.000    21419426.857    87708973.114         406.151          46.000  
G28  23658224.237   124324811.599        2327.529          40.000    23658223.275    96876474.812        1813.530          43.000  
G15  25889573.873   136050616.418       -3323.358          34.000    25889582.716   106013500.056       -2589.831          35.000  
G32  22685176.163   119211405.906        1417.263          46.000    22685176.296    92892003.689        1104.531          44.000  
G12  22698780.626   119282898.204         270.039          46.000    22698778.578    92947704.457         210.383          42.000  
G25  22139465.761   116343683.078        2160.385          43.000    22139466.913    90657421.381        1683.523          42.000  
C06  37544706.545   195505139.531          96.956          44.000    37544695.409   151176931.526          74.866          45.000  
C08  36827293.134   191769380.532        -471.722          45.000    36827281.148   148288200.082        -364.642          49.000  
C14  22704329.743   118227402.917           1.276          47.000    22704319.357    91420886.634           0.926          49.000  
C09  38801068.805   202047346.735         197.912          42.000    38801061.525   156235795.975         152.901          48.000  
C13  36792237.154   191586835.470        -139.502          48.000    36792233.091   148147075.564        -107.849          47.000  
C16  37733588.258   196488695.216         -69.973          47.000    37733582.708   151937502.261         -54.082          48.000  
R09  22792021.755   121708075.229       -3738.755          32.000    22792023.575    94661878.434       -2908.027          36.000  
R10  20391849.537   108700031.747        -635.356          46.000                                                                  
R11  21686312.998   115885092.914        3254.010          45.000    21686311.931    90132842.254        2531.030          49.000  
R08  20727627.587   110995505.960         688.798          49.000    20727622.144    86329816.407         535.704          46.000  
R07  22140230.518   118518383.842       -2171.280          48.000    22140227.633    92180956.160       -1688.802          48.000  
R23  25031112.813   133899567.955       -3806.309          33.000                                                                  
G23  21712332.653   114099076.367       -2577.734          46.000    21712331.297    88908364.177       -2008.551          48.000  
J02  38632318.557   203014204.661         -41.168          40.000    38632320.540   158192894.585         -31.884          41.000  
E06  24783119.107   130236168.298        -767.559          46.000    24783122.051    99791362.473        -588.073          50.000  
E09  24666372.170   129622660.400         126.334          48.000    24666374.449    99321267.981          96.879          51.000  
E31  25920589.082   136213615.968        1642.430          44.000    25920593.497   104371491.699        1258.494          47.000  
C33  23466525.620   122196359.924        1341.694          48.000                                                                  
C24  22550542.090   117426592.489         624.412          48.000                                                                  
R24  24330793.647                3      -1651.768          20.000    24330794.550                       -1286.761          31.000  
R01  23350719.838                2       2880.736          27.000                                                                  
E36  26436654.210   138925550.711       -1798.009          43.000    26436659.452   106449468.996       -1377.693          46.000  
E05  25972623.876   136487050.563        1500.862          38.000    25972629.618   104581015.234        1149.907          45.000  
E04  26056735.872   136929069.700       -1556.746          42.000    26056738.480   104919686.685       -1192.942          45.000  
J03  38294146.096   201237089.483        -768.182          34.000    38294155.092   156808152.828        -598.932          40.000  
G18  26260837.174                       -3537.495          28.000    26260856.859   107533780.217       -2756.628          38.000  
E23  26766568.601   140659255.332        -811.885          32.000    26766573.486   107777900.142        -621.969          41.000  
G31  26341761.729   138426894.711        3219.953          32.000    26341771.030                        2507.857          31.000  
J07  38067715.792   200047197.817        -262.685          39.000    38067714.507   155880927.594        -204.398          45.000  
E11  26927478.825   141504851.608       -3229.371          33.000    26927486.021   108425822.481       -2474.194          40.000  
E34                                                                  27901719.073                         510.082          29.000  
G24                                                                  23597263.187                       -2733.196          27.000  
J04                                                                  39325438.763   161031097.350         292.070          47.000  
> 2025 11 05 02 29 16.8830000  0 39                     
G10  21419423.951   112559832.390         521.270          50.000    21419422.888    87708956.871         406.046          46.000  
G28  23658206.529   124324718.487        2327.744          40.000    23658205.545    96876402.263        1813.615          43.000  
G15  25889599.172   136050749.353       -3323.350          34.000    25889608.010   106013603.629       -2589.392          34.000  
G32  22685165.380   119211349.208        1417.372          46.000    22685165.499    92891959.519        1104.303          44.000  
G12  22698778.557   119282887.414         269.804          46.000    22698776.531    92947696.043         210.344          42.000  
G25  22139449.323   116343596.664        2160.315          43.000    22139450.479    90657354.043        1683.471          42.000  
C06  37544705.791   195505135.658          96.897          44.000    37544694.685   151176928.529          74.900          45.000  
C08  36827296.774   191769399.388        -471.521          45.000    36827284.772   148288214.673        -364.758          49.000  
C14  22704329.727   118227402.868           1.198          47.000    22704319.363    91420886.601           0.800          49.000  
C09  38801067.289   202047338.842         197.472          42.000    38801060.010   156235789.859         152.871          48.000  
C13  36792238.215   191586841.050        -139.526          48.000    36792234.161   148147079.884        -108.002          47.000  
C16  37733588.754   196488698.021         -70.085          47.000    37733583.247   151937504.421         -54.025          48.000  
R09  22792049.795   121708224.787       -3739.062          32.000    22792051.567    94661994.781       -2908.665          36.000  
R10  20391854.315   108700057.167        -635.543          46.000                                                                  
R11  21686288.617   115884962.750        3254.028          45.000    21686287.557    90132741.018        2530.939          49.000  
R08  20727622.432   110995478.411         688.754          49.000    20727617.014    86329794.976         535.742          46.000  
R07  22140246.740   118518470.693       -2171.321          48.000    22140243.850    92181023.710       -1688.823          48.000  
R23  25031141.252   133899720.189       -3805.975          33.000                                                                  
G23  21712352.292   114099179.487       -2577.991          46.000    21712350.921    88908444.523       -2008.636          48.000  
J02  38632318.872   203014206.321         -41.420          40.000    38632320.834   158192895.879         -32.144          42.000  
E06  24783124.989   130236199.008        -767.666          47.000    24783127.886    99791385.999        -588.122          50.000  
E09  24666371.179   129622655.343         126.375          48.000    24666373.531    99321264.110          96.808          51.000  
E31  25920576.538   136213550.261        1642.579          44.000    25920581.002   104371441.359        1258.505          47.000  
C33  23466515.353   122196306.250        1341.765          48.000                                                                  
C24  22550537.293   117426567.515         624.342          48.000                                                                  
R24  24330806.049                3      -1651.768          20.000    24330806.897                       -1286.261          31.000  
R01  23350698.392                2       2881.323          27.000                                                                  
E36  26436667.905   138925622.635       -1798.108          43.000    26436673.154   106449524.100       -1377.631          46.000  
E05  25972612.451   136486990.540        1500.684          38.000    25972618.226   104580969.237        1149.892          45.000  
E04  26056747.704   136929131.973       -1556.774          42.000    26056750.344   104919734.405       -1193.001          45.000  
J03  38294151.954   201237120.219        -768.315          34.000    38294160.951   156808176.781        -598.928          40.000  
G18  26260864.127                       -3537.543          28.000    26260883.782   107533890.487       -2756.758          38.000  
E23  26766574.780   140659287.829        -812.236          32.000    26766579.672   107777925.027        -622.030          41.000  
G31  26341737.199   138426765.941        3219.505          32.000    26341746.518                        2508.793          31.000  
J07  38067717.797   200047208.307        -262.460          39.000    38067716.486   155880935.772        -204.446          45.000  
E11  26927503.397   141504980.777       -3229.253          33.000    26927510.586   108425921.450       -2474.213          40.000  
E34                                                                  27901713.988                         509.978          29.000  
G24                                                                  23597290.043                       -2732.911          27.000  
J04                                                                  39325435.920   161031085.667         292.040          47.000  
> 2025 11 05 02 29 16.9230000  0 39                     
G10  21419420.015   112559811.541         521.221          50.000    21419418.938    87708940.622         406.152          46.000  
G28  23658188.797   124324625.395        2327.444          40.000    23658187.827    96876329.719        1813.602          43.000  
G15  25889624.476   136050882.327       -3323.974          34.000    25889633.316   106013707.240       -2589.905          34.000  
G32  22685154.583   119211292.506        1417.506          46.000    22685154.734    92891915.343        1104.302          44.000  
G12  22698776.517   119282876.627         269.642          46.000    22698774.472    92947687.638         210.183          42.000  
G25  22139432.872   116343510.257        2160.176          43.000    22139434.047    90657286.706        1683.434          42.000  
C06  37544705.061   195505131.778          96.942          44.000    37544693.945   151176925.536          74.849          45.000  
C08  36827300.376   191769418.256        -471.637          45.000    36827288.409   148288229.260        -364.752          49.000  
C14  22704329.737   118227402.817           1.207          47.000    22704319.346    91420886.561           0.871          49.000  
C09  38801065.766   202047330.938         197.464          42.000    38801058.502   156235783.739         152.922          48.000  
C13  36792239.282   191586846.631        -139.557          48.000    36792235.219   148147084.203        -108.026          47.000  
C16  37733589.312   196488700.818         -70.024          47.000    37733583.784   151937506.588         -54.146          48.000  
R09  22792077.794   121708374.365       -3739.458          32.000    22792079.596    94662111.111       -2908.567          36.000  
R10  20391859.090   108700082.580        -635.461          46.000                                                                  
R11  21686264.254   115884832.589        3253.992          45.000    21686263.199    90132639.786        2530.792          49.000  
R08  20727617.274   110995450.870         688.554          49.000    20727611.873    86329773.551         535.659          46.000  
R07  22140262.961   118518557.548       -2171.403          48.000    22140260.076    92181091.258       -1688.774          48.000  
R23  25031169.721   133899872.478       -3806.800          33.000                                                                  
G23  21712371.902   114099282.597       -2577.911          45.000    21712370.556    88908524.870       -2008.716          48.000  
J02  38632319.185   203014207.984         -41.603          40.000    38632321.156   158192897.172         -32.302          42.000  
E06  24783130.808   130236229.715        -767.706          47.000    24783133.766    99791409.538        -588.347          50.000  
E09  24666370.199   129622650.288         126.377          48.000    24666372.595    99321260.242          96.719          51.000  
E31  25920564.021   136213484.557        1642.632          44.000    25920568.515   104371391.026        1258.390          47.000  
C33  23466505.050   122196252.582        1341.714          48.000                                                                  
C24  22550532.497   117426542.543         624.273          48.000                                                                  
R24  24330818.285                3      -1658.794          20.000    24330819.268                       -1286.235          31.000  
R01  23350676.824                2       2881.503          26.000                                                                  
E36  26436681.595   138925694.557       -1798.126          43.000    26436686.883   106449579.215       -1377.800          46.000  
E05  25972601.043   136486930.514        1500.635          38.000    25972606.816   104580923.239        1149.895          45.000  
E04  26056759.545   136929194.250       -1556.906          42.000    26056762.171   104919782.120       -1192.947          45.000  
J03  38294157.780   201237150.929        -767.870          34.000    38294166.815   156808200.709        -598.466          40.000  
G18  26260891.049                       -3537.665          28.000    26260910.710   107534000.752       -2756.768          38.000  
E23  26766580.930   140659320.283        -811.749          32.000    26766585.861   107777949.905        -621.923          41.000  
G31  26341712.707   138426637.166        3219.384          32.000    26341722.014                        2509.033          31.000  
J07  38067719.795   200047218.802        -262.387          39.000    38067718.482   155880943.954        -204.531          45.000  
E11  26927527.909   141505109.940       -3229.130          33.000    26927535.175   108426020.436       -2474.443          40.000  
E34                                                                  27901708.932                         510.095          29.000  
G24                                                                  23597316.557                       -2732.768          27.000  
J04                                                                  39325433.066   161031073.986         291.966          47.000  
> 2025 11 05 02 29 16.9630000  0 39                     
G10  21419416.083   112559790.697         521.104          50.000    21419414.984    87708924.377         406.134          46.000  
G28  23658171.077   124324532.296        2327.396          40.000    23658170.100    96876257.165        1813.800          43.000  
G15  25889649.792   136051015.299       -3324.335          34.000    25889658.629   106013810.849       -2590.141          34.000  
G32  22685143.816   119211235.822        1417.248          46.000    22685143.929    92891871.162        1104.417          44.000  
G12  22698774.436   119282865.832         269.722          46.000    22698772.424    92947679.228         210.155          42.000  
G25  22139416.421   116343423.843        2160.252          43.000    22139417.593    90657219.371        1683.376          42.000  
C06  37544704.325   195505127.904          96.876          44.000    37544693.205   151176922.539          74.867          45.000  
C08  36827304.029   191769437.115        -471.539          45.000    36827292.026   148288243.846        -364.716          49.000  
C14  22704329.716   118227402.767           1.228          47.000    22704319.353    91420886.519           0.963          49.000  
C09  38801064.260   202047323.013         197.875          42.000    38801056.981   156235777.625         152.859          48.000  
C13  36792240.378   191586852.208        -139.478          48.000    36792236.294   148147088.517        -107.941          47.000  
C16  37733589.872   196488703.614         -69.966          47.000    37733584.312   151937508.757         -54.208          48.000  
R09  22792105.779   121708523.907       -3739.006          32.000    22792107.612    94662227.402       -2907.674          36.000  
R10  20391863.874   108700107.990        -635.339          46.000                                                                  
R11  21686239.891   115884702.428        3253.998          45.000    21686238.849    90132538.553        2530.756          49.000  
R08  20727612.128   110995423.318         688.668          49.000    20727606.742    86329752.129         535.535          46.000  
R07  22140279.199   118518644.403       -2171.411          48.000    22140276.324    92181158.814       -1688.853          48.000  
R23  25031198.194   133900024.736       -3806.647          33.000                                                                  
G23  21712391.524   114099385.699       -2577.679          45.000    21712390.172    88908605.213       -2008.661          48.000  
J02  38632319.490   203014209.646         -41.682          40.000    38632321.489   158192898.458         -32.255          42.000  
E06  24783136.666   130236260.424        -767.732          47.000    24783139.611    99791433.067        -588.329          50.000  
E09  24666369.225   129622645.233         126.372          48.000    24666371.623    99321256.368          96.778          51.000  
E31  25920551.570   136213418.866        1642.444          44.000    25920556.028   104371340.687        1258.407          47.000  
C33  23466494.758   122196198.913        1341.709          49.000                                                                  
C24  22550527.697   117426517.570         624.263          48.000                                                                  
R24  24330830.700                3      -1658.794          20.000    24330831.629                       -1285.983          31.000  
R01  23350655.246                2       2881.645          26.000                                                                  
E36  26436695.271   138925766.486       -1798.215          43.000    26436700.580   106449634.323       -1377.770          46.000  
E05  25972589.651   136486870.476        1500.825          38.000    25972595.412   104580877.244        1149.859          45.000  
E04  26056771.445   136929256.526       -1556.922          42.000    26056773.998   104919829.830       -1192.786          45.000  
J03  38294163.621   201237181.667        -768.050          34.000    38294172.669   156808224.657        -598.508          40.000  
G18  26260917.939                       -3537.702          28.000    26260937.639   107534111.017       -2756.766          38.000  
E23  26766587.130   140659352.746        -811.563          32.000    26766592.048   107777974.798        -622.165          41.000  
G31  26341688.200   138426508.373        3219.630          32.000    26341697.499                        2508.916          31.000  
J07  38067721.784   200047229.296        -262.324          39.000    38067720.493   155880952.130        -204.463          45.000  
E11  26927552.499   141505239.111       -3229.224          33.000    26927559.755   108426119.396       -2474.192          40.000  
E34                                                                  27901703.866                         509.929          29.000  
G24                                                                  23597343.068                       -2732.858          27.000  
J04                                                                  39325430.204   161031062.297         292.120          47.000  
> 2025 11 05 02 29 17.0030000  0 39                     
G10  21419412.103   112559769.851         521.080          50.000    21419410.994    87708908.131         406.115          46.000  
G28  23658153.347   124324439.193        2327.474          40.000    23658152.367    96876184.615        1813.790          43.000  
G15  25889675.078   136051148.273       -3324.442          34.000    25889683.921   106013914.454       -2590.132          34.000  
G32  22685133.014   119211179.121        1417.394          46.000    22685133.142    92891826.983        1104.470          44.000  
G12  22698772.382   119282855.033         269.846          46.000    22698770.360    92947670.818         210.158          42.000  
G25  22139399.991   116343337.435        2160.216          43.000    22139401.158    90657152.048        1683.185          42.000  
C06  37544703.606   195505124.031          96.790          44.000    37544692.461   151176919.536          74.970          45.000  
C08  36827307.653   191769455.980        -471.643          45.000    36827295.642   148288258.431        -364.679          49.000  
C14  22704329.721   118227402.714           1.254          47.000    22704319.354    91420886.479           0.996          49.000  
C09  38801062.741   202047315.111         197.665          42.000    38801055.453   156235771.506         152.916          48.000  
C13  36792241.481   191586857.782        -139.368          48.000    36792237.369   148147092.826        -107.806          47.000  
C16  37733590.406   196488706.415         -70.026          47.000    37733584.838   151937510.920         -54.167          48.000  
R09  22792133.790   121708673.450       -3738.812          32.000    22792135.594    94662343.704       -2907.484          36.000  
R10  20391868.629   108700133.399        -635.277          46.000                                                                  
R11  21686215.527   115884572.270        3253.961          45.000    21686214.474    90132437.313        2530.908          49.000  
R08  20727607.008   110995395.768         688.701          49.000    20727601.602    86329730.703         535.606          46.000  
R07  22140295.412   118518731.253       -2171.342          48.000    22140292.530    92181226.367       -1688.878          48.000  
R23  25031226.675   133900177.000       -3806.697          33.000                                                                  
G23  21712411.129   114099488.807       -2577.673          45.000    21712409.797    88908685.559       -2008.685          48.000  
J02  38632319.799   203014211.304         -41.569          40.000    38632321.804   158192899.743         -32.159          42.000  
E06  24783142.495   130236291.131        -767.719          47.000    24783145.456    99791456.596        -588.292          50.000  
E09  24666368.268   129622640.176         126.408          48.000    24666370.676    99321252.498          96.759          51.000  
E31  25920539.060   136213353.172        1642.348          44.000    25920543.533   104371290.349        1258.434          47.000  
C33  23466484.456   122196145.246        1341.658          49.000                                                                  
C24  22550522.926   117426492.591         624.357          48.000                                                                  
R24  24330843.144                3      -1658.794          20.000    24330843.989                       -1286.473          31.000  
R01  23350633.904                2       2881.642          27.000                                                                  
E36  26436708.972   138925838.401       -1798.008          43.000    26436714.240   106449689.424       -1377.634          46.000  
E05  25972578.215   136486810.448        1500.760          38.000    25972583.989   104580831.243        1149.906          45.000  
E04  26056783.283   136929318.795       -1556.836          41.000    26056785.856   104919877.542       -1192.771          45.000  
J03  38294169.478   201237212.415        -768.452          34.000    38294178.534   156808248.606        -598.628          40.000  
G18  26260944.882                       -3537.775          28.000    26260964.561   107534221.275       -2756.490          38.000  
E23  26766593.285   140659385.245        -812.087          32.000    26766598.262   107777999.687        -622.238          41.000  
G31  26341663.684   138426379.594        3219.487          32.000    26341672.943                        2509.479          31.000  
J07  38067723.796   200047239.798        -262.456          39.000    38067722.467   155880960.319        -204.659          45.000  
E11  26927577.081   141505368.276       -3229.071          33.000    26927584.345   108426218.366       -2474.216          40.000  
E34                                                                  27901698.810                         510.101          29.000  
G24                                                                  23597369.676                       -2733.353          27.000  
J04                                                                  39325427.340   161031050.612         292.108          47.000  
> 2025 11 05 02 29 17.0430000  0 39                     
G10  21419408.124   112559749.006         521.087          50.000    21419407.030    87708891.883         406.158          46.000  
G28  23658135.628   124324346.091        2327.468          40.000    23658134.639    96876112.070        1813.661          43.000  
G15  25889700.391   136051281.227       -3324.038          34.000    25889709.230   106014018.082       -2590.547          34.000  
G32  22685122.218   119211122.416        1417.528          47.000    22685122.350    92891782.794        1104.672          44.000  
G12  22698770.329   119282844.235         269.905          46.000    22698768.301    92947662.403         210.285          42.000  
G25  22139383.558   116343251.015        2160.353          43.000    22139384.736    90657084.709        1683.345          42.000  
C06  37544702.844   195505120.158          96.773          44.000    37544691.728   151176916.537          74.961          45.000  
C08  36827311.314   191769474.840        -471.539          45.000    36827299.257   148288273.014        -364.636          48.000  
C14  22704329.727   118227402.665           1.207          47.000    22704319.350    91420886.442           0.936          49.000  
C09  38801061.240   202047307.187         197.955          42.000    38801053.932   156235765.384         153.010          48.000  
C13  36792242.534   191586863.358        -139.374          48.000    36792238.444   148147097.130        -107.654          47.000  
C16  37733590.943   196488709.212         -69.966          48.000    37733585.368   151937513.086         -54.166          48.000  
R09  22792161.824   121708823.003       -3738.737          32.000    22792163.593    94662460.030       -2907.887          36.000  
R10  20391873.405   108700158.810        -635.272          46.000                                                                  
R11  21686191.191   115884442.101        3254.144          45.000    21686190.126    90132336.073        2530.969          49.000  
R08  20727601.861   110995368.218         688.732          49.000    20727596.471    86329709.277         535.625          46.000  
R07  22140311.644   118518818.098       -2171.197          48.000    22140308.748    92181293.917       -1688.823          48.000  
R23  25031255.138   133900329.234       -3806.102          33.000                                                                  
G23  21712430.741   114099591.921       -2577.802          46.000    21712429.418    88908765.900       -2008.594          48.000  
J02  38632320.098   203014212.950         -41.283          40.000    38632322.125   158192901.028         -32.089          42.000  
E06  24783148.249   130236321.829        -767.542          47.000    24783151.282    99791480.119        -588.154          50.000  
E09  24666367.301   129622635.126         126.301          48.000    24666369.689    99321248.622          96.839          51.000  
E31  25920526.499   136213287.468        1642.485          44.000    25920531.043   104371240.003        1258.576          47.000  
C33  23466474.170   122196091.574        1341.728          49.000                                                                  
C24  22550518.113   117426467.618         624.337          49.000                                                                  
R24  24330855.340                3      -1653.480          20.000    24330856.357                       -1285.979          31.000  
R01  23350612.002                2       2881.288          27.000                                                                  
E36  26436722.633   138925910.315       -1797.891          43.000    26436727.903   106449744.531       -1377.661          46.000  
E05  25972566.763   136486750.411        1500.856          38.000    25972572.566   104580785.245        1149.933          45.000  
E04  26056795.166   136929381.073       -1556.920          41.000    26056797.717   104919925.259       -1192.854          45.000  
J03  38294175.331   201237243.161        -768.665          34.000    38294184.385   156808272.576        -599.123          40.000  
G18  26260971.821                       -3537.772          28.000    26260991.500   107534331.507       -2755.843          38.000  
E23  26766599.476   140659417.718        -811.934          32.000    26766604.406   107778024.576        -622.317          41.000  
G31  26341639.211   138426250.800        3219.678          32.000    26341648.381                        2510.409          30.000  
J07  38067725.787   200047250.286        -262.314          39.000    38067724.460   155880968.489        -204.449          45.000  
E11  26927601.620   141505497.438       -3228.965          33.000    26927608.896   108426317.361       -2474.673          40.000  
E34                                                                  27901693.734   112348556.749         510.077          29.000  
G24                                                                  23597396.347                       -2733.987          27.000  
J04                                                                  39325424.509   161031038.923         292.200          47.000  
> 2025 11 05 02 29 17.0830000  0 39                     
G10  21419404.152   112559728.157         521.167          50.000    21419403.060    87708875.642         406.035          46.000  
G28  23658117.898   124324252.981        2327.639          40.000    23658116.928    96876039.529        1813.476          43.000  
G15  25889725.661   136051414.150       -3323.327          34.000    25889734.520   106014121.669       -2590.049          34.000  
G32  22685111.412   119211065.709        1417.655          47.000    22685111.553    92891738.619        1104.508          44.000  
G12  22698768.274   119282833.443         269.831          46.000    22698766.224    92947653.983         210.460          42.000  
G25  22139367.128   116343164.608        2160.225          43.000    22139368.272    90657017.377        1683.339          42.000  
C06  37544702.087   195505116.277          96.892          44.000    37544690.989   151176913.546          74.817          45.000  
C08  36827314.934   191769493.700        -471.503          45.000    36827302.856   148288287.592        -364.502          48.000  
C14  22704329.705   118227402.614           1.214          47.000    22704319.357    91420886.396           1.087          49.000  
C09  38801059.726   202047299.265         198.051          42.000    38801052.417   156235759.260         153.065          48.000  
C13  36792243.581   191586868.935        -139.398          48.000    36792239.509   148147101.439        -107.678          47.000  
C16  37733591.493   196488712.016         -70.085          48.000    37733585.909   151937515.249         -54.136          48.000  
R09  22792189.841   121708972.531       -3738.371          32.000    22792191.608    94662576.351       -2908.014          36.000  
R10  20391878.167   108700184.225        -635.421          46.000                                                                  
R11  21686166.827   115884311.927        3254.309          45.000    21686165.770    90132234.838        2530.878          49.000  
R08  20727596.712   110995340.671         688.675          49.000    20727591.326    86329687.850         535.630          46.000  
R07  22140327.868   118518904.948       -2171.208          48.000    22140324.960    92181361.463       -1688.718          48.000  
R23  25031283.601   133900481.479       -3806.101          33.000                                                                  
G23  21712450.380   114099695.038       -2577.905          46.000    21712449.043    88908846.247       -2008.649          48.000  
J02  38632320.402   203014214.604         -41.307          40.000    38632322.432   158192902.308         -32.001          42.000  
E06  24783154.102   130236352.530        -767.502          47.000    24783157.114    99791503.639        -588.026          50.000  
E09  24666366.348   129622630.067         126.400          48.000    24666368.693    99321244.746          96.879          51.000  
E31  25920513.954   136213221.771        1642.449          44.000    25920518.537   104371189.658        1258.604          47.000  
C33  23466463.869   122196037.902        1341.759          49.000                                                                  
C24  22550513.334   117426442.641         624.404          49.000                                                                  
R24  24330867.825                3      -1653.480          20.000    24330868.743                       -1286.645          31.000  
R01  23350590.155                2       2881.352          27.000                                                                  
E36  26436736.352   138925982.236       -1797.972          43.000    26436741.575   106449799.638       -1377.691          46.000  
E05  25972555.268   136486690.380        1500.820          38.000    25972561.142   104580739.246        1149.945          45.000  
E04  26056806.964   136929443.339       -1556.722          42.000    26056809.545   104919972.974       -1192.870          45.000  
J03  38294181.208   201237273.916        -768.841          34.000    38294190.243   156808296.515        -598.835          40.000  
G18  26260998.753   138002483.207       -3537.917          28.000    26261018.454   107534441.747       -2755.811          38.000  
E23  26766605.634   140659450.215        -812.240          32.000    26766610.609   107778049.462        -622.264          41.000  
G31  26341614.689   138426122.007        3219.839          32.000    26341623.889                        2509.219          30.000  
J07  38067727.766   200047260.785        -262.392          39.000    38067726.457   155880976.657        -204.291          45.000  
E11  26927626.220   141505626.628       -3229.445          33.000    26927633.486   108426416.308       -2474.114          40.000  
E34                                                                  27901688.679                         510.156          29.000  
G24                                                                  23597423.383                       -2734.271          27.000  
J04                                                                  39325421.640   161031027.241         292.076          47.000  
> 2025 11 05 02 29 17.1230000  0 39                     
G10  21419400.204   112559707.308         521.204          50.000    21419399.076    87708859.396         406.084          46.000  
G28  23658100.212   124324159.881        2327.522          40.000    23658099.215    96875966.989        1813.417          43.000  
G15  25889750.965   136051547.113       -3323.826          34.000    25889759.821   106014225.279       -2590.163          34.000  
G32  22685100.630   119211009.018        1417.401          47.000    22685100.754    92891694.438        1104.555          44.000  
G12  22698766.222   119282822.642         269.948          46.000    22698764.154    92947645.575         210.276          42.000  
G25  22139350.706   116343078.196        2160.232          43.000    22139351.819    90656950.045        1683.273          42.000  
C06  37544701.330   195505112.402          96.893          44.000    37544690.242   151176910.551          74.828          45.000  
C08  36827318.518   191769512.559        -471.497          45.000    36827306.463   148288302.179        -364.600          48.000  
C14  22704329.692   118227402.569           1.138          47.000    22704319.348    91420886.359           0.984          49.000  
C09  38801058.192   202047291.363         197.716          42.000    38801050.896   156235753.140         153.039          48.000  
C13  36792244.649   191586874.513        -139.441          48.000    36792240.593   148147105.753        -107.782          47.000  
C16  37733592.013   196488714.809         -69.925          48.000    37733586.445   151937517.411         -54.084          48.000  
R09  22792217.828   121709122.113       -3739.161          32.000    22792219.616    94662692.660       -2907.834          36.000  
R10  20391882.933   108700209.646        -635.538          46.000                                                                  
R11  21686142.476   115884181.775        3253.961          45.000    21686141.403    90132133.603        2530.847          49.000  
R08  20727591.578   110995313.127         688.606          49.000    20727586.190    86329666.419         535.731          46.000  
R07  22140344.116   118518991.801       -2171.312          48.000    22140341.195    92181429.017       -1688.829          48.000  
R23  25031312.078   133900633.745       -3806.461          33.000                                                                  
G23  21712470.006   114099798.142       -2577.704          45.000    21712468.673    88908926.592       -2008.649          48.000  
J02  38632320.703   203014216.245         -41.099          40.000    38632322.733   158192903.605         -32.303          42.000  
E06  24783159.983   130236383.238        -767.615          47.000    24783162.963    99791527.164        -588.047          50.000  
E09  24666365.332   129622625.009         126.439          48.000    24666367.726    99321240.870          96.895          51.000  
E31  25920501.463   136213156.072        1642.443          44.000    25920506.047   104371139.313        1258.630          47.000  
C33  23466453.568   122195984.226        1341.841          49.000                                                                  
C24  22550508.539   117426417.664         624.421          49.000                                                                  
R24  24330880.179                3      -1653.480          21.000    24330881.129                       -1287.054          31.000  
R01  23350568.291                2       2880.838          27.000                                                                  
E36  26436750.032   138926054.157       -1798.004          43.000    26436755.247   106449854.749       -1377.756          46.000  
E05  25972543.829   136486630.342        1500.919          38.000    25972549.728   104580693.250        1149.889          45.000  
E04  26056818.781   136929505.601       -1556.585          42.000    26056821.381   104920020.689       -1192.890          45.000  
J03  38294187.056   201237304.636        -768.411          34.000    38294196.085   156808320.465        -598.842          40.000  
G18  26261025.664   138002624.677       -3537.461          28.000    26261045.392   107534552.004       -2756.136          38.000  
E23  26766611.832   140659482.707        -812.348          32.000    26766616.768   107778074.348        -622.214          41.000  
G31  26341590.213   138425993.218        3219.877          32.000    26341599.394                        2509.470          30.000  
J07  38067729.770   200047271.272        -262.203          39.000    38067728.461   155880984.829        -204.268          45.000  
E11  26927650.821   141505755.789       -3229.268          33.000    26927658.081   108426515.287       -2474.320          40.000  
E34                                                                  27901683.625                         510.162          29.000  
G24                                                                  23597450.206                       -2733.758          26.000  
J04                                                                  39325418.803   161031015.556         292.070          47.000  
> 2025 11 05 02 29 17.1630000  0 39                     
G10  21419396.242   112559686.462         521.160          50.000    21419395.110    87708843.155         406.010          46.000  
G28  23658082.496   124324066.777        2327.542          40.000    23658081.479    96875894.435        1813.668          43.000  
G15  25889776.268   136051680.081       -3324.194          34.000    25889785.117   106014328.876       -2590.064          34.000  
G32  22685089.848   119210952.334        1417.145          47.000    22685089.962    92891650.268        1104.358          44.000  
G12  22698764.195   119282811.856         269.751          46.000    22698762.094    92947637.175         209.987          42.000  
G25  22139334.243   116342991.781        2160.300          43.000    22139335.395    90656882.708        1683.341          42.000  
C06  37544700.564   195505108.528          96.845          44.000    37544689.490   151176907.550          74.934          45.000  
C08  36827322.151   191769531.425        -471.613          45.000    36827310.076   148288316.765        -364.661          48.000  
C14  22704329.704   118227402.517           1.191          47.000    22704319.322    91420886.325           0.860          49.000  
C09  38801056.680   202047283.444         197.876          42.000    38801049.363   156235747.024         152.919          48.000  
C13  36792245.742   191586880.088        -139.404          48.000    36792241.658   148147110.065        -107.794          47.000  
C16  37733592.517   196488717.607         -69.928          48.000    37733586.993   151937519.571         -54.033          48.000  
R09  22792245.840   121709271.650       -3738.804          32.000    22792247.645    94662808.998       -2908.255          36.000  
R10  20391887.701   108700235.070        -635.655          46.000                                                                  
R11  21686118.121   115884051.627        3253.674          45.000    21686117.039    90132032.370        2530.823          49.000  
R08  20727586.430   110995285.578         688.657          49.000    20727581.045    86329644.990         535.730          46.000  
R07  22140360.367   118519078.659       -2171.435          48.000    22140357.400    92181496.568       -1688.834          48.000  
R23  25031340.548   133900785.974       -3805.961          33.000                                                                  
G23  21712489.632   114099901.248       -2577.643          45.000    21712488.290    88909006.942       -2008.759          48.000  
J02  38632321.035   203014217.896         -41.159          40.000    38632323.051   158192904.896         -32.358          42.000  
E06  24783165.837   130236413.944        -767.656          47.000    24783168.780    99791550.693        -588.144          50.000  
E09  24666364.422   129622619.954         126.418          48.000    24666366.757    99321236.995          96.866          51.000  
E31  25920488.934   136213090.380        1642.355          44.000    25920493.572   104371088.979        1258.463          47.000  
C33  23466443.244   122195930.560        1341.726          49.000                                                                  
C24  22550503.717   117426392.691         624.348          49.000                                                                  
R24  24330892.458                3      -1653.480          21.000    24330893.526                       -1286.726          31.000  
R01  23350546.520                2       2881.105          27.000                                                                  
E36  26436763.728   138926126.074       -1797.967          43.000    26436768.932   106449909.859       -1377.776          46.000  
E05  25972532.404   136486570.304        1500.975          38.000    25972538.297   104580647.245        1150.026          45.000  
E04  26056830.631   136929567.867       -1556.637          42.000    26056833.244   104920068.395       -1192.741          45.000  
J03  38294192.934   201237335.349        -767.823          33.000    38294201.954   156808344.411        -598.791          40.000  
G18  26261052.582   138002766.164       -3537.294          29.000    26261072.337   107534662.277       -2756.675          38.000  
E23  26766618.041   140659515.189        -812.245          32.000    26766622.922   107778099.240        -622.296          41.000  
G31  26341565.692   138425864.429        3219.814          32.000    26341574.879                        2509.715          30.000  
J07  38067731.783   200047281.764        -262.262          39.000    38067730.447   155880993.012        -204.498          45.000  
E11  26927675.431   141505884.943       -3229.047          33.000    26927682.660   108426614.269       -2474.479          40.000  
E34                                                                  27901678.559                         510.359          29.000  
G24                                                                  23597477.291                       -2733.287          27.000  
J04                                                                  39325415.957   161031003.868         292.169          47.000  
> 2025 11 05 02 29 17.2030000  0 39                     
G10  21419392.283   112559665.621         521.037          50.000    21419391.138    87708826.910         406.048          46.000  
G28  23658064.802   124323973.678        2327.453          40.000    23658063.782    96875821.893        1813.603          43.000  
G15  25889801.559   136051813.017       -3323.785          34.000    25889810.416   106014432.484       -2590.126          34.000  
G32  22685079.045   119210895.641        1417.171          47.000    22685079.171    92891606.087        1104.412          44.000  
G12  22698762.143   119282801.067         269.675          46.000    22698760.047    92947628.770         209.963          42.000  
G25  22139317.800   116342905.370        2160.273          43.000    22139318.972    90656815.374        1683.311          42.000  
C06  37544699.807   195505104.651          96.871          44.000    37544688.745   151176904.555          74.892          45.000  
C08  36827325.782   191769550.292        -471.686          45.000    36827313.690   148288331.352        -364.709          48.000  
C14  22704329.711   118227402.467           1.212          47.000    22704319.322    91420886.285           0.908          49.000  
C09  38801055.160   202047275.530         197.837          42.000    38801047.850   156235740.906         152.888          48.000  
C13  36792246.799   191586885.665        -139.429          48.000    36792242.724   148147114.379        -107.831          47.000  
C16  37733593.037   196488720.404         -69.929          48.000    37733587.524   151937521.740         -54.172          48.000  
R09  22792273.852   121709421.224       -3739.128          32.000    22792275.680    94662925.332       -2908.340          36.000  
R10  20391892.493   108700260.492        -635.646          46.000                                                                  
R11  21686093.767   115883921.474        3253.674          45.000    21686092.690    90131931.134        2530.847          49.000  
R08  20727581.285   110995258.029         688.689          49.000    20727575.893    86329623.567         535.591          46.000  
R07  22140376.574   118519165.514       -2171.449          48.000    22140373.631    92181564.122       -1688.887          48.000  
R23  25031369.013   133900938.218       -3805.928          33.000                                                                  
G23  21712509.247   114100004.357       -2577.710          45.000    21712507.910    88909087.285       -2008.655          48.000  
J02  38632321.336   203014219.552         -41.293          40.000    38632323.342   158192906.193         -32.449          42.000  
E06  24783171.656   130236444.653        -767.716          47.000    24783174.615    99791574.218        -588.140          50.000  
E09  24666363.460   129622614.902         126.340          48.000    24666365.823    99321233.122          96.832          51.000  
E31  25920476.448   136213024.689        1642.289          44.000    25920481.046   104371038.638        1258.467          47.000  
C33  23466432.934   122195876.894        1341.637          49.000                                                                  
C24  22550498.894   117426367.722         624.211          49.000                                                                  
R24  24330904.978                3      -1660.242          21.000    24330905.884                       -1285.801          31.000  
R01  23350525.004                2       2881.050          27.000                                                                  
E36  26436777.462   138926198.003       -1798.134          43.000    26436782.611   106449964.967       -1377.767          46.000  
E05  25972520.976   136486510.271        1500.899          38.000    25972526.860   104580601.247        1149.995          45.000  
E04  26056842.517   136929630.152       -1556.947          42.000    26056845.130   104920116.118       -1192.913          45.000  
J03  38294198.776   201237366.069        -767.694          34.000    38294207.798   156808368.345        -598.448          40.000  
G18  26261079.441                       -3536.905          29.000    26261099.264   107534772.526       -2756.452          38.000  
E23  26766624.197   140659547.650        -811.822          32.000    26766629.118   107778124.135        -622.374          41.000  
G31  26341541.177   138425735.679        3219.051          32.000    26341550.388                        2509.273          30.000  
J07  38067733.769   200047292.260        -262.360          39.000    38067732.454   155881001.195        -204.598          45.000  
E11  26927699.973   141506014.116       -3229.182          33.000    26927707.246   108426713.234       -2474.302          40.000  
E34                                                                  27901673.455                         509.984          29.000  
G24                                                                  23597504.296                       -2732.340          27.000  
J04                                                                  39325413.121   161030992.182         292.157          47.000  
> 2025 11 05 02 29 17.2430000  0 39                     
G10  21419388.311   112559644.779         521.000          50.000    21419387.144    87708810.672         405.968          46.000  
G28  23658047.086   124323880.569        2327.647          40.000    23658046.081    96875749.337        1813.786          43.000  
G15  25889826.860   136051945.971       -3323.783          34.000    25889835.710   106014536.068       -2589.698          34.000  
G32  22685068.269   119210838.932        1417.502          47.000    22685068.392    92891561.904        1104.498          44.000  
G12  22698760.086   119282790.276         269.685          46.000    22698758.000    92947620.351         210.264          42.000  
G25  22139301.356   116342818.960        2160.203          43.000    22139302.537    90656748.058        1682.987          42.000  
C06  37544699.048   195505100.774          96.884          44.000    37544687.985   151176901.551          74.995          45.000  
C08  36827329.422   191769569.151        -471.570          45.000    36827317.325   148288345.938        -364.716          48.000  
C14  22704329.701   118227402.417           1.226          47.000    22704319.317    91420886.246           0.915          49.000  
C09  38801053.627   202047267.615         197.850          42.000    38801046.337   156235734.789         152.883          48.000  
C13  36792247.888   191586891.240        -139.392          48.000    36792243.789   148147118.693        -107.880          47.000  
C16  37733593.568   196488723.195         -69.860          48.000    37733588.060   151937523.900         -54.106          48.000  
R09  22792301.861   121709570.783       -3739.188          32.000    22792303.674    94663041.640       -2907.900          36.000  
R10  20391897.252   108700285.905        -635.466          46.000                                                                  
R11  21686069.409   115883791.325        3253.601          45.000    21686068.333    90131829.903        2530.774          49.000  
R08  20727576.143   110995230.481         688.701          49.000    20727570.757    86329602.142         535.598          46.000  
R07  22140392.783   118519252.365       -2171.332          48.000    22140389.840    92181631.677       -1688.912          48.000  
R23  25031397.438   133901090.496       -3806.583          33.000                                                                  
G23  21712528.878   114100107.467       -2577.789          46.000    21712527.540    88909167.633       -2008.679          48.000  
J02  38632321.655   203014221.211         -41.411          40.000    38632323.672   158192907.467         -32.073          42.000  
E06  24783177.471   130236475.352        -767.588          47.000    24783180.452    99791597.748        -588.244          50.000  
E09  24666362.441   129622609.846         126.362          48.000    24666364.910    99321229.250          96.797          51.000  
E31  25920463.913   136212958.992        1642.369          44.000    25920468.544   104370988.298        1258.451          47.000  
C33  23466422.610   122195823.220        1341.741          49.000                                                                  
C24  22550494.103   117426342.752         624.182          49.000                                                                  
R24  24330917.772                3      -1660.242          21.000    24330918.221                       -1286.310          31.000  
R01  23350503.509                2       2880.976          27.000                                                                  
E36  26436791.132   138926269.923       -1798.096          43.000    26436796.262   106450020.079       -1377.780          46.000  
E05  25972509.514   136486450.242        1500.772          38.000    25972515.459   104580555.246        1150.000          45.000  
E04  26056854.344   136929692.428       -1556.973          42.000    26056856.999   104920163.828       -1192.809          45.000  
J03  38294204.609   201237396.788        -767.867          34.000    38294213.649   156808392.299        -598.666          40.000  
G18  26261106.317   138003049.119       -3537.018          29.000    26261126.187   107534882.775       -2756.329          38.000  
E23  26766630.365   140659580.131        -811.893          32.000    26766635.314   107778149.026        -622.361          41.000  
G31  26341516.647   138425606.888        3219.267          32.000    26341525.878                        2509.229          30.000  
J07  38067735.767   200047302.755        -262.412          39.000    38067734.449   155881009.368        -204.479          45.000  
E11  26927724.423   141506143.285       -3229.221          33.000    26927731.823   108426812.208       -2474.348          40.000  
E34                                                                  27901668.416                         509.966          29.000  
G24                                                                  23597530.771                       -2732.371          27.000  
J04                                                                  39325410.246   161030980.491         292.243          47.000  
> 2025 11 05 02 29 17.2830000  0 39                     
G10  21419384.337   112559623.936         521.007          50.000    21419383.168    87708794.434         405.925          46.000  
G28  23658029.369   124323787.465        2327.658          40.000    23658028.361    96875676.791        1813.727          43.000  
G15  25889852.177   136052078.952       -3324.267          34.000    25889860.998   106014639.673       -2589.895          34.000  
G32  22685057.473   119210782.240        1417.393          47.000    22685057.577    92891517.726        1104.450          44.000  
G12  22698758.026   119282779.490         269.595          46.000    22698755.951    92947611.948         210.129          42.000  
G25  22139284.922   116342732.547        2160.241          43.000    22139286.113    90656680.726        1683.147          42.000  
C06  37544698.289   195505096.895          96.930          44.000    37544687.257   151176898.557          74.916          45.000  
C08  36827333.038   191769588.004        -471.405          45.000    36827320.962   148288360.525        -364.722          48.000  
C14  22704329.659   118227402.374           1.121          47.000    22704319.310    91420886.213           0.824          49.000  
C09  38801052.115   202047259.711         197.668          42.000    38801044.822   156235728.669         152.973          48.000  
C13  36792248.972   191586896.819        -139.471          48.000    36792244.868   148147123.007        -107.880          47.000  
C16  37733594.074   196488725.999         -70.018          48.000    37733588.590   151937526.070         -54.216          48.000  
R09  22792329.884   121709720.332       -3738.846          32.000    22792331.695    94663157.941       -2907.516          36.000  
R10  20391902.012   108700311.324        -635.474          46.000                                                                  
R11  21686045.053   115883661.160        3253.931          45.000    21686043.963    90131728.666        2530.878          49.000  
R08  20727571.011   110995202.941         688.557          49.000    20727565.599    86329580.716         535.612          46.000  
R07  22140408.995   118519339.220       -2171.382          48.000    22140406.059    92181699.229       -1688.888          48.000  
R23  25031425.894   133901242.764       -3806.753          33.000                                                                  
G23  21712548.499   114100210.584       -2577.911          46.000    21712547.146    88909247.977       -2008.649          48.000  
J02  38632321.975   203014222.861         -41.314          40.000    38632323.982   158192908.741         -31.881          42.000  
E06  24783183.346   130236506.058        -767.589          47.000    24783186.272    99791621.278        -588.271          50.000  
E09  24666361.474   129622604.793         126.315          48.000    24666363.993    99321225.378          96.772          51.000  
E31  25920451.410   136212893.295        1642.432          44.000    25920456.045   104370937.963        1258.404          47.000  
C33  23466412.324   122195769.553        1341.677          49.000                                                                  
C24  22550489.319   117426317.779         624.250          49.000                                                                  
R24  24330929.857                3      -1660.242          21.000    24330930.584                       -1286.963          31.000  
R01  23350481.838                2       2881.028          27.000                                                                  
E36  26436804.845   138926341.849       -1798.147          43.000    26436809.972   106450075.181       -1377.659          46.000  
E05  25972498.101   136486390.226        1500.482          38.000    25972504.029   104580509.249        1149.925          45.000  
E04  26056866.198   136929754.688       -1556.710          42.000    26056868.865   104920211.542       -1192.844          45.000  
J03  38294210.458   201237427.540        -768.523          34.000    38294219.525   156808416.257        -598.883          40.000  
G18  26261133.253   138003190.609       -3537.060          29.000    26261153.106   107534993.033       -2756.366          38.000  
E23  26766636.535   140659612.591        -811.616          32.000    26766641.505   107778173.908        -622.197          41.000  
G31  26341492.158   138425478.102        3219.150          32.000    26341501.361                        2509.159          30.000  
J07  38067737.779   200047313.253        -262.468          39.000    38067736.466   155881017.552        -204.582          45.000  
E11  26927748.956   141506272.481       -3229.728          33.000    26927756.398   108426911.188       -2474.412          40.000  
E34                                                                  27901663.330                         509.720          29.000  
G24                                                                  23597557.657                       -2732.320          27.000  
J04                                                                  39325407.391   161030968.801         292.249          47.000  
> 2025 11 05 02 29 17.3230000  0 39                     
G10  21419380.365   112559603.091         521.069          50.000    21419379.208    87708778.190         406.005          46.000  
G28  23658011.663   124323694.368        2327.544          40.000    23658010.662    96875604.237        1813.807          43.000  
G15  25889877.498   136052211.898       -3323.895          34.000    25889886.299   106014743.244       -2589.447          34.000  
G32  22685046.687   119210725.538        1417.490          47.000    22685046.795    92891473.553        1104.354          44.000  
G12  22698755.968   119282768.703         269.627          46.000    22698753.903    92947603.536         210.180          42.000  
G25  22139268.466   116342646.144        2160.095          43.000    22139269.679    90656613.397        1683.189          42.000  
C06  37544697.543   195505093.015          96.959          44.000    37544686.526   151176895.557          74.956          45.000  
C08  36827336.659   191769606.862        -471.399          45.000    36827324.594   148288375.107        -364.594          48.000  
C14  22704329.669   118227402.323           1.208          47.000    22704319.306    91420886.174           0.872          49.000  
C09  38801050.598   202047251.787         197.927          42.000    38801043.302   156235722.549         152.985          48.000  
C13  36792250.034   191586902.395        -139.465          48.000    36792245.924   148147127.320        -107.849          47.000  
C16  37733594.586   196488728.795         -69.975          48.000    37733589.124   151937528.229         -54.097          48.000  
R09  22792357.889   121709869.874       -3738.573          32.000    22792359.685    94663274.268       -2907.860          36.000  
R10  20391906.783   108700336.743        -635.487          46.000                                                                  
R11  21686020.714   115883530.998        3254.046          45.000    21686019.612    90131627.435        2530.811          49.000  
R08  20727565.859   110995175.387         688.728          49.000    20727560.454    86329559.296         535.511          46.000  
R07  22140425.215   118519426.070       -2171.309          48.000    22140422.281    92181766.778       -1688.800          48.000  
R23  25031454.367   133901395.015       -3806.515          33.000                                                                  
G23  21712568.115   114100313.701       -2577.979          45.000    21712566.768    88909328.318       -2008.594          48.000  
J02  38632322.294   203014224.511         -41.258          40.000    38632324.288   158192910.032         -32.120          42.000  
E06  24783189.197   130236536.757        -767.508          47.000    24783192.143    99791644.802        -588.178          50.000  
E09  24666360.405   129622599.734         126.401          48.000    24666363.015    99321221.505          96.789          51.000  
E31  25920438.932   136212827.601        1642.395          44.000    25920443.519   104370887.627        1258.378          47.000  
C33  23466402.025   122195715.889        1341.595          49.000                                                                  
C24  22550484.525   117426292.806         624.278          49.000                                                                  
R24  24330942.459                3      -1656.943          21.000    24330942.961                       -1285.727          31.000  
R01  23350460.218                2       2881.367          27.000                                                                  
E36  26436818.490   138926413.775       -1798.149          43.000    26436823.669   106450130.288       -1377.679          46.000  
E05  25972486.688   136486330.189        1500.722          38.000    25972492.595   104580463.250        1149.923          45.000  
E04  26056878.053   136929816.961       -1556.710          42.000    26056880.706   104920259.256       -1192.839          45.000  
J03  38294216.308   201237458.307        -769.077          34.000    38294225.364   156808440.206        -598.835          40.000  
G18  26261160.197   138003332.134       -3537.476          29.000    26261180.052   107535103.291       -2756.391          38.000  
E23  26766642.724   140659645.102        -812.236          32.000    26766647.684   107778198.788        -622.049          41.000  
G31  26341467.656   138425349.303        3219.570          32.000    26341476.865                        2509.206          30.000  
J07  38067739.817   200047323.750        -262.402          39.000    38067738.477   155881025.726        -204.442          45.000  
E11  26927773.579   141506401.633       -3229.299          33.000    26927780.967   108427010.141       -2474.011          40.000  
E34                                                                  27901658.284   112348413.955         509.666          29.000  
G24                                                                  23597584.094                       -2732.499          27.000  
J04                                                                  39325404.524   161030957.112         292.236          47.000  
> 2025 11 05 02 29 17.3630000  0 39                     
G10  21419376.380   112559582.249         521.069          50.000    21419375.236    87708761.950         405.968          46.000  
G28  23657993.960   124323601.270        2327.508          40.000    23657992.937    96875531.695        1813.602          43.000  
G15  25889902.803   136052344.841       -3323.545          34.000    25889911.580   106014846.859       -2590.014          34.000  
G32  22685035.898   119210668.840        1417.495          47.000    22685035.996    92891429.367        1104.533          44.000  
G12  22698753.907   119282757.912         269.702          46.000    22698751.827    92947595.132         210.103          42.000  
G25  22139252.010   116342559.741        2160.054          43.000    22139253.217    90656546.068        1683.217          42.000  
C06  37544696.817   195505089.135          96.970          44.000    37544685.782   151176892.558          74.919          45.000  
C08  36827340.287   191769625.718        -471.387          45.000    36827328.212   148288389.695        -364.655          48.000  
C14  22704329.678   118227402.274           1.228          47.000    22704319.307    91420886.143           0.775          49.000  
C09  38801049.118   202047243.880         197.763          42.000    38801041.790   156235716.426         153.040          48.000  
C13  36792251.081   191586907.974        -139.484          48.000    36792246.989   148147131.632        -107.837          47.000  
C16  37733595.121   196488731.585         -69.817          48.000    37733589.649   151937530.386         -53.988          48.000  
R09  22792385.848   121710019.419       -3738.564          32.000    22792387.686    94663390.601       -2908.273          36.000  
R10  20391911.559   108700362.169        -635.607          46.000                                                                  
R11  21685996.340   115883400.832        3254.138          45.000    21685995.254    90131526.204        2530.762          49.000  
R08  20727560.716   110995147.838         688.733          49.000    20727555.324    86329537.866         535.651          46.000  
R07  22140441.430   118519512.924       -2171.365          48.000    22140438.514    92181834.329       -1688.791          48.000  
R23  25031482.769   133901547.246       -3806.046          33.000                                                                  
G24  23597606.157                3      -3513.381          30.000    23597610.853                       -2732.439          27.000  
G23  21712587.734   114100416.817       -2577.966          45.000    21712586.376    88909408.667       -2008.673          48.000  
J02  38632322.618   203014226.170         -41.398          40.000    38632324.595   158192911.330         -32.385          42.000  
E06  24783195.034   130236567.460        -767.544          47.000    24783197.985    99791668.329        -588.180          50.000  
E09  24666359.419   129622594.677         126.426          48.000    24666362.048    99321217.629          96.845          51.000  
E31  25920426.466   136212761.897        1642.545          44.000    25920430.993   104370837.286        1258.423          47.000  
C33  23466391.718   122195662.216        1341.723          49.000                                                                  
C24  22550479.740   117426267.832         624.316          49.000                                                                  
R24  24330955.004                3      -1656.943          21.000    24330955.310                       -1286.594          31.000  
R01  23350438.611                2       2881.384          27.000                                                                  
E36  26436832.195   138926485.697       -1798.125          43.000    26436837.350   106450185.408       -1377.876          46.000  
E05  25972475.238   136486270.142        1501.055          38.000    25972481.140   104580417.254        1149.846          45.000  
E04  26056889.847   136929879.226       -1556.656          42.000    26056892.568   104920306.970       -1192.857          45.000  
J03  38294222.153   201237489.031        -768.544          34.000    38294231.220   156808464.140        -598.527          40.000  
G18  26261187.166   138003473.640       -3537.605          29.000    26261206.983   107535213.564       -2756.758          38.000  
E23  26766648.889   140659677.586        -812.168          32.000    26766653.858   107778223.679        -622.185          41.000  
G31  26341443.149   138425220.509        3219.668          33.000    26341452.393                        2508.587          30.000  
J07  38067741.820   200047334.229        -262.106          39.000    38067740.492   155881033.902        -204.383          45.000  
E11  26927798.153   141506530.774       -3228.748          33.000    26927805.534   108427109.121       -2474.256          40.000  
E34                                                                  27901653.220                         509.752          29.000  
J04                                                                  39325401.661   161030945.426         292.149          47.000  
> 2025 11 05 02 29 17.4030000  0 39                     
G10  21419372.398   112559561.406         521.063          50.000    21419371.265    87708745.712         405.944          46.000  
G28  23657976.223   124323508.168        2327.539          40.000    23657975.243    96875459.145        1813.615          43.000  
G15  25889928.108   136052477.792       -3323.622          34.000    25889936.885   106014950.488       -2590.683          34.000  
G32  22685025.093   119210612.140        1417.478          47.000    22685025.200    92891385.184        1104.584          44.000  
G12  22698751.861   119282747.122         269.753          46.000    22698749.774    92947586.729         210.027          42.000  
G25  22139235.553   116342473.340        2159.929          43.000    22139236.758    90656478.723        1683.513          42.000  
C06  37544696.060   195505085.256          96.936          44.000    37544685.042   151176889.563          74.856          45.000  
C08  36827343.906   191769644.587        -471.637          45.000    36827331.831   148288404.275        -364.551          48.000  
C14  22704329.659   118227402.232           1.108          47.000    22704319.282    91420886.105           0.857          49.000  
C09  38801047.583   202047235.969         197.738          42.000    38801040.272   156235710.312         152.908          48.000  
C13  36792252.156   191586913.552        -139.496          48.000    36792248.071   148147135.939        -107.709          47.000  
C16  37733595.629   196488734.384         -69.906          48.000    37733590.180   151937532.554         -54.134          48.000  
R09  22792413.898   121710168.971       -3738.664          32.000    22792415.738    94663506.935       -2908.445          36.000  
R10  20391916.315   108700387.601        -635.797          46.000                                                                  
R11  21685971.988   115883270.683        3253.851          45.000    21685970.900    90131424.970        2530.792          49.000  
R08  20727555.574   110995120.292         688.682          49.000    20727550.177    86329516.442         535.612          46.000  
R07  22140457.675   118519599.779       -2171.383          48.000    22140454.763    92181901.885       -1688.878          48.000  
R23  25031511.224   133901699.499       -3806.268          33.000                                                                  
G24  23597635.388                3      -3513.381          30.000    23597637.460                       -2732.610          27.000  
G23  21712607.355   114100519.930       -2577.893          45.000    21712605.979    88909489.021       -2008.844          48.000  
J02  38632322.930   203014227.818         -41.263          40.000    38632324.913   158192912.620         -32.369          42.000  
E06  24783200.835   130236598.165        -767.579          47.000    24783203.827    99791691.856        -588.163          50.000  
E09  24666358.488   129622589.621         126.412          48.000    24666361.027    99321213.752          96.891          51.000  
E31  25920414.009   136212696.209        1642.348          44.000    25920418.511   104370786.947        1258.461          47.000  
C33  23466381.446   122195608.545        1341.754          49.000                                                                  
C24  22550474.959   117426242.861         624.268          49.000                                                                  
R24  24330967.302                3      -1656.943          21.000    24330967.687                       -1286.580          31.000  
R01  23350416.980                2       2881.193          27.000                                                                  
E36  26436845.909   138926557.626       -1798.218          43.000    26436851.036   106450240.520       -1377.870          46.000  
E05  25972463.823   136486210.121        1500.731          38.000    25972469.687   104580371.254        1149.912          45.000  
E04  26056901.729   136929941.493       -1556.629          42.000    26056904.403   104920354.685       -1192.886          45.000  
J03  38294227.989   201237519.738        -767.923          34.000    38294237.060   156808488.072        -598.361          40.000  
G18  26261214.112   138003615.130       -3537.501          29.000    26261233.918   107535323.803       -2756.325          38.000  
E23  26766655.071   140659710.067        -812.127          32.000    26766660.053   107778248.580        -622.377          41.000  
G31  26341418.679   138425091.705        3219.910          33.000    26341427.856                        2508.253          30.000  
J07  38067743.805   200047344.724        -262.257          39.000    38067742.484   155881042.076        -204.341          45.000  
E11  26927822.730   141506659.946       -3228.972          33.000    26927830.150   108427208.101       -2474.393          40.000  
E34                                                                  27901648.124                         509.795          29.000  
J04                                                                  39325398.822   161030933.740         292.125          47.000  
> 2025 11 05 02 29 17.4430000  0 39                     
G10  21419368.449   112559540.562         521.075          50.000    21419367.287    87708729.471         406.000          46.000  
G28  23657958.512   124323415.066        2327.544          40.000    23657957.553    96875386.605        1813.472          43.000  
G15  25889953.401   136052610.739       -3323.712          34.000    25889962.198   106015054.109       -2590.732          34.000  
G32  22685014.302   119210555.445        1417.392          47.000    22685014.420    92891341.004        1104.533          44.000  
G12  22698749.828   119282736.330         269.804          46.000    22698747.720    92947578.321         210.151          42.000  
G25  22139219.129   116342386.934        2160.017          43.000    22139220.302    90656411.391        1683.437          42.000  
C06  37544695.314   195505081.380          96.877          44.000    37544684.288   151176886.561          74.963          45.000  
C08  36827347.560   191769663.447        -471.576          45.000    36827335.452   148288418.856        -364.532          48.000  
C14  22704329.649   118227402.173           1.332          47.000    22704319.280    91420886.064           0.955          49.000  
C09  38801046.080   202047228.059         197.707          42.000    38801038.749   156235704.193         152.927          48.000  
C13  36792253.230   191586919.124        -139.374          48.000    36792249.128   148147140.251        -107.739          47.000  
C16  37733596.109   196488737.179         -69.900          48.000    37733590.711   151937534.709         -53.975          48.000  
R09  22792441.910   121710318.559       -3739.354          32.000    22792443.749    94663623.257       -2908.306          36.000  
R10  20391921.109   108700413.026        -635.761          46.000                                                                  
R11  21685947.643   115883140.527        3253.827          45.000    21685946.535    90131323.740        2530.737          49.000  
R08  20727550.436   110995092.750         688.576          49.000    20727545.027    86329495.011         535.720          46.000  
R07  22140473.895   118519686.636       -2171.440          48.000    22140470.975    92181969.438       -1688.855          48.000  
R23  25031539.707   133901851.747       -3806.310          33.000                                                                  
G24  23597661.930                3      -3513.381          30.000    23597664.007                       -2732.761          27.000  
G23  21712626.977   114100623.040       -2577.802          45.000    21712625.603    88909569.369       -2008.783          48.000  
J02  38632323.248   203014229.466         -41.215          40.000    38632325.222   158192913.911         -32.321          42.000  
E06  24783206.678   130236628.869        -767.616          47.000    24783209.698    99791715.375        -588.036          50.000  
E09  24666357.533   129622584.560         126.482          48.000    24666360.060    99321209.876          96.897          51.000  
E31  25920401.530   136212630.518        1642.287          44.000    25920406.032   104370736.604        1258.528          47.000  
C33  23466371.117   122195554.874        1341.752          49.000                                                                  
C24  22550470.174   117426217.886         624.321          49.000                                                                  
R24  24330979.537                3      -1658.862          21.000    24330980.074                       -1285.376          31.000  
R01  23350395.476                2       2881.527          27.000                                                                  
E36  26436859.569   138926629.547       -1798.115          43.000    26436864.728   106450295.634       -1377.871          46.000  
E05  25972452.387   136486150.075        1500.945          38.000    25972458.271   104580325.250        1150.026          45.000  
E04  26056913.604   136930003.764       -1556.694          42.000    26056916.239   104920402.397       -1192.844          45.000  
J03  38294233.819   201237550.483        -768.414          34.000    38294242.916   156808512.025        -598.673          40.000  
G18  26261241.064   138003756.640       -3537.630          29.000    26261260.854   107535434.047       -2756.123          38.000  
E23  26766661.259   140659742.550        -812.168          32.000    26766666.255   107778273.479        -622.488          41.000  
G31  26341394.143   138424962.934        3219.369          32.000    26341403.372                        2508.229          30.000  
J07  38067745.805   200047355.214        -262.190          39.000    38067744.457   155881050.243        -204.235          45.000  
E11  26927847.329   141506789.102       -3228.979          33.000    26927854.758   108427307.062       -2474.212          40.000  
E34                                                                  27901643.049                         509.838          29.000  
J04                                                                  39325395.968   161030922.053         292.125          47.000  
> 2025 11 05 02 29 17.4830000  0 39                     
G10  21419364.485   112559519.716         521.105          50.000    21419363.345    87708713.223         406.135          46.000  
G28  23657940.786   124323321.963        2327.536          40.000    23657939.813    96875314.057        1813.596          43.000  
G15  25889978.708   136052743.684       -3323.657          34.000    25889987.476   106015157.689       -2589.936          34.000  
G32  22685003.534   119210498.746        1417.427          47.000    22685003.629    92891296.816        1104.657          44.000  
G12  22698747.798   119282725.541         269.761          46.000    22698745.662    92947569.912         210.175          42.000  
G25  22139202.685   116342300.513        2160.331          43.000    22139203.859    90656344.061        1683.318          42.000  
C06  37544694.558   195505077.502          96.899          44.000    37544683.547   151176883.556          75.045          45.000  
C08  36827351.177   191769682.297        -471.344          45.000    36827339.074   148288433.438        -364.551          48.000  
C14  22704329.654   118227402.120           1.340          47.000    22704319.271    91420886.022           1.032          49.000  
C09  38801044.578   202047220.139         197.877          42.000    38801037.229   156235698.069         153.009          48.000  
C13  36792254.323   191586924.694        -139.246          48.000    36792250.194   148147144.563        -107.782          47.000  
C16  37733596.636   196488739.974         -69.873          48.000    37733591.242   151937536.869         -53.992          48.000  
R09  22792469.920   121710468.102       -3738.845          32.000    22792471.753    94663739.587       -2908.336          36.000  
R10  20391925.868   108700438.449        -635.677          46.000                                                                  
R11  21685923.276   115883010.376        3253.747          45.000    21685922.178    90131222.507        2530.762          49.000  
R08  20727545.291   110995065.198         688.708          49.000    20727539.898    86329473.586         535.661          46.000  
R07  22140490.131   118519773.487       -2171.345          48.000    22140487.212    92182036.987       -1688.809          48.000  
R23  25031568.174   133902004.009       -3806.480          33.000                                                                  
G24  23597689.774                3      -3513.381          30.000    23597690.859                       -2733.460          27.000  
G23  21712646.615   114100726.153       -2577.814          45.000    21712645.225    88909649.719       -2008.813          48.000  
J02  38632323.555   203014231.111         -41.127          40.000    38632325.532   158192915.192         -32.091          42.000  
E06  24783212.473   130236659.565        -767.467          47.000    24783215.509    99791738.898        -588.040          50.000  
E09  24666356.487   129622579.491         126.644          48.000    24666359.083    99321205.997          96.956          51.000  
E31  25920388.971   136212564.823        1642.316          44.000    25920393.561   104370686.268        1258.460          47.000  
C33  23466360.839   122195501.200        1341.796          49.000                                                                  
C24  22550465.354   117426192.922         624.164          49.000                                                                  
R24  24330992.018                3      -1658.862          21.000    24330992.424                       -1286.758          31.000  
R01  23350373.870                2       2881.637          27.000                                                                  
E36  26436873.201   138926701.460       -1797.955          43.000    26436878.398   106450350.744       -1377.830          46.000  
E05  25972440.968   136486090.036        1500.962          38.000    25972446.836   104580279.239        1150.197          45.000  
E04  26056925.444   136930066.029       -1556.639          42.000    26056928.053   104920450.104       -1192.738          45.000  
J03  38294239.671   201237581.181        -767.837          34.000    38294248.778   156808535.973        -598.747          40.000  
G18  26261267.985   138003898.139       -3537.612          29.000    26261287.770   107535544.292       -2756.038          38.000  
E23  26766667.421   140659775.021        -811.925          32.000    26766672.460   107778298.364        -622.362          41.000  
G31  26341369.671   138424834.134        3219.747          32.000    26341378.877                        2508.391          30.000  
J07  38067747.807   200047365.708        -262.323          39.000    38067746.458   155881058.418        -204.325          45.000  
E11  26927871.816   141506918.298       -3229.553          33.000    26927879.322   108427406.038       -2474.345          40.000  
E34                                                                  27901637.981   112348332.373         509.771          29.000  
J04                                                                  39325393.144   161030910.354         292.366          47.000  
> 2025 11 05 02 29 17.5230000  0 39                     
G10  21419360.527   112559498.875         521.038          50.000    21419359.368    87708696.977         406.165          46.000  
G28  23657923.079   124323228.856        2327.587          40.000    23657922.092    96875241.501        1813.838          43.000  
G15  25890004.019   136052876.640       -3323.819          34.000    25890012.757   106015261.255       -2589.385          34.000  
G32  22684992.763   119210442.046        1417.446          47.000    22684992.841    92891252.636        1104.590          44.000  
G12  22698745.742   119282714.759         269.598          46.000    22698743.619    92947561.509         210.087          42.000  
G25  22139186.234   116342214.104        2160.288          43.000    22139187.437    90656276.740        1683.079          42.000  
C06  37544693.818   195505073.617          97.025          44.000    37544682.801   151176880.557          75.003          45.000  
C08  36827354.783   191769701.155        -471.387          45.000    36827342.691   148288448.024        -364.636          48.000  
C14  22704329.640   118227402.074           1.165          47.000    22704319.280    91420885.982           1.021          49.000  
C09  38801043.049   202047212.223         197.914          42.000    38801035.707   156235691.945         153.077          48.000  
C13  36792255.366   191586930.270        -139.331          48.000    36792251.263   148147148.874        -107.794          47.000  
C16  37733597.166   196488742.766         -69.835          48.000    37733591.774   151937539.039         -54.148          48.000  
R09  22792497.865   121710617.662       -3738.736          32.000    22792499.755    94663855.895       -2907.989          36.000  
R10  20391930.659   108700463.873        -635.659          46.000                                                                  
R11  21685898.929   115882880.216        3253.900          45.000    21685897.854    90131121.277        2530.737          49.000  
R08  20727540.140   110995037.649         688.708          49.000    20727534.770    86329452.161         535.611          46.000  
R07  22140506.369   118519860.346       -2171.469          48.000    22140503.447    92182104.543       -1688.883          48.000  
R23  25031596.661   133902156.271       -3806.657          33.000                                                                  
G24  23597714.339                3      -3513.381          30.000    23597717.505                       -2733.725          27.000  
G23  21712666.253   114100829.264       -2577.808          45.000    21712664.849    88909730.065       -2008.704          48.000  
J02  38632323.856   203014232.756         -41.138          40.000    38632325.845   158192916.462         -31.816          42.000  
E06  24783218.324   130236690.268        -767.508          47.000    24783221.331    99791762.422        -588.079          50.000  
E09  24666355.595   129622574.431         126.588          48.000    24666358.117    99321202.120          96.938          51.000  
E31  25920376.445   136212499.121        1642.456          44.000    25920381.052   104370635.926        1258.490          47.000  
C33  23466350.512   122195447.531        1341.732          49.000                                                                  
C24  22550460.553   117426167.951         624.207          49.000                                                                  
R24  24331004.515                3      -1658.571          21.000    24331004.787                       -1287.193          31.000  
R01  23350352.326                2       2881.219          27.000                                                                  
E36  26436886.874   138926773.380       -1797.986          43.000    26436892.046   106450405.854       -1377.797          46.000  
E05  25972429.559   136486030.006        1500.800          38.000    25972435.401   104580233.240        1150.102          45.000  
E04  26056937.337   136930128.304       -1556.816          42.000    26056939.889   104920497.820       -1192.852          45.000  
J03  38294245.527   201237611.948        -768.789          33.000    38294254.626   156808559.921        -598.803          40.000  
G18  26261294.916   138004039.635       -3537.536          29.000    26261314.711   107535654.539       -2756.074          38.000  
E23  26766673.643   140659807.537        -812.583          32.000    26766678.625   107778323.251        -622.281          41.000  
G31  26341345.187   138424705.342        3219.702          32.000    26341354.342                        2508.511          30.000  
J07  38067749.789   200047376.185        -262.105          39.000    38067748.458   155881066.588        -204.280          45.000  
E11  26927896.342   141507047.466       -3229.427          33.000    26927903.834   108427505.017       -2474.430          40.000  
E34                                                                  27901632.925                         509.814          29.000  
J04                                                                  39325390.300   161030898.664         292.297          47.000  
> 2025 11 05 02 29 17.5630000  0 39                     
G10  21419356.564   112559478.039         520.884          50.000    21419355.405    87708680.747         405.863          46.000  
G28  23657905.352   124323135.763        2327.437          40.000    23657904.389    96875168.955        1813.732          43.000  
G15  25890029.318   136053009.622       -3324.420          34.000    25890038.038   106015364.831       -2589.260          34.000  
G32  22684981.978   119210385.347        1417.432          47.000    22684982.047    92891208.466        1104.354          44.000  
G12  22698743.688   119282703.979         269.505          46.000    22698741.566    92947553.097         210.199          42.000  
G25  22139169.782   116342127.702        2160.111          43.000    22139171.011    90656209.407        1683.172          42.000  
C06  37544693.086   195505069.740          96.970          44.000    37544682.052   151176877.565          74.812          45.000  
C08  36827358.362   191769720.016        -471.472          45.000    36827346.304   148288462.607        -364.618          48.000  
C14  22704329.629   118227402.028           1.097          47.000    22704319.268    91420885.947           0.935          49.000  
C09  38801041.504   202047204.305         197.924          42.000    38801034.209   156235685.824         153.052          48.000  
C13  36792256.389   191586935.849        -139.447          48.000    36792252.332   148147153.186        -107.819          47.000  
C16  37733597.683   196488745.567         -69.968          48.000    37733592.292   151937541.202         -54.146          48.000  
R09  22792525.835   121710767.240       -3739.186          32.000    22792527.743    94663972.208       -2907.919          36.000  
R10  20391935.427   108700489.307        -635.843          46.000                                                                  
R11  21685874.551   115882750.060        3253.888          45.000    21685873.503    90131020.046        2530.731          49.000  
R08  20727534.989   110995010.106         688.613          49.000    20727529.622    86329430.745         535.430          46.000  
R07  22140522.594   118519947.196       -2171.373          48.000    22140519.672    92182172.103       -1688.973          48.000  
R23  25031625.096   133902308.496       -3806.050          33.000                                                                  
G24  23597741.061                3      -3513.381          30.000    23597744.229                       -2733.901          27.000  
G23  21712685.889   114100932.382       -2577.942          45.000    21712684.450    88909810.414       -2008.722          48.000  
J02  38632324.179   203014234.406         -41.248          40.000    38632326.181   158192917.749         -32.013          42.000  
E06  24783224.223   130236720.970        -767.546          47.000    24783227.188    99791785.950        -588.174          50.000  
E09  24666354.719   129622569.377         126.414          48.000    24666357.159    99321198.246          96.888          51.000  
E31  25920363.923   136212433.422        1642.497          44.000    25920368.553   104370585.591        1258.399          47.000  
C33  23466340.187   122195393.865        1341.650          49.000                                                                  
C24  22550455.764   117426142.985         624.142          49.000                                                                  
R24  24331016.950                3      -1658.571          22.000    24331017.172                       -1286.475          31.000  
R01  23350330.839                2       2881.536          27.000                                                                  
E36  26436900.588   138926845.311       -1798.158          43.000    26436905.718   106450460.961       -1377.734          46.000  
E05  25972418.193   136485969.974        1500.741          38.000    25972423.999   104580187.242        1150.006          45.000  
E04  26056949.130   136930190.570       -1556.751          42.000    26056951.751   104920545.533       -1192.843          45.000  
J03  38294251.376   201237642.649        -767.957          33.000    38294260.477   156808583.863        -598.666          40.000  
G18  26261321.831   138004181.114       -3537.310          29.000    26261341.634   107535764.794       -2756.343          38.000  
E23  26766679.847   140659840.043        -812.810          32.000    26766684.838   107778348.140        -622.258          41.000  
G31  26341320.647   138424576.541        3219.956          32.000    26341329.841                        2508.749          30.000  
J07  38067751.761   200047386.672        -262.113          39.000    38067750.466   155881074.775        -204.571          45.000  
E11  26927920.899   141507176.616       -3229.039          33.000    26927928.431   108427603.972       -2474.123          40.000  
E34                                                                  27901627.803                         510.201          29.000  
J04                                                                  39325387.442   161030886.969         292.340          47.000  
> 2025 11 05 02 29 17.6030000  0 39                     
G10  21419352.576   112559457.195         520.977          50.000    21419351.437    87708664.505         405.938          46.000  
G28  23657887.633   124323042.662        2327.456          40.000    23657886.671    96875096.417        1813.503          43.000  
G15  25890054.605   136053142.551       -3323.788          34.000    25890063.328   106015468.447       -2589.948          34.000  
G32  22684971.201   119210328.644        1417.526          47.000    22684971.244    92891164.279        1104.549          44.000  
G12  22698741.641   119282693.190         269.607          46.000    22698739.496    92947544.692         210.145          42.000  
G25  22139153.354   116342041.285        2160.287          43.000    22139154.586    90656142.076        1683.208          42.000  
C06  37544692.364   195505065.861          96.956          44.000    37544681.301   151176874.564          74.937          45.000  
C08  36827362.010   191769738.875        -471.515          45.000    36827349.911   148288477.185        -364.520          48.000  
C14  22704329.623   118227401.985           1.043          47.000    22704319.255    91420885.908           0.936          49.000  
C09  38801039.988   202047196.381         198.075          42.000    38801032.673   156235679.702         153.058          48.000  
C13  36792257.466   191586941.425        -139.453          48.000    36792253.392   148147157.498        -107.855          47.000  
C16  37733598.233   196488748.357         -69.834          48.000    37733592.847   151937543.357         -53.976          48.000  
R09  22792553.829   121710916.772       -3738.531          32.000    22792555.783    94664088.540       -2908.173          36.000  
R10  20391940.205   108700514.734        -635.757          46.000                                                                  
R11  21685850.213   115882619.898        3253.992          45.000    21685849.138    90130918.809        2530.847          49.000  
R08  20727529.856   110994982.561         688.582          49.000    20727524.488    86329409.318         535.551          46.000  
R07  22140538.808   118520034.050       -2171.366          48.000    22140535.879    92182239.650       -1688.802          48.000  
R23  25031653.526   133902460.733       -3805.896          33.000                                                                  
G24  23597765.468                3      -3513.381          30.000    23597770.770                       -2733.671          27.000  
G23  21712705.516   114101035.498       -2577.960          45.000    21712704.073    88909890.765       -2008.783          48.000  
J02  38632324.500   203014236.054         -41.226          40.000    38632326.489   158192919.050         -32.382          42.000  
E06  24783230.085   130236751.672        -767.561          47.000    24783233.024    99791809.476        -588.193          50.000  
E09  24666353.739   129622564.321         126.378          48.000    24666356.208    99321194.369          96.895          51.000  
E31  25920351.449   136212367.723        1642.490          44.000    25920356.055   104370535.258        1258.336          47.000  
C33  23466329.925   122195340.192        1341.741          49.000                                                                  
C24  22550450.987   117426118.013         624.196          49.000                                                                  
R24  24331029.274                3      -1658.571          22.000    24331029.549                       -1286.662          31.000  
R01  23350309.483                2       2881.573          27.000                                                                  
E36  26436914.240   138926917.231       -1798.124          43.000    26436919.447   106450516.066       -1377.664          46.000  
E05  25972406.784   136485909.933        1500.906          38.000    25972412.602   104580141.230        1150.209          45.000  
E04  26056960.966   136930252.834       -1556.666          42.000    26056963.600   104920593.241       -1192.784          45.000  
J03  38294257.223   201237673.367        -767.774          33.000    38294266.313   156808607.797        -598.407          40.000  
G18  26261348.729   138004322.610       -3537.326          29.000    26261368.550   107535875.052       -2756.471          38.000  
E23  26766686.023   140659872.503        -812.117          32.000    26766691.006   107778373.028        -622.224          41.000  
G31  26341296.129   138424447.738        3220.057          32.000    26341305.333                        2508.800          30.000  
J07  38067753.760   200047397.177        -262.463          39.000    38067752.473   155881082.945        -204.410          45.000  
E11  26927945.444   141507305.818       -3229.718          34.000    26927952.989   108427702.953       -2474.364          40.000  
E34                                                                  27901622.727                         509.893          29.000  
J04                                                                  39325384.608   161030875.285         292.149          47.000  
