     3.04           OBSERVATION DATA    M: Mixed            RINEX VERSION / TYPE
RTKCONV 2.4.3 b34                       20251105 023612 UTC PGM / RUN BY / DATE 
format: u-blox UBX                                          COMMENT             
log: D:\GPdata\11_05\fingure_120_11_5_3.ubx                 COMMENT             
                                                            MARKER NAME         
                                                            MARKER NUMBER       
                                                            MARKER TYPE         
                                                            OBSERVER / AGENCY   
                                                            REC # / TYPE / VERS 
                                                            ANT # / TYPE        
        0.0000        0.0000        0.0000                  APPROX POSITION XYZ 
        0.0000        0.0000        0.0000                  ANTENNA: DELTA H/E/N
G   11 C1C L1C D1C S1C C2L L2L D2L S2L C2S D2S S2S          SYS / # / OBS TYPES 
R    8 C1C L1C D1C S1C C2C L2C D2C S2C                      SYS / # / OBS TYPES 
E    8 C1C L1C D1C S1C C7Q L7Q D7Q S7Q                      SYS / # / OBS TYPES 
J    8 C1C L1C D1C S1C C2L L2L D2L S2L                      SYS / # / OBS TYPES 
C    8 C2I L2I D2I S2I C7I L7I D7I S7I                      SYS / # / OBS TYPES 
  2025    11    05    02    29   54.0030000     GPS         TIME OF FIRST OBS   
  2025    11    05    02    30   20.3630000     GPS         TIME OF LAST OBS    
G L1C                                                       SYS / PHASE SHIFT   
G L2L  0.00000                                              SYS / PHASE SHIFT   
R L1C                                                       SYS / PHASE SHIFT   
R L2C                                                       SYS / PHASE SHIFT   
E L1C  0.00000                                              SYS / PHASE SHIFT   
E L7Q  0.00000                                              SYS / PHASE SHIFT   
J L1C                                                       SYS / PHASE SHIFT   
J L2L  0.00000                                              SYS / PHASE SHIFT   
C L2I                                                       SYS / PHASE SHIFT   
C L7I                                                       SYS / PHASE SHIFT   
  7 R05  1 R11  5 R12  6 R13 -2 R14 -7 R15  0 R27  3        GLONASS SLOT / FRQ #
 C1C    0.000 C1P    0.000 C2C    0.000 C2P    0.000        GLONASS COD/PHS/BIS 
                                                            END OF HEADER       
> 2025 11 05 02 29 54.0030000  0 39                     
G10  21415824.994   112540919.0071        496.629          51.000    21415823.729    87694219.1451        386.937          46.000                                                  
G28  23641808.811   124238547.9391       2313.846          40.000    23641807.538    96809256.4721       1803.225          42.000                                                  
G15  25913091.948   136174202.8641      -3328.982          33.000    25913100.921   106109800.5521      -2593.969          34.000                                                  
G32  22675171.125   119158830.2641       1411.094          47.000    22675171.196    92851035.6711       1099.722          44.000                                                  
G12  22696963.420   119273348.2271        242.974          46.000    22696961.339    92940262.8691        189.578          42.000                                                  
G25  22124259.737   116263773.4761       2139.358          43.000    22124260.610    90595154.2261       1667.097          42.000                                                  
C06  37544031.200   195501622.8641         91.276          44.000    37544019.853   151174212.1991         70.790          46.000  
C08  36830684.009   191787037.2871       -479.932          46.000    36830671.778   148301853.3781       -370.990          49.000  
C14  22704367.001   118227599.1531        -13.009          47.000    22704357.214    91421038.3591         -9.985          49.000  
C09  38799673.387   202040080.9081        191.797          42.000    38799666.189   156230177.5431        148.481          48.000  
C13  36793255.017   191592135.3271       -146.967          48.000    36793250.773   148151173.7091       -113.434          47.000  
C16  37734103.071   196491375.8391        -75.544          48.000    37734097.550   151939575.0801        -58.427          48.000  
R09  22818099.362   121847325.9651      -3757.138          32.000    22818100.728    94770184.4781      -2922.207          37.000  
R10  20396397.381   108724275.1381       -670.677          46.000                                                                  
R11  21663756.226   115764558.1131       3232.037          45.000    21663755.532    90039093.0781       2513.824          50.000  
R08  20722895.270   110970165.6001        673.928          49.000    20722890.511    86310107.2021        524.205          47.000  
R07  22155354.793   118599344.4501      -2187.378          48.000    22155352.321    92243925.3761      -1701.255          48.000  
R23  25057556.140   134041033.7931      -3809.009          33.000                                                                  
G23  21730632.964   114195244.2461      -2599.353          45.000    21730631.536    88983300.0691      -2025.531          47.000                                                  
J02  38632618.784   203015782.1291        -44.781          40.000    38632620.718   158194123.8361        -34.860          41.000  
E06  24788563.339   130264778.2731       -773.501          47.000    24788566.398    99813284.3531       -592.607          50.000  
E09  24665493.258   129618041.9011        121.053          48.000    24665495.823    99317729.0951         92.719          51.000  
E31  25909021.992   136152830.5301       1627.954          44.000    25909026.565   104324915.8971       1247.324          47.000  
C33  23456984.217   122146674.1181       1331.201          49.000                                                                  
C24  22546157.278   117403759.2631        603.179          49.000                                                                  
R24  24342383.536                3      -1681.682          24.000    24342377.647                1      -1306.685          31.000  
R01  23330713.365                        2879.673          28.000                                                                  
E36  26449423.470   138992652.2201      -1814.635          44.000    26449428.725   106500884.3251      -1390.516          47.000  
E05  25962016.071   136431306.9811       1498.212          38.000    25962021.994   104538302.6751       1147.955          45.000  
E04  26067757.319   136986987.2661      -1561.703          42.000    26067759.946   104964064.9951      -1196.560          45.000  
J03  38299585.044   201265672.6961       -771.710          33.000    38299594.837   156830425.0101       -600.694          40.000  
E23  26772374.234   140689764.9061       -831.323          32.000    26772379.242   107801277.5461       -637.107          41.000  
G31  26319012.705   138307344.6251       3213.253          33.000    26319021.159   107772015.0611       2503.687          31.000                                                  
J07  38069575.073   200056965.1351       -264.557          39.000    38069572.980   155888538.4491       -206.039          44.000  
E11  26950321.269   141624889.3071      -3232.306          33.000    26950328.983   108517798.9301      -2476.973          40.000  
E34                                                                  27897075.717                1        495.352          29.000  
G18                                                                  26285852.870   107636122.7641      -2752.162          38.000                                                  
G24                                                                  23622076.305                       -2739.155          26.000                                                  
J04                                                                  39322786.881   161020233.9291        291.442          47.000  
> 2025 11 05 02 29 54.0430000  0 39                     
G10  21415821.212   112540899.140         496.642          51.000    21415819.933    87694203.667         386.906          46.000                                                  
G28  23641791.191   124238455.370        2314.055          40.000    23641789.919    96809184.341        1803.252          42.000                                                  
G15  25913117.305   136174336.023       -3329.015          33.000    25913126.255   106109904.303       -2593.879          34.000                                                  
G32  22675160.379   119158773.819        1411.076          47.000    22675160.453    92850991.697        1099.467          44.000                                                  
G12  22696961.576   119273338.510         242.919          46.000    22696959.501    92940255.309         189.201          42.000                                                  
G25  22124243.469   116263687.909        2139.200          43.000    22124244.306    90595087.550        1666.933          42.000                                                  
C06  37544030.506   195501619.217          91.184          44.000    37544019.138   151174209.374          70.710          46.000  
C08  36830687.680   191787056.472        -479.742          46.000    36830675.475   148301868.221        -371.051          49.000  
C14  22704367.091   118227599.676         -13.099          47.000    22704357.299    91421038.756          -9.941          49.000  
C09  38799671.930   202040073.221         191.977          42.000    38799664.718   156230171.600         148.488          48.000  
C13  36793256.157   191592141.203        -146.930          48.000    36793251.911   148151178.259        -113.647          47.000  
C16  37734103.646   196491378.855         -75.502          48.000    37734098.129   151939577.410         -58.333          48.000  
R09  22818127.496   121847476.233       -3756.801          32.000    22818128.868    94770301.374       -2922.430          37.000  
R10  20396402.420   108724301.972        -670.861          46.000                                                                  
R11  21663732.040   115764428.831        3232.001          45.000    21663731.331    90038992.522        2513.843          50.000  
R08  20722890.229   110970138.643         673.904          49.000    20722885.487    86310086.230         524.243          47.000  
R07  22155371.149   118599431.948       -2187.460          48.000    22155368.693    92243993.426       -1701.278          48.000  
R23  25057584.621   134041186.116       -3808.368          33.000                                                                  
G23  21730652.754   114195348.226       -2599.487          45.000    21730651.304    88983381.087       -2025.501          47.000                                                  
J02  38632619.119   203015783.908         -44.603          40.000    38632621.081   158194125.223         -34.727          41.000  
E06  24788569.198   130264809.206        -773.428          47.000    24788572.290    99813308.053        -592.554          50.000  
E09  24665492.284   129618037.060         121.022          48.000    24665494.869    99317725.381          92.783          51.000  
E31  25909009.554   136152765.414        1627.918          44.000    25909014.121   104324865.998        1247.388          47.000  
C33  23456974.042   122146620.868        1331.215          49.000                                                                  
C24  22546152.644   117403735.124         603.336          49.000                                                                  
R24  24342395.889                3      -1680.332          24.000    24342390.213                       -1306.881          31.000  
R01  23330691.742                        2879.887          28.000                                                                  
E36  26449437.276   138992724.803       -1814.567          44.000    26449442.513   106500939.940       -1390.465          47.000  
E05  25962004.685   136431247.051        1498.221          38.000    25962010.581   104538256.749        1148.057          45.000  
E04  26067769.179   136987049.718       -1561.438          42.000    26067771.835   104964112.848       -1196.457          45.000  
J03  38299590.927   201265703.539        -771.416          33.000    38299600.705   156830449.039        -600.685          40.000  
E23  26772380.560   140689798.155        -831.261          32.000    26772385.535   107801303.014        -636.891          41.000  
G31  26318988.318   138307216.070        3213.701          34.000    26318996.708   107771914.893        2504.047          31.000                                                  
J07  38069577.101   200056975.713        -264.502          39.000    38069575.015   155888546.683        -205.895          44.000  
E11  26950345.875   141625018.604       -3232.399          33.000    26950353.561   108517897.997       -2476.825          40.000  
E34                                                                  27897070.771                         495.960          29.000  
G18                                                                  26285879.780   107636232.888       -2752.821          38.000                                                  
G24                                                                  23622103.169                       -2738.721          26.000                                                  
J04                                                                  39322784.048   161020222.266         291.553          47.000  
> 2025 11 05 02 29 54.0830000  0 39                     
G10  21415817.434   112540879.275         496.599          51.000    21415816.173    87694188.184         386.999          46.000                                                  
G28  23641773.569   124238362.814        2313.948          40.000    23641772.312    96809112.208        1803.323          42.000                                                  
G15  25913142.657   136174469.191       -3329.179          33.000    25913151.598   106110008.036       -2593.536          34.000                                                  
G32  22675149.613   119158717.362        1411.278          47.000    22675149.720    92850947.718        1099.398          44.000                                                  
G12  22696959.737   119273328.795         242.841          46.000    22696957.676    92940247.748         188.950          42.000                                                  
G25  22124227.169   116263602.333        2139.293          43.000    22124228.016    90595020.858        1667.144          42.000                                                  
C06  37544029.822   195501615.567          91.213          44.000    37544018.446   151174206.553          70.592          46.000  
C08  36830691.336   191787075.668        -479.840          46.000    36830679.163   148301883.063        -371.088          49.000  
C14  22704367.192   118227600.191         -12.971          47.000    22704357.395    91421039.160         -10.061          49.000  
C09  38799670.464   202040065.518         192.398          42.000    38799663.250   156230165.656         148.533          48.000  
C13  36793257.313   191592147.080        -146.954          48.000    36793253.042   148151182.813        -113.861          47.000  
C16  37734104.232   196491381.865         -75.351          48.000    37734098.726   151939579.737         -58.201          48.000  
R09  22818155.588   121847626.507       -3756.818          32.000    22818156.992    94770418.243       -2922.001          37.000  
R10  20396407.435   108724328.800        -670.832          46.000                                                                  
R11  21663707.850   115764299.541        3232.159          45.000    21663707.116    90038891.968        2513.812          50.000  
R08  20722885.215   110970111.684         673.936          49.000    20722880.460    86310065.263         524.198          47.000  
R07  22155387.502   118599519.434       -2187.291          48.000    22155385.029    92244061.478       -1701.316          48.000  
R23  25057613.075   134041338.458       -3808.375          33.000                                                                  
G23  21730672.518   114195452.194       -2599.298          45.000    21730671.078    88983462.098       -2025.360          47.000                                                  
J02  38632619.446   203015785.686         -44.491          40.000    38632621.388   158194126.615         -34.760          41.000  
E06  24788575.042   130264840.135        -773.332          47.000    24788578.172    99813331.752        -592.515          50.000  
E09  24665491.339   129618032.213         121.103          48.000    24665493.947    99317721.669          92.786          51.000  
E31  25908997.115   136152700.290        1627.974          44.000    25909001.710   104324816.098        1247.467          47.000  
C33  23456963.823   122146567.612        1331.298          49.000                                                                  
C24  22546148.034   117403710.981         603.506          49.000                                                                  
R24  24342408.293                3      -1680.332          24.000    24342402.799                       -1306.609          31.000  
R01  23330670.366                        2879.673          28.000                                                                  
E36  26449451.090   138992797.389       -1814.616          44.000    26449456.283   106500995.552       -1390.364          47.000  
E05  25961993.263   136431187.109        1498.405          38.000    25961999.156   104538210.814        1148.230          45.000  
E04  26067781.116   136987112.171       -1561.366          42.000    26067783.719   104964160.711       -1196.555          45.000  
J03  38299596.801   201265734.342        -770.476          33.000    38299606.570   156830473.077        -600.875          40.000  
E23  26772386.860   140689831.379        -830.829          32.000    26772391.867   107801328.490        -636.872          41.000  
G31  26318963.844   138307087.520        3213.713          34.000    26318972.241   107771814.725        2504.185          31.000                                                  
J07  38069579.121   200056986.295        -264.565          39.000    38069577.013   155888554.926        -205.996          44.000  
E11  26950370.417   141625147.905       -3232.452          33.000    26950378.163   108517997.055       -2476.622          40.000  
E34                                                                  27897065.854                         495.835          29.000  
G18                                                                  26285906.697   107636343.013       -2753.143          38.000                                                  
G24                                                                  23622130.138                       -2738.126          26.000                                                  
J04                                                                  39322781.199   161020210.603         291.583          47.000  
> 2025 11 05 02 29 54.1230000  0 39                     
G10  21415813.661   112540859.413         496.525          51.000    21415812.385    87694172.702         387.030          46.000                                                  
G28  23641755.953   124238270.246        2314.095          40.000    23641754.684    96809040.096        1802.914          42.000                                                  
G15  25913167.988   136174602.327       -3328.648          33.000    25913176.933   106110111.797       -2593.867          34.000                                                  
G32  22675138.895   119158660.923        1411.065          47.000    22675138.973    92850903.732        1099.520          44.000                                                  
G12  22696957.876   119273319.082         242.777          46.000    22696955.831    92940240.188         188.849          42.000                                                  
G25  22124210.899   116263516.764        2139.230          43.000    22124211.753    90594954.193        1666.820          42.000                                                  
C06  37544029.125   195501611.904          91.488          44.000    37544017.738   151174203.738          70.405          46.000  
C08  36830695.028   191787094.868        -479.987          46.000    36830682.879   148301897.910        -371.179          49.000  
C14  22704367.300   118227600.707         -12.926          47.000    22704357.495    91421039.566         -10.171          49.000  
C09  38799668.992   202040057.832         192.332          42.000    38799661.751   156230159.712         148.552          48.000  
C13  36793258.446   191592152.960        -147.009          48.000    36793254.171   148151187.359        -113.812          47.000  
C16  37734104.812   196491384.878         -75.322          48.000    37734099.301   151939582.069         -58.251          48.000  
R09  22818183.743   121847776.778       -3756.792          33.000    22818185.113    94770535.130       -2922.075          37.000  
R10  20396412.455   108724355.626        -670.748          46.000                                                                  
R11  21663683.652   115764170.261        3232.031          45.000    21663682.940    90038791.420        2513.696          50.000  
R08  20722880.186   110970084.722         673.979          49.000    20722875.405    86310044.301         524.073          47.000  
R07  22155403.860   118599606.930       -2187.367          48.000    22155401.380    92244129.529       -1701.307          48.000  
R23  25057641.536   134041490.817       -3808.643          32.000                                                                  
G23  21730692.299   114195556.167       -2599.329          45.000    21730690.881    88983543.121       -2025.501          47.000                                                  
J02  38632619.772   203015787.469         -44.525          40.000    38632621.737   158194128.005         -34.768          41.000  
E06  24788580.919   130264871.064        -773.263          47.000    24788584.076    99813355.451        -592.490          50.000  
E09  24665490.467   129618027.371         121.061          48.000    24665493.040    99317717.955          92.837          51.000  
E31  25908984.762   136152635.180        1627.829          44.000    25908989.305   104324766.206        1247.359          47.000  
C33  23456953.584   122146514.365        1331.202          49.000                                                                  
C24  22546143.416   117403686.841         603.527          49.000                                                                  
R24  24342420.453                3      -1680.332          24.000    24342415.372                       -1306.949          31.000  
R01  23330648.742                        2879.799          28.000                                                                  
E36  26449464.882   138992869.974       -1814.679          44.000    26449470.106   106501051.170       -1390.435          47.000  
E05  25961981.905   136431127.183        1498.240          38.000    25961987.747   104538164.899        1148.021          45.000  
E04  26067793.020   136987174.626       -1561.359          42.000    26067795.627   104964208.573       -1196.593          45.000  
J03  38299602.658   201265765.187        -770.908          33.000    38299612.444   156830497.121        -601.051          40.000  
E23  26772393.154   140689864.643        -831.230          32.000    26772398.231   107801353.977        -637.074          41.000  
G31  26318939.379   138306958.986        3213.351          33.000    26318947.789                        2503.866          31.000                                                  
J07  38069581.117   200056996.867        -264.435          39.000    38069579.038   155888563.165        -205.997          44.000  
E11  26950395.032   141625277.229       -3232.887          33.000    26950402.754   108518096.137       -2476.849          40.000  
E34                                                                  27897060.931                         495.965          29.000  
G18                                                                  26285933.583   107636453.117       -2752.943          38.000                                                  
G24                                                                  23622156.573                       -2737.809          26.000                                                  
J04                                                                  39322778.352   161020198.938         291.608          47.000  
> 2025 11 05 02 29 54.1630000  0 39                     
G10  21415809.863   112540839.546         496.612          51.000    21415808.591    87694157.224         386.968          46.000                                                  
G28  23641738.354   124238177.679        2314.189          40.000    23641737.081    96808967.975        1802.907          42.000                                                  
G15  25913193.335   136174735.455       -3328.230          33.000    25913202.285   106110215.554       -2593.958          34.000                                                  
G32  22675128.138   119158604.473        1411.147          47.000    22675128.207    92850859.746        1099.606          44.000                                                  
G12  22696956.041   119273309.377         242.592          46.000    22696953.979    92940232.622         188.916          42.000                                                  
G25  22124194.602   116263431.193        2139.225          43.000    22124195.471    90594887.511        1666.939          42.000                                                  
C06  37544028.405   195501608.251          91.422          44.000    37544017.043   151174200.921          70.338          46.000  
C08  36830698.750   191787114.068        -480.078          46.000    36830686.557   148301912.754        -371.155          49.000  
C14  22704367.395   118227601.228         -12.993          47.000    22704357.604    91421039.967         -10.114          49.000  
C09  38799667.533   202040050.150         192.121          42.000    38799660.270   156230153.771         148.526          48.000  
C13  36793259.590   191592158.836        -146.973          48.000    36793255.300   148151191.898        -113.586          47.000  
C16  37734105.404   196491387.900         -75.493          48.000    37734099.880   151939584.405         -58.344          48.000  
R09  22818211.902   121847927.056       -3756.931          33.000    22818213.252    94770652.022       -2922.162          37.000  
R10  20396417.485   108724382.465        -670.933          46.000                                                                  
R11  21663659.454   115764040.974        3232.123          45.000    21663658.746    90038690.866        2513.751          50.000  
R08  20722875.178   110970057.767         673.879          49.000    20722870.377    86310023.332         524.143          47.000  
R07  22155420.214   118599694.432       -2187.512          48.000    22155417.738    92244197.581       -1701.326          48.000  
R23  25057670.039   134041643.186       -3809.072          33.000                                                                  
G23  21730712.083   114195660.141       -2599.347          45.000    21730710.645    88983624.139       -2025.501          47.000                                                  
J02  38632620.100   203015789.261         -44.708          40.000    38632622.075   158194129.399         -34.884          41.000  
E06  24788586.819   130264901.995        -773.259          47.000    24788589.982    99813379.154        -592.536          50.000  
E09  24665489.581   129618022.526         121.058          48.000    24665492.141    99317714.244          92.818          51.000  
E31  25908972.356   136152570.064        1627.846          44.000    25908976.914   104324716.313        1247.295          47.000  
C33  23456943.392   122146461.112        1331.254          49.000                                                                  
C24  22546138.765   117403662.714         603.275          49.000                                                                  
R24  24342432.893                3      -1689.225          24.000    24342427.940                       -1306.898          31.000  
R01  23330627.221                        2879.924          28.000                                                                  
E36  26449478.699   138992942.566       -1814.782          44.000    26449483.918   106501106.786       -1390.422          47.000  
E05  25961970.510   136431067.261        1498.092          38.000    25961976.334   104538118.977        1148.007          45.000  
E04  26067804.950   136987237.090       -1561.497          42.000    26067807.521   104964256.428       -1196.452          45.000  
J03  38299608.549   201265796.057        -771.615          33.000    38299618.317   156830521.156        -600.982          40.000  
E23  26772399.509   140689897.896        -831.321          32.000    26772404.601   107801379.461        -637.123          41.000  
G31  26318914.921   138306830.437        3213.472          34.000    26318923.336                        2503.937          31.000                                                  
J07  38069583.128   200057007.431        -264.157          39.000    38069581.022   155888571.408        -206.013          44.000  
E11  26950419.606   141625406.534       -3232.817          33.000    26950427.356   108518195.200       -2476.718          40.000  
E34                                                                  27897055.983   112329884.1581        495.895          29.000  
G18                                                                  26285960.483   107636563.214       -2752.720          38.000                                                  
G24                                                                  23622183.265                       -2738.032          26.000                                                  
J04                                                                  39322775.511   161020187.280         291.509          47.000  
> 2025 11 05 02 29 54.2030000  0 39                     
G10  21415806.079   112540819.683         496.563          51.000    21415804.812    87694141.753         386.765          46.000                                                  
G28  23641720.722   124238085.110        2314.244          40.000    23641719.455    96808895.847        1803.056          42.000                                                  
G15  25913218.653   136174868.610       -3328.556          33.000    25913227.633   106110319.302       -2593.803          35.000                                                  
G32  22675117.404   119158548.036        1411.005          47.000    22675117.457    92850815.766        1099.552          44.000                                                  
G12  22696954.180   119273299.671         242.547          46.000    22696952.104    92940225.042         189.246          42.000                                                  
G25  22124178.331   116263345.633        2139.039          43.000    22124179.181    90594820.836        1666.915          42.000                                                  
C06  37544027.706   195501604.603          91.263          44.000    37544016.340   151174198.104          70.322          46.000  
C08  36830702.446   191787133.265        -480.005          46.000    36830690.246   148301927.600        -371.210          49.000  
C14  22704367.493   118227601.753         -13.104          47.000    22704357.711    91421040.370         -10.106          49.000  
C09  38799666.065   202040042.471         192.004          42.000    38799658.789   156230147.826         148.584          48.000  
C13  36793260.722   191592164.713        -146.948          48.000    36793256.417   148151196.444        -113.617          47.000  
C16  37734105.983   196491390.915         -75.451          48.000    37734100.459   151939586.741         -58.401          48.000  
R09  22818240.022   121848077.414       -3758.364          32.000    22818241.387    94770768.906       -2922.118          37.000  
R10  20396422.540   108724409.296        -670.885          46.000                                                                  
R11  21663635.267   115763911.698        3231.940          45.000    21663634.538    90038590.313        2513.776          50.000  
R08  20722870.156   110970030.814         673.811          49.000    20722865.372    86310002.375         523.949          47.000  
R07  22155436.543   118599781.925       -2187.420          48.000    22155434.086    92244265.629       -1701.259          48.000  
R23  25057698.499   134041795.499       -3808.316          33.000                                                                  
G23  21730731.856   114195764.108       -2599.261          45.000    21730730.422    88983705.164       -2025.629          47.000                                                  
J02  38632620.430   203015791.052         -44.789          41.000    38632622.427   158194130.797         -35.015          41.000  
E06  24788592.715   130264932.934        -773.406          47.000    24788595.830    99813402.861        -592.651          50.000  
E09  24665488.656   129618017.685         121.025          48.000    24665491.265    99317710.538          92.704          51.000  
E31  25908959.940   136152504.946        1627.906          44.000    25908964.513   104324666.422        1247.265          47.000  
C33  23456933.156   122146407.866        1331.158          49.000                                                                  
C24  22546134.129   117403638.594         603.039          49.000                                                                  
R24  24342445.561                3      -1689.225          24.000    24342440.444                       -1307.171          31.000  
R01  23330605.591                        2879.798          28.000                                                                  
E36  26449492.485   138993015.152       -1814.725          44.000    26449497.733   106501162.405       -1390.458          47.000  
E05  25961959.117   136431007.315        1498.451          38.000    25961964.910   104538073.058        1147.956          45.000  
E04  26067816.856   136987299.559       -1561.695          42.000    26067819.391   104964304.282       -1196.369          45.000  
J03  38299614.412   201265826.900        -771.421          33.000    38299624.170   156830545.186        -600.759          40.000  
E23  26772405.853   140689931.148        -831.306          32.000    26772410.898   107801404.926        -636.838          41.000  
G31  26318890.414   138306701.913        3213.223          33.000    26318898.880                        2504.092          31.000                                                  
J07  38069585.141   200057018.005        -264.241          39.000    38069583.017   155888579.656        -206.169          44.000  
E11  26950444.183   141625535.798       -3232.232          33.000    26950451.933   108518294.285       -2477.026          40.000  
E34                                                                  27897051.076                         495.253          29.000  
G18                                                                  26285987.372   107636673.305       -2752.406          38.000                                                  
G24                                                                  23622210.424                       -2738.196          26.000                                                  
J04                                                                  39322772.657   161020175.621         291.448          47.000  
> 2025 11 05 02 29 54.2430000  0 39                     
G10  21415802.317   112540799.824         496.470          50.000    21415801.047    87694126.278         386.790          46.000                                                  
G28  23641703.112   124237992.551        2314.057          40.000    23641701.832    96808823.722        1803.101          42.000                                                  
G15  25913244.000   136175001.783       -3329.100          34.000    25913252.986   106110423.064       -2593.863          35.000                                                  
G32  22675106.653   119158491.587        1411.119          47.000    22675106.719    92850771.773        1099.734          44.000                                                  
G12  22696952.332   119273289.954         242.740          46.000    22696950.226    92940217.475         189.216          42.000                                                  
G25  22124162.037   116263260.066        2139.089          43.000    22124162.878    90594754.157        1666.912          42.000                                                  
C06  37544027.002   195501600.962          91.056          44.000    37544015.644   151174195.277          70.502          46.000  
C08  36830706.125   191787152.460        -479.938          46.000    36830693.924   148301942.439        -371.082          49.000  
C14  22704367.591   118227602.277         -13.167          47.000    22704357.820    91421040.772         -10.066          49.000  
C09  38799664.606   202040034.779         192.176          42.000    38799657.324   156230141.880         148.608          48.000  
C13  36793261.840   191592170.595        -147.046          48.000    36793257.547   148151200.989        -113.635          47.000  
C16  37734106.557   196491393.940         -75.587          48.000    37734101.051   151939589.078         -58.459          48.000  
R09  22818268.164   121848227.693       -3757.789          32.000    22818269.524    94770885.790       -2922.031          37.000  
R10  20396427.579   108724436.132        -670.902          46.000                                                                  
R11  21663611.086   115763782.422        3231.854          45.000    21663610.353    90038489.763        2513.751          50.000  
R08  20722865.120   110970003.855         673.906          49.000    20722860.335    86309981.407         524.076          47.000  
R07  22155452.876   118599869.420       -2187.393          48.000    22155450.435    92244333.686       -1701.371          48.000  
R23  25057726.994   134041947.831       -3808.169          33.000                                                                  
G23  21730751.635   114195868.093       -2599.512          45.000    21730750.208    88983786.183       -2025.537          47.000                                                  
J02  38632620.759   203015792.836         -44.691          40.000    38632622.770   158194132.186         -34.852          41.000  
E06  24788598.623   130264963.871        -773.431          47.000    24788601.728    99813426.565        -592.642          50.000  
E09  24665487.715   129618012.839         121.077          48.000    24665490.328    99317706.829          92.689          51.000  
E31  25908947.577   136152439.837        1627.809          44.000    25908952.125   104324616.530        1247.269          47.000  
C33  23456922.939   122146354.616        1331.186          49.000                                                                  
C24  22546129.511   117403614.463         603.119          49.000                                                                  
R24  24342458.037                3      -1689.225          24.000    24342452.983                       -1306.873          31.000  
R01  23330583.850                        2879.394          28.000                                                                  
E36  26449506.271   138993087.729       -1814.556          44.000    26449511.547   106501218.026       -1390.514          47.000  
E05  25961947.704   136430947.377        1498.480          38.000    25961953.485   104538027.136        1147.992          45.000  
E04  26067828.680   136987362.018       -1561.637          42.000    26067831.290   104964352.143       -1196.456          45.000  
J03  38299620.314   201265857.770        -771.661          33.000    38299630.029   156830569.211        -600.597          40.000  
E23  26772412.179   140689964.406        -831.296          32.000    26772417.254   107801430.414        -637.018          41.000  
G31  26318865.940   138306573.370        3213.508          34.000    26318874.374                        2504.371          31.000                                                  
J07  38069587.156   200057028.591        -264.480          39.000    38069585.029   155888587.901        -206.207          44.000  
E11  26950468.748   141625665.088       -3232.163          33.000    26950476.542   108518393.372       -2477.130          40.000  
E34                                                                  27897046.201                         495.381          29.000  
G18                                                                  26286014.247   107636783.401       -2752.299          38.000                                                  
G24                                                                  23622237.071                       -2738.008          26.000                                                  
J04                                                                  39322769.817   161020163.962         291.392          47.000  
> 2025 11 05 02 29 54.2830000  0 39                     
G10  21415798.580   112540779.969         496.335          50.000    21415797.256    87694110.800         386.889          46.000                                                  
G28  23641685.520   124237899.999        2313.831          40.000    23641684.207    96808751.597        1803.080          42.000                                                  
G15  25913269.326   136175134.932       -3328.954          34.000    25913278.316   106110526.841       -2594.232          35.000                                                  
G32  22675095.894   119158435.146        1411.047          47.000    22675095.966    92850727.792        1099.569          44.000                                                  
G12  22696950.495   119273280.242         242.759          46.000    22696948.363    92940209.904         189.225          42.000                                                  
G25  22124145.770   116263174.492        2139.230          43.000    22124146.609    90594687.484        1666.803          42.000                                                  
C06  37544026.284   195501597.320          90.970          44.000    37544014.928   151174192.442          70.733          46.000  
C08  36830709.823   191787171.649        -479.779          46.000    36830697.597   148301957.288        -371.185          49.000  
C14  22704367.690   118227602.794         -13.047          47.000    22704357.913    91421041.178         -10.146          49.000  
C09  38799663.119   202040027.090         192.212          42.000    38799655.855   156230135.935         148.633          48.000  
C13  36793262.993   191592176.470        -146.942          48.000    36793258.681   148151205.533        -113.635          47.000  
C16  37734107.147   196491396.959         -75.564          48.000    37734101.641   151939591.412         -58.430          48.000  
R09  22818296.252   121848377.945       -3756.784          32.000    22818297.641    94771002.679       -2922.202          37.000  
R10  20396432.617   108724462.970        -670.964          46.000                                                                  
R11  21663586.918   115763653.145        3231.866          45.000    21663586.152    90038389.210        2513.788          50.000  
R08  20722860.080   110969976.906         673.755          49.000    20722855.322    86309960.443         524.057          47.000  
R07  22155469.226   118599956.913       -2187.361          48.000    22155466.781    92244401.737       -1701.327          48.000  
R23  25057755.467   134042100.203       -3809.051          33.000                                                                  
G23  21730771.429   114195972.067       -2599.426          45.000    21730769.997    88983867.205       -2025.555          47.000                                                  
J02  38632621.095   203015794.619         -44.622          41.000    38632623.121   158194133.579         -34.814          41.000  
E06  24788604.477   130264994.805        -773.412          47.000    24788607.618    99813450.265        -592.570          50.000  
E09  24665486.819   129618008.001         120.982          48.000    24665489.398    99317703.118          92.718          51.000  
E31  25908935.157   136152374.716        1627.956          44.000    25908939.717   104324566.636        1247.303          47.000  
C33  23456912.705   122146301.368        1331.174          49.000                                                                  
C24  22546124.889   117403590.332         603.202          49.000                                                                  
R24  24342470.448                3      -1689.225          24.000    24342465.605                       -1307.391          31.000  
R01  23330562.402                        2879.654          28.000                                                                  
E36  26449520.099   138993160.323       -1814.719          44.000    26449525.351   106501273.649       -1390.604          47.000  
E05  25961936.307   136430887.443        1498.434          38.000    25961942.072   104537981.216        1148.005          45.000  
E04  26067840.554   136987424.486       -1561.676          42.000    26067843.174   104964400.005       -1196.491          45.000  
J03  38299626.151   201265888.596        -770.982          33.000    38299635.905   156830593.249        -600.796          40.000  
E23  26772418.511   140689997.684        -831.671          32.000    26772423.575   107801455.891        -636.972          41.000  
G31  26318841.470   138306444.832        3213.485          34.000    26318849.895                        2505.015          31.000                                                  
J07  38069589.160   200057039.163        -264.450          39.000    38069587.036   155888596.137        -206.049          44.000  
E11  26950493.354   141625794.408       -3232.600          33.000    26950501.149   108518492.445       -2477.004          40.000  
E34                                                                  27897041.259                         495.030          29.000  
G18                                                                  26286041.145   107636893.509       -2752.551          38.000                                                  
G24                                                                  23622263.988                       -2738.116          26.000                                                  
J04                                                                  39322766.963   161020152.300         291.454          47.000  
> 2025 11 05 02 29 54.3230000  0 39                     
G10  21415794.782   112540760.111         496.354          50.000    21415793.474    87694095.330         386.766          46.000                                                  
G28  23641667.907   124237807.449        2313.728          40.000    23641666.572    96808679.480        1802.973          42.000                                                  
G15  25913294.667   136175268.111       -3329.390          34.000    25913303.661   106110630.602       -2594.148          35.000                                                  
G32  22675085.169   119158378.704        1411.042          47.000    22675085.232    92850683.805        1099.583          44.000                                                  
G12  22696948.664   119273270.532         242.752          46.000    22696946.526    92940202.345         189.014          42.000                                                  
G25  22124129.505   116263088.935        2139.014          43.000    22124130.325    90594620.817        1666.619          42.000                                                  
C06  37544025.586   195501593.673          91.042          44.000    37544014.219   151174189.625          70.564          46.000  
C08  36830713.493   191787190.848        -479.901          46.000    36830701.293   148301972.131        -371.143          49.000  
C14  22704367.790   118227603.320         -13.138          47.000    22704358.032    91421041.588         -10.248          49.000  
C09  38799661.638   202040019.407         192.104          42.000    38799654.396   156230130.004         148.363          48.000  
C13  36793264.104   191592182.351        -147.028          48.000    36793259.802   148151210.085        -113.782          47.000  
C16  37734107.760   196491399.975         -75.470          48.000    37734102.231   151939593.749         -58.489          48.000  
R09  22818324.411   121848528.237       -3757.028          32.000    22818325.795    94771119.577       -2922.411          37.000  
R10  20396437.649   108724489.817        -671.153          46.000                                                                  
R11  21663562.741   115763523.872        3231.817          45.000    21663561.951    90038288.670        2513.544          50.000  
R08  20722855.064   110969949.958         673.676          49.000    20722850.288    86309939.479         524.032          47.000  
R07  22155485.578   118600044.423       -2187.626          48.000    22155483.131    92244469.798       -1701.468          48.000  
R23  25057783.947   134042252.554       -3808.989          33.000                                                                  
G23  21730791.226   114196076.061       -2599.762          45.000    21730789.773    88983948.232       -2025.690          47.000                                                  
J02  38632621.422   203015796.410         -44.711          41.000    38632623.471   158194134.978         -34.921          41.000  
E06  24788610.329   130265025.735        -773.308          47.000    24788613.498    99813473.971        -592.633          50.000  
E09  24665485.923   129618003.166         120.875          48.000    24665488.466    99317699.410          92.680          51.000  
E31  25908922.788   136152309.612        1627.692          44.000    25908927.313   104324516.748        1247.213          47.000  
C33  23456902.471   122146248.123        1331.110          49.000                                                                  
C24  22546120.232   117403566.206         603.150          49.000                                                                  
R24  24342482.930                3      -1689.225          24.000    24342478.143                       -1307.246          31.000  
R01  23330541.001                        2879.743          28.000                                                                  
E36  26449533.958   138993232.923       -1814.905          44.000    26449539.168   106501329.272       -1390.606          47.000  
E05  25961924.970   136430827.527        1498.115          38.000    25961930.643   104537935.296        1147.975          45.000  
E04  26067852.394   136987486.942       -1561.561          42.000    26067855.065   104964447.865       -1196.522          45.000  
J03  38299632.006   201265919.462        -771.476          33.000    38299641.773   156830617.298        -601.122          40.000  
E23  26772424.864   140690030.934        -831.472          32.000    26772429.912   107801481.371        -637.016          41.000  
G31  26318816.998   138306316.290        3213.527          34.000    26318825.453                        2503.400          31.000                                                  
J07  38069591.163   200057049.749        -264.635          39.000    38069589.059   155888604.378        -206.037          44.000  
E11  26950517.926   141625923.725       -3232.872          33.000    26950525.742   108518591.516       -2476.900          40.000  
E34                                                                  27897036.326                         494.803          29.000  
G18                                                                  26286068.046   107637003.619       -2752.655          38.000                                                  
G24                                                                  23622290.823                       -2737.959          26.000                                                  
J04                                                                  39322764.066   161020140.643         291.411          47.000  
> 2025 11 05 02 29 54.3630000  0 39                     
G10  21415791.021   112540740.263         496.195          50.000    21415789.687    87694079.859         386.735          46.000                                                  
G28  23641650.295   124237714.912        2313.453          40.000    23641648.979    96808607.366        1802.867          42.000                                                  
G15  25913320.018   136175401.281       -3329.567          34.000    25913329.012   106110734.350       -2593.820          35.000                                                  
G32  22675074.406   119158322.260        1411.021          47.000    22675074.490    92850639.839        1099.232          44.000                                                  
G12  22696946.818   119273260.838         242.458          46.000    22696944.674    92940194.789         188.856          42.000                                                  
G25  22124113.226   116263003.375        2138.926          43.000    22124114.049    90594554.133        1666.854          42.000                                                  
C06  37544024.861   195501590.032          91.006          44.000    37544013.524   151174186.814          70.331          46.000  
C08  36830717.170   191787210.062        -480.267          46.000    36830704.978   148301986.982        -371.259          49.000  
C14  22704367.900   118227603.862         -13.462          47.000    22704358.128    91421042.001         -10.355          49.000  
C09  38799660.159   202040011.745         191.627          42.000    38799652.910   156230124.067         148.353          48.000  
C13  36793265.223   191592188.239        -147.186          48.000    36793260.939   148151214.640        -113.922          47.000  
C16  37734108.348   196491403.007         -75.720          48.000    37734102.802   151939596.092         -58.577          48.000  
R09  22818352.481   121848678.510       -3756.832          32.000    22818353.898    94771236.474       -2922.537          37.000  
R10  20396442.701   108724516.669        -671.321          46.000                                                                  
R11  21663538.544   115763394.603        3231.702          45.000    21663537.770    90038188.132        2513.409          50.000  
R08  20722850.042   110969923.016         673.514          49.000    20722845.253    86309918.519         523.970          47.000  
R07  22155501.932   118600131.930       -2187.740          48.000    22155499.457    92244537.855       -1701.476          48.000  
R23  25057812.451   134042404.908       -3808.975          33.000                                                                  
G23  21730811.008   114196180.052       -2599.841          45.000    21730809.567    88984029.266       -2025.873          47.000                                                  
J02  38632621.779   203015798.222         -45.161          41.000    38632623.826   158194136.382         -35.048          41.000  
E06  24788616.288   130265056.683        -773.563          47.000    24788619.373    99813497.681        -592.725          50.000  
E09  24665485.047   129617998.333         120.796          48.000    24665487.558    99317695.708          92.575          51.000  
E31  25908910.406   136152244.511        1627.531          44.000    25908914.914   104324466.863        1247.125          47.000  
C33  23456892.228   122146194.887        1330.901          49.000                                                                  
C24  22546115.589   117403542.090         602.955          49.000                                                                  
R24  24342495.624                3      -1680.068          24.000    24342490.658                       -1307.130          31.000  
R01  23330519.531                        2879.800          28.000                                                                  
E36  26449547.748   138993305.514       -1814.887          44.000    26449553.027   106501384.893       -1390.601          47.000  
E05  25961913.556   136430767.600        1498.091          38.000    25961919.245   104537889.383        1147.867          45.000  
E04  26067864.285   136987549.406       -1561.592          42.000    26067866.977   104964495.728       -1196.572          45.000  
J03  38299637.887   201265950.323        -771.552          33.000    38299647.651   156830641.347        -601.315          40.000  
E23  26772431.175   140690064.198        -831.531          32.000    26772436.260   107801506.861        -637.169          41.000  
G31  26318792.510   138306187.763        3213.248          34.000    26318801.011                        2503.148          31.000                                                  
J07  38069593.180   200057060.337        -264.761          39.000    38069591.099   155888612.629        -206.192          44.000  
E11  26950542.526   141626053.032       -3232.854          33.000    26950550.364   108518690.589       -2476.821          40.000  
E34                                                                  27897031.402                         494.850          29.000  
G18                                                                  26286094.949   107637113.750       -2753.119          38.000                                                  
G24                                                                  23622317.284                       -2738.361          26.000                                                  
J04                                                                  39322761.229   161020128.982         291.473          47.000  
> 2025 11 05 02 29 54.4030000  0 39                     
G10  21415787.276   112540720.424         495.968          50.000    21415785.902    87694064.394         386.600          46.000                                                  
G28  23641632.696   124237622.358        2313.604          40.000    23641631.362    96808535.241        1803.022          42.000                                                  
G15  25913345.359   136175534.426       -3329.154          34.000    25913354.352   106110838.106       -2593.896          35.000                                                  
G32  22675063.689   119158265.834        1410.717          47.000    22675063.749    92850595.872        1099.072          44.000                                                  
G12  22696944.979   119273251.149         242.198          46.000    22696942.829    92940187.237         188.741          42.000                                                  
G25  22124096.948   116262917.824        2138.774          43.000    22124097.783    90594487.490        1666.266          42.000                                                  
C06  37544024.130   195501586.392          90.942          44.000    37544012.838   151174184.007          70.133          46.000  
C08  36830720.852   191787229.275        -480.420          46.000    36830708.651   148302001.838        -371.393          49.000  
C14  22704368.006   118227604.401         -13.583          47.000    22704358.221    91421042.415         -10.423          49.000  
C09  38799658.699   202040004.085         191.388          42.000    38799651.427   156230118.134         148.285          48.000  
C13  36793266.349   191592194.135        -147.406          48.000    36793262.080   148151219.195        -113.983          47.000  
C16  37734108.961   196491406.038         -75.825          48.000    37734103.378   151939598.434         -58.619          48.000  
R09  22818380.638   121848828.799       -3757.031          32.000    22818382.047    94771353.384       -2922.789          37.000  
R10  20396447.741   108724543.526        -671.488          46.000                                                                  
R11  21663514.368   115763265.339        3231.567          45.000    21663513.567    90038087.597        2513.299          50.000  
R08  20722845.014   110969896.077         673.397          49.000    20722840.211    86309897.570         523.745          47.000  
R07  22155518.285   118600219.445       -2187.911          48.000    22155515.787    92244605.921       -1701.632          48.000  
R23  25057840.936   134042557.248       -3808.703          33.000                                                                  
G23  21730830.809   114196284.041       -2599.829          45.000    21730829.349    88984110.300       -2025.928          47.000                                                  
J02  38632622.134   203015800.015         -45.066          41.000    38632624.159   158194137.788         -35.166          41.000  
E06  24788622.217   130265087.630        -773.706          47.000    24788625.232    99813521.397        -592.879          50.000  
E09  24665484.138   129617993.506         120.649          48.000    24665486.613    99317692.007          92.490          51.000  
E31  25908897.996   136152179.406        1627.521          44.000    25908902.535   104324416.978        1247.065          47.000  
C33  23456881.991   122146141.656        1330.741          49.000                                                                  
C24  22546110.929   117403517.978         602.772          49.000                                                                  
R24  24342508.100                3      -1680.068          24.000    24342503.244                       -1307.500          31.000  
R01  23330498.171                        2879.496          28.000                                                                  
E36  26449561.527   138993378.117       -1815.025          44.000    26449566.856   106501440.530       -1390.843          47.000  
E05  25961902.221   136430707.684        1497.890          38.000    25961907.834   104537843.471        1147.757          45.000  
E04  26067876.206   136987611.891       -1561.940          42.000    26067878.860   104964543.605       -1196.817          45.000  
J03  38299643.743   201265981.120        -770.387          33.000    38299653.519   156830665.400        -601.450          40.000  
E23  26772437.535   140690097.469        -831.721          32.000    26772442.599   107801532.360        -637.431          41.000  
G31  26318768.028   138306059.213        3213.499          34.000    26318776.556                        2502.493          31.000                                                  
J07  38069595.190   200057070.917        -264.675          39.000    38069593.116   155888620.882        -206.373          44.000  
E11  26950567.121   141626182.347       -3232.955          33.000    26950574.976   108518789.653       -2476.684          40.000  
E34                                                                  27897026.460                         494.966          29.000  
G18                                                                  26286121.817   107637223.857       -2752.952          38.000                                                  
G24                                                                  23622344.040                       -2738.597          26.000                                                  
J04                                                                  39322758.378   161020117.332         291.288          47.000  
> 2025 11 05 02 29 54.4430000  0 39                     
G10  21415783.509   112540700.583         495.895          50.000    21415782.137    87694048.940         386.348          46.000                                                  
G28  23641615.093   124237529.800        2313.776          40.000    23641613.746    96808463.133        1802.819          42.000                                                  
G15  25913370.680   136175667.603       -3329.546          34.000    25913379.677   106110941.860       -2593.790          35.000                                                  
G32  22675052.987   119158209.402        1410.673          47.000    22675052.998    92850551.893        1099.246          44.000                                                  
G12  22696943.136   119273241.461         242.085          46.000    22696940.979    92940179.688         188.616          42.000                                                  
G25  22124080.659   116262832.268        2138.782          43.000    22124081.507    90594420.826        1666.347          42.000                                                  
C06  37544023.408   195501582.754          90.900          44.000    37544012.142   151174181.200          70.077          46.000  
C08  36830724.532   191787248.488        -480.450          46.000    36830712.343   148302016.692        -371.442          49.000  
C14  22704368.114   118227604.936         -13.528          47.000    22704358.325    91421042.830         -10.464          49.000  
C09  38799657.245   202039996.415         191.462          42.000    38799649.958   156230112.196         148.343          48.000  
C13  36793267.489   191592200.029        -147.455          48.000    36793263.214   148151223.755        -114.069          47.000  
C16  37734109.561   196491409.072         -75.917          48.000    37734103.963   151939600.781         -58.721          48.000  
R09  22818408.781   121848979.113       -3757.599          32.000    22818410.183    94771470.300       -2923.019          37.000  
R10  20396452.770   108724570.387        -671.628          46.000                                                                  
R11  21663490.170   115763136.086        3231.299          45.000    21663489.372    90037987.060        2513.318          50.000  
R08  20722839.973   110969869.138         673.375          49.000    20722835.161    86309876.620         523.672          47.000  
R07  22155534.641   118600306.950       -2187.793          48.000    22155532.130    92244673.988       -1701.733          48.000  
R23  25057869.396   134042709.622       -3809.137          33.000                                                                  
G23  21730850.610   114196388.041       -2599.976          45.000    21730849.139    88984191.333       -2025.903          47.000                                                  
J02  38632622.476   203015801.816         -45.114          41.000    38632624.487   158194139.175         -34.885          41.000  
E06  24788628.135   130265118.580        -773.797          47.000    24788631.103    99813545.115        -592.988          50.000  
E09  24665483.237   129617988.680         120.583          48.000    24665485.685    99317688.305          92.482          51.000  
E31  25908885.613   136152114.310        1627.387          44.000    25908890.133   104324367.094        1247.051          47.000  
C33  23456871.776   122146088.422        1330.721          49.000                                                                  
C24  22546106.296   117403493.866         602.734          49.000                                                                  
R24  24342520.740                3      -1680.068          24.000    24342515.789                       -1306.925          31.000  
R01  23330476.533                        2879.146          28.000                                                                  
E36  26449575.366   138993450.731       -1815.305          44.000    26449580.650   106501496.166       -1390.945          47.000  
E05  25961890.805   136430647.788        1497.463          38.000    25961896.473   104537797.558        1147.725          45.000  
E04  26067888.072   136987674.368       -1562.010          42.000    26067890.769   104964591.483       -1197.006          45.000  
J03  38299649.618   201266011.994        -771.207          33.000    38299659.392   156830689.436        -601.122          40.000  
E23  26772443.860   140690130.707        -831.270          32.000    26772448.929   107801557.851        -637.443          41.000  
G31  26318743.601   138305930.708        3212.948          34.000    26318752.078                        2503.331          31.000                                                  
J07  38069597.210   200057081.506        -264.738          39.000    38069595.132   155888629.134        -206.386          44.000  
E11  26950591.718   141626311.658       -3232.930          33.000    26950599.586   108518888.748       -2477.094          40.000  
E34                                                                  27897021.529                         495.453          29.000  
G18                                                                  26286148.700   107637333.953       -2752.638          38.000                                                  
G24                                                                  23622370.987                       -2738.969          26.000                                                  
J04                                                                  39322755.528   161020105.688         291.079          47.000  
> 2025 11 05 02 29 54.4830000  0 39                     
G10  21415779.716   112540680.739         495.970          50.000    21415778.328    87694033.480         386.350          46.000                                                  
G28  23641597.484   124237437.251        2313.736          40.000    23641596.122    96808391.018        1802.795          42.000                                                  
G15  25913396.020   136175800.768       -3329.372          34.000    25913405.008   106111045.613       -2593.872          35.000                                                  
G32  22675042.253   119158152.978        1410.535          47.000    22675042.257    92850507.917        1099.313          44.000                                                  
G12  22696941.298   119273231.769         242.134          46.000    22696939.141    92940172.136         188.658          42.000                                                  
G25  22124064.385   116262746.721        2138.695          43.000    22124065.212    90594354.147        1666.686          42.000                                                  
C06  37544022.692   195501579.123          90.781          44.000    37544011.437   151174178.382          70.254          46.000  
C08  36830728.182   191787267.696        -480.298          46.000    36830716.029   148302031.550        -371.527          49.000  
C14  22704368.222   118227605.466         -13.379          47.000    22704358.409    91421043.241         -10.387          49.000  
C09  38799655.767   202039988.727         191.912          42.000    38799648.490   156230106.269         148.199          48.000  
C13  36793268.626   191592205.923        -147.443          48.000    36793264.344   148151228.308        -113.947          47.000  
C16  37734110.176   196491412.102         -75.857          48.000    37734104.540   151939603.118         -58.587          48.000  
R09  22818436.886   121849129.427       -3757.925          32.000    22818438.317    94771587.182       -2922.479          37.000  
R10  20396457.812   108724597.237        -671.432          46.000                                                                  
R11  21663466.016   115763006.826        3231.329          45.000    21663465.184    90037886.523        2513.330          50.000  
R08  20722834.953   110969842.198         673.435          49.000    20722830.132    86309855.668         523.669          47.000  
R07  22155550.989   118600394.461       -2187.812          48.000    22155548.469    92244742.046       -1701.600          48.000  
R23  25057897.847   134042861.948       -3808.457          33.000                                                                  
G23  21730870.390   114196492.029       -2599.841          45.000    21730868.946    88984272.366       -2025.879          47.000                                                  
J02  38632622.822   203015803.620         -45.168          41.000    38632624.832   158194140.580         -35.039          41.000  
E06  24788633.929   130265149.528        -773.797          47.000    24788636.990    99813568.821        -592.825          50.000  
E09  24665482.267   129617983.852         120.621          48.000    24665484.753    99317684.606          92.448          51.000  
E31  25908873.220   136152049.213        1627.355          44.000    25908877.754   104324317.212        1247.031          47.000  
C33  23456861.575   122146035.187        1330.768          49.000                                                                  
C24  22546101.679   117403469.748         602.799          49.000                                                                  
R24  24342533.572                3      -1675.160          24.000    24342528.333                       -1307.153          31.000  
R01  23330455.138                        2879.220          28.000                                                                  
E36  26449589.141   138993523.343       -1815.425          44.000    26449594.476   106501551.792       -1390.828          47.000  
E05  25961879.362   136430587.857        1497.805          38.000    25961885.095   104537751.647        1147.714          45.000  
E04  26067899.933   136987736.843       -1562.011          42.000    26067902.664   104964639.347       -1196.833          45.000  
J03  38299655.482   201266042.868        -771.648          33.000    38299665.265   156830713.479        -601.085          40.000  
E23  26772450.214   140690164.030        -832.221          32.000    26772455.306   107801583.340        -637.380          41.000  
G31  26318719.093   138305802.189        3212.954          34.000    26318727.637                        2504.033          31.000                                                  
J07  38069599.224   200057092.106        -265.014          39.000    38069597.158   155888637.384        -206.365          44.000  
E11  26950616.344   141626440.958       -3232.727          33.000    26950624.180   108518987.833       -2477.133          40.000  
E34                                                                  27897016.620                         495.127          29.000  
G18                                                                  26286175.568   107637444.050       -2752.509          38.000                                                  
G24                                                                  23622397.361                       -2738.934          26.000                                                  
J04                                                                  39322752.694   161020094.036         291.154          47.000  
> 2025 11 05 02 29 54.5230000  0 39                     
G10  21415775.928   112540660.888         496.180          50.000    21415774.542    87694018.010         386.597          46.000                                                  
G28  23641579.884   124237344.701        2313.737          40.000    23641578.513    96808318.900        1802.880          42.000                                                  
G15  25913421.344   136175933.913       -3328.855          34.000    25913430.370   106111149.400       -2594.539          35.000                                                  
G32  22675031.492   119158096.540        1410.746          47.000    22675031.510    92850463.949        1099.227          44.000                                                  
G12  22696939.445   119273222.076         242.204          46.000    22696937.296    92940164.589         188.616          42.000                                                  
G25  22124048.108   116262661.170        2138.674          43.000    22124048.919    90594287.480        1666.688          42.000                                                  
C06  37544021.999   195501575.486          90.817          44.000    37544010.723   151174175.568          70.305          46.000  
C08  36830731.885   191787286.903        -480.212          46.000    36830719.738   148302046.403        -371.454          49.000  
C14  22704368.337   118227606.003         -13.413          47.000    22704358.511    91421043.659         -10.453          49.000  
C09  38799654.284   202039981.045         192.080          42.000    38799647.026   156230100.340         148.170          48.000  
C13  36793269.765   191592211.813        -147.321          48.000    36793265.481   148151232.857        -113.788          47.000  
C16  37734110.784   196491415.127         -75.731          48.000    37734105.110   151939605.462         -58.605          48.000  
R09  22818465.025   121849279.741       -3758.019          32.000    22818466.431    94771704.091       -2922.501          37.000  
R10  20396462.858   108724624.091        -671.420          46.000                                                                  
R11  21663441.839   115762877.557        3231.573          45.000    21663441.002    90037785.979        2513.489          50.000  
R08  20722829.884   110969815.254         673.535          49.000    20722825.075    86309834.713         523.791          47.000  
R07  22155567.336   118600481.972       -2187.801          48.000    22155564.812    92244810.112       -1701.632          48.000  
R23  25057926.305   134043014.305       -3808.799          33.000                                                                  
G23  21730890.161   114196596.033       -2600.049          45.000    21730888.737    88984353.401       -2025.897          47.000                                                  
J02  38632623.175   203015805.419         -45.070          41.000    38632625.156   158194141.984         -35.048          41.000  
E06  24788639.766   130265180.472        -773.705          47.000    24788642.891    99813592.529        -592.752          50.000  
E09  24665481.300   129617979.016         120.762          48.000    24665483.841    99317680.908          92.432          51.000  
E31  25908860.807   136151984.113        1627.411          44.000    25908865.385   104324267.332        1246.969          47.000  
C33  23456851.354   122145981.944        1330.953          49.000                                                                  
C24  22546097.057   117403445.629         602.892          49.000                                                                  
R24  24342545.883                3      -1675.160          24.000    24342540.886                       -1307.437          31.000  
R01  23330433.665                        2879.172          28.000                                                                  
E36  26449602.891   138993595.945       -1815.268          44.000    26449608.273   106501607.422       -1390.798          47.000  
E05  25961867.976   136430527.936        1497.895          38.000    25961873.672   104537705.737        1147.704          45.000  
E04  26067911.803   136987799.320       -1561.996          42.000    26067914.565   104964687.211       -1196.683          45.000  
J03  38299661.343   201266073.728        -771.653          33.000    38299671.151   156830737.511        -600.909          40.000  
E23  26772456.526   140690197.287        -831.844          32.000    26772461.661   107801608.834        -637.417          41.000  
G31  26318694.643   138305673.641        3213.416          34.000    26318703.162                        2504.096          31.000                                                  
J07  38069601.234   200057102.702        -265.060          39.000    38069599.176   155888645.642        -206.478          44.000  
E11  26950640.951   141626570.239       -3232.247          33.000    26950648.773   108519086.915       -2477.154          40.000  
E34                                                                  27897011.714                         495.128          29.000  
G18                                                                  26286202.469   107637554.153       -2752.497          38.000                                                  
G24                                                                  23622424.226                       -2738.693          26.000                                                  
J04                                                                  39322749.860   161020082.382         291.247          47.000  
> 2025 11 05 02 29 54.5630000  0 39                     
G10  21415772.159   112540641.041         496.204          50.000    21415770.751    87694002.545         386.634          46.000                                                  
G28  23641562.259   124237252.167        2313.445          40.000    23641560.889    96808246.788        1802.776          42.000                                                  
G15  25913446.706   136176067.087       -3329.130          34.000    25913455.719   106111253.189       -2594.844          35.000                                                  
G32  22675020.757   119158040.103        1410.877          47.000    22675020.787    92850419.973        1099.294          44.000                                                  
G12  22696937.553   119273212.384         242.251          46.000    22696935.448    92940157.033         188.790          42.000                                                  
G25  22124031.837   116262575.622        2138.658          43.000    22124032.628    90594220.828        1666.385          42.000                                                  
C06  37544021.292   195501571.842          90.968          44.000    37544010.041   151174172.753          70.365          46.000  
C08  36830735.575   191787306.111        -480.219          46.000    36830723.425   148302061.256        -371.399          49.000  
C14  22704368.465   118227606.539         -13.433          47.000    22704358.626    91421044.072         -10.405          49.000  
C09  38799652.808   202039973.380         191.793          42.000    38799645.548   156230094.405         148.265          48.000  
C13  36793270.920   191592217.700        -147.229          48.000    36793266.604   148151237.411        -113.806          47.000  
C16  37734111.388   196491418.158         -75.759          48.000    37734105.700   151939607.802         -58.565          48.000  
R09  22818493.181   121849430.028       -3757.600          32.000    22818494.554    94771820.964       -2921.990          37.000  
R10  20396467.936   108724650.949        -671.483          46.000                                                                  
R11  21663417.654   115762748.288        3231.695          45.000    21663416.805    90037685.439        2513.507          50.000  
R08  20722824.849   110969788.312         673.534          49.000    20722820.044    86309813.760         523.810          47.000  
R07  22155583.681   118600569.483       -2187.800          48.000    22155581.168    92244878.180       -1701.709          48.000  
R23  25057954.789   134043166.669       -3809.176          33.000                                                                  
G23  21730909.933   114196700.020       -2599.841          45.000    21730908.520    88984434.433       -2025.854          47.000                                                  
J02  38632623.516   203015807.211         -44.899          41.000    38632625.507   158194143.375         -34.858          41.000  
E06  24788645.656   130265211.416        -773.663          47.000    24788648.830    99813616.238        -592.741          50.000  
E09  24665480.358   129617974.183         120.816          48.000    24665482.919    99317677.205          92.503          51.000  
E31  25908848.432   136151919.008        1627.538          44.000    25908852.986   104324217.454        1246.926          47.000  
C33  23456841.104   122145928.706        1330.945          49.000                                                                  
C24  22546092.396   117403421.520         602.767          49.000                                                                  
R24  24342558.123                3      -1675.160          24.000    24342553.480                       -1307.326          31.000  
R01  23330411.969                        2879.293          28.000                                                                  
E36  26449616.708   138993668.546       -1815.139          44.000    26449622.059   106501663.057       -1390.857          47.000  
E05  25961856.544   136430467.992        1498.350          38.000    25961862.244   104537659.822        1147.779          45.000  
E04  26067923.663   136987861.787       -1561.830          42.000    26067926.431   104964735.084       -1196.788          45.000  
J03  38299667.223   201266104.574        -771.367          33.000    38299677.048   156830761.543        -600.811          40.000  
E23  26772462.828   140690230.553        -831.820          32.000    26772467.979   107801634.312        -637.157          41.000  
G31  26318670.186   138305545.127        3213.085          34.000    26318678.672                        2503.819          31.000                                                  
J07  38069603.224   200057113.276        -264.592          39.000    38069601.204   155888653.887        -206.273          44.000  
E11  26950665.583   141626699.582       -3232.977          33.000    26950673.384   108519185.999       -2477.167          40.000  
E34                                                                  27897006.798                         494.865          29.000  
G18                                                                  26286229.370   107637664.276       -2752.865          38.000                                                  
G24                                                                  23622450.957                       -2738.116          26.000                                                  
J04                                                                  39322747.003   161020070.726         291.358          47.000  
> 2025 11 05 02 29 54.6030000  0 39                     
G10  21415768.398   112540621.206         495.938          50.000    21415766.977    87693987.081         386.583          46.000                                                  
G28  23641544.632   124237159.620        2313.499          40.000    23641543.284    96808174.673        1802.804          42.000                                                  
G15  25913472.062   136176200.300       -3330.083          34.000    25913481.072   106111356.961       -2594.654          35.000                                                  
G32  22675010.006   119157983.679        1410.683          47.000    22675010.042    92850375.999        1099.348          44.000                                                  
G12  22696935.715   119273202.703         242.048          46.000    22696933.619    92940149.493         188.552          42.000                                                  
G25  22124015.534   116262490.074        2138.598          43.000    22124016.364    90594154.165        1666.425          42.000                                                  
C06  37544020.589   195501568.207          90.859          44.000    37544009.346   151174169.939          70.382          46.000  
C08  36830739.264   191787325.330        -480.408          46.000    36830727.117   148302076.112        -371.411          49.000  
C14  22704368.574   118227607.079         -13.503          47.000    22704358.719    91421044.493         -10.516          49.000  
C09  38799651.340   202039965.701         191.882          42.000    38799644.073   156230088.477         148.196          48.000  
C13  36793272.061   191592223.593        -147.314          48.000    36793267.748   148151241.967        -113.898          47.000  
C16  37734111.980   196491421.192         -75.852          48.000    37734106.269   151939610.151         -58.690          48.000  
R09  22818521.308   121849580.362       -3758.203          32.000    22818522.684    94771937.884       -2922.625          37.000  
R10  20396472.964   108724677.814        -671.647          46.000                                                                  
R11  21663393.492   115762619.032        3231.464          45.000    21663392.613    90037584.907        2513.348          50.000  
R08  20722819.825   110969761.380         673.357          49.000    20722815.011    86309792.805         523.878          47.000  
R07  22155600.036   118600657.002       -2187.960          48.000    22155597.504    92244946.248       -1701.755          48.000  
R23  25057983.299   134043319.030       -3809.379          33.000                                                                  
G23  21730929.725   114196804.024       -2600.079          45.000    21730928.307    88984515.469       -2025.934          47.000                                                  
J02  38632623.857   203015809.014         -45.030          41.000    38632625.861   158194144.784         -35.095          41.000  
E06  24788651.554   130265242.366        -773.731          47.000    24788654.693    99813639.953        -592.827          50.000  
E09  24665479.501   129617969.361         120.648          48.000    24665482.028    99317673.509          92.418          51.000  
E31  25908836.088   136151853.915        1627.386          44.000    25908840.621   104324167.574        1246.961          47.000  
C33  23456830.857   122145875.479        1330.747          49.000                                                                  
C24  22546087.781   117403397.415         602.618          49.000                                                                  
R24  24342570.331                3      -1677.612          24.000    24342566.042                       -1307.374          31.000  
R01  23330390.604                        2879.476          28.000                                                                  
E36  26449630.520   138993741.146       -1815.042          44.000    26449635.853   106501718.692       -1390.915          47.000  
E05  25961845.125   136430408.079        1498.110          38.000    25961850.859   104537613.910        1147.804          45.000  
E04  26067935.563   136987924.272       -1562.046          42.000    26067938.297   104964782.952       -1196.751          45.000  
J03  38299673.117   201266135.455        -771.916          33.000    38299682.925   156830785.600        -601.224          40.000  
E23  26772469.141   140690263.806        -831.593          32.000    26772474.300   107801659.827        -637.576          41.000  
G31  26318645.773   138305416.608        3212.999          34.000    26318654.218                        2504.011          31.000                                                  
J07  38069605.225   200057123.886        -265.032          39.000    38069603.215   155888662.140        -206.293          44.000  
E11  26950690.214   141626828.916       -3233.355          33.000    26950697.999   108519285.079       -2477.049          40.000  
E34                                                                  27897001.919                         494.843          29.000  
G18                                                                  26286256.264   107637774.406       -2753.225          38.000                                                  
G24                                                                  23622477.589                       -2738.582          26.000                                                  
J04                                                                  39322744.140   161020059.075         291.302          47.000  
> 2025 11 05 02 29 54.6430000  0 39                     
G10  21415764.638   112540601.378         495.693          50.000    21415763.226    87693971.638         386.189          46.000                                                  
G28  23641527.017   124237067.084        2313.381          40.000    23641525.678    96808102.575        1802.526          42.000                                                  
G15  25913497.397   136176333.458       -3329.587          34.000    25913506.437   106111460.724       -2594.291          35.000                                                  
G32  22674999.268   119157927.249        1410.698          47.000    22674999.321    92850332.040        1099.072          44.000                                                  
G12  22696933.874   119273193.027         241.864          46.000    22696931.780    92940141.944         188.636          42.000                                                  
G25  22123999.274   116262404.536        2138.408          43.000    22124000.066    90594087.529        1665.997          42.000                                                  
C06  37544019.899   195501564.584          90.641          44.000    37544008.651   151174167.130          70.268          46.000  
C08  36830742.939   191787344.550        -480.542          46.000    36830730.803   148302090.973        -371.527          49.000  
C14  22704368.669   118227607.630         -13.702          47.000    22704358.816    91421044.915         -10.605          49.000  
C09  38799649.875   202039958.045         191.542          42.000    38799642.588   156230082.549         148.177          48.000  
C13  36793273.179   191592229.498        -147.601          48.000    36793268.867   148151246.535        -114.191          47.000  
C16  37734112.578   196491424.234         -76.031          48.000    37734106.857   151939612.504         -58.845          48.000  
R09  22818549.492   121849730.636       -3757.343          32.000    22818550.857    94772054.799       -2922.918          37.000  
R10  20396477.982   108724704.695        -672.020          46.000                                                                  
R11  21663369.300   115762489.794        3231.030          45.000    21663368.409    90037484.382        2513.116          50.000  
R08  20722814.810   110969734.454         673.140          49.000    20722809.982    86309771.864         523.619          47.000  
R07  22155616.377   118600744.526       -2188.120          48.000    22155613.873    92245014.327       -1701.928          48.000  
R23  25058011.828                       -3809.371          33.000                                                                  
G23  21730949.508   114196908.023       -2600.092          45.000    21730948.102    88984596.515       -2026.129          47.000                                                  
J02  38632624.210   203015810.815         -45.061          40.000    38632626.210   158194146.201         -35.366          41.000  
E06  24788657.474   130265273.325        -773.909          47.000    24788660.585    99813663.680        -593.091          50.000  
E09  24665478.571   129617964.535         120.609          48.000    24665481.129    99317669.814          92.371          51.000  
E31  25908823.693   136151788.822        1627.348          44.000    25908828.254   104324117.700        1246.862          47.000  
C33  23456820.618   122145822.255        1330.585          49.000                                                                  
C24  22546083.147   117403373.312         602.506          49.000                                                                  
R24  24342582.762                3      -1677.612          24.000    24342578.575                       -1307.979          31.000  
R01  23330368.848                        2879.280          28.000                                                                  
E36  26449644.375   138993813.756       -1815.155          44.000    26449649.653   106501774.324       -1390.888          47.000  
E05  25961833.757   136430348.167        1497.886          38.000    25961839.437   104537568.000        1147.740          45.000  
E04  26067947.459   136987986.748       -1561.996          42.000    26067950.201   104964830.826       -1196.799          45.000  
J03  38299679.015   201266166.326        -771.877          33.000    38299688.828   156830809.654        -601.371          40.000  
E23  26772475.477   140690297.086        -831.901          32.000    26772480.647   107801685.325        -637.546          41.000  
G31  26318621.328   138305288.090        3212.924          34.000    26318629.734                        2503.284          31.000                                                  
J07  38069607.253   200057134.477        -264.977          39.000    38069605.219   155888670.390        -206.261          44.000  
E11  26950714.847   141626958.229       -3233.167          33.000    26950722.574   108519384.159       -2477.009          40.000  
E34                                                                  27896996.991                         494.523          30.000  
G18                                                                  26286283.142   107637884.500       -2752.723          38.000                                                  
G24                                                                  23622504.676                       -2738.519          26.000                                                  
J04                                                                  39322741.324   161020047.430         291.167          47.000  
> 2025 11 05 02 29 54.6830000  0 39                     
G10  21415760.849   112540581.551         495.590          50.000    21415759.445    87693956.194         386.037          46.000                                                  
G28  23641509.413   124236974.560        2313.151          40.000    23641508.038    96808030.469        1802.516          42.000                                                  
G15  25913522.734   136176466.639       -3329.608          34.000    25913531.774   106111564.487       -2594.137          35.000                                                  
G32  22674988.577   119157870.830        1410.539          47.000    22674988.570    92850288.074        1099.031          44.000                                                  
G12  22696932.016   119273183.341         241.975          46.000    22696929.955    92940134.407         188.412          42.000                                                  
G25  22123983.016   116262318.998        2138.338          43.000    22123983.781    90594020.871        1666.151          42.000                                                  
C06  37544019.187   195501560.953          90.668          44.000    37544007.956   151174164.335          69.978          46.000  
C08  36830746.625   191787363.762        -480.432          46.000    36830734.507   148302105.838        -371.643          49.000  
C14  22704368.763   118227608.183         -13.874          47.000    22704358.908    91421045.337         -10.608          49.000  
C09  38799648.410   202039950.381         191.496          42.000    38799641.102   156230076.616         148.241          48.000  
C13  36793274.332   191592235.400        -147.656          48.000    36793270.001   148151251.100        -114.252          47.000  
C16  37734113.179   196491427.271         -76.020          48.000    37734107.432   151939614.857         -58.924          48.000  
R09  22818577.628   121849880.946       -3757.568          32.000    22818579.017    94772171.725       -2923.203          37.000  
R10  20396483.021   108724731.563        -671.936          46.000                                                                  
R11  21663345.117   115762360.545        3231.054          45.000    21663344.222    90037383.858        2513.043          50.000  
R08  20722809.761   110969707.528         673.055          49.000    20722804.961    86309750.921         523.508          47.000  
R07  22155632.731   118600832.050       -2188.169          48.000    22155630.220    92245082.398       -1701.894          48.000  
R23  25058040.292                       -3809.366          33.000                                                                  
G23  21730969.289   114197012.025       -2600.110          45.000    21730967.907    88984677.565       -2026.306          47.000                                                  
J02  38632624.571   203015812.631         -45.359          40.000    38632626.574   158194147.611         -35.341          41.000  
E06  24788663.365   130265304.285        -774.031          47.000    24788666.454    99813687.403        -593.173          50.000  
E09  24665477.715   129617959.718         120.450          48.000    24665480.211    99317666.123          92.286          51.000  
E31  25908811.244   136151723.729        1627.297          44.000    25908815.864   104324067.829        1246.781          47.000  
C33  23456810.410   122145769.034        1330.475          49.000                                                                  
C24  22546078.503   117403349.207         602.521          49.000                                                                  
R24  24342594.698                3      -1677.612          24.000    24342591.182                       -1307.909          32.000  
R01  23330347.349                        2879.325          28.000                                                                  
E36  26449658.203   138993886.368       -1815.299          44.000    26449663.497   106501829.967       -1391.032          47.000  
E05  25961822.360   136430288.270        1497.524          38.000    25961828.035   104537522.096        1147.622          45.000  
E04  26067959.349   136988049.224       -1561.921          42.000    26067962.063   104964878.703       -1196.884          45.000  
J03  38299684.907   201266197.165        -771.310          33.000    38299694.696   156830833.716        -601.596          40.000  
E23  26772481.790   140690330.356        -831.925          32.000    26772486.967   107801710.829        -637.641          41.000  
G31  26318596.849   138305159.569        3212.999          34.000    26318605.275                        2502.634          31.000                                                  
J07  38069609.281   200057145.070        -264.943          39.000    38069607.230   155888678.649        -206.404          44.000  
E11  26950739.474   141627087.540       -3232.964          33.000    26950747.158   108519483.258       -2477.335          40.000  
E34                                                                  27896992.067                         494.728          29.000  
G18                                                                  26286310.046   107637994.626       -2752.988          38.000                                                  
G24                                                                  23622531.369                       -2738.458          26.000                                                  
J04                                                                  39322738.499   161020035.800         290.803          47.000  
> 2025 11 05 02 29 54.7230000  0 39                     
G10  21415757.051   112540561.725         495.542          50.000    21415755.674    87693940.747         386.045          46.000                                                  
G28  23641491.802   124236882.035        2313.048          40.000    23641490.441    96807958.363        1802.526          42.000                                                  
G15  25913548.067   136176599.778       -3328.719          34.000    25913557.103   106111668.268       -2594.347          35.000                                                  
G32  22674977.845   119157814.414        1410.360          47.000    22674977.852    92850244.110        1098.982          44.000                                                  
G12  22696930.192   119273173.667         241.826          46.000    22696928.100    92940126.870         188.357          42.000                                                  
G25  22123966.720   116262233.461        2138.284          43.000    22123967.481    90593954.223        1666.030          42.000                                                  
C06  37544018.507   195501557.319          90.728          44.000    37544007.265   151174161.535          69.900          46.000  
C08  36830750.339   191787382.982        -480.499          46.000    36830738.206   148302120.699        -371.613          49.000  
C14  22704368.881   118227608.731         -13.873          47.000    22704359.018    91421045.763         -10.688          49.000  
C09  38799646.965   202039942.710         191.625          42.000    38799639.627   156230070.693         148.109          48.000  
C13  36793275.455   191592241.297        -147.583          48.000    36793271.134   148151255.667        -114.276          47.000  
C16  37734113.777   196491430.310         -76.036          48.000    37734108.007   151939617.207         -58.886          48.000  
R09  22818605.777   121850031.290       -3758.236          32.000    22818607.185    94772288.617       -2922.687          37.000  
R10  20396488.050   108724758.435        -671.919          46.000                                                                  
R11  21663320.944   115762231.294        3231.158          45.000    21663320.010    90037283.334        2513.025          50.000  
R08  20722804.715   110969680.605         673.015          49.000    20722799.926    86309729.982         523.410          47.000  
R07  22155649.111   118600919.576       -2188.217          48.000    22155646.567    92245150.467       -1701.812          48.000  
R23  25058068.762   134043776.156       -3809.596          33.000                                                                  
G23  21730989.088   114197116.038       -2600.311          45.000    21730987.697    88984758.609       -2026.245          47.000                                                  
J02  38632624.925   203015814.444         -45.436          40.000    38632626.881   158194149.026         -35.367          41.000  
E06  24788669.201   130265335.231        -773.838          47.000    24788672.356    99813711.119        -593.072          50.000  
E09  24665476.798   129617954.900         120.381          48.000    24665479.276    99317662.431          92.246          51.000  
E31  25908798.880   136151658.646        1627.131          44.000    25908803.466   104324017.956        1246.770          47.000  
C33  23456800.174   122145715.811        1330.466          49.000                                                                  
C24  22546073.867   117403325.111         602.379          49.000                                                                  
R24  24342607.244                3      -1679.755          24.000    24342603.792                       -1307.400          32.000  
R01  23330325.884                        2879.218          28.000                                                                  
E36  26449672.052   138993958.989       -1815.508          44.000    26449677.349   106501885.612       -1391.156          47.000  
E05  25961811.008   136430228.360        1497.561          38.000    25961816.660   104537476.201        1147.408          45.000  
E04  26067971.241   136988111.712       -1562.117          42.000    26067973.951   104964926.587       -1197.061          45.000  
J03  38299690.781   201266228.036        -771.566          33.000    38299700.569   156830857.761        -601.393          40.000  
E23  26772488.169   140690363.668        -832.477          32.000    26772493.294   107801736.331        -637.610          41.000  
G31  26318572.370   138305031.065        3212.698          34.000    26318580.845                        2503.079          31.000                                                  
J07  38069611.309   200057155.667        -264.994          39.000    38069609.242   155888686.913        -206.591          44.000  
E11  26950764.050   141627216.839       -3232.629          33.000    26950771.776   108519582.341       -2477.207          40.000  
E34                                                                  27896987.121                         494.421          29.000  
G18                                                                  26286336.945   107638104.742       -2752.946          38.000                                                  
G24                                                                  23622557.922                       -2738.565          26.000                                                  
J04                                                                  39322735.667   161020024.150         291.027          47.000  
> 2025 11 05 02 29 54.7630000  0 39                     
G10  21415753.258   112540541.895         495.623          50.000    21415751.887    87693925.291         386.249          46.000                                                  
G28  23641474.200   124236789.487        2313.419          40.000    23641472.825    96807886.253        1802.654          42.000                                                  
G15  25913573.410   136176732.944       -3328.759          34.000    25913582.463   106111772.033       -2594.197          35.000                                                  
G32  22674967.094   119157757.989        1410.436          47.000    22674967.108    92850200.153        1098.869          44.000                                                  
G12  22696928.368   119273163.995         241.728          46.000    22696926.256    92940119.322         188.508          42.000                                                  
G25  22123950.435   116262147.915        2138.481          43.000    22123951.215    90593887.556        1666.380          42.000                                                  
C06  37544017.815   195501553.696          90.585          44.000    37544006.572   151174158.733          69.913          46.000  
C08  36830754.019   191787402.208        -480.658          46.000    36830741.902   148302135.560        -371.582          49.000  
C14  22704368.999   118227609.283         -13.895          47.000    22704359.120    91421046.189         -10.696          49.000  
C09  38799645.504   202039935.053         191.468          42.000    38799638.160   156230064.771         148.003          48.000  
C13  36793276.576   191592247.203        -147.693          48.000    36793272.252   148151260.235        -114.294          47.000  
C16  37734114.352   196491433.354         -76.126          48.000    37734108.590   151939619.554         -58.773          48.000  
R09  22818633.867   121850181.599       -3757.854          32.000    22818635.335    94772405.514       -2922.463          37.000  
R10  20396493.090   108724785.318        -672.081          46.000                                                                  
R11  21663296.753   115762102.044        3231.201          45.000    21663295.822    90037182.807        2513.062          50.000  
R08  20722799.700   110969653.672         673.181          49.000    20722794.902    86309709.044         523.369          47.000  
R07  22155665.428   118601007.100       -2188.182          48.000    22155662.912    92245218.545       -1701.938          48.000  
R23  25058097.221   134043928.477       -3808.548          33.000                                                                  
G23  21731008.891   114197220.053       -2600.421          45.000    21731007.484    88984839.654       -2026.202          47.000                                                  
J02  38632625.266   203015816.253         -45.349          40.000    38632627.212   158194150.434         -35.299          41.000  
E06  24788675.072   130265366.189        -773.917          47.000    24788678.271    99813734.833        -592.959          50.000  
E09  24665475.876   129617950.082         120.342          48.000    24665478.391    99317658.737          92.281          51.000  
E31  25908786.501   136151593.563        1627.040          44.000    25908791.025   104323968.082        1246.791          47.000  
C33  23456789.967   122145662.585        1330.557          49.000                                                                  
C24  22546069.269   117403301.011         602.392          49.000                                                                  
R24  24342619.590                3      -1679.755          24.000    24342616.334                       -1306.927          32.000  
R01  23330304.328                        2879.490          28.000                                                                  
E36  26449685.920   138994031.612       -1815.601          44.000    26449691.161   106501941.257       -1391.202          47.000  
E05  25961799.585   136430168.449        1497.647          38.000    25961805.245   104537430.294        1147.479          45.000  
E04  26067983.146   136988174.197       -1562.159          42.000    26067985.825   104964974.473       -1197.175          45.000  
J03  38299696.630   201266258.889        -771.380          33.000    38299706.420   156830881.809        -601.296          40.000  
E23  26772494.476   140690396.973        -832.722          32.000    26772499.623   107801761.839        -637.698          41.000  
G31  26318547.920   138304902.543        3212.801          34.000    26318556.385                        2504.042          31.000                                                  
J07  38069613.322   200057166.266        -265.099          39.000    38069611.261   155888695.173        -206.633          44.000  
E11  26950788.648   141627346.168       -3233.024          33.000    26950796.392   108519681.430       -2477.257          40.000  
E34                                                                  27896982.198                         494.613          29.000  
G18                                                                  26286363.821   107638214.850       -2752.725          38.000                                                  
G24                                                                  23622584.371                       -2738.615          26.000                                                  
J04                                                                  39322732.830   161020012.501         291.144          47.000  
> 2025 11 05 02 29 54.8030000  0 39                     
G10  21415749.482   112540522.067         495.629          50.000    21415748.135    87693909.832         386.421          46.000                                                  
G28  23641456.586   124236696.950        2313.455          40.000    23641455.241    96807814.153        1802.567          42.000                                                  
G15  25913598.755   136176866.110       -3328.935          34.000    25913607.818   106111875.804       -2594.239          35.000                                                  
G32  22674956.359   119157701.576        1410.288          47.000    22674956.367    92850156.188        1098.965          44.000                                                  
G12  22696926.516   119273154.324         241.683          46.000    22696924.414    92940111.794         188.240          42.000                                                  
G25  22123934.147   116262062.379        2138.398          43.000    22123934.925    90593820.907        1666.255          42.000                                                  
C06  37544017.158   195501550.068          90.624          44.000    37544005.872   151174155.918          70.171          46.000  
C08  36830757.716   191787421.431        -480.658          46.000    36830745.603   148302150.426        -371.661          49.000  
C14  22704369.111   118227609.828         -13.747          47.000    22704359.223    91421046.613         -10.648          49.000  
C09  38799644.024   202039927.394         191.418          42.000    38799636.682   156230058.844         148.081          48.000  
C13  36793277.701   191592253.111        -147.754          48.000    36793273.392   148151264.787        -113.959          47.000  
C16  37734114.950   196491436.400         -76.206          48.000    37734109.167   151939621.906         -58.815          48.000  
R09  22818661.991   121850331.905       -3757.780          32.000    22818663.462    94772522.407       -2922.308          37.000  
R10  20396498.131   108724812.193        -671.995          46.000                                                                  
R11  21663272.584   115761972.799        3231.122          45.000    21663271.641    90037082.279        2513.141          50.000  
R08  20722794.672   110969626.748         673.117          49.000    20722789.877    86309688.095         523.579          47.000  
R07  22155681.779   118601094.629       -2188.240          48.000    22155679.276    92245286.622       -1701.946          48.000  
R23  25058125.684   134044080.869       -3809.230          33.000                                                                  
G23  21731028.670   114197324.057       -2600.256          45.000    21731027.264    88984920.700       -2026.208          47.000                                                  
J02  38632625.594   203015818.062         -45.270          40.000    38632627.538   158194151.834         -35.103          41.000  
E06  24788680.955   130265397.147        -773.980          47.000    24788684.144    99813758.554        -592.995          50.000  
E09  24665474.932   129617945.263         120.382          48.000    24665477.458    99317655.042          92.341          51.000  
E31  25908774.077   136151528.479        1627.003          44.000    25908778.607   104323918.215        1246.688          47.000  
C33  23456779.762   122145609.360        1330.577          49.000                                                                  
C24  22546064.635   117403276.917         602.284          49.000                                                                  
R24  24342631.851                3      -1679.755          24.000    24342628.896                       -1307.417          32.000  
R01  23330282.882                        2879.138          28.000                                                                  
E36  26449699.745   138994104.245       -1815.835          44.000    26449705.010   106501996.896       -1391.094          47.000  
E05  25961788.203   136430108.537        1497.771          38.000    25961793.828   104537384.386        1147.568          45.000  
E04  26067995.008   136988236.681       -1562.164          42.000    26067997.704   104965022.347       -1197.021          45.000  
J03  38299702.496   201266289.765        -771.770          33.000    38299712.307   156830905.857        -601.205          40.000  
E23  26772500.791   140690430.208        -831.617          32.000    26772505.960   107801787.335        -637.548          41.000  
G31  26318523.454   138304774.031        3212.596          34.000    26318531.966                        2503.708          31.000                                                  
J07  38069615.340   200057176.850        -264.830          39.000    38069613.279   155888703.418        -206.331          44.000  
E11  26950813.285   141627475.492       -3233.151          33.000    26950821.002   108519780.536       -2477.551          40.000  
E34                                                                  27896977.283                         494.815          29.000  
G18                                                                  26286390.727   107638324.963       -2752.755          38.000                                                  
G24                                                                  23622611.169                       -2738.482          26.000                                                  
J04                                                                  39322729.970   161020000.852         291.236          47.000  
> 2025 11 05 02 29 54.8430000  0 39                     
G10  21415745.710   112540502.240         495.635          51.000    21415744.355    87693894.387         386.223          46.000                                                  
G28  23641438.969   124236604.421        2313.301          40.000    23641437.638    96807742.057        1802.415          42.000                                                  
G15  25913624.104   136176999.305       -3329.468          34.000    25913633.154   106111979.581       -2594.334          35.000                                                  
G32  22674945.615   119157645.155        1410.374          47.000    22674945.629    92850112.215        1099.189          44.000                                                  
G12  22696924.686   119273144.652         241.727          46.000    22696922.569    92940104.257         188.287          42.000                                                  
G25  22123917.860   116261976.844        2138.356          43.000    22123918.659    90593754.252        1666.252          42.000                                                  
C06  37544016.492   195501546.451          90.462          44.000    37544005.182   151174153.115          70.115          46.000  
C08  36830761.406   191787440.652        -480.585          46.000    36830749.283   148302165.290        -371.643          49.000  
C14  22704369.235   118227610.376         -13.722          47.000    22704359.321    91421047.040         -10.689          49.000  
C09  38799642.551   202039919.743         191.225          42.000    38799635.221   156230052.920         148.069          48.000  
C13  36793278.849   191592259.006        -147.528          48.000    36793274.517   148151269.345        -113.879          47.000  
C16  37734115.537   196491439.436         -76.052          48.000    37734109.741   151939624.260         -58.864          48.000  
R09  22818690.160   121850482.252       -3758.538          32.000    22818691.588    94772639.339       -2923.073          37.000  
R10  20396503.182   108724839.069        -671.956          46.000                                                                  
R11  21663248.381   115761843.552        3231.115          45.000    21663247.461    90036981.753        2513.129          50.000  
R08  20722789.647   110969599.823         673.080          49.000    20722784.858    86309667.156         523.508          47.000  
R07  22155698.135   118601182.157       -2188.242          48.000    22155695.625    92245354.694       -1701.883          48.000  
R23  25058154.163   134044233.221       -3808.960          33.000                                                                  
G23  21731048.489   114197428.080       -2600.507          45.000    21731047.049    88985001.746       -2026.208          47.000                                                  
J02  38632625.925   203015819.869         -45.208          40.000    38632627.875   158194153.239         -35.080          41.000  
E06  24788686.868   130265428.108        -774.031          47.000    24788690.029    99813782.278        -593.079          50.000  
E09  24665473.963   129617940.440         120.489          48.000    24665476.513    99317651.346          92.368          51.000  
E31  25908761.695   136151463.398        1626.982          44.000    25908766.222   104323868.342        1246.749          47.000  
C33  23456769.537   122145556.139        1330.527          49.000                                                                  
C24  22546060.016   117403252.822         602.310          49.000                                                                  
R24  24342644.169                3      -1681.956          24.000    24342641.480   101244144.9211      -1307.503          32.000  
R01  23330261.480                        2879.128          28.000                                                                  
E36  26449713.539   138994176.862       -1815.658          44.000    26449718.841   106502052.545       -1391.220          47.000  
E05  25961776.820   136430048.624        1497.810          38.000    25961782.433   104537338.488        1147.472          45.000  
E04  26068006.903   136988299.168       -1562.210          42.000    26068009.582   104965070.220       -1196.897          45.000  
J03  38299708.371   201266320.671        -772.594          33.000    38299718.192   156830929.919        -601.492          40.000  
E23  26772507.071   140690463.494        -831.750          32.000    26772512.353   107801812.842        -637.630          41.000  
G31  26318498.986   138304645.516        3212.555          34.000    26318507.483                        2504.162          31.000                                                  
J07  38069617.383   200057187.450        -264.956          39.000    38069615.294   155888711.687        -206.620          44.000  
E11  26950837.911   141627604.807       -3233.026          33.000    26950845.607   108519879.612       -2477.172          40.000  
E34                                                                  27896972.356                         494.827          29.000  
G18                                                                  26286417.618   107638435.071       -2752.680          38.000                                                  
G24                                                                  23622637.746                       -2738.713          26.000                                                  
J04                                                                  39322727.114   161019989.200         291.260          47.000  
> 2025 11 05 02 29 54.8830000  0 39                     
G10  21415741.935   112540482.419         495.524          51.000    21415740.594    87693878.941         386.112          46.000                                                  
G28  23641421.367   124236511.882        2313.384          40.000    23641420.017    96807669.954        1802.468          42.000                                                  
G15  25913649.468   136177132.538       -3330.554          34.000    25913658.507   106112083.371       -2594.698          35.000                                                  
G32  22674934.863   119157588.728        1410.551          47.000    22674934.896    92850068.252        1099.120          44.000                                                  
G12  22696922.824   119273134.979         241.748          46.000    22696920.726    92940096.717         188.387          42.000                                                  
G25  22123901.565   116261891.319        2138.130          43.000    22123902.364    90593687.607        1666.125          42.000                                                  
C06  37544015.835   195501542.831          90.428          44.000    37544004.488   151174150.316          69.997          46.000  
C08  36830765.107   191787459.874        -480.597          46.000    36830752.965   148302180.160        -371.759          49.000  
C14  22704369.339   118227610.930         -13.827          47.000    22704359.414    91421047.473         -10.845          49.000  
C09  38799641.069   202039912.077         191.455          42.000    38799633.760   156230046.993         148.126          48.000  
C13  36793279.950   191592264.911        -147.595          48.000    36793275.641   148151273.917        -114.166          47.000  
C16  37734116.124   196491442.478         -76.073          48.000    37734110.328   151939626.618         -58.948          48.000  
R09  22818718.265   121850632.546       -3757.978          32.000    22818719.762    94772756.277       -2923.464          37.000  
R10  20396508.228   108724865.944        -671.905          46.000                                                                  
R11  21663224.219   115761714.309        3231.054          45.000    21663223.284    90036881.234        2512.988          50.000  
R08  20722784.636   110969572.902         673.011          49.000    20722779.834    86309646.212         523.520          47.000  
R07  22155714.467   118601269.684       -2188.214          48.000    22155711.970    92245422.771       -1701.908          48.000  
R23  25058182.670   134044385.591       -3809.096          33.000                                                                  
G23  21731068.267   114197532.094       -2600.452          45.000    21731066.847    88985082.797       -2026.282          47.000                                                  
J02  38632626.260   203015821.678         -45.249          40.000    38632628.215   158194154.652         -35.247          41.000  
E06  24788692.776   130265459.075        -774.186          47.000    24788695.940    99813806.004        -593.167          50.000  
E09  24665473.068   129617935.626         120.402          48.000    24665475.609    99317647.653          92.323          51.000  
E31  25908749.315   136151398.309        1627.098          44.000    25908753.882   104323818.473        1246.704          47.000  
C33  23456759.313   122145502.921        1330.450          49.000                                                                  
C24  22546055.359   117403228.726         602.331          49.000                                                                  
R24  24342656.607                3      -1681.956          24.000    24342654.053   101244197.265       -1308.266          32.000  
R01  23330239.669                        2879.538          28.000                                                                  
E36  26449727.319   138994249.470       -1815.377          44.000    26449732.665   106502108.188       -1391.167          47.000  
E05  25961765.443   136429988.704        1497.962          38.000    25961771.057   104537292.576        1147.653          45.000  
E04  26068018.804   136988361.660       -1562.273          42.000    26068021.505   104965118.102       -1196.983          45.000  
J03  38299714.251   201266351.512        -771.608          33.000    38299724.068   156830953.972        -601.435          40.000  
E23  26772513.390   140690496.793        -832.156          32.000    26772518.655   107801838.355        -637.796          41.000  
G31  26318474.554   138304517.021        3212.355          33.000    26318483.049                        2503.383          31.000                                                  
J07  38069619.408   200057198.066        -265.303          39.000    38069617.327   155888719.949        -206.639          44.000  
E11  26950862.505   141627734.095       -3232.600          33.000    26950870.208   108519978.698       -2477.178          40.000  
E34                                                                  27896967.404   112329527.826         494.775          29.000  
G18                                                                  26286444.508   107638545.196       -2752.964          38.000                                                  
G24                                                                  23622664.181                       -2738.637          26.000                                                  
J04                                                                  39322724.268   161019977.570         290.877          47.000  
> 2025 11 05 02 29 54.9230000  0 39                     
G10  21415738.190   112540462.600         495.420          51.000    21415736.842    87693863.496         386.039          46.000                                                  
G28  23641403.775   124236419.358        2313.174          40.000    23641402.403    96807597.849        1802.543          42.000                                                  
G15  25913674.824   136177265.685       -3329.411          34.000    25913683.845   106112187.149       -2594.645          35.000                                                  
G32  22674924.127   119157532.308        1410.529          47.000    22674924.133    92850024.286        1099.131          44.000                                                  
G12  22696920.976   119273125.311         241.669          46.000    22696918.874    92940089.176         188.487          42.000                                                  
G25  22123885.292   116261805.788        2138.159          43.000    22123886.094    90593620.959        1666.080          42.000                                                  
C06  37544015.166   195501539.197          90.687          44.000    37544003.804   151174147.519          69.895          46.000  
C08  36830768.793   191787479.092        -480.487          46.000    36830756.678   148302195.020        -371.606          49.000  
C14  22704369.439   118227611.488         -13.947          47.000    22704359.527    91421047.900         -10.779          49.000  
C09  38799639.579   202039904.417         191.460          42.000    38799632.293   156230041.076         147.962          48.000  
C13  36793281.069   191592270.814        -147.614          48.000    36793276.759   148151278.485        -114.239          47.000  
C16  37734116.683   196491445.518         -76.067          48.000    37734110.918   151939628.963         -58.760          48.000  
R09  22818746.457   121850782.885       -3758.327          32.000    22818747.924    94772873.179       -2922.955          37.000  
R10  20396513.267   108724892.830        -672.096          46.000                                                                  
R11  21663200.024   115761585.080        3230.780          45.000    21663199.082    90036780.713        2512.970          50.000  
R08  20722779.627   110969545.983         672.917          49.000    20722774.800    86309625.275         523.440          47.000  
R07  22155730.796   118601357.211       -2188.194          48.000    22155728.310    92245490.853       -1702.028          48.000  
R23  25058211.167   134044537.949       -3809.010          33.000                                                                  
G23  21731088.040   114197636.097       -2600.195          45.000    21731086.653    88985163.854       -2026.398          47.000                                                  
J02  38632626.592   203015823.489         -45.319          40.000    38632628.573   158194156.063         -35.269          41.000  
E06  24788698.638   130265490.036        -774.128          47.000    24788701.819    99813829.725        -593.128          50.000  
E09  24665472.155   129617930.810         120.370          48.000    24665474.710    99317643.966          92.213          51.000  
E31  25908736.935   136151333.224        1627.082          44.000    25908741.520   104323768.604        1246.696          47.000  
C33  23456749.070   122145449.700        1330.439          49.000                                                                  
C24  22546050.786   117403204.631         602.345          49.000                                                                  
R24  24342669.087                3      -1681.956          24.000    24342666.611   101244249.561       -1307.745          32.000  
R01  23330218.306                        2879.667          28.000                                                                  
E36  26449741.172   138994322.089       -1815.404          44.000    26449746.455   106502163.830       -1391.114          47.000  
E05  25961754.062   136429928.806        1497.672          38.000    25961759.654   104537246.668        1147.663          45.000  
E04  26068030.674   136988424.156       -1562.406          42.000    26068033.397   104965165.978       -1196.956          45.000  
J03  38299720.117   201266382.386        -771.665          33.000    38299729.937   156830978.025        -601.382          40.000  
E23  26772519.741   140690530.096        -832.473          32.000    26772524.995   107801863.857        -637.698          41.000  
G31  26318450.071   138304388.497        3212.732          34.000    26318458.571                        2503.184          31.000                                                  
J07  38069621.414   200057208.662        -265.174          39.000    38069619.346   155888728.205        -206.500          44.000  
E11  26950887.106   141627863.465       -3233.604          33.000    26950894.804   108520077.794       -2477.295          40.000  
E34                                                                  27896962.503   112329508.070         494.362          29.000  
G18                                                                  26286471.401   107638655.313       -2752.966          38.000                                                  
G24                                                                  23622690.819                       -2739.331          26.000                                                  
J04                                                                  39322721.416   161019965.925         290.959          47.000  
> 2025 11 05 02 29 54.9630000  0 39                     
G10  21415734.425   112540442.783         495.365          51.000    21415733.089    87693848.063         385.842          46.000                                                  
G28  23641386.166   124236326.830        2313.107          40.000    23641384.775    96807525.753        1802.377          42.000                                                  
G15  25913700.183   136177398.853       -3329.154          34.000    25913709.209   106112290.916       -2594.341          35.000                                                  
G32  22674913.378   119157475.884        1410.545          47.000    22674913.392    92849980.317        1099.205          44.000                                                  
G12  22696919.123   119273115.640         241.699          46.000    22696917.033    92940081.640         188.439          42.000                                                  
G25  22123869.024   116261720.251        2138.313          43.000    22123869.815    90593554.316        1666.006          42.000                                                  
C06  37544014.455   195501535.565          90.787          44.000    37544003.119   151174144.716          69.971          46.000  
C08  36830772.487   191787498.322        -480.688          46.000    36830760.367   148302209.881        -371.570          49.000  
C14  22704369.567   118227612.046         -13.981          47.000    22704359.610    91421048.326         -10.701          49.000  
C09  38799638.112   202039896.753         191.547          42.000    38799630.826   156230035.155         147.951          48.000  
C13  36793282.180   191592276.718        -147.626          48.000    36793277.903   148151283.052        -114.252          47.000  
C16  37734117.235   196491448.563         -76.119          48.000    37734111.508   151939631.319         -58.840          48.000  
R09  22818774.596   121850933.193       -3757.719          32.000    22818776.075    94772990.086       -2922.688          37.000  
R10  20396518.308   108724919.721        -672.304          46.000                                                                  
R11  21663175.832   115761455.829        3231.067          45.000    21663174.874    90036680.194        2512.927          50.000  
R08  20722774.592   110969519.065         672.869          49.000    20722769.775    86309604.335         523.440          47.000  
R07  22155747.147   118601444.742       -2188.253          48.000    22155744.676    92245558.936       -1702.106          48.000  
R23  25058239.694   134044690.322       -3809.302          33.000                                                                  
G23  21731107.838   114197740.110       -2600.226          45.000    21731106.450    88985244.903       -2026.324          47.000                                                  
J02  38632626.954   203015825.300         -45.278          40.000    38632628.913   158194157.485         -35.518          41.000  
E06  24788704.478   130265520.986        -773.923          47.000    24788707.696    99813853.446        -593.087          50.000  
E09  24665471.201   129617925.989         120.453          48.000    24665473.779    99317640.281          92.120          51.000  
E31  25908724.585   136151268.142        1627.072          44.000    25908729.125   104323718.738        1246.637          47.000  
C33  23456738.863   122145396.479        1330.479          49.000                                                                  
C24  22546046.158   117403180.539         602.293          49.000                                                                  
R24  24342681.596                3      -1684.856          24.000    24342679.151   101244301.880       -1307.830          32.000  
R01  23330196.544                        2879.487          28.000                                                                  
E36  26449755.005   138994394.710       -1815.471          44.000    26449760.266   106502219.473       -1391.095          47.000  
E05  25961742.652   136429868.902        1497.627          38.000    25961748.238   104537200.766        1147.606          45.000  
E04  26068042.531   136988486.637       -1562.226          42.000    26068045.279   104965213.857       -1196.967          45.000  
J03  38299726.001   201266413.250        -771.505          33.000    38299735.798   156831002.081        -601.367          40.000  
E23  26772526.110   140690563.393        -832.568          32.000    26772531.297   107801889.359        -637.602          41.000  
G31  26318425.614   138304259.939        3213.553          34.000    26318434.072                        2503.385          31.000                                                  
J07  38069623.413   200057219.238        -264.647          39.000    38069621.345   155888736.462        -206.470          44.000  
E11  26950911.722   141627992.789       -3233.435          33.000    26950919.401   108520176.875       -2477.126          40.000  
E34                                                                  27896957.597   112329488.311         494.117          29.000  
G18                                                                  26286498.294   107638765.452       -2753.362          38.000                                                  
G24                                                                  23622717.714                       -2738.612          26.000                                                  
J04                                                                  39322718.561   161019954.279         291.045          47.000  
> 2025 11 05 02 29 55.0030000  0 39                     
G10  21415730.651   112540422.963         495.421          51.000    21415729.306    87693832.620         385.893          46.000                                                  
G28  23641368.539   124236234.300        2313.147          40.000    23641367.177    96807453.654        1802.366          42.000                                                  
G15  25913725.528   136177532.028       -3329.137          34.000    25913734.550   106112394.680       -2594.083          35.000                                                  
G32  22674902.655   119157419.476        1410.297          47.000    22674902.660    92849936.366        1098.901          44.000                                                  
G12  22696917.274   119273105.976         241.573          46.000    22696915.198    92940074.115         188.203          42.000                                                  
G25  22123852.761   116261634.725        2138.191          43.000    22123853.547    90593487.664        1666.161          42.000                                                  
C06  37544013.753   195501531.945          90.599          44.000    37544002.404   151174141.908          70.094          46.000  
C08  36830776.185   191787517.547        -480.688          46.000    36830764.060   148302224.749        -371.680          49.000  
C14  22704369.682   118227612.603         -13.985          47.000    22704359.713    91421048.759         -10.792          49.000  
C09  38799636.633   202039889.097         191.427          42.000    38799629.363   156230029.235         147.933          48.000  
C13  36793283.276   191592282.628        -147.736          48.000    36793279.044   148151287.620        -114.276          47.000  
C16  37734117.789   196491451.617         -76.346          48.000    37734112.088   151939633.668         -58.776          48.000  
R09  22818802.733   121851083.504       -3757.712          32.000    22818804.217    94773107.016       -2922.977          37.000  
R10  20396523.351   108724946.619        -672.521          46.000                                                                  
R11  21663151.629   115761326.591        3230.969          45.000    21663150.681    90036579.675        2512.903          50.000  
R08  20722769.556   110969492.146         672.890          49.000    20722764.760    86309583.401         523.366          47.000  
R07  22155763.509   118601532.275       -2188.338          48.000    22155761.031    92245627.017       -1702.106          48.000  
R23  25058268.194   134044842.719       -3809.866          33.000                                                                  
G23  21731127.631   114197844.132       -2600.507          45.000    21731126.244    88985325.952       -2026.288          47.000                                                  
J02  38632627.302   203015827.114         -45.334          40.000    38632629.275   158194158.919         -35.895          41.000  
E06  24788710.391   130265551.947        -773.976          47.000    24788713.607    99813877.168        -593.068          50.000  
E09  24665470.314   129617921.174         120.384          48.000    24665472.856    99317636.593          92.143          51.000  
E31  25908712.189   136151203.064        1626.994          44.000    25908716.749   104323668.876        1246.537          47.000  
C33  23456728.635   122145343.264        1330.403          49.000                                                                  
C24  22546041.526   117403156.448         602.221          49.000                                                                  
R24  24342694.183                3      -1678.186          24.000    24342691.730   101244354.206       -1308.152          32.000  
R01  23330175.009                        2878.989          28.000                                                                  
E36  26449768.900   138994467.341       -1815.670          44.000    26449774.069   106502275.121       -1391.183          47.000  
E05  25961731.269   136429809.006        1497.486          38.000    25961736.818   104537154.865        1147.529          45.000  
E04  26068054.410   136988549.118       -1562.075          42.000    26068057.181   104965261.746       -1197.135          45.000  
J03  38299731.871   201266444.102        -771.329          33.000    38299741.681   156831026.122        -601.104          40.000  
E23  26772532.462   140690596.683        -832.451          32.000    26772537.594   107801914.863        -637.594          41.000  
G31  26318401.149   138304131.417        3213.326          34.000    26318409.623                        2503.776          31.000                                                  
J07  38069625.420   200057229.858        -265.150          39.000    38069623.368   155888744.728        -206.593          44.000  
E11  26950936.371   141628122.125       -3233.506          33.000    26950943.987   108520275.976       -2477.375          40.000  
E34                                                                  27896952.659   112329468.529         494.234          29.000  
G18                                                                  26286525.180   107638875.574       -2753.244          38.000                                                  
G24                                                                  23622744.400                       -2738.920          26.000                                                  
J04                                                                  39322715.689   161019942.633         291.101          47.000  
> 2025 11 05 02 29 55.0430000  0 39                     
G10  21415726.918   112540403.145         495.403          51.000    21415725.541    87693817.174         386.053          46.000                                                  
G28  23641350.930   124236141.786        2312.922          40.000    23641349.577    96807381.553        1802.471          42.000                                                  
G15  25913750.869   136177665.201       -3329.252          34.000    25913759.895   106112498.447       -2594.073          35.000                                                  
G32  22674891.914   119157363.062        1410.284          47.000    22674891.924    92849892.415        1098.729          44.000                                                  
G12  22696915.450   119273096.312         241.538          46.000    22696913.360    92940066.589         188.105          42.000                                                  
G25  22123836.494   116261549.201        2138.086          43.000    22123837.266    90593421.018        1666.153          42.000                                                  
C06  37544013.070   195501528.337          90.274          44.000    37544001.705   151174139.108          70.006          46.000  
C08  36830779.864   191787536.776        -480.725          46.000    36830767.761   148302239.618        -371.729          49.000  
C14  22704369.764   118227613.160         -13.978          47.000    22704359.819    91421049.192         -10.864          49.000  
C09  38799635.171   202039881.437         191.401          42.000    38799627.898   156230023.315         147.965          48.000  
C13  36793284.418   191592288.544        -147.913          48.000    36793280.188   148151292.200        -114.496          47.000  
C16  37734118.357   196491454.661         -76.248          48.000    37734112.672   151939636.030         -58.967          48.000  
R09  22818830.877   121851233.810       -3757.568          33.000    22818832.387    94773223.922       -2922.695          37.000  
R10  20396528.362   108724973.513        -672.508          46.000                                                                  
R11  21663127.434   115761197.358        3230.811          45.000    21663126.516    90036479.157        2512.878          50.000  
R08  20722764.524   110969465.225         672.960          49.000    20722759.725    86309562.467         523.310          47.000  
R07  22155779.851   118601619.810       -2188.415          48.000    22155777.355    92245695.096       -1702.065          48.000  
R23  25058296.664   134044995.082       -3809.479          33.000                                                                  
G23  21731147.438   114197948.159       -2600.690          45.000    21731146.032    88985407.006       -2026.312          47.000                                                  
J02  38632627.632   203015828.922         -45.291          40.000    38632629.619   158194160.316         -35.374          41.000  
E06  24788716.336   130265582.911        -774.068          47.000    24788719.488    99813900.893        -593.123          50.000  
E09  24665469.351   129617916.363         120.290          48.000    24665471.903    99317632.902          92.188          51.000  
E31  25908699.800   136151137.981        1627.028          44.000    25908704.368   104323619.008        1246.595          47.000  
C33  23456718.413   122145290.050        1330.328          49.000                                                                  
C24  22546036.880   117403132.363         602.101          49.000                                                                  
R24  24342706.826                3      -1678.186          24.000    24342704.354   101244406.495       -1307.541          32.000  
R01  23330153.380                        2879.049          28.000                                                                  
E36  26449782.737   138994539.967       -1815.720          44.000    26449787.886   106502330.773       -1391.277          47.000  
E05  25961719.873   136429749.080        1497.870          38.000    25961725.418   104537108.968        1147.402          45.000  
E04  26068066.314   136988611.607       -1562.164          42.000    26068069.067   104965309.625       -1197.105          45.000  
J03  38299737.752   201266475.020        -772.483          33.000    38299747.574   156831050.189        -601.463          40.000  
E23  26772538.804   140690629.966        -832.205          32.000    26772543.945   107801940.380        -637.809          41.000  
G31  26318376.700   138304002.924        3212.671          34.000    26318385.216                        2502.999          31.000                                                  
J07  38069627.426   200057240.463        -265.137          39.000    38069625.378   155888752.986        -206.500          44.000  
E11  26950960.965   141628251.443       -3233.210          33.000    26950968.589   108520375.073       -2477.439          40.000  
E34                                                                  27896947.722                         494.088          29.000  
G18                                                                  26286552.062   107638985.689       -2753.058          38.000                                                  
G24                                                                  23622771.010                       -2739.106          26.000                                                  
J04                                                                  39322712.849   161019930.993         291.021          47.000  
> 2025 11 05 02 29 55.0830000  0 39                     
G10  21415723.132   112540383.331         495.341          51.000    21415721.762    87693801.728         386.115          46.000                                                  
G28  23641333.332   124236049.267        2312.836          40.000    23641331.978    96807309.461        1802.350          42.000                                                  
G15  25913776.241   136177798.403       -3329.830          34.000    25913785.235   106112602.232       -2594.409          35.000                                                  
G32  22674881.179   119157306.649        1410.248          47.000    22674881.200    92849848.453        1098.862          44.000                                                  
G12  22696913.602   119273086.648         241.516          46.000    22696911.539    92940059.056         188.230          42.000                                                  
G25  22123820.219   116261463.674        2138.143          43.000    22123820.976    90593354.381        1666.009          42.000                                                  
C06  37544012.390   195501524.720          90.276          44.000    37544001.007   151174136.305          69.999          46.000  
C08  36830783.543   191787556.001        -480.695          46.000    36830771.455   148302254.488        -371.765          49.000  
C14  22704369.846   118227613.723         -14.067          47.000    22704359.931    91421049.623         -10.848          49.000  
C09  38799633.714   202039873.784         191.289          42.000    38799626.425   156230017.394         147.984          48.000  
C13  36793285.561   191592294.457        -147.913          48.000    36793281.322   148151296.767        -114.337          47.000  
C16  37734118.913   196491457.712         -76.326          48.000    37734113.275   151939638.392         -59.094          48.000  
R09  22818859.007   121851384.151       -3758.210          32.000    22818860.535    94773340.848       -2922.954          37.000  
R10  20396533.411   108725000.402        -672.352          46.000                                                                  
R11  21663103.257   115761068.118        3230.884          45.000    21663102.341    90036378.644        2512.805          50.000  
R08  20722759.483   110969438.308         672.928          49.000    20722754.699    86309541.534         523.274          47.000  
R07  22155796.200   118601707.345       -2188.414          48.000    22155793.704    92245763.183       -1702.179          48.000  
R23  25058325.174   134045147.464       -3809.518          33.000                                                                  
G23  21731167.218   114198052.178       -2600.659          45.000    21731165.831    88985488.065       -2026.453          47.000                                                  
J02  38632627.981   203015830.746         -45.519          40.000    38632629.958   158194161.712         -35.035          41.000  
E06  24788722.259   130265613.886        -774.305          47.000    24788725.371    99813924.621        -593.178          50.000  
E09  24665468.522   129617911.559         120.123          48.000    24665470.949    99317629.214          92.190          51.000  
E31  25908687.444   136151072.905        1626.924          44.000    25908692.014   104323569.143        1246.609          47.000  
C33  23456708.190   122145236.837        1330.273          49.000                                                                  
C24  22546032.278   117403108.275         602.112          49.000                                                                  
R24  24342719.705                3      -1681.919          24.000    24342716.949                       -1307.438          32.000  
R01  23330132.107                        2878.711          28.000                                                                  
E36  26449796.563   138994612.599       -1815.859          44.000    26449801.700   106502386.424       -1391.332          47.000  
E05  25961708.464   136429689.174        1497.776          38.000    25961713.987   104537063.068        1147.428          45.000  
E04  26068078.234   136988674.101       -1562.292          42.000    26068080.941   104965357.502       -1197.027          45.000  
J03  38299743.645   201266505.863        -771.672          33.000    38299753.457   156831074.242        -601.429          40.000  
E23  26772545.179   140690663.271        -832.433          32.000    26772550.294   107801965.909        -638.107          41.000  
G31  26318352.272   138303874.444        3212.006          34.000    26318360.768                        2503.361          31.000                                                  
J07  38069629.428   200057251.055        -264.971          39.000    38069627.404   155888761.242        -206.423          44.000  
E11  26950985.597   141628380.744       -3232.720          33.000    26950993.190   108520474.163       -2477.331          40.000  
E34                                                                  27896942.807                         494.589          29.000  
G18                                                                  26286578.948   107639095.795       -2752.858          38.000                                                  
G24                                                                  23622797.757                       -2738.680          26.000                                                  
J04                                                                  39322710.015   161019919.356         290.916          47.000  
> 2025 11 05 02 29 55.1230000  0 39                     
G10  21415719.376   112540363.512         495.416          51.000    21415717.998    87693786.288         386.022          46.000                                                  
G28  23641315.704   124235956.747        2312.870          40.000    23641314.354    96807237.361        1802.441          42.000                                                  
G15  25913801.578   136177931.607       -3330.166          34.000    25913810.574   106112705.988       -2594.041          35.000                                                  
G32  22674870.410   119157250.229        1410.389          47.000    22674870.461    92849804.498        1098.817          44.000                                                  
G12  22696911.774   119273076.988         241.475          46.000    22696909.698    92940051.527         188.225          42.000                                                  
G25  22123803.937   116261378.144        2138.196          43.000    22123804.682    90593287.736        1666.053          42.000                                                  
C06  37544011.681   195501521.094          90.472          44.000    37544000.319   151174133.506          69.969          46.000  
C08  36830787.245   191787575.223        -480.597          46.000    36830775.149   148302269.355        -371.704          49.000  
C14  22704369.938   118227614.274         -13.880          47.000    22704360.022    91421050.054         -10.861          49.000  
C09  38799632.240   202039866.139         191.116          42.000    38799624.949   156230011.467         148.116          48.000  
C13  36793286.714   191592300.364        -147.760          48.000    36793282.452   148151301.331        -114.178          47.000  
C16  37734119.467   196491460.757         -76.204          48.000    37734113.872   151939640.749         -59.044          48.000  
R09  22818887.132   121851534.461       -3757.900          32.000    22818888.698    94773457.755       -2922.745          37.000  
R10  20396538.472   108725027.288        -672.213          46.000                                                                  
R11  21663079.079   115760938.879        3230.939          45.000    21663078.148    90036278.126        2512.866          50.000  
R08  20722754.454   110969411.389         672.979          49.000    20722749.655    86309520.595         523.407          47.000  
R07  22155812.563   118601794.878       -2188.364          48.000    22155810.052    92245831.258       -1702.014          48.000  
R23  25058353.666   134045299.824       -3809.238          33.000                                                                  
G23  21731187.015   114198156.208       -2600.763          45.000    21731185.639    88985569.118       -2026.386          47.000                                                  
J02  38632628.323   203015832.552         -45.385          40.000    38632630.301   158194163.123         -35.154          41.000  
E06  24788728.170   130265644.846        -774.156          47.000    24788731.288    99813948.349        -593.226          50.000  
E09  24665467.573   129617906.738         120.341          48.000    24665470.011    99317625.521          92.269          51.000  
E31  25908675.092   136151007.835        1626.813          44.000    25908679.638   104323519.275        1246.658          47.000  
C33  23456697.982   122145183.621        1330.345          49.000                                                                  
C24  22546027.666   117403084.187         602.135          49.000                                                                  
R24  24342732.367                3      -1681.919          24.000    24342729.530   101244511.109       -1307.772          32.000  
R01  23330110.413                        2877.954          28.000                                                                  
E36  26449810.398   138994685.225       -1815.754          44.000    26449815.530   106502442.073       -1391.295          47.000  
E05  25961697.088   136429629.276        1497.574          38.000    25961702.583   104537017.160        1147.563          45.000  
E04  26068090.110   136988736.585       -1562.206          42.000    26068092.813   104965405.385       -1197.030          45.000  
J03  38299749.538   201266536.712        -771.317          33.000    38299759.327   156831098.300        -601.518          40.000  
E23  26772551.460   140690696.533        -831.832          32.000    26772556.604   107801991.421        -637.985          41.000  
G31  26318327.831   138303745.930        3212.368          33.000    26318336.281                        2503.484          31.000                                                  
J07  38069631.432   200057261.671        -265.241          39.000    38069629.429   155888769.505        -206.502          44.000  
E11  26951010.228   141628510.089       -3233.275          33.000    26951017.824   108520573.262       -2477.435          40.000  
E34                                                                  27896937.885                         494.606          29.000  
G18                                                                  26286605.850   107639205.905       -2752.759          38.000                                                  
G24                                                                  23622824.229                       -2739.036          26.000                                                  
J04                                                                  39322707.156   161019907.714         290.972          47.000  
> 2025 11 05 02 29 55.1630000  0 39                     
G10  21415715.601   112540343.690         495.502          51.000    21415714.229    87693770.843         386.071          46.000                                                  
G28  23641298.094   124235864.200        2313.432          40.000    23641296.726    96807165.258        1802.509          42.000                                                  
G15  25913826.900   136178064.771       -3329.557          34.000    25913835.923   106112809.779       -2594.478          35.000                                                  
G32  22674859.654   119157193.812        1410.400          47.000    22674859.720    92849760.530        1099.055          44.000                                                  
G12  22696909.937   119273067.319         241.615          46.000    22696907.853    92940044.005         188.114          42.000                                                  
G25  22123787.680   116261292.612        2138.317          43.000    22123788.402    90593221.092        1666.110          42.000                                                  
C06  37544010.975   195501517.461          90.734          44.000    37543999.620   151174130.707          69.951          46.000  
C08  36830790.951   191787594.448        -480.621          46.000    36830778.849   148302284.215        -371.539          49.000  
C14  22704370.047   118227614.824         -13.759          47.000    22704360.124    91421050.482         -10.774          49.000  
C09  38799630.780   202039858.467         191.573          42.000    38799623.468   156230005.543         148.114          48.000  
C13  36793287.847   191592306.262        -147.522          48.000    36793283.588   148151305.887        -113.916          47.000  
C16  37734120.039   196491463.791         -75.957          48.000    37734114.450   151939643.095         -58.808          48.000  
R09  22818915.307   121851684.825       -3758.667          33.000    22818916.857    94773574.688       -2923.123          37.000  
R10  20396543.506   108725054.173        -672.153          46.000                                                                  
R11  21663054.895   115760809.645        3230.884          45.000    21663053.972    90036177.604        2513.006          50.000  
R08  20722749.426   110969384.467         673.016          49.000    20722744.617    86309499.654         523.500          47.000  
R07  22155828.928   118601882.411       -2188.345          48.000    22155826.414    92245899.335       -1701.934          48.000  
R23  25058382.154   134045452.181       -3809.027          33.000                                                                  
G23  21731206.819   114198260.214       -2600.330          45.000    21731205.435    88985650.165       -2026.251          47.000                                                  
J02  38632628.669   203015834.359         -45.263          40.000    38632630.638   158194164.537         -35.302          41.000  
E06  24788734.023   130265675.804        -774.040          47.000    24788737.163    99813972.063        -593.015          50.000  
E09  24665466.588   129617901.920         120.420          48.000    24665469.088    99317621.823          92.396          51.000  
E31  25908662.691   136150942.750        1626.962          44.000    25908667.276   104323469.406        1246.690          47.000  
C33  23456687.781   122145130.396        1330.522          49.000                                                                  
C24  22546023.035   117403060.094         602.254          49.000                                                                  
R24  24342744.967                3      -1681.919          24.000    24342742.124   101244563.432       -1308.098          32.000  
R01  23330088.618                        2878.561          28.000                                                                  
E36  26449824.172   138994757.840       -1815.514          44.000    26449829.347   106502497.712       -1391.092          47.000  
E05  25961685.697   136429569.364        1497.689          38.000    25961691.213   104536971.243        1147.799          45.000  
E04  26068102.008   136988799.068       -1562.142          42.000    26068104.700   104965453.260       -1196.945          45.000  
J03  38299755.418   201266567.598        -771.758          33.000    38299765.201   156831122.354        -601.499          40.000  
E23  26772557.823   140690729.835        -832.175          32.000    26772562.900   107802016.918        -637.640          41.000  
G31  26318303.381   138303617.409        3212.703          33.000    26318311.780                        2503.656          31.000                                                  
J07  38069633.456   200057272.275        -265.186          39.000    38069631.432   155888777.761        -206.445          44.000  
E11  26951034.863   141628639.388       -3232.803          33.000    26951042.439   108520672.344       -2477.188          40.000  
E34                                                                  27896932.999                         495.029          29.000  
G18                                                                  26286632.716   107639316.006       -2752.584          38.000                                                  
G24                                                                  23622850.933                       -2738.823          26.000                                                  
J04                                                                  39322704.296   161019896.060         291.256          47.000  
> 2025 11 05 02 29 55.2030000  0 39                     
G10  21415711.854   112540323.874         495.428          51.000    21415710.449    87693755.398         386.077          46.000                                                  
G28  23641280.486   124235771.658        2313.654          40.000    23641279.096    96807093.150        1802.660          42.000                                                  
G15  25913852.243   136178197.924       -3329.015          34.000    25913861.247   106112913.536       -2594.206          35.000                                                  
G32  22674848.921   119157137.391        1410.489          47.000    22674848.980    92849716.555        1099.291          44.000                                                  
G12  22696908.097   119273057.660         241.500          46.000    22696906.015    92940036.460         188.428          42.000                                                  
G25  22123771.432   116261207.091        2138.110          43.000    22123772.131    90593154.448        1666.113          42.000                                                  
C06  37544010.269   195501513.833          90.757          44.000    37543998.927   151174127.897          70.128          46.000  
C08  36830794.634   191787613.680        -480.768          46.000    36830782.532   148302299.075        -371.509          49.000  
C14  22704370.159   118227615.380         -13.838          47.000    22704360.217    91421050.912         -10.782          49.000  
C09  38799629.301   202039850.798         191.738          42.000    38799621.998   156229999.616         148.183          48.000  
C13  36793288.969   191592312.160        -147.418          48.000    36793284.717   148151310.449        -113.953          47.000  
C16  37734120.605   196491466.824         -75.794          48.000    37734115.026   151939645.440         -58.654          48.000  
R09  22818943.548   121851835.158       -3758.557          33.000    22818944.993    94773691.583       -2922.639          37.000  
R10  20396548.534   108725081.067        -672.333          46.000                                                                  
R11  21663030.715   115760680.402        3231.012          45.000    21663029.770    90036077.077        2513.147          50.000  
R08  20722744.425   110969357.548         672.977          49.000    20722739.584    86309478.715         523.480          47.000  
R07  22155845.285   118601969.942       -2188.306          48.000    22155842.754    92245967.408       -1701.839          48.000  
R23  25058410.635   134045604.530       -3808.700          33.000                                                                  
G23  21731226.604   114198364.231       -2600.360          45.000    21731225.241    88985731.220       -2026.361          47.000                                                  
J02  38632629.019   203015836.167         -45.187          40.000    38632630.997   158194165.947         -35.261          41.000  
E06  24788739.895   130265706.752        -773.800          47.000    24788743.042    99813995.780        -592.917          50.000  
E09  24665465.647   129617897.100         120.476          48.000    24665468.170    99317618.131          92.354          51.000  
E31  25908650.281   136150877.670        1626.986          44.000    25908654.872   104323419.537        1246.727          47.000  
C33  23456677.581   122145077.171        1330.615          49.000                                                                  
C24  22546018.399   117403036.000         602.302          49.000                                                                  
R24  24342757.700                3      -1682.427          24.000    24342754.749   101244615.742       -1307.849          32.000  
R01  23330066.765                        2879.349          28.000                                                                  
E36  26449837.969   138994830.458       -1815.443          44.000    26449843.152   106502553.354       -1391.052          47.000  
E05  25961674.247   136429509.441        1497.938          38.000    25961679.799   104536925.336        1147.758          45.000  
E04  26068113.917   136988861.553       -1562.146          42.000    26068116.587   104965501.137       -1196.948          45.000  
J03  38299761.293   201266598.475        -771.938          33.000    38299771.067   156831146.396        -601.227          40.000  
E23  26772564.123   140690763.120        -832.089          32.000    26772569.221   107802042.421        -637.536          41.000  
G31  26318278.911   138303488.894        3212.735          33.000    26318287.345                        2503.476          31.000                                                  
J07  38069635.473   200057282.868        -265.000          39.000    38069633.443   155888786.019        -206.467          44.000  
E11  26951059.479   141628768.689       -3232.502          33.000    26951067.040   108520771.424       -2477.061          40.000  
E34                                                                  27896928.079                         494.893          29.000  
G18                                                                  26286659.611   107639426.122       -2752.795          38.000                                                  
G24                                                                  23622877.704                       -2738.779          26.000                                                  
J04                                                                  39322701.442   161019884.413         291.249          47.000  
> 2025 11 05 02 29 55.2430000  0 39                     
G10  21415708.099   112540304.059         495.366          51.000    21415706.679    87693739.955         386.052          46.000                                                  
G28  23641262.878   124235679.130        2313.390          40.000    23641261.506    96807021.056        1802.500          42.000                                                  
G15  25913877.572   136178331.068       -3328.575          34.000    25913886.594   106113017.324       -2594.597          35.000                                                  
G32  22674838.207   119157080.973        1410.466          47.000    22674838.259    92849672.592        1099.199          44.000                                                  
G12  22696906.262   119273047.994         241.533          46.000    22696904.182    92940028.930         188.392          42.000                                                  
G25  22123755.168   116261121.562        2138.160          43.000    22123755.859    90593087.795        1666.266          42.000                                                  
C06  37544009.580   195501510.210          90.659          44.000    37543998.243   151174125.097          70.019          46.000  
C08  36830798.304   191787632.909        -480.780          46.000    36830786.232   148302313.946        -371.692          49.000  
C14  22704370.271   118227615.937         -13.932          47.000    22704360.314    91421051.341         -10.758          49.000  
C09  38799627.830   202039843.139         191.576          42.000    38799620.540   156229993.691         148.151          48.000  
C13  36793290.120   191592318.068        -147.601          48.000    36793285.861   148151315.023        -114.215          47.000  
C16  37734121.173   196491469.871         -76.038          48.000    37734115.610   151939647.793         -58.718          48.000  
R09  22818971.678   121851985.476       -3758.106          32.000    22818973.131    94773808.507       -2922.865          37.000  
R10  20396553.597   108725107.969        -672.567          46.000                                                                  
R11  21663006.524   115760551.168        3230.872          45.000    21663005.571    90035976.561        2513.006          50.000  
R08  20722739.398   110969330.629         672.939          49.000    20722734.542    86309457.781         523.360          47.000  
R07  22155861.644   118602057.472       -2188.269          48.000    22155859.139    92246035.492       -1701.992          48.000  
R23  25058439.114   134045756.906       -3809.023          33.000                                                                  
G23  21731246.414   114198468.249       -2600.421          45.000    21731245.030    88985812.274       -2026.379          47.000                                                  
J02  38632629.353   203015837.985         -45.367          40.000    38632631.358   158194167.363         -35.375          41.000  
E06  24788745.790   130265737.705        -773.779          47.000    24788748.959    99814019.502        -592.970          50.000  
E09  24665464.734   129617892.279         120.527          48.000    24665467.224    99317614.445          92.226          51.000  
E31  25908637.878   136150812.583        1627.113          44.000    25908642.450   104323369.673        1246.628          47.000  
C33  23456667.352   122145023.953        1330.502          49.000                                                                  
C24  22546013.737   117403011.911         602.233          49.000                                                                  
R24  24342770.466                3      -1682.427          24.000    24342767.289   101244668.037       -1307.486          32.000  
R01  23330045.026                        2879.551          28.000                                                                  
E36  26449851.816   138994903.090       -1815.607          44.000    26449856.990   106502609.006       -1391.216          47.000  
E05  25961662.814   136429449.545        1497.615          38.000    25961668.413   104536879.446        1147.439          45.000  
E04  26068125.770   136988924.036       -1562.122          42.000    26068128.461   104965549.008       -1196.824          45.000  
J03  38299767.178   201266629.341        -771.860          33.000    38299776.928   156831170.452        -601.360          40.000  
E23  26772570.478   140690796.449        -832.850          32.000    26772575.546   107802067.928        -637.553          41.000  
G31  26318254.423   138303360.373        3212.900          33.000    26318262.891                        2503.586          31.000                                                  
J07  38069637.488   200057293.448        -264.654          39.000    38069635.476   155888794.280        -206.505          44.000  
E11  26951084.090   141628898.050       -3233.401          33.000    26951091.665   108520870.525       -2477.364          40.000  
E34                                                                  27896923.138                         494.467          29.000  
G18                                                                  26286686.505   107639536.232       -2752.835          38.000                                                  
G24                                                                  23622904.508                       -2739.004          26.000                                                  
J04                                                                  39322698.590   161019872.769         291.131          47.000  
> 2025 11 05 02 29 55.2830000  0 39                     
G10  21415704.324   112540284.246         495.292          51.000    21415702.918    87693724.524         385.800          46.000                                                  
G28  23641245.273   124235586.623        2312.810          40.000    23641243.897    96806948.963        1802.361          42.000                                                  
G15  25913902.921   136178464.257       -3329.095          34.000    25913911.923   106113121.102       -2594.651          35.000                                                  
G32  22674827.482   119157024.551        1410.580          47.000    22674827.531    92849628.629        1099.088          44.000                                                  
G12  22696904.391   119273038.329         241.581          46.000    22696902.356    92940021.394         188.457          42.000                                                  
G25  22123738.879   116261036.030        2138.225          43.000    22123739.570    90593021.151        1666.137          42.000                                                  
C06  37544008.890   195501506.593          90.462          44.000    37543997.544   151174122.298          69.940          46.000  
C08  36830801.991   191787652.128        -480.573          46.000    36830789.924   148302328.810        -371.680          49.000  
C14  22704370.364   118227616.498         -14.020          47.000    22704360.424    91421051.767         -10.699          49.000  
C09  38799626.383   202039835.480         191.469          42.000    38799619.064   156229987.767         148.132          48.000  
C13  36793291.251   191592323.975        -147.687          48.000    36793287.001   148151319.594        -114.313          47.000  
C16  37734121.731   196491472.921         -76.200          48.000    37734116.194   151939650.145         -58.766          48.000  
R09  22818999.814   121852135.751       -3757.208          32.000    22819001.260    94773925.424       -2922.971          37.000  
R10  20396558.641   108725134.867        -672.568          46.000                                                                  
R11  21662982.358   115760421.938        3230.737          45.000    21662981.369    90035876.046        2512.866          50.000  
R08  20722734.377   110969303.711         672.927          49.000    20722729.502    86309436.842         523.417          47.000  
R07  22155877.991   118602145.003       -2188.271          48.000    22155875.480    92246103.576       -1702.112          48.000  
R23  25058467.592   134045909.272       -3809.092          33.000                                                                  
G23  21731266.216   114198572.277       -2600.690          45.000    21731264.843    88985893.328       -2026.355          47.000                                                  
J02  38632629.673   203015839.796         -45.354          40.000    38632631.714   158194168.777         -35.354          41.000  
E06  24788751.691   130265768.664        -773.863          47.000    24788754.827    99814043.228        -593.080          50.000  
E09  24665463.861   129617887.460         120.526          48.000    24665466.305    99317610.753          92.233          51.000  
E31  25908625.522   136150747.500        1627.099          44.000    25908630.028   104323319.808        1246.620          47.000  
C33  23456657.121   122144970.734        1330.451          49.000                                                                  
C24  22546009.074   117402987.829         602.071          49.000                                                                  
R24  24342782.768                3      -1682.427          24.000    24342779.834   101244720.351       -1307.678          32.000  
R01  23330023.227                        2879.906          28.000                                                                  
E36  26449865.681   138994975.713       -1815.613          44.000    26449870.813   106502664.653       -1391.209          47.000  
E05  25961651.444   136429389.643        1497.525          38.000    25961657.031   104536833.534        1147.594          45.000  
E04  26068137.711   136988986.524       -1562.211          42.000    26068140.352   104965596.886       -1196.884          45.000  
J03  38299773.037   201266660.208        -771.701          33.000    38299782.807   156831194.504        -601.320          40.000  
E23  26772576.816   140690829.758        -832.922          32.000    26772581.908   107802093.435        -637.562          41.000  
G31  26318230.010   138303231.871        3212.580          33.000    26318238.418                        2503.477          30.000                                                  
J07  38069639.483   200057304.035        -264.598          39.000    38069637.496   155888802.545        -206.628          44.000  
E11  26951108.752   141629027.373       -3233.255          33.000    26951116.294   108520969.619       -2477.421          40.000  
E34                                                                  27896918.256                         494.416          29.000  
G18                                                                  26286713.392   107639646.348       -2752.948          38.000                                                  
G24                                                                  23622931.519                       -2739.054          26.000                                                  
J04                                                                  39322695.753   161019861.127         291.038          47.000  
> 2025 11 05 02 29 55.3230000  0 39                     
G10  21415700.565   112540264.434         495.250          51.000    21415699.151    87693709.093         385.702          46.000                                                  
G28  23641227.667   124235494.096        2312.941          40.000    23641226.283    96806876.856        1802.546          42.000                                                  
G15  25913928.269   136178597.478       -3330.162          34.000    25913937.262   106113224.874       -2594.510          35.000                                                  
G32  22674816.751   119156968.130        1410.575          47.000    22674816.813    92849584.664        1099.071          44.000                                                  
G12  22696902.530   119273028.675         241.406          46.000    22696900.532    92940013.875         188.144          42.000                                                  
G25  22123722.600   116260950.508        2138.098          43.000    22123723.292    90592954.508        1666.070          42.000                                                  
C06  37544008.163   195501502.971          90.481          44.000    37543996.856   151174119.490          70.074          46.000  
C08  36830805.677   191787671.354        -480.585          46.000    36830793.623   148302343.675        -371.655          49.000  
C14  22704370.475   118227617.053         -13.970          47.000    22704360.536    91421052.200         -10.813          49.000  
C09  38799624.894   202039827.817         191.533          42.000    38799617.584   156229981.847         148.012          48.000  
C13  36793292.390   191592329.884        -147.748          48.000    36793288.147   148151324.160        -114.252          47.000  
C16  37734122.299   196491475.964         -76.169          48.000    37734116.784   151939652.498         -58.806          48.000  
R09  22819027.988   121852286.045       -3757.117          32.000    22819029.380    94774042.354       -2923.165          37.000  
R10  20396563.676   108725161.753        -672.298          46.000                                                                  
R11  21662958.180   115760292.700        3230.835          45.000    21662957.196    90035775.533        2512.793          50.000  
R08  20722729.367   110969276.799         672.796          49.000    20722724.483    86309415.908         523.342          47.000  
R07  22155894.334   118602232.538       -2188.352          48.000    22155891.834    92246171.660       -1702.159          48.000  
R23  25058496.084   134046061.653       -3809.418          33.000                                                                  
G23  21731286.020   114198676.294       -2600.543          45.000    21731284.639    88985974.383       -2026.398          47.000                                                  
J02  38632630.013   203015841.602         -45.206          40.000    38632632.042   158194170.183         -35.254          41.000  
E06  24788757.635   130265799.631        -774.049          47.000    24788760.720    99814066.951        -593.094          50.000  
E09  24665462.965   129617882.646         120.427          48.000    24665465.409    99317607.061          92.284          51.000  
E31  25908613.166   136150682.428        1626.919          44.000    25908617.619   104323269.946        1246.566          47.000  
C33  23456646.887   122144917.521        1330.332          49.000                                                                  
C24  22546004.429   117402963.740         602.120          49.000                                                                  
R24  24342795.313                3      -1670.726          24.000    24342792.416   101244772.673       -1307.900          32.000  
R01  23330001.875                        2879.568          28.000                                                                  
E36  26449879.438   138995048.331       -1815.545          44.000    26449884.628   106502720.307       -1391.333          47.000  
E05  25961639.965   136429329.726        1497.761          38.000    25961645.623   104536787.629        1147.613          45.000  
E04  26068149.594   136989049.008       -1562.178          42.000    26068152.234   104965644.768       -1196.992          45.000  
J03  38299778.911   201266691.069        -771.569          33.000    38299788.676   156831218.564        -601.448          40.000  
E23  26772583.165   140690863.014        -831.912          32.000    26772588.268   107802118.962        -637.968          41.000  
G31  26318205.558   138303103.355        3212.781          33.000    26318213.959                        2503.208          31.000                                                  
J07  38069641.480   200057314.634        -264.858          39.000    38069639.516   155888810.801        -206.543          44.000  
E11  26951133.349   141629156.679       -3232.917          33.000    26951140.933   108521068.704       -2477.300          40.000  
E34                                                                  27896913.353                         494.830          29.000  
G18                                                                  26286740.284   107639756.463       -2752.950          38.000                                                  
G24                                                                  23622958.328                       -2738.172          26.000                                                  
J04                                                                  39322692.915   161019849.481         291.094          47.000  
> 2025 11 05 02 29 55.3630000  0 39                     
G10  21415696.790   112540244.620         495.293          51.000    21415695.379    87693693.650         385.907          46.000                                                  
G28  23641210.055   124235401.569        2313.052          40.000    23641208.686    96806804.765        1802.335          42.000                                                  
G15  25913953.608   136178730.632       -3329.427          34.000    25913962.618   106113328.640       -2594.205          35.000                                                  
G32  22674806.021   119156911.713        1410.453          47.000    22674806.083    92849540.701        1099.067          44.000                                                  
G12  22696900.683   119273019.013         241.462          46.000    22696898.700    92940006.349         188.130          42.000                                                  
G25  22123706.350   116260864.987        2137.992          43.000    22123707.035    90592887.872        1665.905          42.000                                                  
C06  37544007.451   195501499.337          90.684          44.000    37543996.151   151174116.690          70.034          46.000  
C08  36830809.402   191787690.576        -480.560          46.000    36830797.308   148302358.544        -371.704          49.000  
C14  22704370.597   118227617.615         -14.042          47.000    22704360.641    91421052.630         -10.804          49.000  
C09  38799623.424   202039820.155         191.520          42.000    38799616.111   156229975.922         148.076          48.000  
C13  36793293.524   191592335.798        -147.839          48.000    36793289.284   148151328.731        -114.282          47.000  
C16  37734122.905   196491479.008         -76.160          48.000    37734117.361   151939654.855         -58.916          48.000  
R09  22819056.156   121852436.377       -3757.844          33.000    22819057.514    94774159.263       -2922.813          37.000  
R10  20396568.720   108725188.656        -672.517          46.000                                                                  
R11  21662934.002   115760163.468        3230.786          45.000    21662932.999    90035675.020        2512.781          50.000  
R08  20722724.336   110969249.878         672.911          49.000    20722719.461    86309394.968         523.431          47.000  
R07  22155910.683   118602320.066       -2188.271          48.000    22155908.196    92246239.744       -1702.140          48.000  
R23  25058524.554   134046214.003       -3809.015          33.000                                                                  
G23  21731305.804   114198780.314       -2600.537          45.000    21731304.433    88986055.442       -2026.489          47.000                                                  
J02  38632630.347   203015843.409         -45.184          40.000    38632632.392   158194171.590         -35.205          41.000  
E06  24788763.513   130265830.595        -774.120          47.000    24788766.563    99814090.672        -593.065          50.000  
E09  24665462.038   129617877.826         120.430          48.000    24665464.533    99317603.372          92.244          51.000  
E31  25908600.740   136150617.346        1626.964          44.000    25908605.235   104323220.077        1246.636          47.000  
C33  23456636.682   122144864.303        1330.353          49.000                                                                  
C24  22545999.809   117402939.653         602.103          49.000                                                                  
R24  24342807.441                3      -1671.389          24.000    24342805.042   101244824.982       -1307.825          32.000  
R01  23329980.593                        2879.516          28.000                                                                  
E36  26449893.311   138995120.975       -1815.875          44.000    26449898.455   106502775.954       -1391.287          47.000  
E05  25961628.574   136429269.826        1497.559          38.000    25961634.208   104536741.723        1147.623          45.000  
E04  26068161.438   136989111.485       -1562.057          42.000    26068164.127   104965692.652       -1197.090          45.000  
J03  38299784.768   201266721.920        -771.357          33.000    38299794.542   156831242.619        -601.460          40.000  
E23  26772589.492   140690896.320        -832.266          32.000    26772594.643   107802144.470        -637.893          41.000  
G31  26318181.132   138302974.826        3213.080          33.000    26318189.533                        2503.350          30.000                                                  
J07  38069643.509   200057325.249        -265.263          39.000    38069641.510   155888819.060        -206.523          44.000  
E11  26951157.952   141629286.000       -3232.961          33.000    26951165.553   108521167.800       -2477.382          40.000  
E34                                                                  27896908.423                         494.756          29.000  
G18                                                                  26286767.170   107639866.578       -2752.894          38.000                                                  
G24                                                                  23622985.211                       -2738.257          26.000                                                  
J04                                                                  39322690.071   161019837.833         291.144          47.000  
> 2025 11 05 02 29 55.4030000  0 39                     
G10  21415693.029   112540224.802         495.380          51.000    21415691.583    87693678.202         386.147          46.000                                                  
G28  23641192.440   124235309.037        2313.224          40.000    23641191.081    96806732.667        1802.330          42.000                                                  
G15  25913978.967   136178863.831       -3329.846          34.000    25913987.968   106113432.414       -2594.216          35.000                                                  
G32  22674795.263   119156855.288        1410.533          47.000    22674795.357    92849496.748        1098.865          44.000                                                  
G12  22696898.830   119273009.351         241.514          46.000    22696896.863    92939998.826         188.062          42.000                                                  
G25  22123690.067   116260779.461        2138.068          43.000    22123690.733    90592821.231        1665.944          42.000                                                  
C06  37544006.735   195501495.711          90.654          44.000    37543995.468   151174113.890          69.980          46.000  
C08  36830813.106   191787709.798        -480.524          46.000    36830800.992   148302373.406        -371.631          49.000  
C14  22704370.710   118227618.160         -13.799          47.000    22704360.744    91421053.059         -10.777          49.000  
C09  38799621.945   202039812.491         191.557          42.000    38799614.637   156229969.996         148.126          48.000  
C13  36793294.648   191592341.692        -147.510          48.000    36793290.426   148151333.293        -114.130          47.000  
C16  37734123.465   196491482.040         -75.938          48.000    37734117.953   151939657.202         -58.791          48.000  
R09  22819084.287   121852586.758       -3759.101          32.000    22819085.697    94774276.178       -2922.828          37.000  
R10  20396573.769   108725215.546        -672.369          46.000                                                                  
R11  21662909.824   115760034.228        3230.902          45.000    21662908.807    90035574.502        2512.890          50.000  
R08  20722719.293   110969222.954         673.062          49.000    20722714.430    86309374.029         523.474          47.000  
R07  22155927.041   118602407.597       -2188.251          48.000    22155924.552    92246307.817       -1701.953          48.000  
R23  25058553.064   134046366.358       -3808.808          33.000                                                                  
G23  21731325.590   114198884.333       -2600.513          45.000    21731324.234    88986136.497       -2026.434          47.000                                                  
J02  38632630.688   203015845.210         -45.064          40.000    38632632.732   158194172.994         -35.144          41.000  
E06  24788769.372   130265861.547        -773.937          47.000    24788772.438    99814114.389        -592.988          50.000  
E09  24665461.114   129617873.007         120.455          48.000    24665463.610    99317599.676          92.322          51.000  
E31  25908588.389   136150552.266        1626.945          44.000    25908592.877   104323170.207        1246.730          47.000  
C33  23456626.456   122144811.079        1330.513          49.000                                                                  
C24  22545995.223   117402915.558         602.276          49.000                                                                  
R24  24342819.889                3      -1671.389          24.000    24342817.612   101244877.321       -1308.337          32.000  
R01  23329958.646                        2879.155          28.000                                                                  
E36  26449907.082   138995193.597       -1815.746          44.000    26449912.297   106502831.605       -1391.272          47.000  
E05  25961617.148   136429209.914        1497.625          38.000    25961622.806   104536695.816        1147.641          45.000  
E04  26068173.343   136989173.974       -1562.150          42.000    26068176.025   104965740.527       -1196.965          45.000  
J03  38299790.669   201266752.813        -771.900          33.000    38299800.427   156831266.646        -600.920          40.000  
E23  26772595.826   140690929.605        -832.127          32.000    26772601.019   107802169.977        -637.809          41.000  
G31  26318156.690   138302846.337        3212.408          33.000    26318165.014                        2504.156          30.000                                                  
J07  38069645.513   200057335.841        -265.073          39.000    38069643.520   155888827.305        -206.272          44.000  
E11  26951182.615   141629415.315       -3232.888          33.000    26951190.150   108521266.879       -2477.133          40.000  
E34                                                                  27896903.514                         494.543          29.000  
G18                                                                  26286794.074   107639976.701       -2753.089          38.000                                                  
G24                                                                  23623012.149                       -2738.515          26.000                                                  
J04                                                                  39322687.240   161019826.187         291.137          47.000  
> 2025 11 05 02 29 55.4430000  0 39                     
G10  21415689.258   112540204.980         495.496          51.000    21415687.809    87693662.751         386.269          46.000                                                  
G28  23641174.810   124235216.501        2313.380          40.000    23641173.498    96806660.565        1802.440          42.000                                                  
G15  25914004.310   136178996.997       -3329.548          34.000    25914013.320   106113536.181       -2594.047          35.000                                                  
G32  22674784.537   119156798.868        1410.487          47.000    22674784.610    92849452.775        1099.111          44.000                                                  
G12  22696897.002   119272999.684         241.631          46.000    22696895.031    92939991.294         188.167          42.000                                                  
G25  22123673.771   116260693.934        2138.136          43.000    22123674.449    90592754.587        1666.032          42.000                                                  
C06  37544006.047   195501492.076          90.803          44.000    37543994.787   151174111.082          70.113          46.000  
C08  36830816.781   191787729.015        -480.463          46.000    36830804.691   148302388.263        -371.454          49.000  
C14  22704370.813   118227618.716         -13.829          47.000    22704360.870    91421053.485         -10.719          49.000  
C09  38799620.493   202039804.819         191.701          42.000    38799613.168   156229964.067         148.195          48.000  
C13  36793295.800   191592347.588        -147.375          48.000    36793291.554   148151337.852        -114.020          47.000  
C16  37734124.071   196491485.079         -75.930          48.000    37734118.547   151939659.548         -58.700          48.000  
R09  22819112.483   121852737.037       -3757.936          32.000    22819113.856    94774393.086       -2922.734          37.000  
R10  20396578.798   108725242.437        -672.294          46.000                                                                  
R11  21662885.643   115759904.994        3230.847          45.000    21662884.626    90035473.981        2512.982          50.000  
R08  20722714.268   110969196.026         673.199          49.000    20722709.428    86309353.091         523.448          47.000  
R07  22155943.418   118602495.128       -2188.243          48.000    22155940.928    92246375.896       -1701.951          48.000  
R23  25058581.540   134046518.703       -3808.655          33.000                                                                  
G23  21731345.382   114198988.342       -2600.336          45.000    21731344.006    88986217.541       -2026.184          47.000                                                  
J02  38632631.036   203015847.022         -45.179          40.000    38632633.072   158194174.401         -35.157          41.000  
E06  24788775.193   130265892.494        -773.755          47.000    24788778.340    99814138.104        -592.931          50.000  
E09  24665460.176   129617868.184         120.499          48.000    24665462.727    99317595.981          92.372          51.000  
E31  25908575.952   136150487.185        1626.983          44.000    25908580.495   104323120.336        1246.783          47.000  
C33  23456616.245   122144757.854        1330.594          49.000                                                                  
C24  22545990.617   117402891.465         602.351          49.000                                                                  
R24  24342832.512                3      -1671.389          24.000    24342830.186   101244929.632       -1308.126          32.000  
R01  23329937.195                        2879.131          28.000                                                                  
E36  26449920.840   138995266.213       -1815.563          44.000    26449926.120   106502887.246       -1391.113          47.000  
E05  25961605.783   136429149.992        1497.854          38.000    25961611.372   104536649.907        1147.694          45.000  
E04  26068185.217   136989236.448       -1561.954          42.000    26068187.899   104965788.399       -1196.858          45.000  
J03  38299796.570   201266783.657        -771.398          34.000    38299806.306   156831290.687        -600.877          40.000  
E23  26772602.135   140690962.880        -831.982          32.000    26772607.348   107802195.491        -637.834          41.000  
G31  26318132.255   138302717.815        3212.665          33.000    26318140.569                        2503.563          30.000                                                  
J07  38069647.524   200057346.416        -264.571          39.000    38069645.536   155888835.556        -206.252          44.000  
E11  26951207.214   141629544.634       -3232.949          33.000    26951214.722   108521365.951       -2476.932          40.000  
E34                                                                  27896898.603                         494.699          29.000  
G18                                                                  26286820.952   107640086.807       -2752.815          38.000                                                  
G24                                                                  23623038.960                       -2737.966          26.000                                                  
J04                                                                  39322684.389   161019814.536         291.236          47.000  
> 2025 11 05 02 29 55.4830000  0 39                     
G10  21415685.501   112540185.167         495.379          51.000    21415684.035    87693647.316         386.003          46.000                                                  
G28  23641157.207   124235123.975        2313.243          40.000    23641155.873    96806588.457        1802.643          42.000                                                  
G15  25914029.652   136179130.190       -3329.867          34.000    25914038.665   106113639.947       -2594.050          35.000                                                  
G32  22674773.793   119156742.446        1410.520          47.000    22674773.871    92849408.800        1099.303          44.000                                                  
G12  22696895.188   119272990.026         241.502          46.000    22696893.177    92939983.763         188.225          42.000                                                  
G25  22123657.485   116260608.412        2138.088          43.000    22123658.158    90592687.935        1666.195          42.000                                                  
C06  37544005.333   195501488.450          90.713          44.000    37543994.072   151174108.268          70.274          46.000  
C08  36830820.472   191787748.241        -480.634          46.000    36830808.370   148302403.122        -371.448          49.000  
C14  22704370.925   118227619.263         -13.714          47.000    22704360.983    91421053.911         -10.674          49.000  
C09  38799619.008   202039797.166         191.405          42.000    38799611.697   156229958.145         148.086          48.000  
C13  36793296.912   191592353.491        -147.510          48.000    36793292.692   148151342.411        -113.971          47.000  
C16  37734124.648   196491488.117         -75.954          48.000    37734119.124   151939661.900         -58.748          48.000  
R09  22819140.636   121852887.345       -3757.667          32.000    22819141.991    94774510.000       -2922.708          37.000  
R10  20396583.815   108725269.339        -672.467          46.000                                                                  
R11  21662861.458   115759775.764        3230.749          45.000    21662860.439    90035373.463        2512.970          50.000  
R08  20722709.246   110969169.107         673.051          49.000    20722704.409    86309332.155         523.405          47.000  
R07  22155959.760   118602582.659       -2188.258          48.000    22155957.274    92246443.974       -1701.962          48.000  
R23  25058610.025   134046671.078       -3809.098          33.000                                                                  
G23  21731365.172   114199092.367       -2600.543          45.000    21731363.815    88986298.596       -2026.306          47.000                                                  
J02  38632631.399   203015848.823         -45.098          40.000    38632633.414   158194175.809         -35.176          41.000  
E06  24788781.120   130265923.448        -773.761          47.000    24788784.249    99814161.823        -592.937          50.000  
E09  24665459.215   129617863.361         120.524          48.000    24665461.847    99317592.284          92.409          51.000  
E31  25908563.540   136150422.098        1627.119          44.000    25908568.100   104323070.465        1246.803          47.000  
C33  23456606.011   122144704.633        1330.553          49.000                                                                  
C24  22545985.985   117402867.378         602.249          49.000                                                                  
R24  24342844.780                3      -1680.585          24.000    24342842.803   101244981.922       -1307.497          32.000  
R01  23329915.408                        2878.673          28.000                                                                  
E36  26449934.675   138995338.845       -1815.698          44.000    26449939.929   106502942.890       -1391.079          47.000  
E05  25961594.364   136429090.070        1498.028          38.000    25961599.939   104536603.996        1147.759          45.000  
E04  26068197.129   136989298.930       -1562.006          42.000    26068199.795   104965836.266       -1196.724          45.000  
J03  38299802.428   201266814.508        -771.102          33.000    38299812.191   156831314.735        -601.031          40.000  
E23  26772608.486   140690996.181        -832.324          32.000    26772613.665   107802221.004        -637.852          41.000  
G31  26318107.828   138302589.304        3212.627          33.000    26318116.109                        2503.015          30.000                                                  
J07  38069649.567   200057357.015        -264.788          39.000    38069647.539   155888843.803        -206.163          44.000  
E11  26951231.808   141629673.991       -3233.659          33.000    26951239.366   108521465.041       -2477.113          40.000  
E34                                                                  27896893.699                         494.332          29.000  
G18                                                                  26286847.842   107640196.892       -2752.320          38.000                                                  
G24                                                                  23623065.717                       -2738.364          26.000                                                  
J04                                                                  39322681.532   161019802.882         291.315          47.000  
> 2025 11 05 02 29 55.5230000  0 39                     
G10  21415681.745   112540165.357         495.255          51.000    21415680.295    87693631.879         385.905          46.000                                                  
G28  23641139.607   124235031.448        2313.152          40.000    23641138.266    96806516.364        1802.410          42.000                                                  
G15  25914054.994   136179263.351       -3329.401          34.000    25914064.017   106113743.714       -2594.108          35.000                                                  
G32  22674763.038   119156686.019        1410.622          47.000    22674763.128    92849364.832        1099.251          44.000                                                  
G12  22696893.373   119272980.367         241.459          46.000    22696891.321    92939976.243         188.048          42.000                                                  
G25  22123641.211   116260522.882        2138.171          43.000    22123641.897    90592621.287        1666.195          42.000                                                  
C06  37544004.611   195501484.835          90.474          44.000    37543993.380   151174105.467          70.131          46.000  
C08  36830824.163   191787767.466        -480.670          46.000    36830812.058   148302417.991        -371.655          49.000  
C14  22704371.039   118227619.825         -13.927          47.000    22704361.090    91421054.338         -10.662          49.000  
C09  38799617.511   202039789.504         191.464          42.000    38799610.227   156229952.220         148.074          48.000  
C13  36793298.027   191592359.397        -147.607          48.000    36793293.833   148151346.979        -114.136          47.000  
C16  37734125.217   196491491.155         -75.962          48.000    37734119.727   151939664.253         -58.822          48.000  
R09  22819168.767   121853037.665       -3757.875          32.000    22819170.177    94774626.914       -2922.710          37.000  
R10  20396588.857   108725296.240        -672.600          46.000                                                                  
R11  21662837.263   115759646.526        3230.841          45.000    21662836.264    90035272.947        2512.921          50.000  
R08  20722704.215   110969142.198         672.813          49.000    20722699.386    86309311.217         523.423          47.000  
R07  22155976.096   118602670.190       -2188.287          48.000    22155973.638    92246512.060       -1702.103          48.000  
R23  25058638.528   134046823.478       -3809.931          33.000                                                                  
G23  21731384.973   114199196.393       -2600.690          45.000    21731383.604    88986379.651       -2026.379          47.000                                                  
J02  38632631.740   203015850.626         -45.074          40.000    38632633.746   158194177.213         -35.151          41.000  
E06  24788787.082   130265954.408        -773.902          47.000    24788790.163    99814185.544        -593.017          50.000  
E09  24665458.266   129617858.542         120.479          48.000    24665460.959    99317588.589          92.383          51.000  
E31  25908551.161   136150357.012        1627.126          44.000    25908555.726   104323020.604        1246.630          47.000  
C33  23456595.766   122144651.414        1330.477          49.000                                                                  
C24  22545981.354   117402843.294         602.124          49.000                                                                  
R24  24342857.309                3      -1680.585          24.000    24342855.395   101245034.246       -1307.806          32.000  
R01  23329893.664                        2879.048          28.000                                                                  
E36  26449948.527   138995411.470       -1815.673          44.000    26449953.726   106502998.534       -1391.067          47.000  
E05  25961582.953   136429030.143        1498.182          38.000    25961588.519   104536558.088        1147.697          45.000  
E04  26068209.047   136989361.419       -1562.179          42.000    26068211.710   104965884.145       -1196.854          45.000  
J03  38299808.294   201266845.363        -771.039          33.000    38299818.069   156831338.798        -601.388          40.000  
E23  26772614.795   140691029.514        -832.996          32.000    26772620.008   107802246.520        -637.915          41.000  
G31  26318083.395   138302460.783        3212.775          33.000    26318091.654                        2503.750          30.000                                                  
J07  38069651.576   200057367.602        -264.685          39.000    38069649.560   155888852.061        -206.355          44.000  
E11  26951256.414   141629803.245       -3232.208          33.000    26951263.991   108521564.130       -2477.222          40.000  
E34                                                                  27896888.792                         494.083          29.000  
G18                                                                  26286874.725   107640306.999       -2752.384          38.000                                                  
G24                                                                  23623092.154                       -2738.240          26.000                                                  
J04                                                                  39322678.674   161019791.237         291.198          47.000  
> 2025 11 05 02 29 55.5630000  0 39                     
G10  21415677.982   112540145.551         495.133          51.000    21415676.505    87693616.448         385.745          46.000                                                  
G28  23641121.993   124234938.922        2313.097          40.000    23641120.673    96806444.260        1802.500          42.000                                                  
G15  25914080.353   136179396.532       -3329.532          34.000    25914089.388   106113847.523       -2594.793          35.000                                                  
G32  22674752.302   119156629.603        1410.436          47.000    22674752.399    92849320.876        1099.028          44.000                                                  
G12  22696891.532   119272970.716         241.326          46.000    22696889.469    92939968.722         187.989          42.000                                                  
G25  22123624.952   116260437.361        2138.057          43.000    22123625.629    90592554.645        1666.070          42.000                                                  
C06  37544003.889   195501481.204          90.621          44.000    37543992.699   151174102.661          70.119          46.000  
C08  36830827.884   191787786.694        -480.731          46.000    36830815.739   148302432.861        -371.759          49.000  
C14  22704371.134   118227620.385         -14.043          47.000    22704361.192    91421054.777         -10.878          49.000  
C09  38799616.043   202039781.847         191.428          42.000    38799608.747   156229946.297         148.031          48.000  
C13  36793299.169   191592365.309        -147.791          48.000    36793294.960   148151351.551        -114.301          47.000  
C16  37734125.809   196491494.200         -76.085          48.000    37734120.321   151939666.612         -58.970          48.000  
R09  22819196.922   121853188.016       -3758.437          33.000    22819198.338    94774743.852       -2923.150          37.000  
R10  20396593.913   108725323.148        -672.722          46.000                                                                  
R11  21662813.093   115759517.287        3230.933          45.000    21662812.085    90035172.441        2512.701          50.000  
R08  20722699.186   110969115.283         672.791          49.000    20722694.360    86309290.277         523.442          47.000  
R07  22155992.454   118602757.730       -2188.452          48.000    22155990.011    92246580.143       -1702.130          48.000  
R23  25058667.022   134046975.852       -3809.894          33.000                                                                  
G23  21731404.765   114199300.418       -2600.720          45.000    21731403.412    88986460.709       -2026.428          47.000                                                  
J02  38632632.082   203015852.432         -45.139          40.000    38632634.085   158194178.626         -35.266          41.000  
E06  24788792.986   130265985.373        -774.058          47.000    24788796.033    99814209.266        -593.039          50.000  
E09  24665457.395   129617853.725         120.427          48.000    24665460.069    99317584.899          92.299          51.000  
E31  25908538.834   136150291.939        1626.927          44.000    25908543.346   104322970.740        1246.602          47.000  
C33  23456585.516   122144598.200        1330.357          49.000                                                                  
C24  22545976.728   117402819.215         601.970          49.000                                                                  
R24  24342869.939                3      -1680.585          24.000    24342867.964   101245086.570       -1307.997          32.000  
R01  23329872.169                        2879.678          28.000                                                                  
E36  26449962.296   138995484.092       -1815.620          44.000    26449967.552   106503054.185       -1391.185          47.000  
E05  25961571.532   136428970.229        1497.991          38.000    25961577.124   104536512.179        1147.703          45.000  
E04  26068220.967   136989423.909       -1562.283          42.000    26068223.611   104965932.023       -1196.952          45.000  
J03  38299814.171   201266876.223        -771.260          33.000    38299823.944   156831362.850        -601.383          40.000  
E23  26772621.158   140691062.815        -832.864          32.000    26772626.350   107802272.024        -637.775          41.000  
G31  26318058.909   138302332.266        3212.792          33.000    26318067.233                        2503.516          30.000                                                  
J07  38069653.601   200057378.214        -265.135          39.000    38069651.578   155888860.323        -206.481          44.000  
E11  26951280.999   141629932.586       -3232.885          33.000    26951288.599   108521663.227       -2477.384          40.000  
E34                                                                  27896883.851                         494.018          29.000  
G18                                                                  26286901.616   107640417.123       -2752.805          38.000                                                  
G24                                                                  23623118.802                       -2738.993          26.000                                                  
J04                                                                  39322675.838   161019779.593         291.099          47.000  
> 2025 11 05 02 29 55.6030000  0 39                     
G10  21415674.184   112540125.736         495.251          51.000    21415672.745    87693601.008         385.875          46.000                                                  
G28  23641104.398   124234846.395        2313.139          40.000    23641103.063    96806372.157        1802.551          42.000                                                  
G15  25914105.691   136179529.674       -3328.899          34.000    25914114.729   106113951.285       -2594.321          35.000                                                  
G32  22674741.588   119156573.179        1410.519          46.000    22674741.641    92849276.917        1098.915          44.000                                                  
G12  22696889.695   119272961.063         241.287          46.000    22696887.640    92939961.193         188.089          42.000                                                  
G25  22123608.676   116260351.832        2138.138          43.000    22123609.348    90592488.006        1665.967          42.000                                                  
C06  37544003.170   195501477.572          90.719          44.000    37543992.020   151174099.853          70.159          46.000  
C08  36830831.598   191787805.915        -480.627          46.000    36830819.446   148302447.728        -371.759          49.000  
C14  22704371.240   118227620.942         -13.998          47.000    22704361.293    91421055.203         -10.750          49.000  
C09  38799614.585   202039774.181         191.579          42.000    38799607.266   156229940.374         148.032          48.000  
C13  36793300.306   191592371.215        -147.754          48.000    36793296.086   148151356.119        -114.270          47.000  
C16  37734126.421   196491497.243         -76.123          48.000    37734120.913   151939668.960         -58.834          48.000  
R09  22819225.063   121853338.332       -3758.258          32.000    22819226.472    94774860.778       -2923.296          37.000  
R10  20396598.951   108725350.044        -672.573          46.000                                                                  
R11  21662788.906   115759388.058        3230.768          45.000    21662787.908    90035071.929        2512.720          50.000  
R08  20722694.193   110969088.363         672.906          49.000    20722689.357    86309269.342         523.373          47.000  
R07  22156008.814   118602845.272       -2188.558          48.000    22156006.358    92246648.224       -1702.087          48.000  
R23  25058695.522   134047128.185       -3808.931          33.000                                                                  
G23  21731424.555   114199404.449       -2600.818          45.000    21731423.222    88986541.771       -2026.575          47.000                                                  
J02  38632632.429   203015854.242         -45.214          40.000    38632634.440   158194180.036         -35.309          41.000  
E06  24788798.849   130266016.329        -774.007          47.000    24788801.930    99814232.987        -593.050          50.000  
E09  24665456.470   129617848.907         120.407          48.000    24665459.146    99317581.209          92.242          51.000  
E31  25908526.443   136150226.872        1626.730          44.000    25908530.990   104322920.872        1246.619          47.000  
C33  23456575.288   122144544.980        1330.417          49.000                                                                  
C24  22545972.117   117402795.127         602.069          49.000                                                                  
R24  24342882.721                3      -1683.741          24.000    24342880.518   101245138.870       -1307.701          32.000  
R01  23329850.483                        2879.422          28.000                                                                  
E36  26449976.041   138995556.716       -1815.632          44.000    26449981.380   106503109.837       -1391.295          47.000  
E05  25961560.146   136428910.330        1497.675          38.000    25961565.704   104536466.275        1147.607          45.000  
E04  26068232.838   136989486.381       -1562.004          42.000    26068235.490   104965979.897       -1196.909          45.000  
J03  38299820.024   201266907.128        -772.248          33.000    38299829.804   156831386.900        -601.322          40.000  
E23  26772627.468   140691096.086        -832.220          32.000    26772632.693   107802297.533        -637.738          41.000  
G31  26318034.430   138302203.723        3213.197          33.000    26318042.755                        2503.174          30.000                                                  
J07  38069655.599   200057388.798        -264.884          39.000    38069653.598   155888868.582        -206.537          44.000  
E11  26951305.562   141630061.915       -3233.188          33.000    26951313.216   108521762.323       -2477.448          40.000  
E34                                                                  27896878.961                         494.230          29.000  
G18                                                                  26286928.518   107640527.238       -2752.925          38.000                                                  
G24                                                                  23623145.531                       -2738.977          26.000                                                  
J04                                                                  39322672.991   161019767.939         291.204          47.000  
> 2025 11 05 02 29 55.6430000  0 39                     
G10  21415670.413   112540105.929         495.164          51.000    21415668.960    87693585.570         385.900          46.000                                                  
G28  23641086.787   124234753.875        2313.031          40.000    23641085.472    96806300.072        1802.253          42.000                                                  
G15  25914131.049   136179662.857       -3329.297          34.000    25914140.075   106114055.061       -2594.290          35.000                                                  
G32  22674730.848   119156516.757        1410.539          46.000    22674730.875    92849232.951        1099.009          44.000                                                  
G12  22696887.856   119272951.413         241.225          46.000    22696885.804    92939953.668         188.114          42.000                                                  
G25  22123592.394   116260266.313        2138.004          43.000    22123593.098    90592421.378        1665.742          42.000                                                  
C06  37544002.476   195501473.945          90.690          44.000    37543991.317   151174097.049          70.126          46.000  
C08  36830835.283   191787825.130        -480.457          46.000    36830823.142   148302462.588        -371.600          49.000  
C14  22704371.336   118227621.498         -13.942          47.000    22704361.396    91421055.634         -10.777          49.000  
C09  38799613.122   202039766.519         191.598          42.000    38799605.807   156229934.449         148.095          48.000  
C13  36793301.438   191592377.122        -147.729          48.000    36793297.229   148151360.682        -114.185          47.000  
C16  37734127.053   196491500.281         -76.060          48.000    37734121.485   151939671.310         -58.783          48.000  
R09  22819253.215   121853488.651       -3758.100          32.000    22819254.641    94774977.701       -2923.305          37.000  
R10  20396604.027   108725376.949        -672.624          46.000                                                                  
R11  21662764.723   115759258.828        3230.719          45.000    21662763.719    90034971.414        2512.793          50.000  
R08  20722689.159   110969061.443         672.968          49.000    20722684.321    86309248.410         523.298          47.000  
R07  22156025.155   118602932.802       -2188.414          48.000    22156022.688    92246716.304       -1702.048          48.000  
R23  25058724.023   134047280.525       -3808.571          33.000                                                                  
G23  21731444.349   114199508.467       -2600.616          45.000    21731443.042    88986622.830       -2026.550          47.000                                                  
J02  38632632.772   203015856.061         -45.428          40.000    38632634.758   158194181.441         -35.206          41.000  
E06  24788804.710   130266047.282        -773.912          47.000    24788807.840    99814256.705        -593.007          50.000  
E09  24665455.560   129617844.085         120.490          48.000    24665458.214    99317577.516          92.261          51.000  
E31  25908513.970   136150161.784        1626.939          44.000    25908518.605   104322871.007        1246.619          47.000  
C33  23456565.073   122144491.761        1330.424          49.000                                                                  
C24  22545967.501   117402771.040         602.123          49.000                                                                  
R24  24342895.245                3      -1683.741          24.000    24342893.082   101245191.207       -1308.238          32.000  
R01  23329828.663                        2879.523          28.000                                                                  
E36  26449989.883   138995629.348       -1815.764          44.000    26449995.215   106503165.493       -1391.356          47.000  
E05  25961548.726   136428850.411        1497.793          38.000    25961554.297   104536420.367        1147.649          45.000  
E04  26068244.730   136989548.868       -1562.088          42.000    26068247.409   104966027.779       -1197.041          45.000  
J03  38299825.903   201266938.003        -772.261          33.000    38299835.670   156831410.957        -601.404          40.000  
E23  26772633.766   140691129.407        -832.721          32.000    26772639.010   107802323.039        -637.696          41.000  
G31  26318009.962   138302075.226        3212.728          33.000    26318018.289                        2503.745          30.000                                                  
J07  38069657.654   200057399.395        -264.888          39.000    38069655.622   155888876.838        -206.501          44.000  
E11  26951330.200   141630191.220       -3232.815          33.000    26951337.802   108521861.394       -2477.101          40.000  
E34                                                                  27896874.021                         494.347          29.000  
G18                                                                  26286955.397   107640637.345       -2752.784          38.000                                                  
G24                                                                  23623172.491                       -2738.918          26.000                                                  
J04                                                                  39322670.151   161019756.291         291.173          47.000  
> 2025 11 05 02 29 55.6830000  0 39                     
G10  21415666.640   112540086.117         495.208          51.000    21415665.189    87693570.130         385.968          46.000                                                  
G28  23641069.160   124234661.331        2313.412          40.000    23641067.881    96806227.976        1802.269          42.000                                                  
G15  25914156.385   136179796.047       -3329.679          34.000    25914165.414   106114158.810       -2593.906          35.000                                                  
G32  22674720.120   119156460.333        1410.564          46.000    22674720.132    92849188.990        1098.984          44.000                                                  
G12  22696886.030   119272941.750         241.423          46.000    22696883.962    92939946.139         188.166          42.000                                                  
G25  22123576.115   116260180.788        2138.040          43.000    22123576.839    90592354.743        1665.744          42.000                                                  
C06  37544001.765   195501470.321          90.617          44.000    37543990.625   151174094.250          70.010          46.000  
C08  36830838.947   191787844.356        -480.566          46.000    36830826.834   148302477.452        -371.619          49.000  
C14  22704371.438   118227622.054         -13.932          47.000    22704361.501    91421056.066         -10.802          49.000  
C09  38799611.631   202039758.852         191.658          42.000    38799604.340   156229928.520         148.176          48.000  
C13  36793302.569   191592383.022        -147.589          48.000    36793298.363   148151365.244        -114.081          47.000  
C16  37734127.685   196491503.322         -76.054          48.000    37734122.078   151939673.659         -58.732          48.000  
R09  22819281.392   121853639.001       -3758.634          33.000    22819282.758    94775094.618       -2923.117          37.000  
R10  20396609.073   108725403.853        -672.629          46.000                                                                  
R11  21662740.529   115759129.598        3230.695          45.000    21662739.537    90034870.899        2512.836          50.000  
R08  20722684.133   110969034.525         672.967          49.000    20722679.257    86309227.475         523.324          47.000  
R07  22156041.514   118603020.331       -2188.288          48.000    22156039.035    92246784.385       -1702.028          48.000  
R23  25058752.483   134047432.898       -3809.029          33.000                                                                  
G23  21731464.132   114199612.489       -2600.574          45.000    21731462.828    88986703.885       -2026.465          47.000                                                  
J02  38632633.119   203015857.861         -45.209          40.000    38632635.094   158194182.839         -35.068          41.000  
E06  24788810.601   130266078.235        -773.849          47.000    24788813.749    99814280.425        -593.015          50.000  
E09  24665454.611   129617839.260         120.581          48.000    24665457.266    99317573.817          92.369          51.000  
E31  25908501.583   136150096.703        1627.009          44.000    25908506.194   104322821.137        1246.699          47.000  
C33  23456554.862   122144438.540        1330.468          49.000                                                                  
C24  22545962.861   117402746.955         602.128          49.000                                                                  
R24  24342907.782                3      -1683.741          24.000    24342905.627   101245243.531       -1308.280          32.000  
R01  23329807.017                        2879.495          28.000                                                                  
E36  26450003.779   138995701.982       -1815.863          44.000    26450009.028   106503221.138       -1391.256          47.000  
E05  25961537.329   136428790.493        1497.905          38.000    25961542.887   104536374.459        1147.665          45.000  
E04  26068256.625   136989611.349       -1562.048          42.000    26068259.276   104966075.658       -1197.041          45.000  
J03  38299831.789   201266968.871        -771.959          33.000    38299841.527   156831434.993        -601.050          40.000  
E23  26772640.057   140691162.662        -832.057          32.000    26772645.324   107802348.551        -637.719          41.000  
G31  26317985.529   138301946.710        3212.805          33.000    26317993.832                        2503.991          30.000                                                  
J07  38069659.652   200057409.981        -264.687          39.000    38069657.621   155888885.094        -206.481          44.000  
E11  26951354.811   141630320.535       -3232.844          33.000    26951362.413   108521960.471       -2476.977          40.000  
E34                                                                  27896869.112                         494.264          29.000  
G18                                                                  26286982.302   107640747.437       -2752.385          38.000                                                  
G24                                                                  23623199.268                       -2739.022          26.000                                                  
J04                                                                  39322667.313   161019744.644         291.124          47.000  
> 2025 11 05 02 29 55.7230000  0 39                     
G10  21415662.848   112540066.306         495.239          51.000    21415661.410    87693554.696         385.900          46.000                                                  
G28  23641051.559   124234568.809        2313.219          40.000    23641050.259    96806155.873        1802.435          42.000                                                  
G15  25914181.718   136179929.178       -3328.928          34.000    25914190.766   106114262.576       -2594.061          35.000                                                  
G32  22674709.357   119156403.906        1410.641          46.000    22674709.377    92849145.019        1099.150          44.000                                                  
G12  22696884.196   119272932.094         241.420          46.000    22696882.130    92939938.631         187.846          42.000                                                  
G25  22123559.845   116260095.276        2137.850          43.000    22123560.564    90592288.099        1665.958          42.000                                                  
C06  37544001.080   195501466.689          90.717          44.000    37543989.913   151174091.450          69.980          46.000  
C08  36830842.635   191787863.578        -480.573          46.000    36830830.514   148302492.309        -371.509          49.000  
C14  22704371.556   118227622.611         -13.904          47.000    22704361.621    91421056.497         -10.829          49.000  
C09  38799610.146   202039751.187         191.631          42.000    38799602.874   156229922.597         148.119          48.000  
C13  36793303.721   191592388.920        -147.467          48.000    36793299.496   148151369.804        -114.001          47.000  
C16  37734128.305   196491506.358         -75.936          48.000    37734122.675   151939676.007         -58.709          48.000  
R09  22819309.564   121853789.294       -3757.959          32.000    22819310.914    94775211.530       -2922.972          36.000  
R10  20396614.111   108725430.753        -672.591          46.000                                                                  
R11  21662716.356   115759000.374        3230.578          45.000    21662715.354    90034770.387        2512.787          50.000  
R08  20722679.088   110969007.610         672.872          49.000    20722674.212    86309206.537         523.375          47.000  
R07  22156057.864   118603107.864       -2188.292          48.000    22156055.402    92246852.469       -1702.076          48.000  
R23  25058780.966   134047585.261       -3809.098          33.000                                                                  
G23  21731483.900   114199716.511       -2600.574          45.000    21731482.627    88986784.944       -2026.465          47.000                                                  
J02  38632633.451   203015859.654         -44.918          40.000    38632635.427   158194184.257         -35.369          41.000  
E06  24788816.532   130266109.194        -773.918          47.000    24788819.636    99814304.146        -593.039          50.000  
E09  24665453.663   129617834.434         120.641          48.000    24665456.366    99317570.124          92.357          51.000  
E31  25908489.169   136150031.622        1627.036          44.000    25908493.798   104322771.276        1246.571          47.000  
C33  23456544.639   122144385.321        1330.466          49.000                                                                  
C24  22545958.244   117402722.868         602.147          49.000                                                                  
R24  24342920.600                3      -1675.823          24.000    24342918.219   101245295.864       -1308.346          32.000  
R01  23329785.491                        2879.374          28.000                                                                  
E36  26450017.587   138995774.606       -1815.708          44.000    26450022.853   106503276.789       -1391.280          47.000  
E05  25961525.909   136428730.575        1497.937          38.000    25961531.529   104536328.541        1147.857          45.000  
E04  26068268.516   136989673.833       -1562.088          42.000    26068271.145   104966123.534       -1196.972          45.000  
J03  38299837.652   201266999.723        -771.457          33.000    38299847.401   156831459.045        -601.198          40.000  
E23  26772646.429   140691195.959        -832.303          32.000    26772651.650   107802374.069        -637.889          41.000  
G31  26317961.071   138301818.206        3212.608          33.000    26317969.409                        2503.750          30.000                                                  
J07  38069661.672   200057420.570        -264.659          39.000    38069659.610   155888893.344        -206.319          44.000  
E11  26951379.406   141630449.859       -3232.993          33.000    26951387.071   108522059.567       -2477.208          40.000  
E34                                                                  27896864.208   112329112.500         494.103          29.000  
G18                                                                  26287009.164   107640857.551       -2752.671          38.000                                                  
G24                                                                  23623226.071                       -2738.908          26.000                                                  
J04                                                                  39322664.476   161019732.990         291.254          47.000  
> 2025 11 05 02 29 55.7630000  0 39                     
G10  21415659.065   112540046.487         495.393          51.000    21415657.645    87693539.257         385.931          46.000                                                  
G28  23641033.970   124234476.286        2313.118          40.000    23641032.668    96806083.771        1802.504          42.000                                                  
G15  25914207.086   136180062.359       -3329.260          34.000    25914216.112   106114366.344       -2594.091          35.000                                                  
G32  22674698.635   119156347.485        1410.588          46.000    22674698.646    92849101.044        1099.322          44.000                                                  
G12  22696882.351   119272922.437         241.425          46.000    22696880.290    92939931.102         188.055          42.000                                                  
G25  22123543.561   116260009.745        2138.068          43.000    22123544.267    90592221.438        1666.357          42.000                                                  
C06  37544000.372   195501463.058          90.773          44.000    37543989.199   151174088.640          70.133          46.000  
C08  36830846.357   191787882.798        -480.554          46.000    36830834.200   148302507.175        -371.625          49.000  
C14  22704371.662   118227623.160         -13.788          47.000    22704361.735    91421056.925         -10.762          49.000  
C09  38799608.670   202039743.513         191.801          42.000    38799601.405   156229916.666         148.193          48.000  
C13  36793304.863   191592394.816        -147.388          48.000    36793300.632   148151374.366        -114.001          47.000  
C16  37734128.911   196491509.390         -75.855          48.000    37734123.270   151939678.357         -58.750          48.000  
R09  22819337.742   121853939.669       -3759.005          32.000    22819339.057    94775328.439       -2922.833          36.000  
R10  20396619.137   108725457.658        -672.636          46.000                                                                  
R11  21662692.158   115758871.136        3230.811          45.000    21662691.175    90034669.866        2512.964          50.000  
R08  20722674.054   110968980.686         673.017          49.000    20722669.192    86309185.599         523.419          47.000  
R07  22156074.247   118603195.395       -2188.274          48.000    22156071.744    92246920.551       -1702.066          48.000  
R23  25058809.444   134047737.602       -3808.720          33.000                                                                  
G23  21731503.681   114199820.531       -2600.543          45.000    21731502.407    88986865.999       -2026.416          47.000                                                  
J02  38632633.798   203015861.456         -44.941          40.000    38632635.785   158194185.658         -35.189          41.000  
E06  24788822.376   130266140.144        -773.805          47.000    24788825.544    99814327.867        -593.040          50.000  
E09  24665452.728   129617829.607         120.694          48.000    24665455.455    99317566.427          92.404          51.000  
E31  25908476.795   136149966.535        1627.116          44.000    25908481.411   104322721.408        1246.645          47.000  
C33  23456534.434   122144332.094        1330.612          49.000                                                                  
C24  22545953.623   117402698.778         602.233          49.000                                                                  
R24  24342933.025                3      -1675.823          24.000    24342930.835                       -1307.532          32.000  
R01  23329763.645                        2879.431          28.000                                                                  
E36  26450031.356   138995847.225       -1815.565          44.000    26450036.660   106503332.430       -1391.126          47.000  
E05  25961514.512   136428670.657        1497.972          38.000    25961520.119   104536282.636        1147.734          45.000  
E04  26068280.369   136989736.301       -1561.831          42.000    26068282.991   104966171.406       -1196.883          45.000  
J03  38299843.526   201267030.555        -771.033          33.000    38299853.272   156831483.095        -601.277          40.000  
E23  26772652.721   140691229.295        -833.069          32.000    26772657.972   107802399.587        -637.993          41.000  
G31  26317936.593   138301689.661        3213.284          33.000    26317944.969                        2502.439          30.000                                                  
J07  38069663.667   200057431.155        -264.605          39.000    38069661.601   155888901.597        -206.350          44.000  
E11  26951404.058   141630579.131       -3232.307          33.000    26951411.710   108522158.647       -2477.104          40.000  
E34                                                                  27896859.270   112329092.701         494.454          29.000  
G18                                                                  26287036.052   107640967.634       -2752.181          38.000                                                  
G24                                                                  23623253.076                       -2739.186          26.000                                                  
J04                                                                  39322661.623   161019721.335         291.346          47.000  
> 2025 11 05 02 29 55.8030000  0 39                     
G10  21415655.310   112540026.673         495.405          51.000    21415653.891    87693523.814         386.011          46.000                                                  
G28  23641016.368   124234383.757        2313.202          40.000    23641015.066    96806011.667        1802.565          42.000                                                  
G15  25914232.436   136180195.538       -3329.345          34.000    25914241.441   106114470.140       -2594.714          35.000                                                  
G32  22674687.887   119156291.045        1410.859          46.000    22674687.900    92849057.067        1099.420          44.000                                                  
G12  22696880.507   119272912.773         241.560          46.000    22696878.455    92939923.565         188.343          42.000                                                  
G25  22123527.279   116259924.223        2138.031          43.000    22123527.986    90592154.784        1666.436          42.000                                                  
C06  37543999.684   195501459.423          90.821          44.000    37543988.494   151174085.831          70.222          46.000  
C08  36830850.076   191787902.017        -480.493          46.000    36830837.888   148302522.034        -371.545          49.000  
C14  22704371.791   118227623.719         -13.903          47.000    22704361.835    91421057.350         -10.665          49.000  
C09  38799607.199   202039735.856         191.515          42.000    38799599.941   156229910.732         148.344          48.000  
C13  36793306.010   191592400.711        -147.345          48.000    36793301.773   148151378.927        -114.001          47.000  
C16  37734129.501   196491512.427         -75.919          48.000    37734123.848   151939680.693         -58.522          48.000  
R09  22819365.893   121854089.977       -3758.368          33.000    22819367.229    94775445.344       -2922.704          36.000  
R10  20396624.173   108725484.555        -672.515          46.000                                                                  
R11  21662667.961   115758741.892        3231.036          45.000    21662666.999    90034569.351        2512.921          50.000  
R08  20722669.032   110968953.762         673.092          49.000    20722664.140    86309164.656         523.544          47.000  
R07  22156090.584   118603282.918       -2188.116          48.000    22156088.087    92246988.625       -1701.907          48.000  
R23  25058837.967   134047890.008       -3809.628          33.000                                                                  
G23  21731523.473   114199924.549       -2600.494          45.000    21731522.195    88986947.052       -2026.349          47.000                                                  
J02  38632634.159   203015863.261         -45.052          40.000    38632636.114   158194187.055         -35.024          41.000  
E06  24788828.255   130266171.094        -773.781          47.000    24788831.404    99814351.578        -592.860          50.000  
E09  24665451.916   129617824.785         120.633          48.000    24665454.550    99317562.726          92.490          51.000  
E31  25908464.383   136149901.450        1627.141          44.000    25908468.994   104322671.537        1246.731          47.000  
C33  23456524.236   122144278.868        1330.662          49.000                                                                  
C24  22545948.990   117402674.691         602.217          49.000                                                                  
R24  24342945.394                3      -1675.823          24.000    24342943.437                       -1307.683          32.000  
R01  23329741.644                        2879.827          28.000                                                                  
E36  26450045.132   138995919.849       -1815.561          44.000    26450050.457   106503388.076       -1391.139          47.000  
E05  25961503.097   136428610.742        1497.960          38.000    25961508.697   104536236.720        1147.865          45.000  
E04  26068292.241   136989798.772       -1561.753          42.000    26068294.835   104966219.275       -1196.777          45.000  
J03  38299849.399   201267061.423        -771.443          33.000    38299859.142   156831507.124        -600.903          40.000  
E23  26772659.089   140691262.570        -832.410          32.000    26772664.262   107802425.099        -637.908          41.000  
G31  26317912.129   138301561.135        3213.281          33.000    26317920.515                        2503.043          30.000                                                  
J07  38069665.706   200057441.746        -264.616          39.000    38069663.609   155888909.841        -206.156          44.000  
E11  26951428.672   141630708.459       -3232.833          33.000    26951436.307   108522257.735       -2477.125          40.000  
E34                                                                  27896854.355                         494.769          29.000  
G18                                                                  26287062.917   107641077.738       -2752.383          38.000                                                  
G24                                                                  23623279.665                       -2738.567          26.000                                                  
J04                                                                  39322658.782   161019709.676         291.431          47.000  
> 2025 11 05 02 29 55.8430000  0 39                     
G10  21415651.570   112540006.864         495.293          51.000    21415650.116    87693508.378         385.899          46.000                                                  
G28  23640998.766   124234291.229        2313.162          40.000    23640997.462    96805939.560        1802.705          42.000                                                  
G15  25914257.749   136180328.690       -3328.968          34.000    25914266.776   106114573.895       -2594.385          35.000                                                  
G32  22674677.169   119156234.620        1410.714          46.000    22674677.152    92849013.098        1099.329          44.000                                                  
G12  22696878.669   119272903.114         241.529          46.000    22696876.626    92939916.039         188.269          42.000                                                  
G25  22123511.015   116259838.684        2138.322          43.000    22123511.704    90592088.147        1666.095          42.000                                                  
C06  37543998.996   195501455.785          90.931          44.000    37543987.785   151174083.013          70.406          46.000  
C08  36830853.783   191787921.232        -480.371          46.000    36830841.570   148302536.890        -371.460          49.000  
C14  22704371.908   118227624.266         -13.766          47.000    22704361.948    91421057.770         -10.538          49.000  
C09  38799605.731   202039728.179         191.737          42.000    38799598.471   156229904.797         148.392          48.000  
C13  36793307.140   191592406.605        -147.314          48.000    36793302.902   148151383.487        -113.995          47.000  
C16  37734130.071   196491515.461         -75.873          48.000    37734124.431   151939683.038         -58.573          48.000  
R09  22819394.022                       -3757.020          33.000    22819395.371    94775562.236       -2922.404          36.000  
R10  20396629.233   108725511.452        -672.453          46.000                                                                  
R11  21662643.784   115758612.659        3230.939          45.000    21662642.808    90034468.831        2512.976          50.000  
R08  20722664.009   110968926.838         673.121          49.000    20722659.127    86309143.714         523.567          47.000  
R07  22156106.901   118603370.444       -2188.081          48.000    22156104.445    92247056.695       -1701.788          48.000  
R23  25058866.455   134048042.371       -3809.394          33.000                                                                  
G23  21731543.255   114200028.570       -2600.519          45.000    21731541.980    88987028.102       -2026.282          47.000                                                  
J02  38632634.496   203015865.048         -44.785          40.000    38632636.449   158194188.450         -34.900          41.000  
E06  24788834.161   130266202.043        -773.733          47.000    24788837.306    99814375.286        -592.739          50.000  
E09  24665451.006   129617819.956         120.702          48.000    24665453.610    99317559.023          92.550          51.000  
E31  25908452.010   136149836.369        1627.084          44.000    25908456.579   104322621.666        1246.749          47.000  
C33  23456513.997   122144225.642        1330.659          49.000                                                                  
C24  22545944.358   117402650.599         602.253          49.000                                                                  
R24  24342957.719                3      -1678.055          24.000    24342955.963   101245452.760       -1307.444          32.000  
R01  23329720.192                        2879.636          28.000                                                                  
E36  26450058.934   138995992.465       -1815.444          44.000    26450064.287   106503443.718       -1391.083          47.000  
E05  25961491.685   136428550.815        1498.125          38.000    25961497.287   104536190.800        1147.985          45.000  
E04  26068304.185   136989861.263       -1562.042          42.000    26068306.739   104966267.143       -1196.706          45.000  
J03  38299855.263   201267092.280        -771.587          33.000    38299865.014   156831531.169        -601.017          40.000  
E23  26772665.437   140691295.844        -831.963          32.000    26772670.581   107802450.599        -637.643          41.000  
G31  26317887.658   138301432.591        3213.535          33.000    26317896.053                        2503.841          30.000                                                  
J07  38069667.732   200057452.352        -264.961          39.000    38069665.635   155888918.082        -206.010          44.000  
E11  26951453.295   141630837.791       -3233.122          33.000    26951460.915   108522356.822       -2477.154          40.000  
E34                                                                  27896849.399                         495.060          29.000  
G18                                                                  26287089.803   107641187.855       -2752.843          38.000                                                  
G24                                                                  23623306.285                       -2738.593          26.000                                                  
J04                                                                  39322655.936   161019698.023         291.375          47.000  
> 2025 11 05 02 29 55.8830000  0 39                     
G10  21415647.806   112539987.053         495.256          51.000    21415646.363    87693492.942         385.850          46.000                                                  
G28  23640981.167   124234198.691        2313.359          40.000    23640979.864    96805867.443        1802.924          42.000                                                  
G15  25914283.087   136180461.855       -3329.084          34.000    25914292.119   106114677.661       -2594.321          35.000                                                  
G32  22674666.428   119156178.188        1410.781          46.000    22674666.420    92848969.131        1099.196          44.000                                                  
G12  22696876.841   119272893.459         241.410          46.000    22696874.786    92939908.523         187.997          42.000                                                  
G25  22123494.768   116259753.169        2138.057          43.000    22123495.446    90592021.524        1665.640          42.000                                                  
C06  37543998.298   195501452.160          90.759          44.000    37543987.088   151174080.199          70.391          46.000  
C08  36830857.466   191787940.440        -480.206          46.000    36830845.262   148302551.750        -371.490          49.000  
C14  22704372.037   118227624.814         -13.718          47.000    22704362.065    91421058.199         -10.662          49.000  
C09  38799604.264   202039720.519         191.604          42.000    38799596.998   156229898.867         148.302          48.000  
C13  36793308.270   191592412.502        -147.388          48.000    36793304.040   148151388.049        -114.044          47.000  
C16  37734130.684   196491518.493         -75.810          48.000    37734125.011   151939685.385         -58.613          48.000  
R09  22819422.185                       -3757.927          33.000    22819423.522    94775679.170       -2923.015          36.000  
R10  20396634.287   108725538.360        -672.645          46.000                                                                  
R11  21662619.603   115758483.424        3230.884          45.000    21662618.629    90034368.319        2512.830          50.000  
R08  20722658.994   110968899.913         673.126          49.000    20722654.119    86309122.770         523.603          47.000  
R07  22156123.265   118603457.977       -2188.218          48.000    22156120.805    92247124.776       -1701.922          48.000  
R23  25058894.887   134048194.704       -3808.759          33.000                                                                  
G23  21731563.067   114200132.590       -2600.494          45.000    21731561.781    88987109.152       -2026.270          47.000                                                  
J02  38632634.829   203015866.851         -44.962          40.000    38632636.794   158194189.847         -34.865          41.000  
E06  24788840.034   130266232.989        -773.669          47.000    24788843.167    99814398.997        -592.714          50.000  
E09  24665450.094   129617815.129         120.701          48.000    24665452.710    99317555.325          92.509          51.000  
E31  25908439.643   136149771.297        1626.889          44.000    25908444.175   104322571.796        1246.746          47.000  
C33  23456503.757   122144172.419        1330.607          49.000                                                                  
C24  22545939.728   117402626.511         602.218          49.000                                                                  
R24  24342970.389                3      -1678.055          24.000    24342968.588   101245505.083       -1307.858          32.000  
R01  23329698.499                        2879.617          28.000                                                                  
E36  26450072.779   138996065.089       -1815.547          44.000    26450078.136   106503499.360       -1391.063          47.000  
E05  25961480.271   136428490.902        1497.988          38.000    25961485.906   104536144.890        1147.877          45.000  
E04  26068316.063   136989923.733       -1561.892          42.000    26068318.638   104966315.008       -1196.625          45.000  
J03  38299861.133   201267123.136        -771.556          33.000    38299870.879   156831555.210        -601.026          40.000  
E23  26772671.771   140691329.141        -832.123          32.000    26772676.888   107802476.096        -637.430          41.000  
G31  26317863.231   138301304.107        3212.581          33.000    26317871.556                        2504.127          30.000                                                  
J07  38069669.758   200057462.946        -264.862          39.000    38069667.659   155888926.329        -206.075          44.000  
E11  26951477.925   141630967.078       -3232.631          33.000    26951485.511   108522455.888       -2476.863          40.000  
E34                                                                  27896844.492                         495.417          29.000  
G18                                                                  26287116.690   107641297.954       -2752.661          38.000                                                  
G24                                                                  23623332.881                       -2738.502          26.000                                                  
J04                                                                  39322653.081   161019686.373         291.271          47.000  
> 2025 11 05 02 29 55.9230000  0 39                     
G10  21415644.002   112539967.242         495.232          51.000    21415642.580    87693477.507         385.832          46.000                                                  
G28  23640963.550   124234106.162        2313.287          40.000    23640962.258    96805795.344        1802.672          42.000                                                  
G15  25914308.437   136180595.024       -3329.243          34.000    25914317.456   106114781.390       -2593.542          35.000                                                  
G32  22674655.694   119156121.763        1410.688          46.000    22674655.686    92848925.165        1099.100          44.000                                                  
G12  22696875.021   119272883.808         241.303          46.000    22696872.933    92939901.002         187.969          42.000                                                  
G25  22123478.465   116259667.638        2138.165          43.000    22123479.155    90591954.882        1665.792          42.000                                                  
C06  37543997.634   195501448.520          90.904          44.000    37543986.391   151174077.392          70.237          46.000  
C08  36830861.168   191787959.649        -480.151          46.000    36830848.951   148302566.609        -371.490          49.000  
C14  22704372.132   118227625.364         -13.733          47.000    22704362.182    91421058.625         -10.682          49.000  
C09  38799602.791   202039712.848         191.719          42.000    38799595.536   156229892.934         148.289          48.000  
C13  36793309.423   191592418.398        -147.394          48.000    36793305.177   148151392.608        -114.026          47.000  
C16  37734131.289   196491521.525         -75.799          48.000    37734125.594   151939687.728         -58.596          48.000  
R09  22819450.309                       -3757.610          33.000    22819451.696    94775796.094       -2923.155          36.000  
R10  20396639.323   108725565.267        -672.706          46.000                                                                  
R11  21662595.390   115758354.184        3230.951          45.000    21662594.454    90034267.803        2512.830          50.000  
R08  20722653.952   110968872.987         673.151          49.000    20722649.103    86309101.829         523.565          47.000  
R07  22156139.619   118603545.510       -2188.290          48.000    22156137.159    92247192.851       -1701.908          48.000  
R23  25058923.375   134048347.039       -3808.540          33.000                                                                  
G23  21731582.870   114200236.607       -2600.439          45.000    21731581.580    88987190.213       -2026.459          47.000                                                  
J02  38632635.176   203015868.646         -44.917          40.000    38632637.137   158194191.262         -35.250          41.000  
E06  24788845.940   130266263.941        -773.734          47.000    24788849.037    99814422.710        -592.743          50.000  
E09  24665449.232   129617810.303         120.681          48.000    24665451.803    99317551.624          92.538          51.000  
E31  25908427.256   136149706.204        1627.138          44.000    25908431.806   104322521.925        1246.764          47.000  
C33  23456493.560   122144119.191        1330.645          49.000                                                                  
C24  22545935.086   117402602.425         602.146          49.000                                                                  
R24  24342983.160                3      -1678.055          24.000    24342981.214   101245557.444       -1308.850          32.000  
R01  23329676.797                        2879.440          28.000                                                                  
E36  26450086.610   138996137.720       -1815.709          44.000    26450091.966   106503555.003       -1391.062          47.000  
E05  25961468.867   136428430.976        1498.044          38.000    25961474.476   104536098.972        1147.938          45.000  
E04  26068327.943   136989986.204       -1561.822          42.000    26068330.533   104966362.872       -1196.599          45.000  
J03  38299867.003   201267153.973        -771.177          33.000    38299876.751   156831579.266        -601.315          40.000  
E23  26772678.086   140691362.420        -832.054          32.000    26772683.204   107802501.616        -637.680          41.000  
G31  26317838.764   138301175.560        3213.201          33.000    26317847.082                        2506.274          30.000                                                  
J07  38069671.780   200057473.488        -263.680          39.000    38069669.679   155888934.581        -206.240          44.000  
E11  26951502.560   141631096.395       -3232.855          33.000    26951510.130   108522554.974       -2476.991          40.000  
E34                                                                  27896839.559                         494.988          29.000  
G18                                                                  26287143.589   107641408.064       -2752.783          38.000                                                  
G24                                                                  23623359.113                       -2738.278          26.000                                                  
J04                                                                  39322650.239   161019674.711         291.444          47.000  
> 2025 11 05 02 29 55.9630000  0 39                     
G10  21415640.217   112539947.423         495.405          51.000    21415638.816    87693462.059         386.048          46.000                                                  
G28  23640945.933   124234013.618        2313.501          40.000    23640944.654    96805723.240        1802.594          42.000                                                  
G15  25914333.780   136180728.208       -3329.335          34.000    25914342.812   106114885.185       -2594.338          35.000                                                  
G32  22674644.937   119156065.328        1410.792          46.000    22674644.941    92848881.187        1099.287          44.000                                                  
G12  22696873.179   119272874.142         241.508          46.000    22696871.112    92939893.472         188.123          42.000                                                  
G25  22123462.182   116259582.107        2138.242          43.000    22123462.869    90591888.224        1666.204          42.000                                                  
C06  37543996.971   195501444.881          90.960          44.000    37543985.682   151174074.583          70.178          46.000  
C08  36830864.851   191787978.862        -480.243          46.000    36830852.637   148302581.465        -371.442          49.000  
C14  22704372.231   118227625.912         -13.736          47.000    22704362.284    91421059.051         -10.694          49.000  
C09  38799601.310   202039705.159         192.088          43.000    38799594.060   156229886.996         148.364          48.000  
C13  36793310.581   191592424.290        -147.351          48.000    36793306.298   148151397.161        -113.916          47.000  
C16  37734131.894   196491524.543         -75.573          48.000    37734126.174   151939690.069         -58.564          48.000  
R09  22819478.461                       -3757.892          33.000    22819479.841    94775913.011       -2923.103          36.000  
R10  20396644.348   108725592.165        -672.578          46.000                                                                  
R11  21662571.191   115758224.948        3230.945          45.000    21662570.281    90034167.283        2512.927          50.000  
R08  20722648.905   110968846.059         673.194          49.000    20722644.078    86309080.888         523.527          47.000  
R07  22156155.951   118603633.028       -2188.097          48.000    22156153.501    92247260.928       -1701.958          48.000  
R23  25058951.845   134048499.340       -3807.704          33.000                                                                  
G23  21731602.674   114200340.624       -2600.397          45.000    21731601.377    88987271.266       -2026.398          47.000                                                  
J02  38632635.515   203015870.432         -44.674          40.000    38632637.481   158194192.658         -35.081          41.000  
E06  24788851.768   130266294.880        -773.571          47.000    24788854.930    99814446.421        -592.769          50.000  
E09  24665448.263   129617805.466         120.820          48.000    24665450.870    99317547.921          92.572          51.000  
E31  25908414.843   136149641.109        1627.311          44.000    25908419.446   104322472.054        1246.757          47.000  
C33  23456483.360   122144065.957        1330.771          49.000                                                                  
C24  22545930.466   117402578.333         602.227          49.000                                                                  
R24  24342996.002                3      -1679.112          25.000    24342993.770   101245609.758       -1308.358          32.000  
R01  23329654.917                        2879.736          27.000                                                                  
E36  26450100.359   138996210.328       -1815.374          44.000    26450105.781   106503610.652       -1391.160          47.000  
E05  25961457.461   136428371.053        1498.021          38.000    25961463.070   104536053.055        1147.925          45.000  
E04  26068339.895   136990048.672       -1561.753          42.000    26068342.420   104966410.735       -1196.528          45.000  
J03  38299872.864   201267184.808        -770.866          33.000    38299882.621   156831603.294        -600.973          40.000  
E23  26772684.433   140691395.728        -832.470          32.000    26772689.556   107802527.121        -637.646          41.000  
G31  26317814.298   138301047.064        3212.588          33.000    26317822.593                        2504.231          30.000                                                  
J07  38069673.781   200057484.070        -263.968          39.000    38069671.693   155888942.818        -206.030          44.000  
E11  26951527.164   141631225.735       -3233.364          33.000    26951534.740   108522654.043       -2476.823          40.000  
E34                                                                  27896834.642                         494.909          30.000  
G18                                                                  26287170.497   107641518.138       -2752.178          38.000                                                  
G24                                                                  23623386.133                       -2738.512          26.000                                                  
J04                                                                  39322647.372   161019663.048         291.560          47.000  
> 2025 11 05 02 29 56.0030000  0 39                     
G10  21415636.451   112539927.606         495.454          51.000    21415635.072    87693446.623         385.949          46.000                                                  
G28  23640928.315   124233921.083        2313.460          40.000    23640927.070    96805651.150        1802.265          42.000                                                  
G15  25914359.102   136180861.365       -3329.060          34.000    25914368.164   106114988.942       -2594.124          35.000                                                  
G32  22674634.180   119156008.896        1410.783          46.000    22674634.201    92848837.203        1099.548          44.000                                                  
G12  22696871.341   119272864.479         241.571          46.000    22696869.247    92939885.932         188.402          42.000                                                  
G25  22123445.890   116259496.577        2138.273          43.000    22123446.584    90591821.565        1666.462          42.000                                                  
C06  37543996.298   195501441.238          91.074          44.000    37543984.995   151174071.763          70.384          46.000  
C08  36830868.537   191787998.075        -480.292          46.000    36830856.326   148302596.319        -371.375          49.000  
C14  22704372.339   118227626.461         -13.722          47.000    22704362.389    91421059.477         -10.672          49.000  
C09  38799599.828   202039697.491         191.888          42.000    38799592.598   156229881.065         148.288          48.000  
C13  36793311.717   191592430.181        -147.266          48.000    36793307.423   148151401.711        -113.794          47.000  
C16  37734132.480   196491527.563         -75.498          48.000    37734126.755   151939692.411         -58.572          48.000  
R09  22819506.649   121854841.514       -3757.862          32.000    22819508.001    94776029.923       -2922.951          36.000  
R10  20396649.401   108725619.071        -672.648          46.000                                                                  
R11  21662546.999   115758095.708        3230.981          45.000    21662546.092    90034066.763        2512.988          50.000  
R08  20722643.872   110968819.133         673.162          49.000    20722639.081    86309059.945         523.553          47.000  
R07  22156172.294   118603720.553       -2188.088          48.000    22156169.831    92247329.004       -1701.936          48.000  
R23  25058980.344   134048651.694       -3808.283          33.000                                                                  
G23  21731622.462   114200444.643       -2600.446          45.000    21731621.193    88987352.322       -2026.404          47.000                                                  
J02  38632635.825   203015872.228         -44.734          40.000    38632637.841   158194194.062         -35.085          41.000  
E06  24788857.695   130266325.825        -773.591          47.000    24788860.819    99814470.137        -592.857          50.000  
E09  24665447.360   129617800.626         120.946          48.000    24665449.893    99317544.218          92.591          51.000  
E31  25908402.469   136149576.018        1627.309          44.000    25908407.069   104322422.183        1246.781          47.000  
C33  23456473.150   122144012.727        1330.788          49.000                                                                  
C24  22545925.845   117402554.240         602.305          49.000                                                                  
R24  24343008.507                3      -1679.112          25.000    24343006.360   101245662.046       -1307.494          32.000  
R01  23329633.172                        2879.647          27.000                                                                  
E36  26450114.193   138996282.945       -1815.359          44.000    26450119.600   106503666.295       -1391.120          47.000  
E05  25961446.090   136428311.118        1498.215          38.000    25961451.674   104536007.133        1147.973          45.000  
E04  26068351.823   136990111.144       -1561.763          42.000    26068354.325   104966458.607       -1196.689          45.000  
J03  38299878.760   201267215.672        -771.243          33.000    38299888.506   156831627.332        -600.937          40.000  
E23  26772690.745   140691429.003        -832.195          32.000    26772695.890   107802552.640        -637.873          41.000  
G31  26317789.877   138300918.539        3212.962          33.000    26317798.160                        2502.984          30.000                                                  
J07  38069675.785   200057494.645        -264.200          39.000    38069673.728   155888951.067        -206.150          44.000  
E11  26951551.758   141631355.006       -3232.381          33.000    26951559.361   108522753.112       -2476.735          40.000  
E34                                                                  27896829.794                         494.038          30.000  
G18                                                                  26287197.371   107641628.221       -2751.994          38.000                                                  
G24                                                                  23623412.858                       -2738.231          26.000                                                  
J04                                                                  39322644.519   161019651.383         291.627          47.000  
> 2025 11 05 02 29 56.0430000  0 39                     
G10  21415632.690   112539907.793         495.361          51.000    21415631.302    87693431.179         386.054          46.000                                                  
G28  23640910.703   124233828.533        2313.674          40.000    23640909.476    96805579.037        1802.609          42.000                                                  
G15  25914384.421   136180994.489       -3328.406          34.000    25914393.520   106115092.697       -2593.958          35.000                                                  
G32  22674623.468   119155952.460        1410.847          46.000    22674623.456    92848793.232        1099.430          44.000                                                  
G12  22696869.527   119272854.822         241.463          46.000    22696867.411    92939878.395         188.479          42.000                                                  
G25  22123429.607   116259411.048        2138.219          43.000    22123430.316    90591754.924        1666.229          42.000                                                  
C06  37543995.624   195501437.590          91.165          44.000    37543984.297   151174068.947          70.413          46.000  
C08  36830872.234   191788017.283        -480.243          46.000    36830860.032   148302611.170        -371.301          49.000  
C14  22704372.437   118227627.006         -13.666          47.000    22704362.495    91421059.893         -10.510          49.000  
C09  38799598.338   202039689.814         191.913          42.000    38799591.123   156229875.126         148.395          48.000  
C13  36793312.860   191592436.065        -147.119          48.000    36793308.548   148151406.263        -113.763          47.000  
C16  37734133.036   196491530.596         -75.726          48.000    37734127.334   151939694.746         -58.429          48.000  
R09  22819534.749   121854991.821       -3757.734          33.000    22819536.126    94776146.831       -2922.790          36.000  
R10  20396654.460   108725645.967        -672.495          46.000                                                                  
R11  21662522.816   115757966.469        3231.000          45.000    21662521.891    90033966.242        2513.025          50.000  
R08  20722638.844   110968792.200         673.294          49.000    20722634.030    86309039.000         523.609          47.000  
R07  22156188.637   118603808.078       -2188.119          48.000    22156186.172    92247397.073       -1701.809          48.000  
R23  25059008.857   134048804.032       -3808.355          33.000                                                                  
G23  21731642.246   114200548.654       -2600.305          45.000    21731640.985    88987433.368       -2026.251          47.000                                                  
J02  38632636.175   203015874.018         -44.757          40.000    38632638.180   158194195.459         -35.017          41.000  
E06  24788863.564   130266356.762        -773.464          47.000    24788866.726    99814493.841        -592.691          50.000  
E09  24665446.467   129617795.791         120.945          48.000    24665448.953    99317540.511          92.663          51.000  
E31  25908390.106   136149510.928        1627.296          44.000    25908394.680   104322372.305        1246.886          47.000  
C33  23456462.884   122143959.498        1330.742          49.000                                                                  
C24  22545921.213   117402530.145         602.348          49.000                                                                  
R24  24343021.079                3      -1679.112          25.000    24343018.967   101245714.367       -1307.731          32.000  
R01  23329611.789                        2879.678          27.000                                                                  
E36  26450128.012   138996355.560       -1815.352          44.000    26450133.400   106503721.938       -1391.131          47.000  
E05  25961434.713   136428251.160        1498.688          38.000    25961440.258   104535961.213        1147.986          45.000  
E04  26068363.669   136990173.602       -1561.564          42.000    26068366.194   104966506.468       -1196.601          45.000  
J03  38299884.631   201267246.512        -771.022          33.000    38299894.386   156831651.359        -600.795          40.000  
E23  26772697.058   140691462.304        -832.362          32.000    26772702.228   107802578.143        -637.719          41.000  
G31  26317765.408   138300789.992        3213.443          33.000    26317773.712                        2502.311          30.000                                                  
J07  38069677.791   200057505.230        -264.568          39.000    38069675.740   155888959.307        -206.032          44.000  
E11  26951576.361   141631484.302       -3232.295          33.000    26951583.980   108522852.193       -2476.886          40.000  
E34                                                                  27896824.867                         494.098          30.000  
G18                                                                  26287224.259   107641738.325       -2752.282          38.000                                                  
G24                                                                  23623439.682                       -2738.389          26.000                                                  
J04                                                                  39322641.672   161019639.719         291.645          47.000  
