     3.04           OBSERVATION DATA    M: Mixed            RINEX VERSION / TYPE
RTKCONV 2.4.3 b34                       20251105 023605 UTC PGM / RUN BY / DATE 
format: u-blox UBX                                          COMMENT             
log: D:\GPdata\11_05\fingure_120_11_5_2.ubx                 COMMENT             
                                                            MARKER NAME         
                                                            MARKER NUMBER       
                                                            MARKER TYPE         
                                                            OBSERVER / AGENCY   
                                                            REC # / TYPE / VERS 
                                                            ANT # / TYPE        
        0.0000        0.0000        0.0000                  APPROX POSITION XYZ 
        0.0000        0.0000        0.0000                  ANTENNA: DELTA H/E/N
G   12 C1C L1C D1C S1C C2L L2L D2L S2L C2S L2S D2S S2S      SYS / # / OBS TYPES 
R    8 C1C L1C D1C S1C C2C L2C D2C S2C                      SYS / # / OBS TYPES 
E    8 C1C L1C D1C S1C C7Q L7Q D7Q S7Q                      SYS / # / OBS TYPES 
J    8 C1C L1C D1C S1C C2L L2L D2L S2L                      SYS / # / OBS TYPES 
C    8 C2I L2I D2I S2I C7I L7I D7I S7I                      SYS / # / OBS TYPES 
  2025    11    05    02    28   24.0830000     GPS         TIME OF FIRST OBS   
  2025    11    05    02    28   51.7230000     GPS         TIME OF LAST OBS    
G L1C                                                       SYS / PHASE SHIFT   
G L2L  0.00000                                              SYS / PHASE SHIFT   
G L2S  0.00000                                              SYS / PHASE SHIFT   
R L1C                                                       SYS / PHASE SHIFT   
R L2C                                                       SYS / PHASE SHIFT   
E L1C  0.00000                                              SYS / PHASE SHIFT   
E L7Q  0.00000                                              SYS / PHASE SHIFT   
J L1C                                                       SYS / PHASE SHIFT   
J L2L  0.00000                                              SYS / PHASE SHIFT   
C L2I                                                       SYS / PHASE SHIFT   
C L7I                                                       SYS / PHASE SHIFT   
  7 R05  1 R11  5 R12  6 R13 -2 R14 -7 R15  0 R27  3        GLONASS SLOT / FRQ #
 C1C    0.000 C1P    0.000 C2C    0.000 C2P    0.000        GLONASS COD/PHS/BIS 
                                                            END OF HEADER       
> 2025 11 05 02 28 24.0830000  0 39                     
G10  21424827.114   112588226.1581        556.604          50.000    21424825.962    87731081.9091        433.747          46.000                                                                  
G28  23681680.540   124448074.1211       2347.196          41.000    23681679.409    96972523.3751       1829.097          43.000                                                                  
G15  25856228.075   135875386.3331      -3316.680          34.000    25856236.175   105876958.0321      -2583.934          35.000                                                                  
G32  22699442.445   119286374.7591       1426.830          47.000    22699442.437    92950420.9771       1112.128          44.000                                                                  
G12  22701674.398   119298104.3421        308.869          46.000    22701672.313    92959553.4331        240.695          42.000                                                                  
G25  22161295.903   116458400.5091       2190.707          43.000    22161297.279    90746811.5061       1707.091          42.000                                                                  
C06  37545719.965   195510417.6221        105.591          44.000    37545709.060   151181012.9061         81.626          46.000  
C08  36822565.986   191744765.2821       -459.003          45.000    36822554.016   148269166.0651       -355.121          49.000  
C14  22704435.920   118227957.2351         22.249          47.000    22704426.072    91421315.2971         16.951          50.000  
C09  38803104.916   202057948.7981        206.477          42.000    38803097.678   156243994.1671        159.728          48.000  
C13  36790869.025   191579711.5981       -128.131          48.000    36790864.926   148141566.9781        -99.146          47.000  
C16  37732909.901   196485162.8031        -61.657          48.000    37732904.426   151934770.7991        -47.628          49.000  
R09  22755203.482   121511490.9321      -3711.958          32.000    22755203.260    94508955.6091      -2887.043          37.000  
R10  20385802.888   108667799.9721       -584.203          46.000                                                                  
R11  21718586.296   116057546.7141       3285.516          46.000    21718584.496    90266972.8131       2555.438          50.000  
R08  20734507.848   111032350.5321        710.405          49.000    20734502.840    86358473.3581        552.442          47.000  
R07  22118933.856   118404383.5251      -2147.616          48.000    22118931.478    92092289.4521      -1670.409          48.000  
R23  24993579.497   133698789.5861      -3801.897          38.000                                                                  
G24  23562081.116                       -3496.682          28.000    23562085.414                       -2725.207          29.000                                                                  
G23  21686599.074   113963845.1791      -2546.173          46.000    21686597.787    88802989.3881      -1984.125          48.000                                                                  
J02  38631917.677   203012099.0391        -35.907          40.000    38631919.837   158191253.7681        -27.928          41.000  
E06  24775443.513   130195834.3371       -759.068          47.000    24775446.708    99760457.3061       -581.597          50.000  
E09  24667669.483   129629479.1481        134.498          48.000    24667671.862    99326492.8061        103.023          51.000  
E31  25937173.501   136300766.6361       1663.727          44.000    25937178.035   104438269.4181       1274.605          47.000  
C33  23480186.540   122267494.6151       1357.089          49.000                                                                  
C24  22557011.429   117460278.9601        654.906          49.000                                                                  
R24  24314659.347                3      -1614.293          25.000    24314654.156                       -1256.764          29.000  
R01  23379163.828                1       2883.929          27.000                                                                  
E36  26418712.503   138831268.0781      -1773.639          42.000    26418717.880   106377226.6351      -1358.880          46.000  
E05  25987699.913   136566277.1061       1504.834          38.000    25987705.921   104641721.1881       1153.094          46.000  
E04  26041130.121   136847060.8271      -1549.603          41.000    26041132.723   104856848.8151      -1187.216          45.000  
J03  38286442.644   201196606.5581       -763.509          34.000    38286450.816   156776608.2471       -595.272          39.000  
E23  26758542.706   140617093.0461       -784.332          32.000    26758550.227   107745594.0491       -600.722          41.000  
G31  26374121.721                        3228.907          30.000                                                                                                                                  
J07  38065087.050   200033382.0941       -258.729          39.000    38065085.234   155870162.1711       -201.837          44.000  
E11  26895069.970   141334554.8881      -3223.454          33.000    26895078.989   108295336.1121      -2470.016          40.000  
E34                                                                  27908529.639                         531.462          28.000  
G18                                                                  26225293.774   107388169.2541      -2761.259          36.000                                                                  
J04                                                                  39329199.418   161046496.0161        293.532          47.000  
> 2025 11 05 02 28 24.1230000  0 39                     
G10  21424822.871   112588203.896         556.536          50.000    21424821.749    87731064.560         433.709          46.000                                                                  
G28  23681662.683   124447980.233        2347.164          41.000    23681661.536    96972450.215        1829.039          43.000                                                                  
G15  25856253.329   135875518.979       -3316.317          34.000    25856261.421   105877061.400       -2584.169          35.000                                                                  
G32  22699431.592   119286317.687        1426.836          47.000    22699431.561    92950376.503        1112.028          44.000                                                                  
G12  22701672.042   119298091.986         308.902          46.000    22701669.951    92959543.812         240.589          42.000                                                                  
G25  22161279.224   116458312.887        2190.644          43.000    22161280.600    90746743.220        1707.186          42.000                                                                  
C06  37545719.178   195510413.395         105.675          44.000    37545708.244   151181009.631          81.856          46.000  
C08  36822569.506   191744783.646        -459.009          45.000    36822557.532   148269180.261        -354.956          49.000  
C14  22704435.741   118227956.355          22.156          47.000    22704425.909    91421314.613          17.049          50.000  
C09  38803103.329   202057940.543         206.448          42.000    38803096.093   156243987.788         159.600          48.000  
C13  36790869.998   191579716.724        -128.113          48.000    36790865.915   148141570.951         -99.286          47.000  
C16  37732910.408   196485165.264         -61.545          48.000    37732904.902   151934772.699         -47.519          49.000  
R09  22755231.306   121511639.440       -3712.656          32.000    22755231.043    94509071.093       -2887.086          37.000  
R10  20385807.258   108667823.335        -584.135          46.000                                                                  
R11  21718561.701   116057415.291        3285.541          46.000    21718559.904    90266870.594        2555.505          50.000  
R08  20734502.544   111032322.119         710.377          49.000    20734497.522    86358451.256         552.523          47.000  
R07  22118949.905   118404469.438       -2147.715          48.000    22118947.530    92092356.267       -1670.343          48.000  
R23  24993607.919   133698941.668       -3801.965          38.000                                                                  
G24  23562107.730                       -3496.918          28.000    23562112.030                       -2725.121          29.000                                                                  
G23  21686618.474   113963947.030       -2546.259          46.000    21686617.156    88803068.746       -1984.021          48.000                                                                  
J02  38631917.941   203012100.485         -36.052          40.000    38631920.094   158191254.893         -28.054          41.000  
E06  24775449.206   130195864.687        -758.836          47.000    24775452.454    99760480.564        -581.493          50.000  
E09  24667668.426   129629473.759         134.690          48.000    24667670.792    99326488.682         103.097          51.000  
E31  25937160.840   136300700.089        1663.782          44.000    25937165.366   104438218.425        1274.777          47.000  
C33  23480176.138   122267440.324        1357.245          49.000                                                                  
C24  22557006.379   117460252.764         654.923          49.000                                                                  
R24  24314671.442                3      -1614.493          25.000    24314666.236                       -1256.696          29.000  
R01  23379142.515                        2884.087          27.000                                                                  
E36  26418726.025   138831339.023       -1773.629          42.000    26418731.369   106377280.996       -1358.925          46.000  
E05  25987688.455   136566216.900        1505.161          38.000    25987694.467   104641675.064        1153.130          46.000  
E04  26041141.859   136847122.797       -1549.329          41.000    26041144.522   104856896.300       -1187.090          45.000  
J03  38286448.471   201196637.114        -763.651          34.000    38286456.623   156776632.039        -594.903          39.000  
E23  26758548.766   140617124.435        -784.612          32.000    26758556.198   107745618.072        -600.599          41.000  
G31  26374097.174                        3229.165          30.000                                                                                                                                  
J07  38065089.004   200033392.459        -258.960          39.000    38065087.210   155870170.237        -201.717          44.000  
E11  26895094.457   141334683.831       -3223.354          33.000    26895103.565   108295434.925       -2470.062          41.000  
E34                                                                  27908524.621                         531.228          29.000  
G18                                                                  26225320.750   107388279.700       -2761.105          36.000                                                                  
J04                                                                  39329196.554   161046484.277         293.525          47.000  
> 2025 11 05 02 28 24.1630000  0 39                     
G10  21424818.639   112588181.633         556.542          50.000    21424817.516    87731047.215         433.654          46.000                                                                  
G28  23681644.809   124447886.345        2347.131          41.000    23681643.673    96972377.055        1828.968          43.000                                                                  
G15  25856278.570   135875651.605       -3315.827          34.000    25856286.690   105877164.790       -2584.703          35.000                                                                  
G32  22699420.754   119286260.603        1427.008          47.000    22699420.697    92950332.032        1111.886          44.000                                                                  
G12  22701669.678   119298079.639         308.709          46.000    22701667.582    92959534.193         240.472          42.000                                                                  
G25  22161262.562   116458225.262        2190.668          43.000    22161263.927    90746674.943        1707.041          42.000                                                                  
C06  37545718.344   195510409.176         105.558          44.000    37545707.437   151181006.367          81.742          46.000  
C08  36822573.008   191744802.017        -459.161          45.000    36822561.056   148269194.463        -355.005          49.000  
C14  22704435.587   118227955.474          22.074          47.000    22704425.740    91421313.928          17.099          50.000  
C09  38803101.726   202057932.275         206.667          42.000    38803094.510   156243981.400         159.669          48.000  
C13  36790870.984   191579721.859        -128.278          48.000    36790866.904   148141574.919         -99.268          47.000  
C16  37732910.884   196485167.724         -61.499          48.000    37732905.370   151934774.600         -47.506          49.000  
R09  22755259.100   121511787.920       -3712.485          32.000    22755258.858    94509186.577       -2887.120          37.000  
R10  20385811.633   108667846.697        -584.080          46.000                                                                  
R11  21718537.118   116057283.865        3285.614          46.000    21718535.315    90266768.379        2555.402          50.000  
R08  20734497.242   111032293.711         710.238          49.000    20734492.235    86358429.159         552.490          47.000  
R07  22118965.973   118404555.351       -2147.782          48.000    22118963.548    92092423.090       -1670.492          48.000  
R23  24993636.357   133699093.754       -3802.060          38.000                                                                  
G24  23562134.372                       -3497.453          28.000    23562138.645                       -2725.130          29.000                                                                  
G23  21686637.846   113964048.880       -2546.277          46.000    21686636.523    88803148.101       -1983.899          48.000                                                                  
J02  38631918.238   203012101.928         -36.066          40.000    38631920.383   158191256.020         -28.168          41.000  
E06  24775454.977   130195895.039        -758.760          47.000    24775458.223    99760503.822        -581.448          50.000  
E09  24667667.523   129629468.378         134.636          48.000    24667669.764    99326484.554         103.195          51.000  
E31  25937148.194   136300633.551        1663.611          44.000    25937152.679   104438167.439        1274.714          47.000  
C33  23480165.697   122267386.040        1357.153          49.000                                                                  
C24  22557001.319   117460226.572         654.868          49.000                                                                  
R24  24314683.792                3      -1615.449          25.000    24314678.304                       -1256.291          29.000  
R01  23379120.985                        2884.039          27.000                                                                  
E36  26418739.491   138831409.971       -1773.661          42.000    26418744.861   106377335.354       -1358.907          46.000  
E05  25987676.968   136566156.697        1505.242          38.000    25987682.998   104641628.936        1153.194          46.000  
E04  26041153.601   136847184.766       -1549.151          41.000    26041156.306   104856943.797       -1187.229          45.000  
J03  38286454.272   201196667.679        -763.909          34.000    38286462.413   156776655.840        -594.959          39.000  
E23  26758554.760   140617155.784        -784.091          32.000    26758562.145   107745642.101        -600.677          41.000  
G31  26374072.611                        3228.765          30.000                                                                                                                                  
J07  38065090.991   200033402.824        -259.059          39.000    38065089.176   155870178.312        -201.803          44.000  
E11  26895118.978   141334812.815       -3224.045          33.000    26895128.095   108295533.724       -2469.958          41.000  
E34                                                                  27908519.070                         531.310          29.000  
G18                                                                  26225347.716   107388390.157       -2761.272          36.000                                                                  
J04                                                                  39329193.681   161046472.545         293.364          47.000  
> 2025 11 05 02 28 24.2030000  0 39                     
G10  21424814.395   112588159.369         556.560          50.000    21424813.270    87731029.868         433.611          46.000                                                                  
G28  23681626.914   124447792.439        2347.449          41.000    23681625.806    96972303.888        1829.084          43.000                                                                  
G15  25856303.820   135875784.258       -3315.963          34.000    25856311.922   105877268.149       -2584.414          35.000                                                                  
G32  22699409.911   119286203.534        1426.838          47.000    22699409.834    92950287.567        1111.684          44.000                                                                  
G12  22701667.358   119298067.289         308.678          46.000    22701665.236    92959524.559         240.703          42.000                                                                  
G25  22161245.886   116458137.639        2190.630          43.000    22161247.253    90746606.665        1706.988          42.000                                                                  
C06  37545717.544   195510404.954         105.537          44.000    37545706.617   151181003.101          81.688          46.000  
C08  36822576.493   191744820.393        -459.363          45.000    36822564.588   148269208.672        -355.188          49.000  
C14  22704435.395   118227954.600          21.898          47.000    22704425.568    91421313.245          17.089          50.000  
C09  38803100.150   202057924.018         206.550          42.000    38803092.928   156243975.010         159.731          48.000  
C13  36790871.973   191579726.992        -128.345          48.000    36790867.874   148141578.884         -99.182          47.000  
C16  37732911.365   196485170.183         -61.471          48.000    37732905.855   151934776.513         -47.718          49.000  
R09  22755286.899   121511936.389       -3712.028          32.000    22755286.661    94509302.032       -2886.633          37.000  
R10  20385816.020   108667870.063        -584.114          46.000                                                                  
R11  21718512.532   116057152.448        3285.498          46.000    21718510.729    90266666.163        2555.353          50.000  
R08  20734491.945   111032265.305         710.144          49.000    20734486.923    86358407.059         552.483          47.000  
R07  22118982.024   118404641.261       -2147.799          48.000    22118979.596    92092489.912       -1670.563          48.000  
R23  24993664.781   133699245.847       -3802.224          38.000                                                                  
G24  23562161.049                       -3497.665          28.000    23562165.228                       -2724.856          29.000                                                                  
G23  21686657.224   113964150.726       -2546.228          46.000    21686655.908    88803227.464       -1984.003          48.000                                                                  
J02  38631918.520   203012103.368         -35.990          40.000    38631920.659   158191257.142         -28.103          41.000  
E06  24775460.851   130195925.399        -758.869          47.000    24775464.020    99760527.082        -581.438          50.000  
E09  24667666.521   129629462.995         134.624          48.000    24667668.751    99326480.432         103.134          51.000  
E31  25937135.582   136300567.013        1663.470          44.000    25937140.015   104438116.454        1274.657          47.000  
C33  23480155.285   122267331.760        1357.025          49.000                                                                  
C24  22556996.302   117460200.369         655.005          49.000                                                                  
R24  24314696.069                3      -1614.627          25.000    24314690.366                       -1256.617          29.000  
R01  23379099.234                        2884.243          27.000                                                                  
E36  26418752.954   138831480.916       -1773.658          42.000    26418758.328   106377389.721       -1359.049          46.000  
E05  25987665.525   136566096.493        1505.204          38.000    25987671.579   104641582.808        1153.202          46.000  
E04  26041165.380   136847246.744       -1549.291          41.000    26041168.120   104856991.291       -1187.309          45.000  
J03  38286460.112   201196698.220        -763.706          34.000    38286468.220   156776679.646        -595.044          39.000  
E23  26758560.750   140617187.152        -784.175          32.000    26758568.118   107745666.131        -600.758          41.000  
G31  26374048.015                        3228.737          30.000                                                                                                                                  
J07  38065092.958   200033413.163        -258.642          39.000    38065091.151   155870186.379        -201.747          44.000  
E11  26895143.415   141334941.766       -3223.995          33.000    26895152.644   108295632.532       -2470.073          41.000  
E34                                                                  27908513.606                         531.329          29.000  
G18                                                                  26225374.678   107388500.622       -2761.476          36.000                                                                  
J04                                                                  39329190.819   161046460.803         293.457          47.000  
> 2025 11 05 02 28 24.2430000  0 39                     
G10  21424810.156   112588137.100         556.684          50.000    21424809.012    87731012.513         433.796          46.000                                                                  
G28  23681609.040   124447698.526        2347.776          41.000    23681607.948    96972230.726        1829.070          43.000                                                                  
G15  25856329.049   135875916.878       -3315.391          34.000    25856337.149   105877371.477       -2583.610          35.000                                                                  
G32  22699399.049   119286146.455        1426.908          47.000    22699398.973    92950243.094        1111.721          44.000                                                                  
G12  22701665.005   119298054.931         308.833          46.000    22701662.892    92959514.933         240.659          42.000                                                                  
G25  22161229.198   116458050.002        2190.841          43.000    22161230.586    90746538.389        1706.910          42.000                                                                  
C06  37545716.726   195510400.733         105.547          44.000    37545705.788   151180999.830          81.775          46.000  
C08  36822580.017   191744838.762        -459.338          45.000    36822568.125   148269222.871        -355.078          49.000  
C14  22704435.252   118227953.712          22.064          47.000    22704425.394    91421312.560          17.088          50.000  
C09  38803098.582   202057915.756         206.530          42.000    38803091.333   156243968.625         159.692          48.000  
C13  36790872.995   191579732.117        -128.217          48.000    36790868.866   148141582.845         -99.066          47.000  
C16  37732911.848   196485172.640         -61.422          48.000    37732906.333   151934778.408         -47.511          49.000  
R09  22755314.688   121512084.836       -3711.471          31.000    22755314.461    94509417.508       -2886.756          37.000  
R10  20385820.381   108667893.429        -584.165          46.000                                                                  
R11  21718487.933   116057021.026        3285.534          46.000    21718486.136    90266563.946        2555.396          50.000  
R08  20734486.636   111032236.883         710.397          49.000    20734481.605    86358384.957         552.533          47.000  
R07  22118998.085   118404727.169       -2147.751          48.000    22118995.648    92092556.729       -1670.494          48.000  
R23  24993693.202   133699397.932       -3802.179          38.000                                                                  
G24  23562187.681                       -3497.287          28.000    23562191.859                       -2725.302          29.000                                                                  
G23  21686676.604   113964252.571       -2546.155          46.000    21686675.292    88803306.829       -1984.094          48.000                                                                  
J02  38631918.790   203012104.807         -35.953          40.000    38631920.920   158191258.270         -28.179          41.000  
E06  24775466.691   130195955.755        -758.883          47.000    24775469.775    99760550.343        -581.488          50.000  
E09  24667665.571   129629457.616         134.533          48.000    24667667.693    99326476.306         103.162          51.000  
E31  25937122.913   136300500.470        1663.516          44.000    25937127.350   104438065.463        1274.721          47.000  
C33  23480144.870   122267277.473        1357.103          49.000                                                                  
C24  22556991.260   117460174.175         654.916          49.000                                                                  
R24  24314707.981                3      -1616.230          25.000    24314702.459                       -1256.384          29.000  
R01  23379077.309                        2883.767          27.000                                                                  
E36  26418766.457   138831551.854       -1773.552          42.000    26418771.811   106377444.078       -1358.994          46.000  
E05  25987654.096   136566036.299        1505.005          38.000    25987660.132   104641536.681        1153.207          46.000  
E04  26041177.206   136847308.734       -1549.582          41.000    26041179.911   104857038.781       -1187.281          45.000  
J03  38286465.930   201196728.794        -764.143          34.000    38286474.033   156776703.454        -595.139          39.000  
E23  26758566.734   140617218.479        -783.435          32.000    26758574.085   107745690.159        -600.753          41.000  
G31  26374023.470                        3228.967          30.000                                                                                                                                  
J07  38065094.924   200033423.525        -258.856          39.000    38065093.133   155870194.438        -201.519          44.000  
E11  26895167.910   141335070.734       -3224.149          33.000    26895177.214   108295731.349       -2470.254          40.000  
E34                                                                  27908508.551                         531.367          29.000  
G18                                                                  26225401.630   107388611.068       -2761.221          36.000                                                                  
J04                                                                  39329187.961   161046449.058         293.592          47.000  
> 2025 11 05 02 28 24.2830000  0 39                     
G10  21424805.904   112588114.822         556.899          50.000    21424804.779    87730995.154         433.949          46.000                                                                  
G28  23681591.143   124447604.632        2347.546          41.000    23681590.050    96972157.547        1829.348          43.000                                                                  
G15  25856354.283   135876049.554       -3316.499          34.000    25856362.393   105877474.821       -2583.510          35.000                                                                  
G32  22699388.157   119286089.374        1426.966          47.000    22699388.105    92950198.615        1111.894          44.000                                                                  
G12  22701662.627   119298042.565         309.046          46.000    22701660.528    92959505.302         240.709          42.000                                                                  
G25  22161212.531   116457962.372        2190.785          43.000    22161213.906    90746470.111        1706.921          42.000                                                                  
C06  37545715.906   195510396.506         105.651          44.000    37545704.965   151180996.562          81.738          46.000  
C08  36822583.584   191744857.117        -459.009          45.000    36822571.641   148269237.065        -354.901          49.000  
C14  22704435.093   118227952.815          22.324          47.000    22704425.217    91421311.875          17.100          50.000  
C09  38803096.984   202057907.490         206.591          42.000    38803089.732   156243962.229         159.836          48.000  
C13  36790873.989   191579737.242        -128.143          48.000    36790869.837   148141586.801         -98.932          47.000  
C16  37732912.313   196485175.101         -61.476          48.000    37732906.808   151934780.304         -47.418          49.000  
R09  22755342.528   121512233.311       -3711.545          31.000    22755342.303    94509533.000       -2887.110          37.000  
R10  20385824.748   108667916.797        -584.203          46.000                                                                  
R11  21718463.342   116056889.598        3285.632          46.000    21718461.546    90266461.726        2555.456          50.000  
R08  20734481.330   111032208.459         710.564          49.000    20734476.301    86358362.851         552.633          47.000  
R07  22119014.108   118404813.071       -2147.634          48.000    22119011.677    92092623.545       -1670.454          48.000  
R23  24993721.627   133699550.015       -3802.124          38.000                                                                  
G24  23562214.291                       -3497.375          28.000    23562218.513                       -2725.183          29.000                                                                  
G23  21686695.993   113964354.414       -2546.124          46.000    21686694.672    88803386.193       -1984.119          48.000                                                                  
J02  38631919.065   203012106.237         -35.790          40.000    38631921.189   158191259.388         -28.025          41.000  
E06  24775472.449   130195986.104        -758.779          47.000    24775475.563    99760573.597        -581.400          50.000  
E09  24667664.582   129629452.232         134.570          48.000    24667666.673    99326472.177         103.221          51.000  
E31  25937110.232   136300433.913        1663.751          44.000    25937114.689   104438014.467        1274.845          47.000  
C33  23480134.463   122267223.177        1357.286          49.000                                                                  
C24  22556986.241   117460147.975         654.955          49.000                                                                  
R24  24314720.093                3      -1615.424          25.000    24314714.513                       -1256.408          29.000  
R01  23379055.552                        2884.302          27.000                                                                  
E36  26418779.893   138831622.787       -1773.375          42.000    26418785.335   106377498.432       -1358.932          46.000  
E05  25987642.640   136565976.105        1504.917          38.000    25987648.620   104641490.549        1153.299          45.000  
E04  26041188.964   136847370.708       -1549.450          41.000    26041191.677   104857086.266       -1187.156          45.000  
J03  38286471.725   201196759.328        -763.643          34.000    38286479.841   156776727.257        -595.094          39.000  
E23  26758572.694   140617249.796        -782.958          32.000    26758580.039   107745714.177        -600.583          41.000  
G31  26373998.900                        3229.139          30.000                                                                                                                                  
J07  38065096.879   200033433.883        -258.895          39.000    38065095.071   155870202.507        -201.650          44.000  
E11  26895192.455   141335199.621       -3222.923          33.000    26895201.762   108295830.154       -2470.207          41.000  
E34                                                                  27908503.308                         531.474          29.000  
G18                                                                  26225428.595   107388721.520       -2761.260          36.000                                                                  
J04                                                                  39329185.095   161046437.309         293.702          47.000  
> 2025 11 05 02 28 24.3230000  0 39                     
G10  21424801.661   112588092.549         556.885          50.000    21424800.536    87730977.796         433.985          46.000                                                                  
G28  23681573.295   124447510.729        2347.624          41.000    23681572.192    96972084.376        1829.338          43.000                                                                  
G15  25856379.542   135876182.182       -3316.056          34.000    25856387.627   105877578.179       -2583.872          35.000                                                                  
G32  22699377.293   119286032.290        1427.055          47.000    22699377.241    92950154.127        1112.092          44.000                                                                  
G12  22701660.260   119298030.205         309.074          46.000    22701658.172    92959495.653         241.051          42.000                                                                  
G25  22161195.853   116457874.751        2190.589          43.000    22161197.228    90746401.821        1707.084          42.000                                                                  
C06  37545715.081   195510392.263         105.980          44.000    37545704.147   151180993.294          81.709          46.000  
C08  36822587.145   191744875.462        -458.679          45.000    36822575.159   148269251.260        -354.865          49.000  
C14  22704434.897   118227951.924          22.348          47.000    22704425.033    91421311.186          17.185          50.000  
C09  38803095.384   202057899.226         206.565          42.000    38803088.151   156243955.830         159.959          48.000  
C13  36790874.993   191579742.359        -127.954          48.000    36790870.820   148141590.763         -99.005          47.000  
C16  37732912.784   196485177.549         -61.282          48.000    37732907.270   151934782.196         -47.352          49.000  
R09  22755370.336   121512381.799       -3711.895          31.000    22755370.100    94509648.493       -2887.340          37.000  
R10  20385829.117   108667940.159        -584.119          46.000                                                                  
R11  21718438.740   116056758.164        3285.852          46.000    21718436.926    90266359.504        2555.524          50.000  
R08  20734476.033   111032180.037         710.599          49.000    20734470.988    86358340.747         552.632          47.000  
R07  22119030.172   118404898.973       -2147.558          48.000    22119027.734    92092690.353       -1670.283          48.000  
R23  24993750.081   133699702.082       -3801.838          38.000                                                                  
G24  23562240.894                       -3497.345          28.000    23562245.102                       -2724.957          29.000                                                                  
G23  21686715.357   113964456.253       -2546.008          46.000    21686714.035    88803465.545       -1983.917          48.000                                                                  
J02  38631919.343   203012107.668         -35.710          40.000    38631921.468   158191260.506         -27.917          41.000  
E06  24775478.191   130196016.450        -758.659          47.000    24775481.342    99760596.847        -581.272          50.000  
E09  24667663.538   129629446.842         134.678          48.000    24667665.684    99326468.049         103.228          51.000  
E31  25937097.601   136300367.368        1663.701          44.000    25937102.062   104437963.474        1274.861          47.000  
C33  23480124.037   122267168.883        1357.366          49.000                                                                  
C24  22556981.212   117460121.770         655.071          49.000                                                                  
R24  24314732.359                3      -1615.469          25.000    24314726.546                       -1256.359          29.000  
R01  23379034.428                        2884.028          27.000                                                                  
E36  26418793.356   138831693.718       -1773.264          42.000    26418798.861   106377552.783       -1358.803          46.000  
E05  25987631.220   136565915.891        1505.152          38.000    25987637.140   104641444.421        1153.240          45.000  
E04  26041200.758   136847432.685       -1549.414          41.000    26041203.460   104857133.745       -1187.016          45.000  
J03  38286477.552   201196789.865        -763.451          34.000    38286485.649   156776751.060        -595.088          39.000  
E23  26758578.701   140617281.185        -783.891          32.000    26758586.005   107745738.185        -600.305          41.000  
G31  26373974.288                        3229.104          30.000                                                                                                                                  
J07  38065098.857   200033444.240        -258.962          39.000    38065097.031   155870210.566        -201.554          44.000  
E11  26895217.037   141335328.569       -3223.141          33.000    26895226.283   108295928.957       -2470.138          40.000  
E34                                                                  27908498.023                         531.667          29.000  
G18                                                                  26225455.580   107388831.962       -2761.135          36.000                                                                  
J04                                                                  39329182.234   161046425.557         293.788          47.000  
> 2025 11 05 02 28 24.3630000  0 39                     
G10  21424797.427   112588070.279         556.792          50.000    21424796.310    87730960.445         433.831          46.000                                                                  
G28  23681555.438   124447416.831        2347.527          41.000    23681554.322    96972011.202        1829.379          43.000                                                                  
G15  25856404.790   135876314.842       -3316.301          34.000    25856412.883   105877681.541       -2584.039          35.000                                                                  
G32  22699366.423   119285975.202        1427.155          47.000    22699366.381    92950109.641        1112.155          44.000                                                                  
G12  22701657.901   119298017.840         309.168          46.000    22701655.837    92959486.029         240.768          42.000                                                                  
G25  22161179.156   116457787.116        2190.733          43.000    22161180.559    90746333.534        1707.145          42.000                                                                  
C06  37545714.257   195510388.029         105.957          44.000    37545703.328   151180990.025          81.704          46.000  
C08  36822590.664   191744893.826        -458.856          45.000    36822578.680   148269265.457        -354.865          49.000  
C14  22704434.718   118227951.033          22.323          47.000    22704424.867    91421310.496          17.240          50.000  
C09  38803093.764   202057890.953         206.690          42.000    38803086.572   156243949.439         159.863          48.000  
C13  36790875.961   191579747.475        -127.875          48.000    36790871.806   148141594.723         -98.999          47.000  
C16  37732913.264   196485180.000         -61.274          48.000    37732907.750   151934784.103         -47.557          49.000  
R09  22755398.108   121512530.266       -3711.836          31.000    22755397.901    94509763.957       -2886.864          37.000  
R10  20385833.500   108667963.524        -584.166          46.000                                                                  
R11  21718414.152   116056626.737        3285.754          46.000    21718412.355    90266257.277        2555.634          50.000  
R08  20734470.728   111032151.615         710.584          49.000    20734465.672    86358318.647         552.536          47.000  
R07  22119046.220   118404984.874       -2147.509          48.000    22119043.793    92092757.161       -1670.204          48.000  
R23  24993778.517   133699854.153       -3801.755          38.000                                                                  
G24  23562267.496                       -3497.164          28.000    23562271.717                       -2725.247          29.000                                                                  
G23  21686734.753   113964558.093       -2545.996          46.000    21686733.423    88803544.897       -1983.813          48.000                                                                  
J02  38631919.616   203012109.116         -36.025          40.000    38631921.724   158191261.615         -27.744          41.000  
E06  24775483.978   130196046.796        -758.614          47.000    24775487.149    99760620.099        -581.255          50.000  
E09  24667662.467   129629441.451         134.764          48.000    24667664.679    99326463.921         103.205          51.000  
E31  25937084.901   136300300.815        1663.791          44.000    25937089.421   104437912.483        1274.831          47.000  
C33  23480113.607   122267114.587        1357.407          49.000                                                                  
C24  22556976.201   117460095.564         655.139          49.000                                                                  
R24  24314744.253                3      -1614.364          25.000    24314738.624                       -1256.476          29.000  
R01  23379013.116                        2884.681          27.000                                                                  
E36  26418806.835   138831764.654       -1773.293          42.000    26418812.331   106377607.136       -1358.802          46.000  
E05  25987619.734   136565855.680        1505.245          38.000    25987625.691   104641398.290        1153.278          45.000  
E04  26041212.541   136847494.664       -1549.443          41.000    26041215.260   104857181.234       -1187.130          45.000  
J03  38286483.357   201196820.409        -763.549          34.000    38286491.462   156776774.857        -594.994          39.000  
E23  26758584.775   140617312.566        -784.351          32.000    26758591.996   107745762.207        -600.367          41.000  
G31  26373949.726                        3229.492          30.000                                                                                                                                  
J07  38065100.788   200033454.554        -258.247          39.000    38065098.998   155870218.619        -201.388          44.000  
E11  26895241.574   141335457.545       -3223.931          33.000    26895250.845   108296027.761       -2470.075          40.000  
E34                                                                  27908492.603                         531.760          29.000  
G18                                                                  26225482.570   107388942.409       -2761.164          36.000                                                                  
J04                                                                  39329179.370   161046413.814         293.670          47.000  
> 2025 11 05 02 28 24.4030000  0 39                     
G10  21424793.202   112588048.009         556.737          50.000    21424792.092    87730943.092         433.775          46.000                                                                  
G28  23681537.561   124447322.926        2347.582          41.000    23681536.459    96971938.031        1829.314          43.000                                                                  
G15  25856430.020   135876447.481       -3316.069          34.000    25856438.146   105877784.900       -2584.072          35.000                                                                  
G32  22699355.565   119285918.115        1427.191          47.000    22699355.504    92950065.150        1112.280          44.000                                                                  
G12  22701655.569   119298005.485         309.021          46.000    22701653.497    92959476.403         240.660          42.000                                                                  
G25  22161162.500   116457699.481        2190.826          43.000    22161163.889    90746265.247        1707.159          42.000                                                                  
C06  37545713.456   195510383.798         105.873          44.000    37545702.513   151180986.757          81.664          46.000  
C08  36822594.176   191744912.183        -458.850          45.000    36822582.191   148269279.646        -354.749          49.000  
C14  22704434.518   118227950.149          22.164          47.000    22704424.696    91421309.804          17.289          50.000  
C09  38803092.172   202057882.688         206.671          42.000    38803084.983   156243943.049         159.774          48.000  
C13  36790876.923   191579752.593        -127.917          48.000    36790872.792   148141598.689         -99.133          47.000  
C16  37732913.733   196485182.452         -61.250          48.000    37732908.209   151934785.997         -47.469          49.000  
R09  22755425.891   121512678.718       -3711.432          31.000    22755425.752    94509879.441       -2886.955          37.000  
R10  20385837.881   108667986.883        -584.050          46.000                                                                  
R11  21718389.575   116056495.312        3285.656          46.000    21718387.760    90266155.050        2555.682          50.000  
R08  20734465.422   111032123.199         710.458          49.000    20734460.378    86358296.538         552.650          47.000  
R07  22119062.265   118405070.777       -2147.527          48.000    22119059.822    92092823.970       -1670.197          48.000  
R23  24993806.954   133700006.236       -3801.914          38.000                                                                  
G24  23562294.121                       -3496.902          28.000    23562298.341                       -2725.327          29.000                                                                  
G23  21686754.153   113964659.936       -2546.051          46.000    21686752.807    88803624.251       -1983.807          48.000                                                                  
J02  38631919.854   203012110.537         -35.719          40.000    38631922.001   158191262.727         -27.749          41.000  
E06  24775489.771   130196077.141        -758.586          47.000    24775492.963    99760643.347        -581.195          50.000  
E09  24667661.405   129629436.056         134.866          48.000    24667663.640    99326459.787         103.305          51.000  
E31  25937072.208   136300234.263        1663.824          44.000    25937076.714   104437861.488        1274.840          47.000  
C33  23480103.171   122267060.295        1357.348          49.000                                                                  
C24  22556971.158   117460069.364         655.058          49.000                                                                  
R24  24314756.397                3      -1616.093          25.000    24314750.710                       -1256.593          29.000  
R01  23378991.136                        2884.520          27.000                                                                  
E36  26418820.400   138831835.608       -1773.610          42.000    26418825.834   106377661.489       -1358.793          46.000  
E05  25987608.264   136565795.466        1505.353          38.000    25987614.270   104641352.153        1153.397          45.000  
E04  26041224.336   136847556.633       -1549.250          41.000    26041227.049   104857228.724       -1187.188          45.000  
J03  38286489.175   201196850.949        -763.486          34.000    38286497.266   156776798.644        -594.733          40.000  
E23  26758590.726   140617343.889        -783.616          32.000    26758597.962   107745786.231        -600.485          41.000  
G31  26373925.137   138595914.610        3229.191          30.000                                                                                                                                  
J07  38065102.757   200033464.892        -258.245          39.000    38065100.969   155870226.688        -201.573          44.000  
E11  26895266.144   141335586.516       -3224.331          33.000    26895275.400   108296126.549       -2469.824          40.000  
E34                                                                  27908487.141                         531.752          29.000  
G18                                                                  26225509.546   107389052.831       -2760.656          36.000                                                                  
J04                                                                  39329176.487   161046402.063         293.769          47.000  
> 2025 11 05 02 28 24.4430000  0 39                     
G10  21424788.955   112588025.739         556.737          50.000    21424787.874    87730925.734         433.874          46.000                                                                  
G28  23681519.702   124447229.030        2347.461          41.000    23681518.584    96971864.870        1829.079          43.000                                                                  
G15  25856455.243   135876580.111       -3315.781          34.000    25856463.383   105877888.256       -2584.120          35.000                                                                  
G32  22699344.694   119285861.024        1427.293          47.000    22699344.647    92950020.669        1112.116          44.000                                                                  
G12  22701653.206   119297993.120         309.118          46.000    22701651.144    92959466.772         240.634          42.000                                                                  
G25  22161145.785   116457611.841        2190.947          43.000    22161147.191    90746196.964        1707.076          42.000                                                                  
C06  37545712.611   195510379.574         105.689          44.000    37545701.706   151180983.473          81.944          46.000  
C08  36822597.703   191744930.537        -458.856          45.000    36822585.711   148269293.843        -354.852          49.000  
C14  22704434.366   118227949.260          22.166          47.000    22704424.515    91421309.114          17.260          50.000  
C09  38803090.585   202057874.414         206.777          42.000    38803083.386   156243936.650         159.888          48.000  
C13  36790877.912   191579757.713        -127.966          48.000    36790873.782   148141602.642         -98.938          47.000  
C16  37732914.219   196485184.905         -61.307          48.000    37732908.679   151934787.887         -47.314          49.000  
R09  22755453.717   121512827.186       -3711.555          31.000    22755453.542    94509994.913       -2886.903          37.000  
R10  20385842.290   108668010.241        -583.988          46.000                                                                  
R11  21718364.979   116056363.882        3285.742          46.000    21718363.183    90266052.828        2555.579          50.000  
R08  20734460.116   111032094.779         710.484          49.000    20734455.073    86358274.433         552.636          47.000  
R07  22119078.311   118405156.674       -2147.443          48.000    22119075.871    92092890.782       -1670.271          48.000  
R23  24993835.381   133700158.304       -3801.738          38.000                                                                  
G24  23562320.692                       -3496.692          28.000    23562324.999                       -2724.763          29.000                                                                  
G23  21686773.527   113964761.776       -2546.021          46.000    21686772.176    88803703.608       -1983.875          48.000                                                                  
J02  38631920.120   203012111.960         -35.542          40.000    38631922.273   158191263.835         -27.668          41.000  
E06  24775495.579   130196107.488        -758.633          47.000    24775498.765    99760666.604        -581.333          50.000  
E09  24667660.403   129629430.659         134.944          48.000    24667662.650    99326455.654         103.352          51.000  
E31  25937059.555   136300167.710        1663.825          44.000    25937064.038   104437810.496        1274.810          47.000  
C33  23480092.724   122267006.000        1357.360          49.000                                                                  
C24  22556966.111   117460043.159         655.075          49.000                                                                  
R24  24314768.408                3      -1617.070          25.000    24314762.787                       -1256.126          29.000  
R01  23378969.490                        2884.019          27.000                                                                  
E36  26418833.855   138831906.540       -1773.467          42.000    26418839.280   106377715.842       -1358.792          46.000  
E05  25987596.814   136565735.260        1505.262          38.000    25987602.822   104641306.016        1153.419          45.000  
E04  26041236.104   136847618.598       -1549.154          41.000    26041238.820   104857276.210       -1187.182          45.000  
J03  38286495.000   201196881.494        -763.557          34.000    38286503.087   156776822.456        -595.070          40.000  
E23  26758596.710   140617375.241        -783.653          32.000    26758603.942   107745810.249        -600.434          41.000  
G31  26373900.546                        3229.285          30.000                                                                                                                                  
J07  38065104.718   200033475.261        -258.888          39.000    38065102.962   155870234.753        -201.631          44.000  
E11  26895290.704   141335715.404       -3222.995          33.000    26895299.944   108296225.345       -2469.851          40.000  
E34                                                                  27908482.319                         531.480          29.000  
G18                                                                  26225536.506   107389163.287       -2761.077          36.000                                                                  
J04                                                                  39329173.621   161046390.317         293.682          47.000  
> 2025 11 05 02 28 24.4830000  0 39                     
G10  21424784.714   112588003.460         556.892          50.000    21424783.629    87730908.374         433.991          46.000                                                                  
G28  23681501.841   124447135.118        2347.698          41.000    23681500.712    96971791.701        1829.133          43.000                                                                  
G15  25856480.441   135876712.693       -3314.747          34.000    25856488.630   105877991.620       -2584.190          35.000                                                                  
G32  22699333.806   119285803.936        1427.282          47.000    22699333.792    92949976.195        1111.922          44.000                                                                  
G12  22701650.884   119297980.771         308.846          46.000    22701648.790    92959457.144         240.625          42.000                                                                  
G25  22161129.109   116457524.216        2190.778          43.000    22161130.510    90746128.681        1707.045          42.000                                                                  
C06  37545711.785   195510375.336         105.830          44.000    37545700.893   151180980.194          82.004          46.000  
C08  36822601.197   191744948.890        -458.814          45.000    36822589.232   148269308.034        -354.822          49.000  
C14  22704434.193   118227948.363          22.318          47.000    22704424.344    91421308.426          17.205          50.000  
C09  38803089.002   202057866.120         207.247          42.000    38803081.803   156243930.253         159.925          48.000  
C13  36790878.914   191579762.825        -127.832          48.000    36790874.768   148141606.593         -98.810          47.000  
C16  37732914.683   196485187.352         -61.222          48.000    37732909.151   151934789.777         -47.251          49.000  
R09  22755481.567   121512975.647       -3711.603          31.000    22755481.380    94510110.385       -2886.838          37.000  
R10  20385846.685   108668033.606        -584.087          46.000                                                                  
R11  21718340.384   116056232.447        3285.883          46.000    21718338.582    90265950.607        2555.505          50.000  
R08  20734454.831   111032066.352         710.603          49.000    20734449.763    86358252.319         552.805          47.000  
R07  22119094.340   118405242.574       -2147.466          48.000    22119091.907    92092957.601       -1670.422          48.000  
R23  24993863.811   133700310.373       -3801.671          38.000                                                                  
G24  23562347.311                       -3496.595          28.000    23562351.622                       -2724.754          29.000                                                                  
G23  21686792.886   113964863.610       -2545.917          46.000    21686791.570    88803782.963       -1983.881          48.000                                                                  
J02  38631920.405   203012113.381         -35.439          40.000    38631922.546   158191264.963         -28.013          41.000  
E06  24775501.347   130196137.830        -758.558          47.000    24775504.536    99760689.853        -581.266          50.000  
E09  24667659.417   129629425.263         134.980          48.000    24667661.627    99326451.516         103.434          51.000  
E31  25937046.892   136300101.157        1663.855          44.000    25937051.365   104437759.500        1274.856          47.000  
C33  23480082.322   122266951.703        1357.390          49.000                                                                  
C24  22556961.078   117460016.954         655.115          49.000                                                                  
R24  24314780.506                3      -1616.619          25.000    24314774.850                       -1256.292          29.000  
R01  23378948.390                        2883.901          27.000                                                                  
E36  26418847.362   138831977.468       -1773.298          42.000    26418852.824   106377770.192       -1358.754          46.000  
E05  25987585.339   136565675.041        1505.462          38.000    25987591.369   104641259.875        1153.534          45.000  
E04  26041247.901   136847680.559       -1549.048          41.000    26041250.614   104857323.687       -1187.027          45.000  
J03  38286500.804   201196912.019        -763.224          34.000    38286508.917   156776846.255        -595.022          40.000  
E23  26758602.635   140617406.572        -783.314          32.000    26758609.884   107745834.264        -600.361          41.000  
G31  26373875.974                        3229.236          30.000                                                                                                                                  
J07  38065106.694   200033485.584        -258.373          39.000    38065104.925   155870242.808        -201.507          44.000  
E11  26895315.213   141335844.376       -3223.766          33.000    26895324.492   108296324.147       -2469.894          40.000  
E34                                                                  27908477.138                         531.492          29.000  
G18                                                                  26225563.490   107389273.715       -2760.826          36.000                                                                  
J04                                                                  39329170.737   161046378.568         293.676          47.000  
> 2025 11 05 02 28 24.5230000  0 39                     
G10  21424780.468   112587981.184         556.928          50.000    21424779.394    87730891.019         433.910          46.000                                                                  
G28  23681483.978   124447041.212        2347.689          41.000    23681482.853    96971718.522        1829.357          43.000                                                                  
G15  25856505.689   135876845.378       -3316.158          34.000    25856513.853   105878094.940       -2583.451          35.000                                                                  
G32  22699322.926   119285746.843        1427.310          47.000    22699322.905    92949931.706        1112.077          44.000                                                                  
G12  22701648.512   119297968.409         308.909          46.000    22701646.440    92959447.497         240.974          42.000                                                                  
G25  22161112.445   116457436.578        2190.855          43.000    22161113.811    90746060.395        1707.102          42.000                                                                  
C06  37545710.987   195510371.086         106.183          44.000    37545700.071   151180976.921          81.907          46.000  
C08  36822604.735   191744967.243        -458.826          45.000    36822592.746   148269322.226        -354.803          49.000  
C14  22704434.044   118227947.462          22.444          47.000    22704424.169    91421307.738          17.188          50.000  
C09  38803087.403   202057857.845         207.064          42.000    38803080.203   156243923.855         159.949          48.000  
C13  36790879.891   191579767.940        -127.844          48.000    36790875.759   148141610.552         -98.926          47.000  
C16  37732915.143   196485189.801         -61.260          48.000    37732909.621   151934791.667         -47.224          49.000  
R09  22755509.374   121513124.140       -3712.177          31.000    22755509.197    94510225.870       -2887.099          37.000  
R10  20385851.056   108668056.970        -584.124          46.000                                                                  
R11  21718315.794   116056101.014        3285.895          46.000    21718313.991    90265848.386        2555.481          50.000  
R08  20734449.537   111032037.927         710.634          49.000    20734444.434    86358230.209         552.797          47.000  
R07  22119110.365   118405328.467       -2147.363          48.000    22119107.930    92093024.406       -1670.291          48.000  
R23  24993892.225   133700462.445       -3801.753          38.000                                                                  
G24  23562373.936                       -3496.503          28.000    23562378.264                       -2724.731          29.000                                                                  
G23  21686812.262   113964965.448       -2545.911          46.000    21686810.938    88803862.312       -1983.789          48.000                                                                  
J02  38631920.693   203012114.800         -35.386          40.000    38631922.816   158191266.068         -27.821          41.000  
E06  24775507.144   130196168.174        -758.582          47.000    24775510.308    99760713.105        -581.302          50.000  
E09  24667658.371   129629419.864         135.000          48.000    24667660.593    99326447.379         103.455          51.000  
E31  25937034.228   136300034.599        1663.932          44.000    25937038.719   104437708.501        1274.925          47.000  
C33  23480071.891   122266897.400        1357.490          49.000                                                                  
C24  22556956.071   117459990.749         655.113          49.000                                                                  
R24  24314792.601                3      -1614.472          25.000    24314786.958                       -1256.311          29.000  
R01  23378926.762                        2883.848          27.000                                                                  
E36  26418860.884   138832048.408       -1773.371          42.000    26418866.320   106377824.537       -1358.671          46.000  
E05  25987573.898   136565614.838        1505.302          38.000    25987579.868   104641213.738        1153.500          46.000  
E04  26041259.678   136847742.530       -1549.118          41.000    26041262.409   104857371.165       -1186.951          45.000  
J03  38286506.600   201196942.545        -763.042          34.000    38286514.719   156776870.038        -594.729          40.000  
E23  26758608.638   140617437.907        -783.248          32.000    26758615.893   107745858.286        -600.481          41.000  
G31  26373851.379                        3228.990          30.000                                                                                                                                  
J07  38065108.669   200033495.925        -258.453          39.000    38065106.883   155870250.860        -201.368          44.000  
E11  26895339.778   141335973.302       -3223.371          33.000    26895349.028   108296422.928       -2469.623          40.000  
E34                                                                  27908471.928                         531.524          28.000  
G18                                                                  26225590.476   107389384.139       -2760.638          36.000                                                                  
J04                                                                  39329167.869   161046366.814         293.805          47.000  
> 2025 11 05 02 28 24.5630000  0 39                     
G10  21424776.276   112587958.915         556.786          50.000    21424775.150    87730873.664         433.861          46.000                                                                  
G28  23681466.116   124446947.297        2347.820          41.000    23681464.971    96971645.347        1829.397          43.000                                                                  
G15  25856530.915   135876978.002       -3315.971          34.000    25856539.093   105878198.305       -2583.901          35.000                                                                  
G32  22699312.065   119285689.761        1427.146          47.000    22699312.052    92949887.226        1112.012          44.000                                                                  
G12  22701646.143   119297956.048         308.942          46.000    22701644.086    92959437.870         240.811          42.000                                                                  
G25  22161095.758   116457348.949        2190.762          43.000    22161097.109    90745992.107        1707.168          42.000                                                                  
C06  37545710.174   195510366.848         106.100          44.000    37545699.270   151180973.645          81.859          46.000  
C08  36822608.261   191744985.595        -458.838          45.000    36822596.263   148269336.422        -354.889          49.000  
C14  22704433.873   118227946.574          22.276          47.000    22704424.007    91421307.048          17.194          50.000  
C09  38803085.795   202057849.593         206.477          42.000    38803078.618   156243917.455         159.973          48.000  
C13  36790880.853   191579773.067        -128.094          48.000    36790876.735   148141614.510         -98.969          47.000  
C16  37732915.589   196485192.251         -61.294          48.000    37732910.086   151934793.564         -47.356          49.000  
R09  22755537.184   121513272.615       -3712.094          31.000    22755536.981    94510341.348       -2887.122          37.000  
R10  20385855.444   108668080.335        -584.189          46.000                                                                  
R11  21718291.213   116055969.586        3285.760          46.000    21718289.400    90265746.166        2555.438          50.000  
R08  20734444.224   111032009.499         710.689          49.000    20734439.120    86358208.104         552.688          47.000  
R07  22119126.426   118405414.369       -2147.488          48.000    22119123.986    92093091.222       -1670.365          48.000  
R23  24993920.655   133700614.513       -3801.728          38.000                                                                  
G24  23562400.537                       -3496.611          28.000    23562404.893                       -2724.814          29.000                                                                  
G23  21686831.635   113965067.295       -2546.106          46.000    21686830.319    88803941.676       -1984.009          48.000                                                                  
J02  38631920.971   203012116.243         -35.853          40.000    38631923.088   158191267.182         -27.872          41.000  
E06  24775512.942   130196198.515        -758.563          47.000    24775516.088    99760736.351        -581.220          50.000  
E09  24667657.416   129629414.472         134.887          48.000    24667659.602    99326443.249         103.334          51.000  
E31  25937021.647   136299968.045        1663.863          44.000    25937026.018   104437657.502        1274.957          47.000  
C33  23480061.456   122266843.105        1357.393          49.000                                                                  
C24  22556951.024   117459964.549         655.035          49.000                                                                  
R24  24314804.839                3      -1615.263          25.000    24314799.106                       -1256.250          29.000  
R01  23378905.359                        2884.102          27.000                                                                  
E36  26418874.388   138832119.343       -1773.377          42.000    26418879.795   106377878.901       -1358.905          46.000  
E05  25987562.456   136565554.633        1505.179          38.000    25987568.385   104641167.611        1153.297          46.000  
E04  26041271.479   136847804.495       -1549.106          41.000    26041274.251   104857418.644       -1186.960          45.000  
J03  38286512.406   201196973.109        -763.797          34.000    38286520.519   156776893.817        -594.470          40.000  
E23  26758614.633   140617469.260        -783.671          32.000    26758621.884   107745882.310        -600.593          41.000  
G31  26373826.789   138595397.956        3228.750          30.000                                                                                                                                  
J07  38065110.620   200033506.277        -258.705          39.000    38065108.852   155870258.912        -201.287          44.000  
E11  26895364.309   141336102.249       -3223.503          33.000    26895373.612   108296521.736       -2469.968          40.000  
E34                                                                  27908466.400                         531.488          28.000  
G18                                                                  26225617.443   107389494.590       -2760.961          36.000                                                                  
J04                                                                  39329165.003   161046355.065         293.725          47.000  
> 2025 11 05 02 28 24.6030000  0 39                     
G10  21424772.058   112587936.649         556.650          50.000    21424770.919    87730856.312         433.769          46.000                                                                  
G28  23681448.263   124446853.403        2347.499          41.000    23681447.094    96971572.167        1829.471          43.000                                                                  
G15  25856556.164   135877110.661       -3316.447          34.000    25856564.349   105878301.664       -2584.027          35.000                                                                  
G32  22699301.234   119285632.682        1426.991          47.000    22699301.189    92949842.744        1111.998          44.000                                                                  
G12  22701643.797   119297943.696         308.840          46.000    22701641.730    92959428.251         240.556          42.000                                                                  
G25  22161079.084   116457261.329        2190.523          43.000    22161080.426    90745923.823        1707.131          42.000                                                                  
C06  37545709.363   195510362.618         105.838          44.000    37545698.451   151180970.375          81.721          46.000  
C08  36822611.775   191745003.955        -458.978          45.000    36822599.796   148269350.613        -354.840          49.000  
C14  22704433.702   118227945.685          22.186          47.000    22704423.843    91421306.353          17.305          50.000  
C09  38803084.188   202057841.328         206.407          42.000    38803077.033   156243911.058         159.928          48.000  
C13  36790881.843   191579778.185        -128.076          48.000    36790877.722   148141618.467         -98.969          47.000  
C16  37732916.054   196485194.698         -61.260          48.000    37732910.568   151934795.464         -47.487          49.000  
R09  22755565.016   121513421.097       -3712.329          31.000    22755564.829    94510456.817       -2886.930          37.000  
R10  20385859.825   108668103.702        -584.231          46.000                                                                  
R11  21718266.642   116055838.157        3285.736          46.000    21718264.795    90265643.943        2555.487          50.000  
R08  20734438.921   111031981.081         710.524          49.000    20734433.841    86358186.005         552.507          47.000  
R07  22119142.472   118405500.280       -2147.683          48.000    22119140.029    92093158.034       -1670.344          48.000  
R23  24993949.081   133700766.598       -3801.994          38.000                                                                  
G24  23562427.120                       -3497.032          28.000    23562431.509    96484209.231       -2724.690          29.000                                                                  
G23  21686851.024   113965169.141       -2546.173          46.000    21686849.705    88804021.041       -1984.155          48.000                                                                  
J02  38631921.230   203012117.684         -36.084          40.000    38631923.336   158191268.297         -27.924          41.000  
E06  24775518.682   130196228.858        -758.566          47.000    24775521.823    99760759.602        -581.240          50.000  
E09  24667656.481   129629409.085         134.749          48.000    24667658.578    99326439.121         103.246          51.000  
E31  25937008.993   136299901.506        1663.585          44.000    25937013.333   104437606.513        1274.819          47.000  
C33  23480051.016   122266788.812        1357.318          49.000                                                                  
C24  22556945.977   117459938.348         654.984          49.000                                                                  
R24  24314816.923                3      -1616.200          25.000    24314811.174                       -1256.317          29.000  
R01  23378883.814                        2883.660          27.000                                                                  
E36  26418887.937   138832190.282       -1773.468          42.000    26418893.274   106377933.253       -1358.889          46.000  
E05  25987550.940   136565494.416        1505.300          38.000    25987556.939   104641121.478        1153.276          46.000  
E04  26041283.289   136847866.464       -1549.193          41.000    26041286.029   104857466.125       -1186.996          45.000  
J03  38286518.223   201197003.638        -763.565          34.000    38286526.322   156776917.619        -594.812          40.000  
E23  26758620.547   140617500.587        -783.419          32.000    26758627.821   107745906.343        -600.741          41.000  
G31  26373802.173   138595268.780        3228.961          30.000                                                                                                                                  
J07  38065112.605   200033516.621        -258.633          39.000    38065110.822   155870266.973        -201.459          44.000  
E11  26895388.879   141336231.167       -3223.165          33.000    26895398.152   108296620.535       -2469.975          40.000  
E34                                                                  27908460.987                         531.438          28.000  
G18                                                                  26225644.413   107389605.038       -2761.197          36.000                                                                  
J04                                                                  39329162.144   161046343.317         293.700          47.000  
> 2025 11 05 02 28 24.6430000  0 39                     
G10  21424767.811   112587914.382         556.602          50.000    21424766.674    87730838.964         433.671          46.000                                                                  
G28  23681430.391   124446759.514        2347.238          41.000    23681429.224    96971498.994        1829.373          43.000                                                                  
G15  25856581.407   135877243.280       -3316.047          34.000    25856589.592   105878405.019       -2583.954          35.000                                                                  
G32  22699290.368   119285575.596        1427.036          47.000    22699290.313    92949798.258        1112.078          44.000                                                                  
G12  22701641.462   119297931.342         308.816          46.000    22701639.368    92959418.621         240.593          42.000                                                                  
G25  22161062.410   116457173.702        2190.567          43.000    22161063.760    90745855.550        1706.877          42.000                                                                  
C06  37545708.539   195510358.387         105.718          44.000    37545697.633   151180967.105          81.646          46.000  
C08  36822615.311   191745022.311        -458.960          45.000    36822603.320   148269364.809        -354.895          49.000  
C14  22704433.529   118227944.794          22.195          47.000    22704423.662    91421305.668          17.185          50.000  
C09  38803082.597   202057833.061         206.520          42.000    38803075.446   156243904.672         159.696          48.000  
C13  36790882.835   191579783.301        -127.979          48.000    36790878.689   148141622.427         -99.036          47.000  
C16  37732916.522   196485197.145         -61.222          48.000    37732911.042   151934797.367         -47.615          49.000  
R09  22755592.815   121513569.540       -3711.598          31.000    22755592.628    94510572.276       -2886.742          37.000  
R10  20385864.217   108668127.079        -584.427          46.000                                                                  
R11  21718242.059   116055706.733        3285.608          46.000    21718240.204    90265541.721        2555.518          50.000  
R08  20734433.632   111031952.664         710.444          49.000    20734428.517    86358163.904         552.440          47.000  
R07  22119158.516   118405586.185       -2147.697          48.000    22119156.085    92093224.849       -1670.382          48.000  
R23  24993977.519   133700918.664       -3801.771          38.000                                                                  
G24  23562453.749                       -3497.099          28.000    23562458.158                       -2724.985          29.000                                                                  
G23  21686870.390   113965270.984       -2546.118          46.000    21686869.089    88804100.399       -1984.070          48.000                                                                  
J02  38631921.505   203012119.105         -35.799          40.000    38631923.619   158191269.404         -27.816          41.000  
E06  24775524.498   130196259.205        -758.654          47.000    24775527.582    99760782.851        -581.230          50.000  
E09  24667655.493   129629403.692         134.748          48.000    24667657.547    99326434.988         103.271          51.000  
E31  25936996.370   136299834.959        1663.579          44.000    25937000.663   104437555.522        1274.771          47.000  
C33  23480040.565   122266734.515        1357.358          49.000                                                                  
C24  22556940.941   117459912.153         654.876          49.000                                                                  
R24  24314828.973                3      -1614.838          25.000    24314823.257                       -1256.366          29.000  
R01  23378862.449                        2883.788          27.000                                                                  
E36  26418901.459   138832261.229       -1773.628          42.000    26418906.814   106377987.609       -1358.933          46.000  
E05  25987539.472   136565434.193        1505.437          38.000    25987545.506   104641075.340        1153.360          46.000  
E04  26041295.086   136847928.438       -1549.281          41.000    26041297.821   104857513.608       -1187.034          45.000  
J03  38286524.028   201197034.190        -763.787          34.000    38286532.136   156776941.432        -595.221          40.000  
E23  26758626.453   140617531.963        -784.078          32.000    26758633.772   107745930.370        -600.766          41.000  
G31  26373777.574   138595139.594        3229.360          30.000                                                                                                                                  
J07  38065114.562   200033526.953        -258.393          39.000    38065112.819   155870275.041        -201.645          44.000  
E11  26895413.411   141336360.092       -3223.075          33.000    26895422.702   108296719.324       -2469.846          40.000  
E34                                                                  27908455.830                         531.563          28.000  
G18                                                                  26225671.375   107389715.482       -2761.138          36.000                                                                  
J04                                                                  39329159.286   161046331.566         293.725          47.000  
> 2025 11 05 02 28 24.6830000  0 39                     
G10  21424763.558   112587892.108         556.726          50.000    21424762.420    87730821.609         433.764          46.000                                                                  
G28  23681412.515   124446665.596        2347.708          41.000    23681411.350    96971425.836        1829.050          43.000                                                                  
G15  25856606.671   135877375.915       -3315.999          34.000    25856614.848   105878508.367       -2583.859          35.000                                                                  
G32  22699279.505   119285518.496        1427.338          47.000    22699279.446    92949753.771        1112.128          44.000                                                                  
G12  22701639.097   119297918.979         308.975          46.000    22701637.019    92959408.993         240.601          42.000                                                                  
G25  22161045.731   116457086.060        2190.848          43.000    22161047.098    90745787.267        1706.959          42.000                                                                  
C06  37545707.708   195510354.157         105.658          44.000    37545696.808   151180963.819          81.967          46.000  
C08  36822618.828   191745040.657        -458.759          45.000    36822606.843   148269378.998        -354.810          49.000  
C14  22704433.371   118227943.897          22.334          47.000    22704423.478    91421304.979          17.167          50.000  
C09  38803081.000   202057824.781         206.841          42.000    38803073.853   156243898.271         159.843          48.000  
C13  36790883.807   191579788.414        -127.869          48.000    36790879.669   148141626.378         -98.859          47.000  
C16  37732917.009   196485199.595         -61.248          48.000    37732911.510   151934799.252         -47.361          49.000  
R09  22755620.634   121513717.980       -3711.075          31.000    22755620.401    94510687.772       -2887.242          37.000  
R10  20385868.621   108668150.442        -584.255          46.000                                                                  
R11  21718217.452   116055575.299        3285.773          46.000    21718215.610    90265439.500        2555.493          50.000  
R08  20734428.307   111031924.240         710.514          49.000    20734423.218    86358141.793         552.656          47.000  
R07  22119174.552   118405672.078       -2147.466          48.000    22119172.133    92093291.655       -1670.248          48.000  
R23  24994005.962   133701070.720       -3801.415          39.000                                                                  
G24  23562480.378                       -3497.485          28.000    23562484.805                       -2725.234          28.000                                                                  
G23  21686889.772   113965372.824       -2546.027          46.000    21686888.466    88804179.754       -1983.936          48.000                                                                  
J02  38631921.783   203012120.524         -35.544          40.000    38631923.885   158191270.503         -27.556          41.000  
E06  24775530.248   130196289.547        -758.607          47.000    24775533.408    99760806.104        -581.297          50.000  
E09  24667654.397   129629398.293         134.896          48.000    24667656.477    99326430.852         103.329          51.000  
E31  25936983.714   136299768.402        1663.781          44.000    25936987.993   104437504.529        1274.781          47.000  
C33  23480030.133   122266680.218        1357.384          49.000                                                                  
C24  22556935.915   117459885.947         655.051          49.000                                                                  
R24  24314840.837                3      -1615.242          25.000    24314835.365                       -1256.753          29.000  
R01  23378840.930                        2884.292          27.000                                                                  
E36  26418914.913   138832332.160       -1773.456          42.000    26418920.295   106378041.967       -1358.958          46.000  
E05  25987528.030   136565373.977        1505.423          38.000    25987534.056   104641029.203        1153.388          46.000  
E04  26041306.871   136847990.405       -1549.245          41.000    26041309.597   104857561.089       -1187.066          45.000  
J03  38286529.830   201197064.703        -763.309          34.000    38286537.953   156776965.232        -595.174          40.000  
E23  26758632.453   140617563.319        -784.063          32.000    26758639.700   107745954.388        -600.617          41.000  
G31  26373752.993   138595010.407        3229.827          30.000                                                                                                                                  
J07  38065116.542   200033537.284        -258.243          39.000    38065114.770   155870283.094        -201.472          44.000  
E11  26895437.950   141336489.056       -3223.675          33.000    26895447.245   108296818.140       -2470.208          40.000  
E34                                                                  27908450.747                         531.650          28.000  
G18                                                                  26225698.323   107389825.915       -2761.019          36.000                                                                  
J04                                                                  39329156.410   161046319.811         293.805          47.000  
> 2025 11 05 02 28 24.7230000  0 39                     
G10  21424759.323   112587869.838         556.738          50.000    21424758.183    87730804.257         433.783          46.000                                                                  
G28  23681394.626   124446571.695        2347.601          41.000    23681393.478    96971352.666        1829.106          43.000                                                                  
G15  25856631.949   135877508.547       -3315.873          34.000    25856640.078   105878611.690       -2583.344          35.000                                                                  
G32  22699268.643   119285461.402        1427.390          47.000    22699268.585    92949709.283        1112.187          44.000                                                                  
G12  22701636.730   119297906.611         309.114          46.000    22701634.676    92959399.367         240.584          42.000                                                                  
G25  22161029.070   116456998.427        2190.877          43.000    22161030.386    90745718.969        1707.291          42.000                                                                  
C06  37545706.907   195510349.909         105.949          44.000    37545695.979   151180960.539          82.007          46.000  
C08  36822622.386   191745059.010        -458.801          45.000    36822610.377   148269393.188        -354.755          49.000  
C14  22704433.226   118227943.005          22.300          47.000    22704423.299    91421304.286          17.261          50.000  
C09  38803079.419   202057816.493         207.159          42.000    38803072.259   156243891.872         159.918          48.000  
C13  36790884.807   191579793.523        -127.728          48.000    36790880.656   148141630.332         -98.822          47.000  
C16  37732917.471   196485202.042         -61.214          48.000    37732911.972   151934801.139         -47.228          49.000  
R09  22755648.471   121513866.512       -3712.704          31.000    22755648.210    94510803.247       -2887.014          37.000  
R10  20385872.993   108668173.811        -584.242          46.000                                                                  
R11  21718192.864   116055443.870        3285.748          46.000    21718191.010    90265337.277        2555.530          50.000  
R08  20734422.983   111031895.811         710.653          49.000    20734417.926    86358119.685         552.699          47.000  
R07  22119190.622   118405757.974       -2147.404          48.000    22119188.163    92093358.460       -1670.165          48.000  
R23  24994034.383   133701222.787       -3801.405          39.000                                                                  
G24  23562507.041                       -3497.445          28.000    23562511.452                       -2725.187          28.000                                                                  
G23  21686909.132   113965474.657       -2545.850          46.000    21686907.841    88804259.104       -1983.771          48.000                                                                  
J02  38631922.036   203012121.937         -35.319          40.000    38631924.140   158191271.609         -27.552          41.000  
E06  24775535.967   130196319.888        -758.554          47.000    24775539.191    99760829.352        -581.228          50.000  
E09  24667653.277   129629392.890         135.026          48.000    24667655.450    99326426.714         103.413          51.000  
E31  25936971.029   136299701.848        1663.843          44.000    25936975.329   104437453.529        1274.908          47.000  
C33  23480019.722   122266625.918        1357.446          49.000                                                                  
C24  22556930.868   117459859.735         655.217          49.000                                                                  
R24  24314853.229                3      -1614.409          25.000    24314847.452                       -1256.360          29.000  
R01  23378819.169                        2884.768          27.000                                                                  
E36  26418928.420   138832403.090       -1773.332          42.000    26418933.803   106378096.317       -1358.854          46.000  
E05  25987516.547   136565313.769        1505.298          38.000    25987522.589   104640983.063        1153.455          46.000  
E04  26041318.607   136848052.355       -1548.915          41.000    26041321.450   104857608.575       -1187.150          45.000  
J03  38286535.646   201197095.228        -763.164          34.000    38286543.747   156776989.013        -594.805          40.000  
E23  26758638.469   140617594.673        -783.990          32.000    26758645.668   107745978.392        -600.277          41.000  
G31  26373728.386   138594881.234        3229.748          30.000                                                                                                                                  
J07  38065118.532   200033547.621        -258.267          39.000    38065116.744   155870291.149        -201.402          44.000  
E11  26895462.484   141336618.014       -3224.000          33.000    26895471.773   108296916.933       -2469.977          41.000  
E34                                                                  27908445.401                         531.655          28.000  
G18                                                                  26225725.298   107389936.374       -2761.325          36.000                                                                  
J04                                                                  39329153.539   161046308.053         293.909          47.000  
> 2025 11 05 02 28 24.7630000  0 39                     
G10  21424755.086   112587847.567         556.756          50.000    21424753.954    87730786.895         433.967          46.000                                                                  
G28  23681376.742   124446477.774        2347.917          41.000    23681375.580    96971279.482        1829.419          43.000                                                                  
G15  25856657.185   135877641.152       -3315.140          34.000    25856665.330   105878715.045       -2583.674          35.000                                                                  
G32  22699257.789   119285404.311        1427.331          47.000    22699257.711    92949664.791        1112.259          44.000                                                                  
G12  22701634.409   119297894.257         308.926          46.000    22701632.331    92959389.739         240.620          42.000                                                                  
G25  22161012.415   116456910.790        2190.902          43.000    22161013.701    90745650.686        1707.209          42.000                                                                  
C06  37545706.119   195510345.663         106.082          44.000    37545695.155   151180957.256          82.061          46.000  
C08  36822625.906   191745077.364        -458.832          45.000    36822613.902   148269407.373        -354.669          49.000  
C14  22704433.060   118227942.111          22.325          47.000    22704423.142    91421303.592          17.318          50.000  
C09  38803077.844   202057808.215         207.078          42.000    38803070.669   156243885.465         160.106          48.000  
C13  36790885.764   191579798.642        -127.881          48.000    36790881.641   148141634.288         -98.865          47.000  
C16  37732917.920   196485204.487         -61.169          48.000    37732912.454   151934803.022         -47.095          49.000  
R09  22755676.269   121514014.981       -3712.354          31.000    22755676.031    94510918.699       -2886.497          37.000  
R10  20385877.392   108668197.173        -584.128          46.000                                                                  
R11  21718168.286   116055312.443        3285.687          46.000    21718166.426    90265235.050        2555.639          50.000  
R08  20734417.668   111031867.385         710.670          49.000    20734412.592    86358097.573         552.786          47.000  
R07  22119206.676   118405843.873       -2147.438          48.000    22119204.216    92093425.270       -1670.198          48.000  
R23  24994062.796   133701374.846       -3801.385          39.000                                                                  
G24  23562533.661                       -3497.550          28.000    23562538.084                       -2724.937          28.000                                                                  
G23  21686928.516   113965576.497       -2545.941          46.000    21686927.222    88804338.456       -1983.740          48.000                                                                  
J02  38631922.289   203012123.358         -35.396          40.000    38631924.419   158191272.726         -27.762          41.000  
E06  24775541.690   130196350.227        -758.489          47.000    24775544.930    99760852.596        -581.139          50.000  
E09  24667652.264   129629387.489         135.050          48.000    24667654.406    99326422.576         103.462          51.000  
E31  25936958.313   136299635.284        1664.019          44.000    25936962.660   104437402.531        1274.949          47.000  
C33  23480009.276   122266571.620        1357.451          49.000                                                                  
C24  22556925.805   117459833.529         655.210          49.000                                                                  
R24  24314865.368                3      -1615.254          25.000    24314859.529                       -1256.519          29.000  
R01  23378797.362                        2884.707          27.000                                                                  
E36  26418941.934   138832474.017       -1773.229          42.000    26418947.314   106378150.666       -1358.793          46.000  
E05  25987505.086   136565253.570        1505.059          38.000    25987511.185   104640936.916        1153.620          46.000  
E04  26041330.386   136848114.324       -1548.996          41.000    26041333.228   104857656.051       -1187.022          45.000  
J03  38286541.459   201197125.766        -763.314          34.000    38286549.553   156777012.790        -594.543          40.000  
E23  26758644.431   140617626.019        -783.754          32.000    26758651.622   107746002.414        -600.377          41.000  
G31  26373703.839   138594752.049        3229.661          30.000                                                                                                                                  
J07  38065120.512   200033557.964        -258.404          39.000    38065118.698   155870299.201        -201.320          44.000  
E11  26895487.063   141336746.893       -3222.756          33.000    26895496.310   108297015.713       -2469.666          41.000  
E34                                                                  27908440.318                         531.605          28.000  
G18                                                                  26225752.275   107390046.808       -2761.024          36.000                                                                  
J04                                                                  39329150.648   161046296.292         294.007          47.000  
> 2025 11 05 02 28 24.8030000  0 39                     
G10  21424750.822   112587825.291         556.873          50.000    21424749.713    87730769.535         434.028          46.000                                                                  
G28  23681358.870   124446383.879        2347.550          41.000    23681357.721    96971206.307        1829.468          43.000                                                                  
G15  25856682.406   135877773.755       -3314.885          34.000    25856690.589   105878818.399       -2583.773          35.000                                                                  
G32  22699246.939   119285347.214        1427.386          47.000    22699246.859    92949620.298        1112.343          44.000                                                                  
G12  22701632.059   119297881.894         309.008          46.000    22701629.965    92959380.090         241.031          42.000                                                                  
G25  22160995.730   116456823.155        2190.894          43.000    22160997.004    90745582.385        1707.501          42.000                                                                  
C06  37545705.318   195510341.416         106.202          44.000    37545694.328   151180953.970          82.148          46.000  
C08  36822629.427   191745095.710        -458.704          45.000    36822617.428   148269421.560        -354.663          49.000  
C14  22704432.880   118227941.208          22.486          47.000    22704422.957    91421302.891          17.465          50.000  
C09  38803076.252   202057799.934         207.043          42.000    38803069.087   156243879.059         160.178          48.000  
C13  36790886.749   191579803.746        -127.704          48.000    36790882.620   148141638.234         -98.718          47.000  
C16  37732918.368   196485206.923         -60.982          48.000    37732912.910   151934804.912         -47.172          49.000  
R09  22755704.072   121514163.418       -3711.385          31.000    22755703.837    94511034.176       -2886.640          37.000  
R10  20385881.804   108668220.529        -583.937          46.000                                                                  
R11  21718143.686   116055181.005        3285.870          46.000    21718141.819    90265132.821        2555.707          50.000  
R08  20734412.360   111031838.957         710.719          49.000    20734407.295    86358075.465         552.766          47.000  
R07  22119222.706   118405929.767       -2147.379          48.000    22119220.280    92093492.075       -1670.153          48.000  
R23  24994091.220   133701526.898       -3801.305          39.000                                                                  
G24  23562560.269                       -3497.354          28.000    23562564.677                       -2724.594          28.000                                                                  
G23  21686947.916   113965678.330       -2545.844          46.000    21686946.610    88804417.810       -1983.813          48.000                                                                  
J02  38631922.564   203012124.776         -35.339          40.000    38631924.685   158191273.844         -27.927          41.000  
E06  24775547.483   130196380.563        -758.412          47.000    24775550.684    99760875.836        -581.028          50.000  
E09  24667651.186   129629382.084         135.138          48.000    24667653.376    99326418.432         103.581          51.000  
E31  25936945.663   136299568.721        1664.064          44.000    25936950.015   104437351.533        1274.965          47.000  
C33  23479998.830   122266517.311        1357.647          49.000                                                                  
C24  22556920.770   117459807.320         655.234          49.000                                                                  
R24  24314877.771                3      -1616.020          25.000    24314871.598                       -1256.304          29.000  
R01  23378775.858                        2884.898          27.000                                                                  
E36  26418955.429   138832544.949       -1773.270          42.000    26418960.811   106378205.020       -1358.809          46.000  
E05  25987493.607   136565193.336        1505.524          38.000    25987499.717   104640890.768        1153.690          46.000  
E04  26041342.156   136848176.285       -1549.006          41.000    26041345.009   104857703.525       -1186.912          45.000  
J03  38286547.268   201197156.275        -762.885          34.000    38286555.366   156777036.577        -594.547          40.000  
E23  26758650.407   140617657.360        -783.492          32.000    26758657.574   107746026.430        -600.389          41.000  
G31  26373679.252   138594622.884        3229.194          31.000                                                                                                                                  
J07  38065122.489   200033568.299        -258.392          39.000    38065120.667   155870307.248        -201.215          44.000  
E11  26895511.556   141336875.835       -3223.009          33.000    26895520.836   108297114.507       -2469.729          41.000  
E34                                                                  27908434.700                         531.378          28.000  
G18                                                                  26225779.228   107390157.233       -2760.708          36.000                                                                  
J04                                                                  39329147.784   161046284.533         294.019          47.000  
> 2025 11 05 02 28 24.8430000  0 39                     
G10  21424746.565   112587803.008         557.045          50.000    21424745.473    87730752.175         434.059          46.000                                                                  
G28  23681340.987   124446289.950        2347.977          41.000    23681339.882    96971133.120        1829.615          43.000                                                                  
G15  25856707.667   135877906.412       -3315.833          34.000    25856715.813   105878921.736       -2583.510          35.000                                                                  
G32  22699236.064   119285290.105        1427.639          47.000    22699235.982    92949575.812        1112.212          44.000                                                                  
G12  22701629.716   119297869.532         309.038          46.000    22701627.632    92959370.461         240.877          42.000                                                                  
G25  22160979.076   116456735.513        2190.990          43.000    22160980.332    90745514.093        1707.433          42.000                                                                  
C06  37545704.508   195510337.158         106.424          44.000    37545693.519   151180950.691          82.046          46.000  
C08  36822632.942   191745114.039        -458.301          45.000    36822620.936   148269435.744        -354.602          49.000  
C14  22704432.719   118227940.305          22.580          47.000    22704422.794    91421302.194          17.479          50.000  
C09  38803074.674   202057791.657         206.942          42.000    38803067.492   156243872.652         160.182          48.000  
C13  36790887.761   191579808.849        -127.582          48.000    36790883.606   148141642.183         -98.688          47.000  
C16  37732918.832   196485209.359         -60.896          48.000    37732913.374   151934806.799         -47.168          49.000  
R09  22755731.889   121514311.828       -3710.425          31.000    22755731.625    94511149.643       -2886.625          37.000  
R10  20385886.192   108668243.897        -584.097          46.000                                                                  
R11  21718119.102   116055049.567        3285.944          46.000    21718117.220    90265030.593        2555.707          50.000  
R08  20734407.050   111031810.525         710.781          49.000    20734401.985    86358053.348         552.884          47.000  
R07  22119238.734   118406015.659       -2147.303          48.000    22119236.327    92093558.880       -1670.140          48.000  
R23  24994119.640   133701678.956       -3801.393          39.000                                                                  
G24  23562586.899                       -3496.766          28.000    23562591.302                       -2724.389          28.000                                                                  
G23  21686967.305   113965780.168       -2545.905          46.000    21686966.004    88804497.167       -1983.917          48.000                                                                  
J02  38631922.831   203012126.200         -35.482          40.000    38631924.969   158191274.939         -27.562          41.000  
E06  24775553.193   130196410.888        -758.185          47.000    24775556.430    99760899.070        -580.888          50.000  
E09  24667650.196   129629376.681         135.108          48.000    24667652.379    99326414.290         103.580          51.000  
E31  25936933.042   136299502.164        1663.997          44.000    25936937.371   104437300.530        1275.057          47.000  
C33  23479988.435   122266463.001        1357.752          49.000                                                                  
C24  22556915.743   117459781.115         655.180          49.000                                                                  
R24  24314890.010                3      -1615.012          25.000    24314883.692                       -1256.206          29.000  
R01  23378754.504                        2885.013          27.000                                                                  
E36  26418968.910   138832615.875       -1773.193          42.000    26418974.327   106378259.365       -1358.688          46.000  
E05  25987482.149   136565133.112        1505.657          38.000    25987488.264   104640844.630        1153.551          46.000  
E04  26041353.961   136848238.231       -1548.748          41.000    26041356.787   104857750.997       -1186.831          45.000  
J03  38286553.071   201197186.806        -763.017          34.000    38286561.162   156777060.363        -594.597          39.000  
E23  26758656.318   140617688.721        -783.852          32.000    26758663.554   107746050.452        -600.462          41.000  
G31  26373654.672   138594493.724        3228.804          30.000                                                                                                                                  
J07  38065124.441   200033578.634        -258.422          39.000    38065122.626   155870315.288        -201.064          44.000  
E11  26895536.053   141337004.773       -3223.293          33.000    26895545.391   108297213.287       -2469.578          40.000  
E34                                                                  27908429.803                         531.706          28.000  
G18                                                                  26225806.182   107390267.638       -2760.182          36.000                                                                  
J04                                                                  39329144.916   161046272.769         294.117          47.000  
> 2025 11 05 02 28 24.8830000  0 39                     
G10  21424742.351   112587780.733         556.952          50.000    21424741.220    87730734.827         433.824          46.000                                                                  
G28  23681323.145   124446196.052        2347.629          41.000    23681322.026    96971059.944        1829.511          43.000                                                                  
G15  25856732.915   135878039.053       -3315.946          34.000    25856741.050   105879025.083       -2583.509          35.000                                                                  
G32  22699225.209   119285233.013        1427.444          47.000    22699225.129    92949531.323        1112.180          44.000                                                                  
G12  22701627.357   119297857.173         308.972          46.000    22701625.266    92959360.831         240.789          42.000                                                                  
G25  22160962.406   116456647.878        2190.920          43.000    22160963.655    90745445.818        1707.045          42.000                                                                  
C06  37545703.700   195510332.928         106.052          44.000    37545692.694   151180947.407          82.045          46.000  
C08  36822636.463   191745132.383        -458.459          45.000    36822624.467   148269449.928        -354.590          49.000  
C14  22704432.527   118227939.404          22.569          47.000    22704422.616    91421301.498          17.438          50.000  
C09  38803073.096   202057783.375         207.013          42.000    38803065.895   156243866.251         160.061          48.000  
C13  36790888.727   191579813.962        -127.734          48.000    36790884.583   148141646.129         -98.633          47.000  
C16  37732919.278   196485211.797         -60.896          48.000    37732913.840   151934808.682         -47.126          49.000  
R09  22755759.687   121514460.293       -3710.975          31.000    22755759.366    94511265.122       -2886.825          37.000  
R10  20385890.583   108668267.267        -584.251          46.000                                                                  
R11  21718094.485   116054918.130        3285.937          46.000    21718092.607    90264928.363        2555.719          50.000  
R08  20734401.733   111031782.098         710.703          49.000    20734396.674    86358031.231         552.900          47.000  
R07  22119254.761   118406101.547       -2147.236          48.000    22119252.350    92093625.686       -1670.143          48.000  
R23  24994148.079   133701831.045       -3802.036          39.000                                                                  
G24  23562613.514                       -3496.637          28.000    23562617.913                       -2724.686          28.000                                                                  
G23  21686986.700   113965882.008       -2546.008          46.000    21686985.389    88804576.522       -1983.942          48.000                                                                  
J02  38631923.110   203012127.620         -35.507          40.000    38631925.229   158191276.030         -27.300          41.000  
E06  24775558.988   130196441.218        -758.181          47.000    24775562.178    99760922.320        -581.096          50.000  
E09  24667649.189   129629371.282         135.017          48.000    24667651.332    99326410.153         103.490          51.000  
E31  25936920.353   136299435.609        1663.916          44.000    25936924.736   104437249.533        1274.970          47.000  
C33  23479977.994   122266408.695        1357.710          49.000                                                                  
C24  22556910.702   117459754.909         655.139          49.000                                                                  
R24  24314901.613                3      -1614.929          25.000    24314895.719                       -1256.397          29.000  
R01  23378733.153                        2884.323          27.000                                                                  
E36  26418982.437   138832686.808       -1773.289          43.000    26418987.890   106378313.710       -1358.647          46.000  
E05  25987470.692   136565072.893        1505.635          38.000    25987476.780   104640798.486        1153.577          46.000  
E04  26041365.806   136848300.188       -1548.778          41.000    26041368.573   104857798.463       -1186.714          45.000  
J03  38286558.887   201197217.333        -763.165          34.000    38286566.969   156777084.149        -594.658          40.000  
E23  26758662.277   140617720.045        -783.348          32.000    26758669.508   107746074.462        -600.296          41.000  
G31  26373630.085                        3229.739          30.000                                                                                                                                  
J07  38065126.428   200033588.961        -258.288          39.000    38065124.610   155870323.340        -201.233          44.000  
E11  26895560.560   141337133.725       -3223.683          33.000    26895569.889   108297312.075       -2469.623          41.000  
E34                                                                  27908424.558                         531.428          28.000  
G18                                                                  26225833.152   107390378.065       -2760.378          36.000                                                                  
J04                                                                  39329142.054   161046261.015         293.913          47.000  
> 2025 11 05 02 28 24.9230000  0 39                     
G10  21424738.139   112587758.467         556.730          50.000    21424737.006    87730717.484         433.578          46.000                                                                  
G28  23681305.282   124446102.143        2347.651          41.000    23681304.165    96970986.773        1829.352          43.000                                                                  
G15  25856758.141   135878171.671       -3315.622          34.000    25856766.297   105879128.434       -2583.609          35.000                                                                  
G32  22699214.362   119285175.931        1427.149          47.000    22699214.267    92949486.835        1112.141          44.000                                                                  
G12  22701625.009   119297844.816         308.893          46.000    22701622.908    92959351.202         240.711          42.000                                                                  
G25  22160945.728   116456560.243        2190.859          43.000    22160946.992    90745377.540        1706.875          42.000                                                                  
C06  37545702.902   195510328.687         106.030          44.000    37545691.883   151180944.129          81.968          46.000  
C08  36822640.000   191745150.743        -458.850          45.000    36822627.994   148269464.119        -354.724          49.000  
C14  22704432.339   118227938.509          22.427          47.000    22704422.452    91421300.808          17.292          50.000  
C09  38803071.480   202057775.106         206.759          42.000    38803064.304   156243859.853         159.962          48.000  
C13  36790889.720   191579819.078        -127.887          48.000    36790885.567   148141650.082         -98.737          47.000  
C16  37732919.720   196485214.238         -61.005          48.000    37732914.305   151934810.572         -47.227          49.000  
R09  22755787.477   121514608.811       -3712.266          31.000    22755787.162    94511380.588       -2886.767          37.000  
R10  20385894.970   108668290.638        -584.352          46.000                                                                  
R11  21718069.880   116054786.695        3285.895          46.000    21718068.011    90264826.145        2555.524          50.000  
R08  20734396.435   111031753.671         710.653          49.000    20734391.370    86358009.124         552.755          47.000  
R07  22119270.817   118406187.447       -2147.418          48.000    22119268.387    92093692.496       -1670.237          48.000  
R23  24994176.519   133701983.122       -3802.092          39.000                                                                  
G24  23562640.141                       -3496.421          28.000    23562644.520                       -2724.938          28.000                                                                  
G23  21687006.055   113965983.850       -2546.069          46.000    21687004.768    88804655.880       -1983.990          48.000                                                                  
J02  38631923.364   203012129.032         -35.347          40.000    38631925.502   158191277.146         -27.701          41.000  
E06  24775564.825   130196471.555        -758.319          47.000    24775567.929    99760945.571        -581.239          50.000  
E09  24667648.164   129629365.881         135.007          48.000    24667650.302    99326406.015         103.433          51.000  
E31  25936907.692   136299369.058        1663.818          44.000    25936912.069   104437198.537        1274.925          47.000  
C33  23479967.550   122266354.397        1357.531          49.000                                                                  
C24  22556905.653   117459728.713         654.951          49.000                                                                  
R24  24314913.876                3      -1615.361          25.000    24314907.800                       -1256.403          29.000  
R01  23378711.613                        2884.464          27.000                                                                  
E36  26418995.981   138832757.750       -1773.497          42.000    26419001.383   106378368.065       -1358.791          46.000  
E05  25987459.236   136565012.667        1505.670          38.000    25987465.312   104640752.338        1153.620          46.000  
E04  26041377.583   136848362.145       -1548.855          41.000    26041380.365   104857845.932       -1186.700          45.000  
J03  38286564.714   201197247.882        -763.586          34.000    38286572.792   156777107.946        -594.867          39.000  
E23  26758668.157   140617751.402        -783.686          32.000    26758675.479   107746098.480        -600.391          41.000  
G31  26373605.527   138594235.328        3229.801          30.000                                                                                                                                  
J07  38065128.372   200033599.285        -258.134          39.000    38065126.569   155870331.400        -201.478          44.000  
E11  26895585.120   141337262.640       -3223.158          33.000    26895594.411   108297410.873       -2469.846          41.000  
E34                                                                  27908419.057                         531.643          28.000  
G18                                                                  26225860.138   107390488.513       -2760.905          36.000                                                                  
J04                                                                  39329139.162   161046249.260         293.858          47.000  
> 2025 11 05 02 28 24.9630000  0 39                     
G10  21424733.900   112587736.198         556.656          50.000    21424732.758    87730700.128         433.727          46.000                                                                  
G28  23681287.421   124446008.234        2347.685          41.000    23681286.306    96970913.603        1829.246          43.000                                                                  
G15  25856783.359   135878304.287       -3315.557          34.000    25856791.532   105879231.778       -2583.662          35.000                                                                  
G32  22699203.496   119285118.837        1427.209          47.000    22699203.434    92949442.338        1112.293          44.000                                                                  
G12  22701622.666   119297832.453         308.982          46.000    22701620.561    92959341.577         240.590          42.000                                                                  
G25  22160929.060   116456472.619        2190.635          43.000    22160930.296    90745309.259        1706.910          42.000                                                                  
C06  37545702.093   195510324.443         106.072          44.000    37545691.066   151180940.856          81.861          46.000  
C08  36822643.551   191745169.087        -458.746          45.000    36822631.503   148269478.309        -354.785          49.000  
C14  22704432.154   118227937.617          22.286          47.000    22704422.296    91421300.116          17.249          50.000  
C09  38803069.904   202057766.820         206.977          42.000    38803062.726   156243853.450         160.014          48.000  
C13  36790890.689   191579824.187        -127.856          48.000    36790886.539   148141654.035         -98.822          47.000  
C16  37732920.157   196485216.690         -61.233          48.000    37732914.778   151934812.465         -47.334          49.000  
R09  22755815.275   121514757.268       -3711.911          31.000    22755814.970    94511496.078       -2887.152          37.000  
R10  20385899.350   108668314.021        -584.598          46.000                                                                  
R11  21718045.290   116054655.270        3285.675          46.000    21718043.421    90264723.925        2555.450          50.000  
R08  20734391.131   111031725.248         710.584          49.000    20734386.073    86357987.019         552.631          47.000  
R07  22119286.883   118406273.351       -2147.573          48.000    22119284.443    92093759.306       -1670.246          48.000  
R23  24994204.934   133702135.169       -3801.560          39.000                                                                  
G24  23562666.771                       -3496.587          28.000    23562671.144                       -2725.431          29.000                                                                  
G23  21687025.433   113966085.691       -2546.069          46.000    21687024.154    88804735.232       -1983.881          48.000                                                                  
J02  38631923.642   203012130.448         -35.336          40.000    38631925.799   158191278.257         -27.780          41.000  
E06  24775570.694   130196501.893        -758.404          47.000    24775573.743    99760968.817        -581.228          50.000  
E09  24667647.129   129629360.481         135.002          48.000    24667649.281    99326401.878         103.395          51.000  
E31  25936895.033   136299302.500        1663.869          44.000    25936899.397   104437147.542        1274.861          47.000  
C33  23479957.113   122266300.096        1357.489          49.000                                                                  
C24  22556900.644   117459702.509         654.983          49.000                                                                  
R24  24314925.730                3      -1613.592          25.000    24314919.897                       -1255.979          29.000  
R01  23378690.120                        2884.402          27.000                                                                  
E36  26419009.483   138832828.677       -1773.360          42.000    26419014.881   106378422.415       -1358.812          46.000  
E05  25987447.788   136564952.433        1505.852          38.000    25987453.826   104640706.198        1153.546          46.000  
E04  26041389.388   136848424.116       -1549.126          41.000    26041392.161   104857893.413       -1186.916          45.000  
J03  38286570.534   201197278.420        -763.590          34.000    38286578.616   156777131.747        -595.015          39.000  
E23  26758674.118   140617782.751        -783.774          32.000    26758681.448   107746122.508        -600.614          41.000  
G31  26373580.969   138594106.115        3230.383          30.000                                                                                                                                  
J07  38065130.350   200033609.626        -258.376          39.000    38065128.547   155870339.462        -201.642          44.000  
E11  26895609.640   141337391.535       -3222.492          33.000    26895618.912   108297509.670       -2469.906          40.000  
E34                                                                  27908413.816                         531.749          28.000  
G18                                                                  26225887.101   107390598.950       -2760.996          36.000                                                                  
J04                                                                  39329136.304   161046237.502         293.877          47.000  
> 2025 11 05 02 28 25.0030000  0 39                     
G10  21424729.650   112587713.930         556.633          50.000    21424728.543    87730682.770         433.856          46.000                                                                  
G28  23681269.551   124445914.321        2347.800          41.000    23681268.436    96970840.418        1829.444          43.000                                                                  
G15  25856808.585   135878436.917       -3315.729          34.000    25856816.774   105879335.097       -2583.134          35.000                                                                  
G32  22699192.634   119285061.732        1427.453          47.000    22699192.580    92949397.846        1112.299          44.000                                                                  
G12  22701620.292   119297820.091         309.055          46.000    22701618.205    92959331.933         240.874          42.000                                                                  
G25  22160912.392   116456384.991        2190.610          43.000    22160913.613    90745240.969        1707.158          42.000                                                                  
C06  37545701.290   195510320.191         106.227          44.000    37545690.259   151180937.577          81.924          46.000  
C08  36822647.070   191745187.437        -458.789          45.000    36822635.024   148269492.493        -354.669          49.000  
C14  22704431.990   118227936.714          22.441          47.000    22704422.137    91421299.423          17.238          50.000  
C09  38803068.323   202057758.526         207.226          42.000    38803061.144   156243847.044         160.109          48.000  
C13  36790891.702   191579829.291        -127.704          48.000    36790887.514   148141657.990         -98.889          47.000  
C16  37732920.620   196485219.126         -61.047          48.000    37732915.248   151934814.352         -47.259          49.000  
R09  22755843.057   121514905.723       -3711.626          31.000    22755842.770    94511611.545       -2886.967          37.000  
R10  20385903.714   108668337.393        -584.489          46.000                                                                  
R11  21718020.692   116054523.834        3285.797          46.000    21718018.837    90264621.699        2555.585          50.000  
R08  20734385.824   111031696.815         710.730          49.000    20734380.763    86357964.907         552.741          47.000  
R07  22119302.920   118406359.241       -2147.380          48.000    22119300.500    92093826.116       -1670.257          48.000  
R23  24994233.353   133702287.204       -3801.001          39.000                                                                  
G24  23562693.398                       -3496.552          28.000    23562697.813                       -2725.321          29.000                                                                  
G23  21687044.808   113966187.530       -2546.027          46.000    21687043.535    88804814.586       -1983.832          48.000                                                                  
J02  38631923.922   203012131.872         -35.490          40.000    38631926.075   158191279.358         -27.617          41.000  
E06  24775576.440   130196532.228        -758.408          47.000    24775579.543    99760992.058        -581.115          50.000  
E09  24667646.086   129629355.078         135.030          48.000    24667648.246    99326397.737         103.448          51.000  
E31  25936882.335   136299235.938        1663.985          44.000    25936886.742   104437096.544        1274.895          47.000  
C33  23479946.686   122266245.791        1357.562          49.000                                                                  
C24  22556895.640   117459676.298         655.182          49.000                                                                  
R24  24314937.745                3      -1617.491          25.000    24314931.943                       -1256.219          29.000  
R01  23378668.487                        2884.478          27.000                                                                  
E36  26419022.935   138832899.602       -1773.223          43.000    26419028.386   106378476.770       -1358.879          47.000  
E05  25987436.324   136564892.210        1505.796          38.000    25987442.378   104640660.053        1153.575          46.000  
E04  26041401.127   136848486.080       -1549.152          41.000    26041403.955   104857940.895       -1187.028          45.000  
J03  38286576.351   201197308.954        -763.441          34.000    38286584.429   156777155.539        -594.933          39.000  
E23  26758680.104   140617814.079        -783.412          32.000    26758687.434   107746146.525        -600.547          41.000  
G31  26373556.380   138593976.919        3230.244          30.000                                                                                                                                  
J07  38065132.331   200033619.952        -258.285          39.000    38065130.521   155870347.505        -201.309          44.000  
E11  26895634.131   141337520.482       -3223.112          33.000    26895643.464   108297608.446       -2469.621          41.000  
E34                                                                  27908408.667                         531.804          28.000  
G18                                                                  26225914.071   107390709.385       -2761.026          36.000                                                                  
J04                                                                  39329133.431   161046225.739         294.000          47.000  
> 2025 11 05 02 28 25.0430000  0 39                     
G10  21424725.414   112587691.654         556.781          50.000    21424724.287    87730665.405         434.066          46.000                                                                  
G28  23681251.682   124445820.404        2347.906          41.000    23681250.569    96970767.242        1829.404          43.000                                                                  
G15  25856833.827   135878569.537       -3315.692          34.000    25856842.028   105879438.463       -2583.718          35.000                                                                  
G32  22699181.766   119285004.630        1427.548          47.000    22699181.712    92949353.352        1112.322          44.000                                                                  
G12  22701617.935   119297807.724         309.110          46.000    22701615.855    92959322.301         240.837          42.000                                                                  
G25  22160895.705   116456297.346        2190.908          43.000    22160896.923    90745172.678        1707.265          42.000                                                                  
C06  37545700.477   195510315.947         106.172          44.000    37545689.437   151180934.279          82.233          46.000  
C08  36822650.602   191745205.781        -458.655          45.000    36822638.555   148269506.677        -354.639          49.000  
C14  22704431.829   118227935.812          22.525          47.000    22704421.963    91421298.728          17.292          50.000  
C09  38803066.733   202057750.242         207.147          42.000    38803059.568   156243840.640         160.107          48.000  
C13  36790892.709   191579834.394        -127.594          48.000    36790888.492   148141661.939         -98.816          47.000  
C16  37732921.079   196485221.559         -60.901          48.000    37732915.718   151934816.229         -47.036          49.000  
R09  22755870.826   121515054.230       -3712.406          31.000    22755870.596    94511727.023       -2887.089          37.000  
R10  20385908.091   108668360.753        -584.218          46.000                                                                  
R11  21717996.120   116054392.410        3285.632          46.000    21717994.236    90264519.471        2555.670          50.000  
R08  20734380.508   111031668.387         710.698          49.000    20734375.446    86357942.792         552.840          47.000  
R07  22119318.960   118406445.140       -2147.442          48.000    22119316.539    92093892.922       -1670.183          48.000  
R23  24994261.799   133702439.261       -3801.158          39.000                                                                  
G24  23562720.011                       -3496.534          28.000    23562724.413                       -2724.694          29.000                                                                  
G23  21687064.178   113966289.370       -2546.008          46.000    21687062.912    88804893.942       -1983.893          48.000                                                                  
J02  38631924.198   203012133.285         -35.400          40.000    38631926.325   158191280.460         -27.555          41.000  
E06  24775582.179   130196562.560        -758.370          47.000    24775585.304    99761015.297        -581.038          50.000  
E09  24667645.028   129629349.666         135.212          48.000    24667647.190    99326393.596         103.498          51.000  
E31  25936869.691   136299169.375        1664.022          44.000    25936874.077   104437045.538        1275.064          47.000  
C33  23479936.259   122266191.485        1357.625          49.000                                                                  
C24  22556890.616   117459650.087         655.264          49.000                                                                  
R24  24314949.724                3      -1615.827          25.000    24314944.078                       -1256.238          29.000  
R01  23378646.827                        2884.793          27.000                                                                  
E36  26419036.412   138832970.537       -1773.319          43.000    26419041.864   106378531.116       -1358.749          47.000  
E05  25987424.835   136564831.981        1505.774          38.000    25987430.898   104640613.902        1153.677          46.000  
E04  26041412.855   136848548.018       -1548.715          41.000    26041415.736   104857988.372       -1187.017          45.000  
J03  38286582.155   201197339.452        -762.746          34.000    38286590.235   156777179.307        -594.427          39.000  
E23  26758686.076   140617845.396        -782.962          32.000    26758693.406   107746170.540        -600.491          41.000  
G31  26373531.818   138593847.760        3229.389          30.000                                                                                                                                  
J07  38065134.307   200033630.282        -258.224          39.000    38065132.482   155870355.548        -201.111          44.000  
E11  26895658.668   141337649.452       -3223.671          33.000    26895667.992   108297707.235       -2469.612          41.000  
E34                                                                  27908403.222                         531.991          28.000  
G18                                                                  26225941.037   107390819.818       -2761.064          36.000                                                                  
J04                                                                  39329130.556   161046213.974         294.093          47.000  
> 2025 11 05 02 28 25.0830000  0 39                     
G10  21424721.216   112587669.380         556.824          50.000    21424720.044    87730648.045         434.065          46.000                                                                  
G28  23681233.807   124445726.492        2347.858          41.000    23681232.707    96970694.080        1829.138          43.000                                                                  
G15  25856859.080   135878702.153       -3315.512          34.000    25856867.274   105879541.798       -2583.533          35.000                                                                  
G32  22699170.889   119284947.529        1427.521          47.000    22699170.864    92949308.857        1112.354          44.000                                                                  
G12  22701615.626   119297795.376         308.827          46.000    22701613.498    92959312.669         240.805          42.000                                                                  
G25  22160879.006   116456209.706        2190.989          43.000    22160880.261    90745104.385        1707.358          42.000                                                                  
C06  37545699.682   195510311.703         106.104          44.000    37545688.600   151180930.986          82.344          46.000  
C08  36822654.126   191745224.127        -458.655          45.000    36822642.074   148269520.865        -354.675          49.000  
C14  22704431.650   118227934.915          22.456          47.000    22704421.791    91421298.033          17.317          50.000  
C09  38803065.149   202057741.962         207.020          42.000    38803058.002   156243834.238         160.069          48.000  
C13  36790893.667   191579839.505        -127.692          48.000    36790889.466   148141665.892         -98.840          47.000  
C16  37732921.531   196485223.991         -60.801          48.000    37732916.172   151934818.116         -47.108          49.000  
R09  22755898.600   121515202.663       -3711.357          31.000    22755898.428    94511842.500       -2887.050          37.000  
R10  20385912.463   108668384.117        -584.092          46.000                                                                  
R11  21717971.494   116054260.978        3285.699          46.000    21717969.632    90264417.245        2555.664          50.000  
R08  20734375.223   111031639.962         710.623          49.000    20734370.130    86357920.686         552.720          47.000  
R07  22119334.992   118406531.033       -2147.395          48.000    22119332.593    92093959.735       -1670.299          48.000  
R23  24994290.198   133702591.320       -3801.343          38.000                                                                  
G24  23562746.612                       -3496.599          28.000    23562750.981                       -2724.934          29.000                                                                  
G23  21687083.555   113966391.210       -2546.002          46.000    21687082.291    88804973.296       -1983.881          48.000                                                                  
J02  38631924.450   203012134.697         -35.332          40.000    38631926.616   158191281.574         -27.792          41.000  
E06  24775587.950   130196592.898        -758.438          47.000    24775591.072    99761038.535        -580.972          50.000  
E09  24667644.011   129629344.262         135.165          48.000    24667646.174    99326389.452         103.572          51.000  
E31  25936857.028   136299102.820        1663.925          44.000    25936861.414   104436994.542        1274.977          47.000  
C33  23479925.826   122266137.182        1357.592          49.000                                                                  
C24  22556885.559   117459623.886         655.122          49.000                                                                  
R24  24314961.697                3      -1616.960          25.000    24314956.124                       -1256.385          29.000  
R01  23378625.409                        2884.476          27.000                                                                  
E36  26419049.911   138833041.470       -1773.364          43.000    26419055.368   106378585.464       -1358.700          47.000  
E05  25987413.370   136564771.768        1505.483          38.000    25987419.440   104640567.760        1153.600          46.000  
E04  26041424.680   136848609.982       -1548.903          41.000    26041427.505   104858035.840       -1186.858          45.000  
J03  38286587.949   201197369.973        -762.856          34.000    38286596.037   156777203.088        -594.417          39.000  
E23  26758692.135   140617876.769        -783.811          32.000    26758699.342   107746194.557        -600.457          41.000  
G31  26373507.228   138593718.595        3228.961          30.000                                                                                                                                  
J07  38065136.290   200033640.623        -258.426          39.000    38065134.457   155870363.586        -200.962          44.000  
E11  26895683.242   141337778.376       -3223.352          33.000    26895692.495   108297806.014       -2469.435          41.000  
E34                                                                  27908398.087                         531.851          28.000  
G18                                                                  26225967.999   107390930.222       -2760.431          36.000                                                                  
J04                                                                  39329127.689   161046202.211         294.086          47.000  
> 2025 11 05 02 28 25.1230000  0 39                     
G10  21424717.003   112587647.111         556.750          50.000    21424715.818    87730630.701         433.725          46.000                                                                  
G28  23681215.928   124445632.576        2347.902          41.000    23681214.825    96970620.896        1829.370          43.000                                                                  
G15  25856884.309   135878834.782       -3315.657          34.000    25856892.521   105879645.133       -2583.384          35.000                                                                  
G32  22699160.017   119284890.435        1427.375          47.000    22699160.008    92949264.371        1112.166          44.000                                                                  
G12  22701613.268   119297783.025         308.749          46.000    22701611.155    92959303.042         240.728          42.000                                                                  
G25  22160862.338   116456122.079        2190.786          43.000    22160863.593    90745036.109        1707.063          42.000                                                                  
C06  37545698.881   195510307.456         106.125          44.000    37545687.790   151180927.710          82.042          46.000  
C08  36822657.684   191745242.469        -458.606          45.000    36822645.616   148269535.052        -354.706          49.000  
C14  22704431.496   118227934.016          22.443          47.000    22704421.635    91421297.338          17.330          50.000  
C09  38803063.554   202057733.688         206.839          42.000    38803056.416   156243827.837         160.019          48.000  
C13  36790894.671   191579844.608        -127.637          48.000    36790890.451   148141669.837         -98.706          47.000  
C16  37732921.966   196485226.431         -60.944          48.000    37732916.619   151934819.999         -47.089          49.000  
R09  22755926.409   121515351.132       -3711.504          31.000    22755926.230    94511957.960       -2886.721          37.000  
R10  20385916.853   108668407.497        -584.365          46.000                                                                  
R11  21717946.893   116054129.545        3285.760          46.000    21717945.047    90264315.018        2555.676          50.000  
R08  20734369.914   111031611.534         710.655          49.000    20734364.834    86357898.577         552.714          47.000  
R07  22119351.042   118406616.926       -2147.336          48.000    22119348.653    92094026.541       -1670.231          48.000  
R23  24994318.628   133702743.380       -3801.446          38.000                                                                  
G24  23562773.221                       -3496.755          28.000    23562777.621                       -2724.546          29.000                                                                  
G23  21687102.921   113966493.050       -2546.014          46.000    21687101.660    88805052.654       -1983.954          48.000                                                                  
J02  38631924.706   203012136.107         -35.270          40.000    38631926.889   158191282.674         -27.618          41.000  
E06  24775593.703   130196623.230        -758.361          47.000    24775596.835    99761061.778        -581.003          50.000  
E09  24667642.998   129629338.855         135.167          48.000    24667645.134    99326385.311         103.547          51.000  
E31  25936844.398   136299036.262        1663.938          44.000    25936848.745   104436943.541        1274.972          47.000  
C33  23479915.407   122266082.875        1357.636          49.000                                                                  
C24  22556880.533   117459597.685         655.023          49.000                                                                  
R24  24314973.809                3      -1614.742          25.000    24314968.205                       -1256.600          29.000  
R01  23378603.403                        2884.439          27.000                                                                  
E36  26419063.385   138833112.408       -1773.426          43.000    26419068.873   106378639.813       -1358.724          47.000  
E05  25987401.937   136564711.569        1505.078          38.000    25987407.978   104640521.615        1153.611          46.000  
E04  26041436.479   136848671.939       -1548.951          41.000    26041439.311   104858083.312       -1186.814          45.000  
J03  38286593.760   201197400.496        -762.984          34.000    38286601.835   156777226.869        -594.454          39.000  
E23  26758698.173   140617908.132        -784.135          32.000    26758705.324   107746218.578        -600.511          41.000  
G31  26373482.630   138593589.410        3229.098          30.000                                                                                                                                  
J07  38065138.246   200033650.922        -257.765          39.000    38065136.421   155870371.636        -201.112          44.000  
E11  26895707.798   141337907.297       -3223.128          33.000    26895717.025   108297904.813       -2469.760          40.000  
E34                                                                  27908392.788                         531.730          28.000  
G18                                                                  26225994.977   107391040.646       -2760.437          36.000                                                                  
J04                                                                  39329124.816   161046190.452         293.993          47.000  
> 2025 11 05 02 28 25.1630000  0 39                     
G10  21424712.761   112587624.850         556.552          50.000    21424711.590    87730613.352         433.665          46.000                                                                  
G28  23681198.069   124445538.679        2347.565          41.000    23681196.959    96970547.713        1829.528          43.000                                                                  
G15  25856909.586   135878967.429       -3316.097          34.000    25856917.765   105879748.504       -2583.975          35.000                                                                  
G32  22699149.160   119284833.338        1427.357          47.000    22699149.124    92949219.883        1112.140          44.000                                                                  
G12  22701610.933   119297770.672         308.713          46.000    22701608.813    92959293.422         240.583          42.000                                                                  
G25  22160845.636   116456034.455        2190.627          43.000    22160846.936    90744967.834        1706.875          42.000                                                                  
C06  37545698.056   195510303.220         105.947          44.000    37545686.997   151180924.441          81.752          46.000  
C08  36822661.216   191745260.810        -458.557          45.000    36822649.150   148269549.239        -354.700          49.000  
C14  22704431.329   118227933.129          22.222          47.000    22704421.467    91421296.644          17.302          50.000  
C09  38803061.982   202057725.412         206.811          42.000    38803054.822   156243821.438         159.989          48.000  
C13  36790895.643   191579849.719        -127.765          48.000    36790891.416   148141673.785         -98.724          47.000  
C16  37732922.392   196485228.875         -61.094          48.000    37732917.070   151934821.885         -47.150          49.000  
R09  22755954.216   121515499.575       -3711.083          31.000    22755954.077    94512073.431       -2886.733          37.000  
R10  20385921.244   108668430.879        -584.554          46.000                                                                  
R11  21717922.294   116053998.114        3285.760          46.000    21717920.463    90264212.798        2555.524          50.000  
R08  20734364.605   111031583.108         710.623          49.000    20734359.543    86357876.468         552.695          47.000  
R07  22119367.090   118406702.825       -2147.433          48.000    22119364.713    92094093.352       -1670.280          48.000  
R23  24994347.065   133702895.458       -3801.778          39.000                                                                  
G24  23562799.837                       -3496.817          28.000    23562804.250                       -2724.567          29.000                                                                  
G23  21687122.300   113966594.895       -2546.130          46.000    21687121.022    88805132.014       -1984.009          48.000                                                                  
J02  38631924.994   203012137.533         -35.526          40.000    38631927.153   158191283.762         -27.315          41.000  
E06  24775599.452   130196653.566        -758.405          47.000    24775602.610    99761085.022        -581.071          50.000  
E09  24667641.964   129629333.450         135.146          48.000    24667644.143    99326381.169         103.542          51.000  
E31  25936831.737   136298969.713        1663.768          44.000    25936836.099   104436892.544        1274.927          47.000  
C33  23479904.979   122266028.571        1357.622          49.000                                                                  
C24  22556875.504   117459571.482         655.000          49.000                                                                  
R24  24314985.795                3      -1614.712          25.000    24314980.318                       -1256.636          29.000  
R01  23378581.669                        2884.320          27.000                                                                  
E36  26419076.866   138833183.343       -1773.436          43.000    26419082.348   106378694.163       -1358.715          47.000  
E05  25987390.418   136564651.335        1505.413          38.000    25987396.514   104640475.475        1153.527          46.000  
E04  26041448.311   136848733.897       -1548.993          41.000    26041451.125   104858130.787       -1186.845          45.000  
J03  38286599.573   201197431.032        -763.316          34.000    38286607.662   156777250.665        -594.737          39.000  
E23  26758704.188   140617939.505        -784.394          32.000    26758711.279   107746242.606        -600.636          41.000  
G31  26373458.058   138593460.239        3229.142          30.000                                                                                                                                  
J07  38065140.218   200033661.253        -258.059          39.000    38065138.383   155870379.685        -201.225          44.000  
E11  26895732.273   141338036.204       -3222.799          33.000    26895741.564   108298003.615       -2469.979          40.000  
E34                                                                  27908387.735                         531.196          28.000  
G18                                                                  26226021.950   107391151.058       -2760.236          36.000                                                                  
J04                                                                  39329121.948   161046178.693         293.956          47.000  
> 2025 11 05 02 28 25.2030000  0 39                     
G10  21424708.529   112587602.590         556.436          50.000    21424707.347    87730596.007         433.604          46.000                                                                  
G28  23681180.191   124445444.771        2347.575          41.000    23681179.088    96970474.538        1829.488          43.000                                                                  
G15  25856934.828   135879100.050       -3315.813          34.000    25856943.003   105879851.830       -2583.555          35.000                                                                  
G32  22699138.323   119284776.253        1427.145          47.000    22699138.260    92949175.390        1112.235          44.000                                                                  
G12  22701608.572   119297758.318         308.756          46.000    22701606.459    92959283.797         240.588          42.000                                                                  
G25  22160828.995   116455946.827        2190.595          43.000    22160830.274    90744899.557        1706.823          42.000                                                                  
C06  37545697.254   195510298.980         105.953          44.000    37545686.183   151180921.159          81.881          46.000  
C08  36822664.701   191745279.163        -458.752          45.000    36822652.690   148269563.423        -354.651          49.000  
C14  22704431.161   118227932.234          22.254          47.000    22704421.304    91421295.953          17.238          50.000  
C09  38803060.390   202057717.136         206.877          42.000    38803053.248   156243815.033         160.059          48.000  
C13  36790896.583   191579854.836        -127.942          48.000    36790892.394   148141677.741         -98.883          47.000  
C16  37732922.832   196485231.320         -61.174          48.000    37732917.540   151934823.776         -47.258          49.000  
R09  22755982.034   121515648.031       -3711.190          31.000    22755981.918    94512188.909       -2886.831          37.000  
R10  20385925.644   108668454.257        -584.550          46.000                                                                  
R11  21717897.707   116053866.687        3285.687          46.000    21717895.862    90264110.584        2555.346          50.000  
R08  20734359.303   111031554.687         710.530          49.000    20734354.233    86357854.367         552.570          47.000  
R07  22119383.138   118406788.734       -2147.664          48.000    22119380.759    92094160.161       -1670.278          48.000  
R23  24994375.500   133703047.533       -3801.903          39.000                                                                  
G24  23562826.439                       -3497.335          28.000    23562830.901                       -2724.681          29.000                                                                  
G23  21687141.703   113966696.744       -2546.271          46.000    21687140.408    88805211.375       -1984.052          48.000                                                                  
J02  38631925.271   203012138.956         -35.670          40.000    38631927.431   158191284.880         -27.785          41.000  
E06  24775605.203   130196683.898        -758.336          47.000    24775608.366    99761108.272        -581.203          50.000  
E09  24667640.954   129629328.052         135.009          48.000    24667643.143    99326377.035         103.391          51.000  
E31  25936819.069   136298903.158        1663.808          44.000    25936823.430   104436841.555        1274.771          47.000  
C33  23479894.543   122265974.275        1357.457          49.000                                                                  
C24  22556870.465   117459545.286         654.899          49.000                                                                  
R24  24314997.942                3      -1614.718          25.000    24314992.431                       -1256.863          29.000  
R01  23378560.190                        2884.283          27.000                                                                  
E36  26419090.356   138833254.285       -1773.543          43.000    26419095.839   106378748.519       -1358.845          47.000  
E05  25987378.949   136564591.108        1505.595          38.000    25987385.083   104640429.334        1153.483          46.000  
E04  26041460.110   136848795.866       -1549.169          41.000    26041462.907   104858178.260       -1186.840          45.000  
J03  38286605.379   201197461.553        -763.216          34.000    38286613.464   156777274.447        -594.670          39.000  
E23  26758710.123   140617970.816        -783.479          32.000    26758717.251   107746266.627        -600.592          41.000  
G31  26373433.515   138593331.088        3228.883          30.000                                                                                                                                  
J07  38065142.192   200033671.600        -258.574          39.000    38065140.343   155870387.742        -201.389          44.000  
E11  26895756.869   141338165.151       -3223.387          33.000    26895766.086   108298102.384       -2469.551          40.000  
E34                                                                  27908382.363                         530.898          28.000  
G18                                                                  26226048.926   107391261.528       -2761.201          36.000                                                                  
J04                                                                  39329119.102   161046166.935         293.957          47.000  
> 2025 11 05 02 28 25.2430000  0 39                     
G10  21424704.282   112587580.324         556.530          50.000    21424703.070    87730578.664         433.537          46.000                                                                  
G28  23681162.342   124445350.878        2347.323          41.000    23681161.203    96970401.366        1829.327          43.000                                                                  
G15  25856960.046   135879232.692       -3316.035          34.000    25856968.247   105879955.168       -2583.371          35.000                                                                  
G32  22699127.475   119284719.167        1427.102          47.000    22699127.383    92949130.905        1112.149          44.000                                                                  
G12  22701606.208   119297745.966         308.751          46.000    22701604.105    92959274.189         240.317          42.000                                                                  
G25  22160812.330   116455859.201        2190.629          43.000    22160813.604    90744831.258        1707.217          42.000                                                                  
C06  37545696.412   195510294.740         105.942          44.000    37545685.364   151180917.879          81.909          46.000  
C08  36822668.183   191745297.524        -459.003          45.000    36822656.209   148269577.613        -354.761          49.000  
C14  22704431.012   118227931.343          22.223          47.000    22704421.131    91421295.270          17.077          50.000  
C09  38803058.807   202057708.851         207.001          42.000    38803051.661   156243808.630         160.077          48.000  
C13  36790897.564   191579859.952        -127.997          48.000    36790893.373   148141681.692         -98.859          47.000  
C16  37732923.289   196485233.764         -61.197          48.000    37732917.981   151934825.671         -47.359          49.000  
R09  22756009.841   121515796.578       -3713.138          31.000    22756009.720    94512304.396       -2887.071          37.000  
R10  20385930.027   108668477.646        -584.752          46.000                                                                  
R11  21717873.110   116053735.269        3285.467          46.000    21717871.265    90264008.366        2555.328          50.000  
R08  20734354.004   111031526.266         710.506          49.000    20734348.896    86357832.257         552.640          47.000  
R07  22119399.209   118406874.642       -2147.748          48.000    22119396.818    92094226.979       -1670.423          48.000  
R23  24994403.914   133703199.585       -3801.555          39.000                                                                  
G24  23562853.055                       -3496.882          28.000    23562857.488                       -2724.556          29.000                                                                  
G23  21687161.078   113966798.590       -2546.259          46.000    21687159.773    88805290.732       -1984.003          48.000                                                                  
J02  38631925.528   203012140.379         -35.652          40.000    38631927.701   158191285.992         -27.881          41.000  
E06  24775610.937   130196714.233        -758.359          47.000    24775614.128    99761131.520        -581.254          50.000  
E09  24667639.946   129629322.654         134.927          48.000    24667642.098    99326372.897         103.392          51.000  
E31  25936806.426   136298836.609        1663.720          44.000    25936810.820   104436790.558        1274.809          47.000  
C33  23479884.106   122265919.981        1357.319          49.000                                                                  
C24  22556865.464   117459519.089         654.843          49.000                                                                  
R24  24315010.231                3      -1614.774          25.000    24315004.486                       -1256.611          29.000  
R01  23378538.303                        2884.398          27.000                                                                  
E36  26419103.855   138833325.223       -1773.497          43.000    26419109.385   106378802.876       -1358.923          47.000  
E05  25987367.438   136564530.890        1505.549          38.000    25987373.643   104640383.196        1153.429          46.000  
E04  26041471.909   136848857.822       -1549.015          41.000    26041474.675   104858225.731       -1186.799          45.000  
J03  38286611.205   201197492.094        -763.396          34.000    38286619.278   156777298.252        -595.008          39.000  
E23  26758716.239   140618002.160        -783.449          32.000    26758723.234   107746290.651        -600.618          41.000  
G31  26373408.931   138593201.882        3229.774          30.000                                                                                                                                  
J07  38065144.168   200033681.944        -258.729          39.000    38065142.293   155870395.806        -201.603          44.000  
E11  26895781.373   141338294.069       -3223.253          33.000    26895790.576   108298201.189       -2469.955          40.000  
E34                                                                  27908376.935                         530.733          28.000  
G18                                                                  26226075.937   107391371.943       -2760.714          36.000                                                                  
J04                                                                  39329116.226   161046155.180         293.889          47.000  
> 2025 11 05 02 28 25.2830000  0 39                     
G10  21424700.058   112587558.066         556.406          50.000    21424698.827    87730561.316         433.599          46.000                                                                  
G28  23681144.477   124445256.975        2347.411          41.000    23681143.355    96970328.205        1829.043          43.000                                                                  
G15  25856985.281   135879365.327       -3316.058          34.000    25856993.496   105880058.534       -2583.854          35.000                                                                  
G32  22699116.607   119284662.069        1427.289          47.000    22699116.516    92949086.416        1112.163          44.000                                                                  
G12  22701603.864   119297733.633         308.393          46.000    22701601.737    92959264.566         240.407          42.000                                                                  
G25  22160795.672   116455771.585        2190.408          43.000    22160796.938    90744762.985        1706.992          42.000                                                                  
C06  37545695.563   195510290.495         106.029          44.000    37545684.555   151180914.603          81.864          46.000  
C08  36822671.710   191745315.879        -459.009          45.000    36822659.740   148269591.809        -354.907          49.000  
C14  22704430.837   118227930.455          22.147          47.000    22704420.949    91421294.582          17.075          50.000  
C09  38803057.230   202057700.569         207.044          42.000    38803050.076   156243802.236         159.894          48.000  
C13  36790898.567   191579865.066        -127.942          48.000    36790894.366   148141685.651         -98.981          47.000  
C16  37732923.769   196485236.209         -61.219          48.000    37732918.460   151934827.559         -47.310          49.000  
R09  22756037.599                       -3711.958          31.000    22756037.523    94512419.869       -2886.851          37.000  
R10  20385934.409   108668501.040        -584.959          46.000                                                                  
R11  21717848.506   116053603.850        3285.394          46.000    21717846.671    90263906.154        2555.255          50.000  
R08  20734348.708   111031497.846         710.476          49.000    20734343.620    86357810.155         552.546          47.000  
R07  22119415.257   118406960.548       -2147.760          48.000    22119412.866    92094293.793       -1670.466          48.000  
R23  24994432.334   133703351.660       -3801.752          39.000                                                                  
G24  23562879.687                       -3497.044          28.000    23562884.103                       -2724.826          29.000                                                                  
G23  21687180.469   113966900.438       -2546.301          46.000    21687179.162    88805370.099       -1984.149          48.000                                                                  
J02  38631925.821   203012141.802         -35.683          40.000    38631927.999   158191287.097         -27.789          41.000  
E06  24775616.784   130196744.577        -758.547          47.000    24775619.918    99761154.767        -581.227          50.000  
E09  24667638.974   129629317.261         134.808          48.000    24667641.014    99326368.763         103.329          51.000  
E31  25936793.739   136298770.061        1663.631          44.000    25936798.105   104436739.567        1274.752          47.000  
C33  23479873.685   122265865.692        1357.170          49.000                                                                  
C24  22556860.432   117459492.903         654.638          49.000                                                                  
R24  24315022.701                3      -1615.427          25.000    24315016.579                       -1256.807          29.000  
R01  23378516.866                        2884.034          27.000                                                                  
E36  26419117.358   138833396.157       -1773.455          43.000    26419122.883   106378857.242       -1359.105          47.000  
E05  25987355.967   136564470.666        1505.594          38.000    25987362.173   104640337.054        1153.423          46.000  
E04  26041483.707   136848919.788       -1549.114          41.000    26041486.479   104858273.216       -1187.019          45.000  
J03  38286616.992   201197522.615        -763.214          34.000    38286625.101   156777322.024        -594.627          39.000  
E23  26758722.240   140618033.518        -783.645          32.000    26758729.205   107746314.680        -600.714          41.000  
G31  26373384.365   138593072.696        3229.770          30.000                                                                                                                                  
J07  38065146.135   200033692.289        -258.802          39.000    38065144.263   155870403.857        -201.439          44.000  
E11  26895805.908                       -3223.593          33.000    26895815.108   108298299.996       -2470.153          41.000  
E34                                                                  27908371.610                         530.727          28.000  
G18                                                                  26226102.881   107391482.336       -2760.086          36.000                                                                  
J04                                                                  39329113.339   161046143.426         293.815          47.000  
> 2025 11 05 02 28 25.3230000  0 39                     
G10  21424695.802   112587535.809         556.364          50.000    21424694.632    87730543.970         433.580          46.000                                                                  
G28  23681126.610   124445163.068        2347.618          41.000    23681125.493    96970255.046        1828.850          43.000                                                                  
G15  25857010.528   135879497.923       -3315.256          34.000    25857018.746   105880161.874       -2583.558          35.000                                                                  
G32  22699105.750   119284604.974        1427.353          47.000    22699105.661    92949041.935        1112.048          44.000                                                                  
G12  22701601.517   119297721.293         308.391          46.000    22701599.370    92959254.950         240.365          42.000                                                                  
G25  22160779.003   116455683.973        2190.272          43.000    22160780.264    90744694.711        1706.853          42.000                                                                  
C06  37545694.738   195510286.258         105.963          44.000    37545683.727   151180911.323          81.922          46.000  
C08  36822675.224   191745334.233        -458.911          45.000    36822663.262   148269606.002        -354.913          49.000  
C14  22704430.670   118227929.570          22.066          47.000    22704420.765    91421293.891          17.156          50.000  
C09  38803055.624   202057692.294         206.943          42.000    38803048.482   156243795.840         159.852          48.000  
C13  36790899.559   191579870.183        -127.954          48.000    36790895.348   148141689.610         -99.048          47.000  
C16  37732924.234   196485238.656         -61.215          48.000    37732918.923   151934829.453         -47.367          49.000  
R09  22756065.342                       -3711.742          31.000    22756065.325    94512535.357       -2887.138          36.000  
R10  20385938.829   108668524.421        -584.753          46.000                                                                  
R11  21717823.880   116053472.436        3285.315          46.000    21717822.063    90263803.936        2555.371          50.000  
R08  20734343.389   111031469.433         710.332          49.000    20734338.308    86357788.050         552.547          47.000  
R07  22119431.293   118407046.451       -2147.654          48.000    22119428.926    92094360.610       -1670.480          48.000  
R23  24994460.759   133703503.708       -3801.406          39.000                                                                  
G24  23562906.311                       -3496.925          28.000    23562910.730                       -2725.101          29.000                                                                  
G23  21687199.872   113967002.298       -2546.497          46.000    21687198.544    88805449.469       -1984.283          48.000                                                                  
J02  38631926.106   203012143.229         -35.758          40.000    38631928.301   158191288.213         -27.915          41.000  
E06  24775622.602   130196774.927        -758.705          47.000    24775625.721    99761178.017        -581.266          50.000  
E09  24667637.937   129629311.868         134.764          48.000    24667639.948    99326364.627         103.329          51.000  
E31  25936781.126   136298703.516        1663.579          44.000    25936785.451   104436688.576        1274.732          47.000  
C33  23479863.257   122265811.394        1357.296          49.000                                                                  
C24  22556855.389   117459466.709         654.699          49.000                                                                  
R24  24315034.826                3      -1617.252          25.000    24315028.660                       -1256.481          29.000  
R01  23378495.025                        2884.188          27.000                                                                  
E36  26419130.880   138833467.101       -1773.564          43.000    26419136.399   106378911.601       -1359.071          47.000  
E05  25987344.501   136564410.438        1505.685          38.000    25987350.677   104640290.907        1153.581          46.000  
E04  26041495.467   136848981.750       -1549.111          41.000    26041498.284   104858320.696       -1187.054          45.000  
J03  38286622.819   201197553.163        -763.432          34.000    38286630.931   156777345.822        -594.831          39.000  
E23  26758728.152   140618064.892        -784.109          32.000    26758735.175   107746338.713        -600.830          41.000  
G31  26373359.788   138592943.550        3229.074          30.000                                                                                                                                  
J07  38065148.099   200033702.623        -258.594          39.000    38065146.210   155870411.908        -201.328          44.000  
E11  26895830.489                       -3223.271          33.000    26895839.655   108298398.781       -2469.873          41.000  
E34                                                                  27908366.305                         531.191          28.000  
G18                                                                  26226129.875   107391592.803       -2761.021          36.000                                                                  
J04                                                                  39329110.475   161046131.673         293.791          47.000  
> 2025 11 05 02 28 25.3630000  0 39                     
G10  21424691.545   112587513.551         556.383          50.000    21424690.397    87730526.625         433.587          46.000                                                                  
G28  23681108.732   124445069.160        2347.718          41.000    23681107.634    96970181.868        1829.174          43.000                                                                  
G15  25857035.765   135879630.550       -3315.542          34.000    25857044.000   105880265.225       -2583.633          35.000                                                                  
G32  22699094.900   119284547.879        1427.391          47.000    22699094.811    92948997.450        1112.065          44.000                                                                  
G12  22701599.145   119297708.946         308.521          46.000    22701597.025    92959245.330         240.398          42.000                                                                  
G25  22160762.326   116455596.345        2190.495          43.000    22160763.578    90744626.442        1706.715          42.000                                                                  
C06  37545693.893   195510282.010         106.099          44.000    37545682.909   151180908.041          81.981          46.000  
C08  36822678.762   191745352.576        -458.679          45.000    36822666.800   148269620.196        -354.932          49.000  
C14  22704430.511   118227928.674          22.247          47.000    22704420.606    91421293.202          17.185          50.000  
C09  38803054.035   202057684.021         206.850          42.000    38803046.890   156243789.440         159.948          48.000  
C13  36790900.540   191579875.296        -127.875          48.000    36790896.315   148141693.558         -98.846          47.000  
C16  37732924.699   196485241.096         -61.101          48.000    37732919.403   151934831.339         -47.247          49.000  
R09  22756093.130                       -3711.342          31.000    22756093.124    94512650.837       -2887.072          36.000  
R10  20385943.215   108668547.798        -584.554          46.000                                                                  
R11  21717799.277   116053341.006        3285.602          46.000    21717797.465    90263701.714        2555.493          50.000  
R08  20734338.064   111031441.009         710.479          49.000    20734332.988    86357765.948         552.516          47.000  
R07  22119447.326   118407132.355       -2147.621          48.000    22119444.974    92094427.423       -1670.408          48.000  
R23  24994489.177   133703655.769       -3801.425          39.000                                                                  
G24  23562932.917                       -3497.006          28.000    23562937.352                       -2725.106          29.000                                                                  
G23  21687219.249   113967104.144       -2546.320          46.000    21687217.923    88805528.828       -1984.100          48.000                                                                  
J02  38631926.375   203012144.648         -35.596          40.000    38631928.563   158191289.313         -27.664          41.000  
E06  24775628.362   130196805.267        -758.635          47.000    24775631.518    99761201.263        -581.206          50.000  
E09  24667636.856   129629306.470         134.853          48.000    24667638.894    99326360.487         103.422          51.000  
E31  25936768.455   136298636.970        1663.596          44.000    25936772.839   104436637.584        1274.729          47.000  
C33  23479852.839   122265757.091        1357.468          49.000                                                                  
C24  22556850.363   117459440.516         654.762          49.000                                                                  
R24  24315046.838                3      -1617.088          25.000    24315040.733                       -1256.438          29.000  
R01  23378473.550                        2884.597          27.000                                                                  
E36  26419144.406   138833538.050       -1773.671          43.000    26419149.904   106378965.955       -1358.968          46.000  
E05  25987333.069   136564350.234        1505.328          38.000    25987339.233   104640244.766        1153.551          46.000  
E04  26041507.233   136849043.705       -1548.976          41.000    26041510.095   104858368.172       -1186.999          45.000  
J03  38286628.649   201197583.704        -763.502          34.000    38286636.735   156777369.622        -594.990          39.000  
E23  26758734.132   140618096.263        -784.354          32.000    26758741.151   107746362.732        -600.640          41.000  
G31  26373335.231   138592814.384        3228.971          31.000                                                                                                                                  
J07  38065150.071   200033712.946        -258.334          39.000    38065148.194   155870419.953        -201.196          44.000  
E11  26895855.093                       -3223.289          33.000    26895864.181   108298497.573       -2469.807          41.000  
E34                                                                  27908360.900                         531.625          28.000  
G18                                                                  26226156.844   107391703.260       -2761.388          36.000                                                                  
J04                                                                  39329107.608   161046119.912         293.915          47.000  
> 2025 11 05 02 28 25.4030000  0 39                     
G10  21424687.313   112587491.285         556.543          50.000    21424686.147    87730509.277         433.655          46.000                                                                  
G28  23681090.877   124444975.255        2347.682          41.000    23681089.781    96970108.689        1829.441          43.000                                                                  
G15  25857061.006   135879763.177       -3315.762          34.000    25857069.228   105880368.579       -2583.819          35.000                                                                  
G32  22699084.036   119284490.788        1427.345          47.000    22699083.936    92948952.953        1112.302          44.000                                                                  
G12  22701596.803   119297696.589         308.802          46.000    22701594.669    92959235.699         240.648          42.000                                                                  
G25  22160745.650   116455508.703        2190.893          43.000    22160746.912    90744558.155        1707.010          42.000                                                                  
C06  37545693.052   195510277.767         106.105          44.000    37545682.106   151180904.754          82.118          46.000  
C08  36822682.286   191745370.923        -458.636          45.000    36822670.323   148269634.380        -354.718          49.000  
C14  22704430.334   118227927.779          22.331          47.000    22704420.446    91421292.508          17.316          50.000  
C09  38803052.451   202057675.742         206.927          42.000    38803045.285   156243783.032         160.124          48.000  
C13  36790901.507   191579880.403        -127.728          48.000    36790897.305   148141697.510         -98.798          47.000  
C16  37732925.171   196485243.536         -61.018          48.000    37732919.859   151934833.228         -47.215          49.000  
R09  22756120.931                       -3711.574          31.000    22756120.927    94512766.327       -2887.179          36.000  
R10  20385947.619   108668571.185        -584.640          46.000                                                                  
R11  21717774.690   116053209.572        3285.834          46.000    21717772.878    90263599.489        2555.609          50.000  
R08  20734332.745   111031412.588         710.504          49.000    20734327.677    86357743.839         552.637          47.000  
R07  22119463.347   118407218.249       -2147.416          48.000    22119461.000    92094494.233       -1670.297          48.000  
R23  24994517.582   133703807.838       -3801.597          38.000                                                                  
G24  23562959.580                       -3496.780          28.000    23562963.968                       -2724.752          29.000                                                                  
G23  21687238.625   113967205.986       -2546.118          46.000    21687237.294    88805608.187       -1984.015          48.000                                                                  
J02  38631926.636   203012146.056         -35.338          40.000    38631928.816   158191290.416         -27.584          41.000  
E06  24775634.051   130196835.597        -758.408          47.000    24775637.294    99761224.502        -581.065          50.000  
E09  24667635.763   129629301.060         135.109          48.000    24667637.863    99326356.345         103.510          51.000  
E31  25936755.726   136298570.402        1663.937          44.000    25936760.188   104436586.588        1274.830          47.000  
C33  23479842.425   122265702.789        1357.568          49.000                                                                  
C24  22556845.334   117459414.310         655.025          49.000                                                                  
R24  24315059.086                3      -1614.984          25.000    24315052.809                       -1256.475          29.000  
R01  23378451.966                        2884.953          27.000                                                                  
E36  26419157.903   138833608.976       -1773.372          43.000    26419163.353   106379020.306       -1358.821          46.000  
E05  25987321.601   136564290.011        1505.414          38.000    25987327.774   104640198.624        1153.544          46.000  
E04  26041519.010   136849105.658       -1548.880          41.000    26041521.869   104858415.645       -1186.892          45.000  
J03  38286634.456   201197614.216        -763.046          34.000    38286642.556   156777393.419        -595.011          39.000  
E23  26758740.189   140618127.618        -784.107          32.000    26758747.091   107746386.763        -600.743          41.000  
G31  26373310.662   138592685.169        3229.935          31.000                                                                                                                                  
J07  38065152.032   200033723.267        -258.118          39.000    38065150.146   155870427.996        -201.057          44.000  
E11  26895879.635   141338809.806       -3223.122          33.000    26895888.720   108298596.368       -2469.834          41.000  
E34                                                                  27908355.352                         531.464          28.000  
G18                                                                  26226183.813   107391813.693       -2761.110          36.000                                                                  
J04                                                                  39329104.731   161046108.149         294.013          47.000  
> 2025 11 05 02 28 25.4430000  0 39                     
G10  21424683.069   112587469.018         556.660          50.000    21424681.892    87730491.927         433.735          46.000                                                                  
G28  23681073.017   124444881.352        2347.585          41.000    23681071.913    96970035.504        1829.620          43.000                                                                  
G15  25857086.240   135879895.840       -3316.516          34.000    25857094.452   105880471.931       -2583.916          35.000                                                                  
G32  22699073.149   119284433.692        1427.402          47.000    22699073.063    92948908.457        1112.401          44.000                                                                  
G12  22701594.458   119297684.225         309.057          46.000    22701592.340    92959226.077         240.644          42.000                                                                  
G25  22160728.952   116455421.063        2191.046          43.000    22160730.228    90744489.866        1707.141          42.000                                                                  
C06  37545692.235   195510273.526         106.017          44.000    37545681.304   151180901.474          82.069          46.000  
C08  36822685.776   191745389.270        -458.612          45.000    36822673.841   148269648.567        -354.688          49.000  
C14  22704430.191   118227926.883          22.399          47.000    22704420.270    91421291.816          17.325          50.000  
C09  38803050.868   202057667.455         207.089          42.000    38803043.688   156243776.616         160.341          48.000  
C13  36790902.474   191579885.514        -127.759          48.000    36790898.289   148141701.455         -98.682          47.000  
C16  37732925.650   196485245.967         -60.840          48.000    37732920.329   151934835.109         -47.094          49.000  
R09  22756148.777                       -3712.504          31.000    22756148.724    94512881.776       -2886.574          36.000  
R10  20385951.966   108668594.563        -584.552          46.000                                                                  
R11  21717750.081   116053078.145        3285.791          46.000    21717748.286    90263497.269        2555.524          50.000  
R08  20734327.432   111031384.157         710.697          49.000    20734322.367    86357721.726         552.775          47.000  
R07  22119479.392   118407304.149       -2147.445          48.000    22119477.054    92094561.043       -1670.266          48.000  
R23  24994546.013   133703959.895       -3801.494          38.000                                                                  
G24  23562986.172                       -3496.756          28.000    23562990.582                       -2724.535          29.000                                                                  
G23  21687258.006   113967307.831       -2546.075          46.000    21687256.670    88805687.548       -1984.033          48.000                                                                  
J02  38631926.910   203012147.460         -35.120          40.000    38631929.109   158191291.511         -27.495          41.000  
E06  24775639.768   130196865.929        -758.316          47.000    24775643.035    99761247.746        -581.062          50.000  
E09  24667634.709   129629295.648         135.278          48.000    24667636.855    99326352.201         103.577          51.000  
E31  25936743.062   136298503.848        1663.908          44.000    25936747.501   104436535.591        1274.877          47.000  
C33  23479831.972   122265648.482        1357.653          49.000                                                                  
C24  22556840.311   117459388.101         655.205          49.000                                                                  
R24  24315071.149                3      -1614.907          25.000    24315064.867                       -1256.635          29.000  
R01  23378430.487                        2884.817          27.000                                                                  
E36  26419171.345   138833679.908       -1773.284          43.000    26419176.875   106379074.651       -1358.662          46.000  
E05  25987310.141   136564229.789        1505.484          38.000    25987316.301   104640152.474        1153.691          46.000  
E04  26041530.785   136849167.619       -1548.980          41.000    26041533.683   104858463.118       -1186.835          45.000  
J03  38286640.238   201197644.743        -763.154          34.000    38286648.329   156777417.184        -594.400          39.000  
E23  26758746.227   140618158.954        -783.683          32.000    26758753.059   107746410.780        -600.561          41.000  
G31  26373286.070   138592556.002        3229.576          30.000                                                                                                                                  
J07  38065154.015   200033733.587        -257.982          39.000    38065152.100   155870436.047        -201.125          44.000  
E11  26895904.182   141338938.728       -3223.116          33.000    26895913.269   108298695.144       -2469.564          41.000  
E34                                                                  27908349.825                         531.807          28.000  
G18                                                                  26226210.781   107391924.081       -2760.075          36.000                                                                  
J04                                                                  39329101.861   161046096.387         294.062          47.000  
> 2025 11 05 02 28 25.4830000  0 39                     
G10  21424678.863   112587446.758         556.567          50.000    21424677.655    87730474.577         433.740          46.000                                                                  
G28  23681055.145   124444787.442        2347.642          41.000    23681054.029    96969962.338        1829.348          43.000                                                                  
G15  25857111.469   135880028.451       -3315.872          34.000    25857119.687   105880575.258       -2583.410          35.000                                                                  
G32  22699062.272   119284376.592        1427.470          47.000    22699062.227    92948863.970        1112.249          44.000                                                                  
G12  22701592.146   119297671.892         308.630          46.000    22701589.981    92959216.462         240.471          42.000                                                                  
G25  22160712.255   116455333.449        2190.642          43.000    22160713.550    90744421.586        1707.044          42.000                                                                  
C06  37545691.408   195510269.282         106.043          44.000    37545680.491   151180898.190          82.086          46.000  
C08  36822689.267   191745407.620        -458.704          45.000    36822677.345   148269662.751        -354.596          49.000  
C14  22704430.016   118227925.993          22.298          47.000    22704420.104    91421291.130          17.211          50.000  
C09  38803049.266   202057659.187         206.792          42.000    38803042.094   156243770.213         160.186          48.000  
C13  36790903.478   191579890.624        -127.753          48.000    36790899.269   148141705.412         -98.877          47.000  
C16  37732926.119   196485248.409         -60.938          48.000    37732920.793   151934836.994         -47.071          49.000  
R09  22756176.557                       -3712.022          31.000    22756176.546    94512997.270       -2887.121          36.000  
R10  20385956.364   108668617.958        -584.770          46.000                                                                  
R11  21717725.516   116052946.727        3285.547          46.000    21717723.690    90263395.053        2555.426          50.000  
R08  20734322.123   111031355.731         710.689          49.000    20734317.080    86357699.617         552.773          47.000  
R07  22119495.437   118407390.057       -2147.605          48.000    22119493.131    92094627.859       -1670.328          48.000  
R23  24994574.432   133704111.940       -3801.203          38.000                                                                  
G24  23563012.785                       -3496.969          28.000    23563017.169                       -2724.567          29.000                                                                  
G23  21687277.401   113967409.679       -2546.136          46.000    21687276.065    88805766.914       -1984.125          48.000                                                                  
J02  38631927.181   203012148.881         -35.354          40.000    38631929.386   158191292.614         -27.547          41.000  
E06  24775645.592   130196896.263        -758.308          47.000    24775648.809    99761270.989        -581.065          50.000  
E09  24667633.713   129629290.243         135.225          48.000    24667635.843    99326348.061         103.555          51.000  
E31  25936730.368   136298437.295        1663.879          44.000    25936734.813   104436484.594        1274.911          47.000  
C33  23479821.515   122265594.182        1357.566          49.000                                                                  
C24  22556835.236   117459361.913         654.899          49.000                                                                  
R24  24315083.357                3      -1615.090          25.000    24315076.917                       -1256.611          29.000  
R01  23378409.148                        2884.802          27.000                                                                  
E36  26419184.834   138833750.842       -1773.304          43.000    26419190.396   106379129.009       -1358.813          46.000  
E05  25987298.691   136564169.559        1505.648          38.000    25987304.855   104640106.321        1153.799          46.000  
E04  26041542.614   136849229.584       -1549.038          41.000    26041545.523   104858510.596       -1186.909          45.000  
J03  38286646.043   201197675.269        -763.168          34.000    38286654.134   156777440.962        -594.347          39.000  
E23  26758752.178   140618190.290        -783.458          32.000    26758759.011   107746434.800        -600.495          41.000  
G31  26373261.480   138592426.810        3229.758          30.000                                                                                                                                  
J07  38065156.003   200033743.914        -258.065          39.000    38065154.070   155870444.101        -201.263          44.000  
E11  26895928.687   141339067.651       -3223.160          33.000    26895937.836   108298793.930       -2469.567          41.000  
E34                                                                  27908344.623                         531.546          28.000  
G18                                                                  26226237.745   107392034.498       -2760.181          36.000                                                                  
J04                                                                  39329098.967   161046084.619         294.160          47.000  
> 2025 11 05 02 28 25.5230000  0 39                     
G10  21424674.638   112587424.499         556.481          50.000    21424673.423    87730457.237         433.518          46.000                                                                  
G28  23681037.287   124444693.544        2347.477          41.000    23681036.155    96969889.170        1829.209          43.000                                                                  
G15  25857136.692   135880161.076       -3315.664          34.000    25857144.914   105880678.602       -2583.463          35.000                                                                  
G32  22699051.411   119284319.495        1427.440          47.000    22699051.369    92948819.478        1112.257          44.000                                                                  
G12  22701589.795   119297659.553         308.409          46.000    22701587.625    92959206.839         240.476          42.000                                                                  
G25  22160695.600   116455245.832        2190.454          43.000    22160696.873    90744353.312        1706.900          42.000                                                                  
C06  37545690.577   195510265.039         106.065          44.000    37545679.680   151180894.910          82.039          46.000  
C08  36822692.777   191745425.973        -458.832          45.000    36822680.870   148269676.941        -354.694          49.000  
C14  22704429.830   118227925.102          22.259          47.000    22704419.933    91421290.443          17.148          50.000  
C09  38803047.671   202057650.901         207.008          42.000    38803040.501   156243763.813         160.041          48.000  
C13  36790904.464   191579895.740        -127.881          48.000    36790900.250   148141709.366         -98.926          47.000  
C16  37732926.582   196485250.856         -61.101          48.000    37732921.277   151934838.883         -47.186          49.000  
R09  22756204.399                       -3711.754          31.000    22756204.355    94513112.746       -2887.076          36.000  
R10  20385960.766   108668641.356        -584.958          46.000                                                                  
R11  21717700.900   116052815.310        3285.418          46.000    21717699.116    90263292.841        2555.267          50.000  
R08  20734316.834   111031327.314         710.512          49.000    20734311.802    86357677.517         552.589          47.000  
R07  22119511.472   118407475.963       -2147.676          48.000    22119509.185    92094694.670       -1670.302          48.000  
R23  24994602.876   133704264.014       -3801.569          38.000                                                                  
G24  23563039.390                       -3496.937          28.000    23563043.797                       -2724.781          29.000                                                                  
G23  21687296.805   113967511.534       -2546.332          46.000    21687295.435    88805846.281       -1984.204          48.000                                                                  
J02  38631927.445   203012150.306         -35.582          40.000    38631929.648   158191293.722         -27.714          41.000  
E06  24775651.452   130196926.601        -758.400          47.000    24775654.605    99761294.230        -581.041          50.000  
E09  24667632.729   129629284.843         135.097          48.000    24667634.849    99326343.921         103.516          51.000  
E31  25936717.752   136298370.748        1663.720          44.000    25936722.121   104436433.604        1274.803          47.000  
C33  23479811.063   122265539.890        1357.338          49.000                                                                  
C24  22556830.194   117459335.728         654.678          49.000                                                                  
R24  24315095.274                3      -1615.241          25.000    24315089.033                       -1256.838          29.000  
R01  23378387.723                        2884.536          27.000                                                                  
E36  26419198.354   138833821.787       -1773.519          43.000    26419203.886   106379183.366       -1358.866          46.000  
E05  25987287.210   136564109.334        1505.653          38.000    25987293.395   104640060.180        1153.648          46.000  
E04  26041554.415   136849291.541       -1548.969          41.000    26041557.292   104858558.067       -1186.847          45.000  
J03  38286651.872   201197705.788        -763.094          34.000    38286659.944   156777464.763        -594.768          39.000  
E23  26758758.104   140618221.671        -784.044          32.000    26758765.011   107746458.828        -600.638          41.000  
G31  26373236.919   138592297.619        3229.851          30.000                                                                                                                                  
J07  38065157.959   200033754.255        -258.377          39.000    38065156.065   155870452.158        -201.418          44.000  
E11  26895953.283   141339196.595       -3223.357          33.000    26895962.382   108298892.715       -2469.588          41.000  
E34                                                                  27908339.336                         531.771          28.000  
G18                                                                  26226264.711   107392144.924       -2760.568          36.000                                                                  
J04                                                                  39329096.105   161046072.859         294.036          47.000  
> 2025 11 05 02 28 25.5630000  0 39                     
G10  21424670.427   112587402.244         556.364          50.000    21424669.192    87730439.899         433.395          46.000                                                                  
G28  23681019.421   124444599.646        2347.397          41.000    23681018.292    96969816.005        1829.085          43.000                                                                  
G15  25857161.913   135880293.690       -3315.438          34.000    25857170.143   105880781.951       -2583.596          35.000                                                                  
G32  22699040.569   119284262.411        1427.191          47.000    22699040.507    92948774.997        1112.089          44.000                                                                  
G12  22701587.454   119297647.216         308.339          46.000    22701585.264    92959197.227         240.315          42.000                                                                  
G25  22160678.920   116455158.227        2190.164          43.000    22160680.186    90744285.044        1706.703          42.000                                                                  
C06  37545689.770   195510260.802         105.926          44.000    37545678.873   151180891.631          81.947          46.000  
C08  36822696.311   191745444.323        -458.820          45.000    36822684.399   148269691.136        -354.840          49.000  
C14  22704429.670   118227924.216          22.163          47.000    22704419.760    91421289.763          17.028          50.000  
C09  38803046.095   202057642.623         206.976          42.000    38803038.910   156243757.416         159.892          48.000  
C13  36790905.445   191579900.855        -127.942          48.000    36790901.240   148141713.327         -99.060          47.000  
C16  37732927.078   196485253.306         -61.241          48.000    37732921.748   151934840.775         -47.317          49.000  
R09  22756232.188                       -3711.769          31.000    22756232.152    94513228.229       -2887.096          36.000  
R10  20385965.159   108668664.747        -584.914          46.000                                                                  
R11  21717676.306   116052683.894        3285.345          46.000    21717674.530    90263190.626        2555.280          50.000  
R08  20734311.525   111031298.904         710.274          49.000    20734306.485    86357655.415         552.515          47.000  
R07  22119527.516   118407561.871       -2147.740          48.000    22119525.236    92094761.491       -1670.462          48.000  
R23  24994631.314   133704416.071       -3801.491          38.000                                                                  
G24  23563065.976                       -3497.037          28.000    23563070.408                       -2725.180          29.000                                                                  
G23  21687316.195   113967613.391       -2546.442          46.000    21687314.813    88805925.648       -1984.229          48.000                                                                  
J02  38631927.708   203012151.725         -35.559          40.000    38631929.920   158191294.834         -27.812          41.000  
E06  24775657.281   130196956.941        -758.485          47.000    24775660.389    99761317.485        -581.268          50.000  
E09  24667631.749   129629279.445         134.980          48.000    24667633.855    99326339.787         103.409          51.000  
E31  25936705.072   136298304.206        1663.564          44.000    25936709.449   104436382.618        1274.686          47.000  
C33  23479800.624   122265485.598        1357.233          49.000                                                                  
C24  22556825.189   117459309.544         654.543          49.000                                                                  
R24  24315107.382                3      -1616.368          25.000    24315101.134                       -1256.770          29.000  
R01  23378366.148                        2884.456          28.000                                                                  
E36  26419211.912   138833892.736       -1773.728          43.000    26419217.444   106379237.734       -1359.129          46.000  
E05  25987275.764   136564049.117        1505.494          38.000    25987281.919   104640014.039        1153.573          46.000  
E04  26041566.186   136849353.497       -1548.915          41.000    26041569.102   104858605.541       -1186.838          45.000  
J03  38286657.682   201197736.323        -763.320          34.000    38286665.759   156777488.547        -594.694          39.000  
E23  26758764.110   140618253.049        -784.371          32.000    26758770.985   107746482.861        -600.764          41.000  
G31  26373212.343   138592168.418        3230.071          31.000                                                                                                                                  
J07  38065159.930   200033764.602        -258.642          39.000    38065158.037   155870460.200        -201.207          44.000  
E11  26895977.787   141339325.516       -3223.198          33.000    26895986.949   108298991.511       -2469.763          41.000  
E34                                                                  27908334.234                         531.361          28.000  
G18                                                                  26226291.682   107392255.357       -2760.899          36.000                                                                  
J04                                                                  39329093.244   161046061.100         293.950          47.000  
> 2025 11 05 02 28 25.6030000  0 39                     
G10  21424666.213   112587379.990         556.309          50.000    21424664.954    87730422.556         433.458          46.000                                                                  
G28  23681001.558   124444505.749        2347.375          41.000    23681000.420    96969742.838        1829.075          43.000                                                                  
G15  25857187.149   135880426.328       -3315.845          34.000    25857195.380   105880885.307       -2583.870          35.000                                                                  
G32  22699029.718   119284205.324        1427.078          47.000    22699029.647    92948730.519        1111.930          44.000                                                                  
G12  22701585.087   119297634.878         308.362          46.000    22701582.901    92959187.621         240.109          42.000                                                                  
G25  22160662.249   116455070.596        2190.455          43.000    22160663.501    90744216.780        1706.548          42.000                                                                  
C06  37545688.971   195510256.559         105.961          44.000    37545678.058   151180888.354          81.905          46.000  
C08  36822699.861   191745462.682        -458.936          45.000    36822687.926   148269705.332        -354.926          49.000  
C14  22704429.483   118227923.341          21.911          47.000    22704419.590    91421289.075          17.104          50.000  
C09  38803044.490   202057634.346         206.931          42.000    38803037.310   156243751.019         159.857          48.000  
C13  36790906.417   191579905.973        -127.972          48.000    36790902.234   148141717.282         -98.999          47.000  
C16  37732927.583   196485255.750         -61.216          48.000    37732922.220   151934842.667         -47.358          49.000  
R09  22756259.979                       -3711.638          31.000    22756259.959    94513343.720       -2887.255          36.000  
R10  20385969.567   108668688.142        -584.952          46.000                                                                  
R11  21717651.706   116052552.477        3285.364          46.000    21717649.925    90263088.415        2555.219          50.000  
R08  20734306.213   111031270.491         710.227          49.000    20734301.182    86357633.317         552.468          47.000  
R07  22119543.566   118407647.783       -2147.821          48.000    22119541.288    92094828.310       -1670.525          48.000  
R23  24994659.744   133704568.144       -3801.731          38.000                                                                  
G24  23563092.614                       -3496.980          28.000    23563097.040                       -2724.929          29.000                                                                  
G23  21687335.575   113967715.245       -2546.393          46.000    21687334.198    88806005.015       -1984.229          48.000                                                                  
J02  38631928.000   203012153.161         -35.863          40.000    38631930.189   158191295.947         -27.885          41.000  
E06  24775663.075   130196987.285        -758.589          47.000    24775666.145    99761340.735        -581.307          50.000  
E09  24667630.775   129629274.055         134.805          48.000    24667632.852    99326335.654         103.306          51.000  
E31  25936692.414   136298237.665        1663.494          44.000    25936696.783   104436331.626        1274.676          47.000  
C33  23479790.204   122265431.309        1357.174          49.000                                                                  
C24  22556820.154   117459283.353         654.622          49.000                                                                  
R24  24315119.464                3      -1615.561          25.000    24315113.181                       -1256.739          29.000  
R01  23378344.560                        2884.260          27.000                                                                  
E36  26419225.499   138833963.689       -1773.854          43.000    26419230.950   106379292.101       -1359.231          46.000  
E05  25987264.337   136563988.902        1505.392          38.000    25987270.480   104639967.898        1153.512          46.000  
E04  26041577.982   136849415.464       -1549.054          41.000    26041580.871   104858653.030       -1187.068          45.000  
J03  38286663.489   201197766.840        -763.042          34.000    38286671.574   156777512.364        -595.210          39.000  
E23  26758769.998   140618284.412        -784.356          31.000    26758776.951   107746506.885        -600.682          41.000  
G31  26373187.771   138592039.261        3229.274          30.000                                                                                                                                  
J07  38065161.862   200033774.933        -258.507          39.000    38065159.986   155870468.254        -201.326          44.000  
E11  26896002.361   141339454.467       -3223.601          33.000    26896011.473   108299090.317       -2470.089          41.000  
E34                                                                  27908329.190                         531.469          28.000  
G18                                                                  26226318.633   107392365.783       -2760.823          36.000                                                                  
J04                                                                  39329090.384   161046049.346         293.845          47.000  
> 2025 11 05 02 28 25.6430000  0 39                     
G10  21424661.982   112587357.738         556.242          50.000    21424660.681    87730405.213         433.495          46.000                                                                  
G28  23680983.685   124444411.847        2347.472          41.000    23680982.550    96969669.666        1829.172          43.000                                                                  
G15  25857212.382   135880558.974       -3316.211          34.000    25857220.613   105880988.655       -2583.954          35.000                                                                  
G32  22699018.846   119284148.226        1427.268          47.000    22699018.780    92948686.032        1112.001          44.000                                                                  
G12  22701582.720   119297622.534         308.469          46.000    22701580.538    92959178.009         240.125          42.000                                                                  
G25  22160645.577   116454982.971        2190.554          43.000    22160646.818    90744148.502        1706.715          42.000                                                                  
C06  37545688.174   195510252.316         106.029          44.000    37545677.236   151180885.081          81.795          46.000  
C08  36822703.383   191745481.035        -458.911          45.000    36822691.458   148269719.522        -354.846          49.000  
C14  22704429.325   118227922.448          22.123          47.000    22704419.425    91421288.388          17.129          50.000  
C09  38803042.914   202057626.063         207.032          42.000    38803035.712   156243744.625         159.777          48.000  
C13  36790907.393   191579911.083        -127.863          47.000    36790903.228   148141721.235         -98.895          47.000  
C16  37732928.066   196485258.194         -61.182          48.000    37732922.703   151934844.561         -47.386          49.000  
R09  22756287.754                       -3712.797          31.000    22756287.735    94513459.201       -2887.221          36.000  
R10  20385973.958   108668711.534        -584.918          45.000                                                                  
R11  21717627.116   116052421.054        3285.461          46.000    21717625.311    90262986.199        2555.334          50.000  
R08  20734300.900   111031242.071         710.355          49.000    20734295.878    86357611.215         552.514          47.000  
R07  22119559.628   118407733.694       -2147.856          48.000    22119557.341    92094895.130       -1670.567          48.000  
R23  24994688.159   133704720.192       -3801.404          38.000                                                                  
G24  23563119.240                       -3497.067          28.000    23563123.666                       -2724.841          29.000                                                                  
G23  21687354.954   113967817.097       -2546.338          46.000    21687353.566    88806084.380       -1984.174          48.000                                                                  
J02  38631928.259   203012154.580         -35.726          40.000    38631930.487   158191297.062         -27.965          41.000  
E06  24775668.825   130197017.625        -758.594          47.000    24775671.910    99761363.979        -581.210          50.000  
E09  24667629.664   129629268.655         134.861          48.000    24667631.789    99326331.518         103.328          51.000  
E31  25936679.733   136298171.111        1663.644          44.000    25936684.130   104436280.635        1274.704          47.000  
C33  23479779.803   122265377.010        1357.322          49.000                                                                  
C24  22556815.130   117459257.156         654.787          49.000                                                                  
R24  24315131.628                3      -1615.156          25.000    24315125.304                       -1256.972          29.000  
R01  23378323.043                        2884.508          27.000                                                                  
E36  26419238.980   138834034.632       -1773.755          43.000    26419244.437   106379346.455       -1359.028          46.000  
E05  25987252.851   136563928.685        1505.343          38.000    25987259.076   104639921.764        1153.349          46.000  
E04  26041589.790   136849477.432       -1549.188          41.000    26041592.640   104858700.509       -1187.059          45.000  
J03  38286669.303   201197797.379        -763.321          34.000    38286677.375   156777536.153        -594.982          39.000  
E23  26758775.877   140618315.744        -783.643          31.000    26758782.896   107746530.924        -600.912          41.000  
G31  26373163.189   138591910.078        3229.578          30.000                                                                                                                                  
J07  38065163.832   200033785.253        -258.188          39.000    38065161.909   155870476.312        -201.448          44.000  
E11  26896026.919   141339583.393       -3223.334          33.000    26896036.025   108299189.112       -2469.982          41.000  
E34                                                                  27908323.773                         530.903          28.000  
G18                                                                  26226345.591   107392476.217       -2760.894          36.000                                                                  
J04                                                                  39329087.510   161046037.588         293.889          47.000  
> 2025 11 05 02 28 25.6830000  0 39                     
G10  21424657.728   112587335.484         556.279          50.000    21424656.437    87730387.869         433.557          46.000                                                                  
G28  23680965.829   124444317.956        2347.339          41.000    23680964.673    96969596.494        1829.222          43.000                                                                  
G15  25857237.635   135880691.604       -3316.043          34.000    25857245.843   105881092.001       -2583.857          35.000                                                                  
G32  22699007.969   119284091.118        1427.582          47.000    22699007.924    92948641.530        1112.348          44.000                                                                  
G12  22701580.376   119297610.199         308.384          46.000    22701578.193    92959168.394         240.212          42.000                                                                  
G25  22160628.891   116454895.344        2190.636          43.000    22160630.153    90744080.219        1706.907          42.000                                                                  
C06  37545687.366   195510248.076         105.995          44.000    37545676.415   151180881.798          81.958          46.000  
C08  36822706.897   191745499.390        -458.923          45.000    36822694.986   148269733.714        -354.840          49.000  
C14  22704429.144   118227921.561          22.156          47.000    22704419.262    91421287.701          17.135          50.000  
C09  38803041.331   202057617.792         206.875          42.000    38803034.114   156243738.223         159.930          48.000  
C13  36790908.394   191579916.194        -127.814          47.000    36790904.202   148141725.190         -98.883          47.000  
C16  37732928.574   196485260.636         -61.117          47.000    37732923.168   151934846.450         -47.313          49.000  
R09  22756315.555                       -3713.104          31.000    22756315.546    94513574.687       -2887.217          36.000  
R10  20385978.355   108668734.933        -585.007          45.000                                                                  
R11  21717602.534   116052289.635        3285.461          46.000    21717600.725    90262883.984        2555.359          50.000  
R08  20734295.575   111031213.646         710.551          49.000    20734290.577    86357589.111         552.564          47.000  
R07  22119575.685   118407819.595       -2147.658          48.000    22119573.404    92094961.943       -1670.451          48.000  
R23  24994716.573   133704872.262       -3801.647          38.000                                                                  
G24  23563145.861                       -3496.848          28.000    23563150.304                       -2725.479          29.000                                                                  
G23  21687374.330   113967918.949       -2546.320          46.000    21687372.941    88806163.747       -1984.210          48.000                                                                  
J02  38631928.516   203012155.992         -35.516          40.000    38631930.771   158191298.156         -27.607          41.000  
E06  24775674.538   130197047.957        -758.414          47.000    24775677.650    99761387.222        -581.123          50.000  
E09  24667628.597   129629263.252         134.990          48.000    24667630.723    99326327.377         103.423          51.000  
E31  25936667.027   136298104.566        1663.645          44.000    25936671.459   104436229.648        1274.666          47.000  
C33  23479769.380   122265322.705        1357.531          49.000                                                                  
C24  22556810.120   117459230.965         654.798          48.000                                                                  
R24  24315143.527                3      -1614.654          25.000    24315137.383                       -1256.726          29.000  
R01  23378301.561                        2884.646          27.000                                                                  
E36  26419252.429   138834105.572       -1773.633          42.000    26419257.978   106379400.808       -1358.894          46.000  
E05  25987241.367   136563868.454        1505.603          38.000    25987247.595   104639875.620        1153.431          45.000  
E04  26041601.544   136849539.386       -1549.011          41.000    26041604.447   104858747.982       -1186.938          45.000  
J03  38286675.126   201197827.941        -763.900          34.000    38286683.189   156777559.916        -594.375          39.000  
E23  26758781.859   140618347.118        -783.985          31.000    26758788.882   107746554.958        -600.924          41.000  
G31  26373138.628   138591780.927        3229.092          30.000                                                                                                                                  
J07  38065165.804   200033795.589        -258.337          39.000    38065163.872   155870484.361        -201.382          44.000  
E11  26896051.476   141339712.324       -3223.305          33.000    26896060.535   108299287.900       -2469.849          41.000  
E34                                                                  27908318.547                         531.128          28.000  
G18                                                                  26226372.560   107392586.649       -2760.871          36.000                                                                  
J04                                                                  39329084.639   161046025.828         293.964          47.000  
> 2025 11 05 02 28 25.7230000  0 39                     
G10  21424653.485   112587313.229         556.298          50.000    21424652.228    87730370.534         433.415          46.000                                                                  
G28  23680947.957   124444224.042        2347.643          41.000    23680946.813    96969523.328        1829.146          43.000                                                                  
G15  25857262.882   135880824.226       -3315.679          34.000    25857271.082   105881195.353       -2583.880          35.000                                                                  
G32  22698997.105   119284034.028        1427.396          47.000    22698997.064    92948597.048        1112.164          44.000                                                                  
G12  22701578.042   119297597.866         308.323          46.000    22701575.850    92959158.793         240.033          42.000                                                                  
G25  22160612.233   116454807.734        2190.380          43.000    22160613.479    90744011.938        1706.998          42.000                                                                  
C06  37545686.558   195510243.841         105.898          44.000    37545675.592   151180878.523          81.872          46.000  
C08  36822710.403   191745517.745        -458.899          45.000    36822698.534   148269747.907        -354.834          49.000  
C14  22704428.958   118227920.671          22.211          47.000    22704419.088    91421287.019          17.034          50.000  
C09  38803039.717   202057609.525         206.661          42.000    38803032.531   156243731.814         160.111          48.000  
C13  36790909.396   191579921.312        -127.936          47.000    36790905.189   148141729.146         -98.895          47.000  
C16  37732929.081   196485263.078         -61.078          47.000    37732923.650   151934848.340         -47.293          49.000  
R09  22756343.343                       -3711.602          31.000    22756343.339    94513690.185       -2887.429          36.000  
R10  20385982.754   108668758.335        -585.114          45.000                                                                  
R11  21717577.943   116052158.222        3285.333          46.000    21717576.140    90262781.776        2555.255          50.000  
R08  20734290.282   111031185.230         710.492          48.000    20734285.265    86357567.009         552.550          47.000  
R07  22119591.745   118407905.501       -2147.640          48.000    22119589.437    92095028.762       -1670.484          48.000  
R23  24994745.021   133705024.332       -3801.724          38.000                                                                  
G24  23563172.479                       -3497.173          28.000    23563176.906                       -2725.133          29.000                                                                  
G23  21687393.723   113968020.807       -2546.436          46.000    21687392.351    88806243.121       -1984.320          48.000                                                                  
J02  38631928.780   203012157.413         -35.551          40.000    38631931.038   158191299.263         -27.642          41.000  
E06  24775680.300   130197078.296        -758.446          47.000    24775683.426    99761410.472        -581.205          50.000  
E09  24667627.516   129629257.853         134.958          48.000    24667629.695    99326323.241         103.411          51.000  
E31  25936654.360   136298038.017        1663.705          44.000    25936658.808   104436178.656        1274.715          47.000  
C33  23479758.955   122265268.405        1357.542          49.000                                                                  
C24  22556805.085   117459204.776         654.710          48.000                                                                  
R24  24315155.187                3      -1615.997          25.000    24315149.457                       -1256.843          29.000  
R01  23378279.909                        2884.048          27.000                                                                  
E36  26419265.908   138834176.514       -1773.562          42.000    26419271.444   106379455.169       -1358.965          46.000  
E05  25987229.885   136563808.234        1505.569          38.000    25987236.115   104639829.475        1153.540          46.000  
E04  26041613.335   136849601.351       -1549.072          41.000    26041616.220   104858795.457       -1186.881          45.000  
J03  38286680.908   201197858.435        -762.935          34.000    38286689.000   156777583.715        -594.678          39.000  
E23  26758787.734   140618378.456        -783.710          32.000    26758794.843   107746578.986        -600.826          41.000  
G31  26373114.049   138591651.752        3229.177          30.000                                                                                                                                  
J07  38065167.775   200033805.922        -258.341          39.000    38065165.828   155870492.408        -201.257          44.000  
E11  26896076.014   141339841.265       -3223.444          33.000    26896085.066   108299386.691       -2469.818          41.000  
E34                                                                  27908313.397                         531.141          28.000  
G18                                                                  26226399.534   107392697.076       -2760.667          36.000                                                                  
J04                                                                  39329081.774   161046014.069         293.994          47.000  
> 2025 11 05 02 28 25.7630000  0 39                     
G10  21424649.270   112587290.983         556.150          50.000    21424647.995    87730353.199         433.329          46.000                                                                  
G28  23680930.092   124444130.143        2347.579          41.000    23680928.950    96969450.168        1829.027          43.000                                                                  
G15  25857288.110   135880956.881       -3316.248          34.000    25857296.321   105881298.690       -2583.621          35.000                                                                  
G32  22698986.258   119283976.947        1427.123          47.000    22698986.204    92948552.559        1112.191          44.000                                                                  
G12  22701575.713   119297585.531         308.317          46.000    22701573.495    92959149.169         240.355          42.000                                                                  
G25  22160595.562   116454720.122        2190.229          43.000    22160596.799    90743943.663        1706.938          42.000                                                                  
C06  37545685.753   195510239.594         106.092          44.000    37545674.774   151180875.245          81.899          46.000  
C08  36822713.943   191745536.098        -458.850          45.000    36822702.055   148269762.099        -354.834          49.000  
C14  22704428.806   118227919.785          22.137          47.000    22704418.924    91421286.336          17.005          50.000  
C09  38803038.161   202057601.240         206.889          42.000    38803030.951   156243725.418         159.989          48.000  
C13  36790910.373   191579926.433        -128.027          47.000    36790906.167   148141733.103         -98.926          47.000  
C16  37732929.554   196485265.521         -61.094          47.000    37732924.121   151934850.230         -47.267          49.000  
R09  22756371.127                       -3712.205          31.000    22756371.135    94513805.650       -2886.942          36.000  
R10  20385987.138   108668781.740        -585.181          45.000                                                                  
R11  21717553.363   116052026.812        3285.205          46.000    21717551.542    90262679.563        2555.286          50.000  
R08  20734284.989   111031156.818         710.334          48.000    20734279.957    86357544.910         552.468          47.000  
R07  22119607.802   118407991.414       -2147.758          48.000    22119605.484    92095095.578       -1670.438          48.000  
R23  24994773.443   133705176.377       -3801.349          38.000                                                                  
G24  23563199.088                       -3496.897          28.000    23563203.566                       -2725.244          29.000                                                                  
G23  21687413.108   113968122.663       -2546.466          46.000    21687411.718    88806322.492       -1984.314          48.000                                                                  
J02  38631929.036   203012158.832         -35.538          40.000    38631931.306   158191300.369         -27.677          41.000  
E06  24775686.080   130197108.637        -758.501          47.000    24775689.204    99761433.720        -581.225          50.000  
E09  24667626.480   129629252.455         134.944          48.000    24667628.673    99326319.106         103.363          51.000  
E31  25936641.640   136297971.463        1663.802          44.000    25936646.139   104436127.670        1274.670          47.000  
C33  23479748.532   122265214.110        1357.450          49.000                                                                  
C24  22556800.025   117459178.591         654.600          48.000                                                                  
R24  24315167.307                3      -1616.232          25.000    24315161.546   101129878.867       -1256.744          29.000  
R01  23378258.225                        2884.498          27.000                                                                  
E36  26419279.449   138834247.465       -1773.702          42.000    26419284.952   106379509.533       -1359.043          46.000  
E05  25987218.426   136563748.019        1505.382          38.000    25987224.664   104639783.335        1153.515          46.000  
E04  26041625.088   136849663.317       -1549.155          41.000    26041628.008   104858842.935       -1186.907          45.000  
J03  38286686.710   201197888.973        -763.181          34.000    38286694.804   156777607.513        -594.857          39.000  
E23  26758793.657   140618409.832        -784.073          32.000    26758800.829   107746603.015        -600.797          41.000  
G31  26373089.491   138591522.591        3229.108          30.000                                                                                                                                  
J07  38065169.748   200033816.244        -258.121          39.000    38065167.781   155870500.462        -201.336          44.000  
E11  26896100.582   141339970.173       -3222.941          33.000    26896109.593   108299485.480       -2469.769          41.000  
E34                                                                  27908308.102                         531.430          28.000  
G18                                                                  26226426.494   107392807.486       -2760.293          36.000                                                                  
J04                                                                  39329078.920   161046002.308         293.988          47.000  
> 2025 11 05 02 28 25.8030000  0 39                     
G10  21424645.041   112587268.737         556.101          50.000    21424643.767    87730335.866         433.274          46.000                                                                  
G28  23680912.210   124444036.251        2347.347          41.000    23680911.065    96969377.007        1829.018          43.000                                                                  
G15  25857313.354   135881089.494       -3315.680          34.000    25857321.560   105881402.048       -2583.938          35.000                                                                  
G32  22698975.383   119283919.858        1427.123          47.000    22698975.333    92948508.075        1112.121          44.000                                                                  
G12  22701573.379   119297573.197         308.333          46.000    22701571.130    92959139.548         240.453          42.000                                                                  
G25  22160578.911   116454632.505        2190.271          43.000    22160580.133    90743875.393        1706.805          42.000                                                                  
C06  37545684.949   195510235.351         106.108          44.000    37545673.957   151180871.966          81.918          46.000  
C08  36822717.456   191745554.451        -458.826          45.000    36822705.580   148269776.289        -354.797          49.000  
C14  22704428.625   118227918.903          22.039          47.000    22704418.745    91421285.651          17.061          50.000  
C09  38803036.567   202057592.955         207.059          42.000    38803029.348   156243719.014         160.039          48.000  
C13  36790911.361   191579931.550        -127.972          47.000    36790907.154   148141737.061         -98.962          47.000  
C16  37732930.034   196485267.969         -61.198          47.000    37732924.588   151934852.120         -47.261          49.000  
R09  22756398.913                       -3711.464          31.000    22756398.922    94513921.124       -2886.825          36.000  
R10  20385991.532   108668805.141        -585.166          45.000                                                                  
R11  21717528.779   116051895.394        3285.278          46.000    21717526.965    90262577.356        2555.182          50.000  
R08  20734279.711   111031128.404         710.292          48.000    20734274.637    86357522.804         552.576          47.000  
R07  22119623.859   118408077.331       -2147.922          48.000    22119621.535    92095162.395       -1670.446          48.000  
R23  24994801.864   133705328.451       -3801.671          38.000                                                                  
G24  23563225.722                       -3497.205          28.000    23563230.167                       -2725.049          29.000                                                                  
G23  21687432.486   113968224.526       -2546.588          46.000    21687431.096    88806401.856       -1984.186          48.000                                                                  
J02  38631929.317   203012160.253         -35.543          40.000    38631931.584   158191301.474         -27.657          41.000  
E06  24775691.872   130197138.980        -758.562          47.000    24775694.975    99761456.973        -581.309          50.000  
E09  24667625.519   129629247.055         134.967          48.000    24667627.619    99326314.970         103.374          51.000  
E31  25936629.004   136297904.923        1663.604          44.000    25936633.468   104436076.680        1274.692          47.000  
C33  23479738.133   122265159.818        1357.298          49.000                                                                  
C24  22556794.976   117459152.405         654.578          48.000                                                                  
R24  24315179.324                3      -1616.395          25.000    24315173.654   101129929.124       -1256.579          29.000  
R01  23378237.012                        2884.466          27.000                                                                  
E36  26419292.947   138834318.407       -1773.637          42.000    26419298.447   106379563.894       -1359.068          46.000  
E05  25987206.942   136563687.788        1505.599          38.000    25987213.207   104639737.188        1153.621          46.000  
E04  26041636.864   136849725.278       -1549.121          41.000    26041639.795   104858890.420       -1187.059          45.000  
J03  38286692.519   201197919.507        -763.219          34.000    38286700.614   156777631.287        -594.549          39.000  
E23  26758799.655   140618441.227        -784.610          31.000    26758806.790   107746627.042        -600.671          41.000  
G31  26373064.880   138591393.384        3229.803          30.000                                                                                                                                  
J07  38065171.732   200033826.577        -258.187          39.000    38065169.769   155870508.510        -201.279          44.000  
E11  26896125.092   141340099.111       -3223.227          33.000    26896134.106   108299584.267       -2469.734          41.000  
E34                                                                  27908302.740                         531.404          28.000  
G18                                                                  26226453.461   107392917.894       -2760.192          36.000                                                                  
J04                                                                  39329076.060   161045990.552         293.914          47.000  
> 2025 11 05 02 28 25.8430000  0 39                     
G10  21424640.800   112587246.484         556.238          50.000    21424639.526    87730318.524         433.435          46.000                                                                  
G28  23680894.348   124443942.357        2347.293          41.000    23680893.184    96969303.830        1829.298          43.000                                                                  
G15  25857338.592   135881222.115       -3315.491          34.000    25857346.781   105881505.385       -2583.633          35.000                                                                  
G32  22698964.524   119283862.765        1427.245          47.000    22698964.449    92948463.586        1112.155          44.000                                                                  
G12  22701571.008   119297560.855         308.471          46.000    22701568.806    92959129.931         240.464          42.000                                                                  
G25  22160562.247   116454544.885        2190.375          43.000    22160563.443    90743807.128        1706.642          42.000                                                                  
C06  37545684.158   195510231.119         105.895          44.000    37545673.141   151180868.683          82.002          46.000  
C08  36822720.982   191745572.800        -458.789          45.000    36822709.104   148269790.482        -354.797          49.000  
C14  22704428.443   118227918.016          22.095          47.000    22704418.568    91421284.961          17.158          50.000  
C09  38803034.985   202057584.683         206.901          42.000    38803027.752   156243712.618         159.926          48.000  
C13  36790912.347   191579936.660        -127.808          48.000    36790908.134   148141741.017         -98.932          47.000  
C16  37732930.535   196485270.411         -61.102          47.000    37732925.050   151934854.008         -47.251          49.000  
R09  22756426.665                       -3711.773          31.000    22756426.754    94514036.611       -2886.946          36.000  
R10  20385995.960   108668828.538        -585.068          45.000                                                                  
R11  21717504.195   116051763.980        3285.321          46.000    21717502.401    90262475.148        2555.145          50.000  
R08  20734274.410   111031099.988         710.350          49.000    20734269.334    86357500.704         552.544          47.000  
R07  22119639.898   118408163.242       -2147.875          48.000    22119637.584    92095229.217       -1670.537          48.000  
R23  24994830.299   133705480.509       -3801.561          38.000                                                                  
G24  23563252.342                       -3496.846          28.000    23563256.769                       -2724.624          29.000                                                                  
G23  21687451.868   113968326.388       -2546.588          46.000    21687450.487    88806481.230       -1984.302          48.000                                                                  
J02  38631929.582   203012161.668         -35.416          40.000    38631931.868   158191302.577         -27.626          41.000  
E06  24775697.617   130197169.319        -758.521          47.000    24775700.758    99761480.218        -581.237          50.000  
E09  24667624.556   129629241.653         135.035          48.000    24667626.599    99326310.831         103.410          51.000  
E31  25936616.338   136297838.379        1663.572          44.000    25936620.801   104436025.693        1274.639          47.000  
C33  23479727.690   122265105.533        1357.129          49.000                                                                  
C24  22556789.953   117459126.221         654.535          48.000                                                                  
R24  24315191.381                3      -1616.232          25.000    24315185.759                       -1256.763          29.000  
R01  23378215.436                        2883.975          27.000                                                                  
E36  26419306.432   138834389.352       -1773.606          42.000    26419311.922   106379618.251       -1358.983          46.000  
E05  25987195.574   136563627.581        1505.305          38.000    25987201.800   104639691.040        1153.677          46.000  
E04  26041648.658   136849787.237       -1549.037          41.000    26041651.581   104858937.892       -1186.920          45.000  
J03  38286698.327   201197950.023        -762.930          34.000    38286706.424   156777655.088        -594.854          39.000  
E23  26758805.596   140618472.576        -784.242          31.000    26758812.755   107746651.071        -600.688          41.000  
G31  26373040.295                        3230.985          30.000                                                                                                                                  
J07  38065173.707   200033836.917        -258.370          39.000    38065171.745   155870516.556        -201.202          44.000  
E11  26896149.648   141340228.036       -3223.172          33.000    26896158.657   108299683.066       -2469.920          41.000  
E34                                                                  27908297.229                         531.322          28.000  
G18                                                                  26226480.442   107393028.329       -2760.633          36.000                                                                  
J04                                                                  39329073.187   161045978.790         293.981          47.000  
> 2025 11 05 02 28 25.8830000  0 39                     
G10  21424636.561   112587224.232         556.274          50.000    21424635.276    87730301.184         433.484          46.000                                                                  
G28  23680876.491   124443848.458        2347.353          41.000    23680875.322    96969230.655        1829.396          43.000                                                                  
G15  25857363.835   135881354.754       -3315.798          34.000    25857372.006   105881608.728       -2583.563          35.000                                                                  
G32  22698953.659   119283805.668        1427.341          47.000    22698953.582    92948419.096        1112.207          44.000                                                                  
G12  22701568.665   119297548.520         308.428          46.000    22701566.448    92959120.320         240.374          42.000                                                                  
G25  22160545.572   116454457.274        2190.298          43.000    22160546.784    90743738.869        1706.443          42.000                                                                  
C06  37545683.354   195510226.885         105.822          44.000    37545672.319   151180865.399          82.051          46.000  
C08  36822724.503   191745591.146        -458.685          45.000    36822712.630   148269804.678        -354.877          49.000  
C14  22704428.285   118227917.128          22.148          47.000    22704418.402    91421284.278          17.111          50.000  
C09  38803033.403   202057576.407         206.881          42.000    38803026.156   156243706.218         159.940          48.000  
C13  36790913.317   191579941.776        -127.832          48.000    36790909.104   148141744.970         -98.865          47.000  
C16  37732931.042   196485272.854         -61.078          47.000    37732925.508   151934855.895         -47.212          49.000  
R09  22756454.435                       -3711.563          31.000    22756454.581    94514152.100       -2887.062          36.000  
R10  20386000.368   108668851.939        -585.075          45.000                                                                  
R11  21717479.594   116051632.565        3285.345          46.000    21717477.810    90262372.939        2555.170          50.000  
R08  20734269.111   111031071.571         710.413          49.000    20734263.995    86357478.606         552.475          47.000  
R07  22119655.933   118408249.142       -2147.635          48.000    22119653.640    92095296.034       -1670.491          48.000  
R23  24994858.731   133705632.573       -3801.636          38.000                                                                  
G24  23563278.962                       -3496.909          28.000    23563283.375                       -2724.820          29.000                                                                  
G23  21687471.243   113968428.247       -2546.564          46.000    21687469.859    88806560.596       -1984.229          48.000                                                                  
J02  38631929.852   203012163.080         -35.317          40.000    38631932.136   158191303.682         -27.606          41.000  
E06  24775703.406   130197199.662        -758.569          47.000    24775706.527    99761503.458        -581.073          50.000  
E09  24667623.510   129629236.251         135.060          48.000    24667625.586    99326306.693         103.434          51.000  
E31  25936603.661   136297771.838        1663.489          44.000    25936608.168   104435974.699        1274.750          47.000  
C33  23479717.252   122265051.241        1357.184          49.000                                                                  
C24  22556784.958   117459100.034         654.584          48.000                                                                  
R24  24315203.248                3      -1615.235          25.000    24315197.845   101130029.682       -1256.806          29.000  
R01  23378193.897                        2884.394          27.000                                                                  
E36  26419319.959   138834460.306       -1773.785          42.000    26419325.412   106379672.618       -1359.101          46.000  
E05  25987184.199   136563567.357        1505.469          38.000    25987190.355   104639644.893        1153.683          46.000  
E04  26041660.390   136849849.198       -1549.042          41.000    26041663.339   104858985.366       -1186.866          45.000  
J03  38286704.137   201197980.533        -762.686          34.000    38286712.245   156777678.865        -594.627          39.000  
E23  26758811.676   140618503.928        -783.974          31.000    26758818.729   107746675.106        -600.803          41.000  
G31  26373015.709                        3229.432          30.000                                                                                                                                  
J07  38065175.637   200033847.238        -258.161          39.000    38065173.694   155870524.604        -201.203          44.000  
E11  26896174.162   141340356.947       -3222.943          33.000    26896183.196   108299781.853       -2469.769          41.000  
E34                                                                  27908292.016                         531.555          28.000  
G18                                                                  26226507.405   107393138.753       -2760.667          36.000                                                                  
J04                                                                  39329070.298   161045967.027         294.037          47.000  
> 2025 11 05 02 28 25.9230000  0 39                     
G10  21424632.319   112587201.980         556.286          50.000    21424631.040    87730283.842         433.533          46.000                                                                  
G28  23680858.643   124443754.561        2347.379          41.000    23680857.468    96969157.485        1829.368          43.000                                                                  
G15  25857389.071   135881487.355       -3315.224          34.000    25857397.244   105881712.069       -2583.480          35.000                                                                  
G32  22698942.793   119283748.567        1427.495          47.000    22698942.718    92948374.610        1112.180          44.000                                                                  
G12  22701566.310   119297536.191         308.242          46.000    22701564.079    92959110.719         240.125          42.000                                                                  
G25  22160528.905   116454369.643        2190.606          43.000    22160530.108    90743670.584        1706.874          42.000                                                                  
C06  37545682.547   195510222.640         105.980          44.000    37545671.510   151180862.116          82.062          46.000  
C08  36822728.039   191745609.492        -458.630          45.000    36822716.155   148269818.862        -354.663          49.000  
C14  22704428.093   118227916.238          22.239          47.000    22704418.246    91421283.590          17.156          50.000  
C09  38803031.820   202057568.127         206.927          42.000    38803024.574   156243699.810         160.123          48.000  
C13  36790914.287   191579946.881        -127.679          48.000    36790910.088   148141748.922         -98.804          47.000  
C16  37732931.536   196485275.288         -60.917          47.000    37732925.982   151934857.778         -47.115          49.000  
R09  22756482.247                       -3712.498          31.000    22756482.402    94514267.578       -2887.005          36.000  
R10  20386004.744   108668875.341        -585.060          45.000                                                                  
R11  21717455.009   116051501.145        3285.449          46.000    21717453.217    90262270.724        2555.316          50.000  
R08  20734263.816   111031043.150         710.520          49.000    20734258.686    86357456.504         552.507          47.000  
R07  22119671.995   118408335.048       -2147.613          48.000    22119669.684    92095362.848       -1670.409          48.000  
R23  24994887.166   133705784.603       -3801.056          38.000                                                                  
G24  23563305.595                       -3497.022          28.000    23563310.006                       -2724.620          29.000                                                                  
G23  21687490.625   113968530.101       -2546.472          46.000    21687489.248    88806639.966       -1984.259          48.000                                                                  
J02  38631930.074   203012164.495         -35.358          40.000    38631932.394   158191304.774         -27.385          41.000  
E06  24775709.139   130197229.988        -758.292          47.000    24775712.329    99761526.700        -581.048          50.000  
E09  24667622.464   129629230.847         135.096          48.000    24667624.512    99326302.551         103.490          51.000  
E31  25936590.980   136297705.292        1663.580          44.000    25936595.469   104435923.710        1274.739          47.000  
C33  23479706.814   122264996.939        1357.414          49.000                                                                  
C24  22556779.919   117459073.843         654.703          48.000                                                                  
R24  24315214.997                3      -1615.202          25.000    24315209.949                       -1257.254          29.000  
R01  23378172.444                        2884.386          27.000                                                                  
E36  26419333.427   138834531.251       -1773.720          42.000    26419338.899   106379726.977       -1359.036          46.000  
E05  25987172.776   136563507.143        1505.333          38.000    25987178.893   104639598.753        1153.567          45.000  
E04  26041672.224   136849911.159       -1549.024          41.000    26041675.139   104859032.839       -1186.824          45.000  
J03  38286709.932   201198011.037        -762.449          34.000    38286718.060   156777702.644        -594.515          39.000  
E23  26758817.599   140618535.289        -783.893          31.000    26758824.668   107746699.132        -600.716          41.000  
G31  26372991.119                        3229.243          30.000                                                                                                                                  
J07  38065177.585   200033857.568        -258.265          39.000    38065175.660   155870532.653        -201.216          44.000  
E11  26896198.679   141340485.889       -3223.329          33.000    26896207.735   108299880.638       -2469.651          41.000  
E34                                                                  27908286.919                         531.578          28.000  
G18                                                                  26226534.390   107393249.182       -2760.740          36.000                                                                  
J04                                                                  39329067.433   161045955.262         294.092          47.000  
> 2025 11 05 02 28 25.9630000  0 39                     
G10  21424628.072   112587179.729         556.255          50.000    21424626.778    87730266.504         433.440          46.000                                                                  
G28  23680840.772   124443660.647        2347.688          41.000    23680839.592    96969084.309        1829.384          43.000                                                                  
G15  25857414.290   135881620.005       -3315.830          34.000    25857422.465   105881815.394       -2583.217          35.000                                                                  
G32  22698931.915   119283691.473        1427.452          47.000    22698931.855    92948330.116        1112.298          44.000                                                                  
G12  22701563.966   119297523.854         308.292          46.000    22701561.725    92959101.100         240.334          42.000                                                                  
G25  22160512.240   116454282.032        2190.423          43.000    22160513.445    90743602.303        1706.999          42.000                                                                  
C06  37545681.732   195510218.386         106.206          44.000    37545670.702   151180858.832          82.079          46.000  
C08  36822731.566   191745627.856        -458.972          45.000    36822719.698   148269833.051        -354.694          49.000  
C14  22704427.908   118227915.353          22.171          47.000    22704418.067    91421282.903          17.149          50.000  
C09  38803030.214   202057559.845         207.047          42.000    38803022.993   156243693.400         160.260          48.000  
C13  36790915.243   191579951.996        -127.783          48.000    36790911.077   148141752.871         -98.743          47.000  
C16  37732932.003   196485277.726         -60.928          47.000    37732926.444   151934859.666         -47.185          49.000  
R09  22756510.075                       -3712.489          31.000    22756510.221    94514383.060       -2886.990          36.000  
R10  20386009.130   108668898.740        -585.022          45.000                                                                  
R11  21717430.435   116051369.726        3285.474          46.000    21717428.627    90262168.505        2555.444          50.000  
R08  20734258.501   111031014.728         710.582          49.000    20734253.379    86357434.394         552.663          47.000  
R07  22119688.039   118408420.953       -2147.597          48.000    22119685.739    92095429.669       -1670.498          48.000  
R23  24994915.582   133705936.670       -3801.345          38.000                                                                  
G24  23563332.279                       -3497.072          28.000    23563336.624                       -2724.716          29.000                                                                  
G23  21687510.002   113968631.956       -2546.411          46.000    21687508.632    88806719.337       -1984.296          48.000                                                                  
J02  38631930.361   203012165.912         -35.408          40.000    38631932.681   158191305.897         -27.944          41.000  
E06  24775714.888   130197260.320        -758.259          47.000    24775718.092    99761549.944        -581.064          50.000  
E09  24667621.386   129629225.444         135.105          48.000    24667623.502    99326298.409         103.525          51.000  
E31  25936578.307   136297638.744        1663.640          44.000    25936582.745   104435872.714        1274.827          47.000  
C33  23479696.397   122264942.636        1357.564          49.000                                                                  
C24  22556774.890   117459047.656         654.688          48.000                                                                  
R24  24315227.062                3      -1615.751          25.000    24315222.014                       -1257.180          29.000  
R01  23378151.280                        2884.488          27.000                                                                  
E36  26419346.928   138834602.193       -1773.660          42.000    26419352.399   106379781.339       -1359.053          46.000  
E05  25987161.312   136563446.916        1505.510          38.000    25987167.453   104639552.610        1153.561          46.000  
E04  26041684.038   136849973.115       -1548.927          41.000    26041686.928   104859080.312       -1186.812          45.000  
J03  38286715.746   201198041.598        -763.464          34.000    38286723.893   156777726.438        -594.741          39.000  
E23  26758823.598   140618566.647        -783.949          31.000    26758830.656   107746723.167        -600.796          41.000  
G31  26372966.532   138590876.665        3229.459          30.000                                                                                                                                  
J07  38065179.555   200033867.910        -258.517          39.000    38065177.619   155870540.708        -201.346          44.000  
E11  26896223.278   141340614.833       -3223.593          33.000    26896232.250   108299979.428       -2469.686          41.000  
E34                                                                  27908281.778                         531.188          28.000  
G18                                                                  26226561.355   107393359.619       -2760.903          36.000                                                                  
J04                                                                  39329064.566   161045943.497         294.116          47.000  
> 2025 11 05 02 28 26.0030000  0 39                     
G10  21424623.832   112587157.480         556.187          50.000    21424622.534    87730249.168         433.366          46.000                                                                  
G28  23680822.908   124443566.747        2347.576          41.000    23680821.733    96969011.148        1829.089          43.000                                                                  
G15  25857439.544   135881752.634       -3315.853          34.000    25857447.725   105881918.749       -2583.604          35.000                                                                  
G32  22698921.055   119283634.387        1427.246          47.000    22698921.001    92948285.634        1112.124          44.000                                                                  
G12  22701561.614   119297511.521         308.302          46.000    22701559.369    92959091.496         240.189          42.000                                                                  
G25  22160495.581   116454194.418        2190.335          43.000    22160496.767    90743534.033        1706.851          42.000                                                                  
C06  37545680.938   195510214.145         106.116          44.000    37545669.903   151180855.560          81.869          46.000  
C08  36822735.081   191745646.208        -458.948          45.000    36822723.225   148269847.238        -354.663          49.000  
C14  22704427.755   118227914.464          22.176          47.000    22704417.924    91421282.220          17.082          50.000  
C09  38803028.607   202057551.566         207.006          42.000    38803021.391   156243687.001         160.087          48.000  
C13  36790916.215   191579957.111        -127.869          48.000    36790912.074   148141756.820         -98.706          47.000  
C16  37732932.502   196485280.174         -61.121          47.000    37732926.912   151934861.554         -47.224          49.000  
R09  22756537.849                       -3712.560          31.000    22756538.021    94514498.552       -2887.130          36.000  
R10  20386013.518   108668922.151        -585.241          45.000                                                                  
R11  21717405.849   116051238.314        3285.339          46.000    21717404.017    90262066.292        2555.389          50.000  
R08  20734253.204   111030986.316         710.435          49.000    20734248.082    86357412.287         552.674          47.000  
R07  22119704.104   118408506.863       -2147.709          48.000    22119701.789    92095496.481       -1670.385          48.000  
R23  24994943.965   133706088.719       -3801.250          38.000                                                                  
G24  23563358.903                       -3496.746          28.000    23563363.250                       -2724.716          29.000                                                                  
G23  21687529.370   113968733.809       -2546.362          46.000    21687528.020    88806798.702       -1984.210          48.000                                                                  
J02  38631930.623   203012167.333         -35.530          40.000    38631932.946   158191306.996         -27.714          41.000  
E06  24775720.709   130197290.654        -758.290          47.000    24775723.872    99761573.190        -581.123          50.000  
E09  24667620.339   129629220.041         135.103          48.000    24667622.462    99326294.268         103.528          51.000  
E31  25936565.624   136297572.191        1663.747          44.000    25936570.090   104435821.724        1274.784          47.000  
C33  23479685.940   122264888.336        1357.559          49.000                                                                  
C24  22556769.881   117459021.471         654.646          48.000                                                                  
R24  24315239.308                3      -1616.073          25.000    24315234.108                       -1256.860          29.000  
R01  23378129.900                        2884.801          28.000                                                                  
E36  26419360.424   138834673.135       -1773.584          42.000    26419365.896   106379835.701       -1359.078          46.000  
E05  25987149.809   136563386.683        1505.707          38.000    25987156.010   104639506.461        1153.618          45.000  
E04  26041695.836   136850035.071       -1548.911          41.000    26041698.722   104859127.781       -1186.749          45.000  
J03  38286721.570   201198072.145        -763.746          34.000    38286729.695   156777750.228        -594.824          39.000  
E23  26758829.557   140618598.034        -784.393          31.000    26758836.611   107746747.192        -600.707          41.000  
G31  26372941.943   138590747.500        3229.163          30.000                                                                                                                                  
J07  38065181.523   200033878.217        -258.062          39.000    38065179.585   155870548.755        -201.266          44.000  
E11  26896247.814   141340743.772       -3223.537          33.000    26896256.785   108300078.199       -2469.396          41.000  
E34                                                                  27908276.308                         531.083          28.000  
G18                                                                  26226588.304   107393470.039       -2760.648          36.000                                                                  
J04                                                                  39329061.684   161045931.735         294.054          47.000  
> 2025 11 05 02 28 26.0430000  0 39                     
G10  21424619.598   112587135.235         556.132          50.000    21424618.294    87730231.835         433.292          46.000                                                                  
G28  23680805.046   124443472.850        2347.435          41.000    23680803.849    96968937.988        1828.927          43.000                                                                  
G15  25857464.741   135881885.256       -3315.734          34.000    25857472.964   105882022.114       -2583.892          35.000                                                                  
G32  22698910.180   119283577.292        1427.310          47.000    22698910.132    92948241.142        1112.196          44.000                                                                  
G12  22701559.273   119297499.186         308.322          46.000    22701557.017    92959081.890         240.140          42.000                                                                  
G25  22160478.917   116454106.816        2190.081          43.000    22160480.102    90743465.763        1706.770          42.000                                                                  
C06  37545680.133   195510209.900         106.115          44.000    37545669.085   151180852.286          81.804          46.000  
C08  36822738.597   191745664.565        -458.997          45.000    36822726.743   148269861.435        -354.877          49.000  
C14  22704427.578   118227913.577          22.177          47.000    22704417.752    91421281.535          17.078          50.000  
C09  38803027.009   202057543.284         207.038          42.000    38803019.809   156243680.601         160.006          48.000  
C13  36790917.189   191579962.233        -128.033          48.000    36790913.048   148141760.782         -98.956          47.000  
C16  37732932.962   196485282.616         -61.097          47.000    37732927.390   151934863.445         -47.281          49.000  
R09  22756565.669                       -3712.699          31.000    22756565.847    94514614.045       -2887.237          36.000  
R10  20386017.906   108668945.560        -585.309          45.000                                                                  
R11  21717381.260   116051106.905        3285.205          46.000    21717379.409    90261964.087        2555.194          50.000  
R08  20734247.894   111030957.899         710.404          49.000    20734242.784    86357390.193         552.447          47.000  
R07  22119720.170   118408592.781       -2147.913          48.000    22119717.847    92095563.302       -1670.472          48.000  
R23  24994972.385   133706240.796       -3801.736          38.000                                                                  
G24  23563385.518                       -3496.729          28.000    23563389.896                       -2724.793          29.000                                                                  
G23  21687548.756   113968835.668       -2546.429          46.000    21687547.408    88806878.073       -1984.277          48.000                                                                  
J02  38631930.883   203012168.756         -35.610          40.000    38631933.212   158191308.098         -27.618          41.000  
E06  24775726.496   130197320.998        -758.469          47.000    24775729.624    99761596.436        -581.155          50.000  
E09  24667619.336   129629214.642         135.004          48.000    24667621.433    99326290.130         103.461          51.000  
E31  25936552.987   136297505.641        1663.751          44.000    25936557.449   104435770.738        1274.705          47.000  
C33  23479675.483   122264834.043        1357.392          49.000                                                                  
C24  22556764.859   117458995.290         654.563          49.000                                                                  
R24  24315251.522                3      -1616.586          25.000    24315246.170                       -1257.069          29.000  
R01  23378108.396                        2884.646          28.000                                                                  
E36  26419373.925   138834744.086       -1773.698          42.000    26419379.391   106379890.061       -1359.051          46.000  
E05  25987138.339   136563326.468        1505.496          38.000    25987144.564   104639460.318        1153.573          45.000  
E04  26041707.606   136850097.033       -1548.975          41.000    26041710.528   104859175.251       -1186.750          45.000  
J03  38286727.388   201198102.693        -763.884          34.000    38286735.495   156777774.012        -594.738          39.000  
E23  26758835.419   140618629.367        -783.719          32.000    26758842.588   107746771.240        -600.985          41.000  
G31  26372917.370   138590618.284        3230.057          30.000                                                                                                                                  
J07  38065183.492   200033888.552        -258.309          39.000    38065181.579   155870556.809        -201.331          44.000  
E11  26896272.334   141340872.695       -3223.353          33.000    26896281.331   108300177.003       -2469.805          41.000  
E34                                                                  27908271.262                         531.059          28.000  
G18                                                                  26226615.274   107393580.454       -2760.405          36.000                                                                  
J04                                                                  39329058.796   161045919.973         294.036          47.000  
