     3.04           OBSERVATION DATA    M: Mixed            RINEX VERSION / TYPE
RTKCONV 2.4.3 b34                       20251028 071306 UTC PGM / RUN BY / DATE 
format: u-blox UBX                                          COMMENT             
log: D:\GPdata\10_28\fingure_up_10_28_2.ubx                 COMMENT             
                                                            MARKER NAME         
                                                            MARKER NUMBER       
                                                            MARKER TYPE         
                                                            OBSERVER / AGENCY   
                                                            REC # / TYPE / VERS 
                                                            ANT # / TYPE        
        0.0000        0.0000        0.0000                  APPROX POSITION XYZ 
        0.0000        0.0000        0.0000                  ANTENNA: DELTA H/E/N
G    8 C1C L1C D1C S1C C2L L2L D2L S2L                      SYS / # / OBS TYPES 
C    8 C2I L2I D2I S2I C7I L7I D7I S7I                      SYS / # / OBS TYPES 
  2025    10    28    07    05   29.1960000     GPS         TIME OF FIRST OBS   
  2025    10    28    07    05   52.0360000     GPS         TIME OF LAST OBS    
G L1C                                                       SYS / PHASE SHIFT   
G L2L  0.00000                                              SYS / PHASE SHIFT   
C L2I                                                       SYS / PHASE SHIFT   
C L7I                                                       SYS / PHASE SHIFT   
  0                                                         GLONASS SLOT / FRQ #
 C1C    0.000 C1P    0.000 C2C    0.000 C2P    0.000        GLONASS COD/PHS/BIS 
                                                            END OF HEADER       
> 2025 10 28 07 05 29.1960000  0 21                     
G03  21815058.741   114638906.7861      -1530.927          42.000    21815053.771    89329000.5001      -1193.000          37.000  
G16  19930459.619   104735273.5631       2055.785          47.000                                                                  
G26  18875773.883    99192861.0691       -483.835          49.000    18875765.151    77293103.5931       -376.924          47.000  
G28  20440237.442   107414172.6001      -1728.173          46.000    20440226.282    83699309.6661      -1346.545          45.000  
G31  19263890.403   101232429.0101       -496.435          47.000    19263878.201    78882363.2171       -387.069          45.000  
C06  35196127.108   183275469.9561        -87.327          47.000    35196107.034   141720140.6121        -67.351          47.000  
C09  36346456.756   189265539.1111        -56.718          45.000    36346440.220   146352055.0611        -44.040          47.000  
C13  37952723.077   197629788.7181      -2439.415          37.000    37952722.037   152819884.2681      -1886.437          40.000  
C16  35631388.211   185541988.0481       -100.829          47.000    35631374.952   143472782.2881        -78.017          47.000  
C23  21665351.154   112817169.2511      -1811.582          43.000                                                                  
C32  22023761.723   114683508.3581      -2674.797          46.000                                                                  
G32  22008589.663   115655920.8551      -3715.261          42.000    22008587.286    90121486.3931      -2895.081          40.000  
G27  23285950.400   122368504.5851       3655.921          36.000    23285969.146    95352162.7901       2848.173          34.000  
G04  21771662.051                        2795.632          27.000    21771659.390                1       2177.708          30.000  
C37  21223595.414   110516829.6661        330.899          49.000                                                                  
C08  38842306.296   202262078.5101      -2541.688          33.000    38842303.483   156401860.3821      -1965.018          41.000  
C20  22301176.637   116128078.9831        542.349          48.000                                                                  
C28  24325342.868   126668451.2401       2440.631          42.000                                                                  
C07  37675046.396   196183852.8521       1052.289          40.000    37675031.928   151701741.4621        814.056          43.000  
C10  38654537.004   201284317.9451        914.918          34.000    38654533.552   155645791.4231        707.571          43.000  
G29                                                                  22181517.512                1      -1528.507          30.000  
> 2025 10 28 07 05 29.2360000  0 21                     
G03  21815070.381   114638968.023       -1530.921          41.000    21815065.420    89329048.223       -1193.136          37.000  
G16  19930443.965   104735191.321        2055.917          47.000                                                                  
G26  18875777.525    99192880.409        -483.649          49.000    18875768.846    77293118.668        -376.940          47.000  
G28  20440250.572   107414241.713       -1728.005          46.000    20440239.431    83699363.528       -1346.608          45.000  
G31  19263894.181   101232448.879        -496.651          47.000    19263881.980    78882378.694        -387.000          45.000  
C06  35196127.774   183275473.443         -87.280          47.000    35196107.693   141720143.310         -67.422          47.000  
C09  36346457.181   189265541.379         -56.710          45.000    36346440.654   146352056.813         -43.916          47.000  
C13  37952741.828   197629886.290       -2439.290          37.000    37952740.773   152819959.716       -1886.336          40.000  
C16  35631389.034   185541992.073        -100.726          47.000    35631375.722   143472785.403         -77.968          47.000  
C23  21665365.066   112817241.693       -1811.186          43.000                                                                  
C32  22023782.261   114683615.342       -2674.721          46.000                                                                  
G32  22008617.945   115656069.456       -3715.118          42.000    22008615.558    90121602.197       -2895.173          40.000  
G27  23285922.580   122368358.359        3655.787          36.000    23285941.291    95352048.832        2848.668          34.000  
G04  21771640.629                        2795.120          27.000    21771638.149                        2176.740          30.000  
C37  21223592.888   110516816.423         330.991          49.000                                                                  
C08  38842325.809   202262180.155       -2541.233          33.000    38842322.987   156401938.981       -1964.991          41.000  
C20  22301172.480   116128057.283         542.375          48.000                                                                  
C28  24325324.143   126668353.605        2440.729          42.000                                                                  
C07  37675038.328   196183810.729        1052.765          40.000    37675023.833   151701708.897         814.136          43.000  
C10  38654529.952   201284281.345         914.940          34.000    38654526.525   155645763.122         707.547          43.000  
G29                                                                  22181532.416                       -1527.904          30.000  
> 2025 10 28 07 05 29.2760000  0 21                     
G03  21815082.029   114639029.265       -1531.048          41.000    21815077.059    89329095.948       -1193.165          37.000  
G16  19930428.329   104735109.085        2055.904          47.000                                                                  
G26  18875781.204    99192899.750        -483.555          49.000    18875772.520    77293133.743        -376.919          47.000  
G28  20440263.747   107414310.827       -1727.888          46.000    20440252.565    83699417.390       -1346.623          45.000  
G31  19263897.977   101232468.745        -496.712          47.000    19263885.768    78882394.176        -387.074          45.000  
C06  35196128.426   183275476.921         -87.079          47.000    35196108.321   141720146.006         -67.419          47.000  
C09  36346457.608   189265543.646         -56.704          45.000    36346441.061   146352058.566         -43.860          47.000  
C13  37952760.568   197629983.847       -2439.020          37.000    37952759.518   152820035.158       -1886.163          40.000  
C16  35631389.807   185541996.107        -100.829          47.000    35631376.462   143472788.515         -77.917          47.000  
C23  21665378.952   112817314.159       -1811.472          43.000                                                                  
C32  22023802.815   114683722.323       -2674.622          46.000                                                                  
G32  22008646.210   115656218.058       -3715.088          42.000    22008643.846    90121717.990       -2895.028          40.000  
G27  23285894.718   122368212.117        3655.984          36.000    23285913.464    95351934.889        2848.641          34.000  
G04  21771619.763                        2794.762          27.000    21771616.855                        2177.123          30.000  
C37  21223590.344   110516803.180         331.022          49.000                                                                  
C08  38842345.299   202262281.782       -2540.645          33.000    38842342.499   156402017.565       -1964.715          41.000  
C20  22301168.338   116128035.578         542.505          48.000                                                                  
C28  24325305.406   126668255.971        2440.788          42.000                                                                  
C07  37675030.214   196183768.628        1052.563          40.000    37675015.765   151701676.342         813.983          43.000  
C10  38654522.946   201284244.755         914.801          34.000    38654519.500   155645734.818         707.601          43.000  
G29                                                                  22181547.345                       -1528.674          30.000  
> 2025 10 28 07 05 29.3160000  0 21                     
G03  21815093.687   114639090.500       -1530.958          42.000    21815088.706    89329143.674       -1193.187          37.000  
G16  19930412.701   104735026.851        2055.857          47.000                                                                  
G26  18875784.863    99192919.090        -483.494          49.000    18875776.178    77293148.819        -376.925          47.000  
G28  20440276.913   107414379.941       -1727.838          46.000    20440265.705    83699471.244       -1346.471          45.000  
G31  19263901.770   101232488.613        -496.767          47.000    19263889.543    78882409.650        -386.957          45.000  
C06  35196129.109   183275480.405         -87.062          47.000    35196108.985   141720148.699         -67.401          47.000  
C09  36346458.051   189265545.914         -56.683          45.000    36346441.488   146352060.316         -43.758          47.000  
C13  37952779.326   197630081.422       -2439.152          37.000    37952778.228   152820110.610       -1886.262          40.000  
C16  35631390.573   185542000.131        -100.702          47.000    35631377.238   143472791.628         -77.864          47.000  
C23  21665392.870   112817386.625       -1811.615          43.000                                                                  
C32  22023823.345   114683829.308       -2674.628          46.000                                                                  
G32  22008674.483   115656366.657       -3715.002          42.000    22008672.131    90121833.779       -2894.815          40.000  
G27  23285866.882   122368065.882        3655.973          36.000    23285885.652    95351820.929        2848.891          34.000  
G04  21771598.400                        2795.020          27.000    21771595.565                        2177.575          30.000  
C37  21223587.818   110516789.933         331.132          49.000                                                                  
C08  38842364.811   202262383.400       -2540.220          33.000    38842362.045   156402096.148       -1964.580          41.000  
C20  22301164.175   116128013.876         542.554          48.000                                                                  
C28  24325286.641   126668158.336        2440.885          42.000                                                                  
C07  37675022.119   196183726.523        1052.533          40.000    37675007.652   151701643.774         814.142          43.000  
C10  38654515.915   201284208.132         915.307          34.000    38654512.491   155645706.511         707.636          43.000  
G29                                                                  22181562.286                       -1529.189          30.000  
> 2025 10 28 07 05 29.3560000  0 21                     
G03  21815105.333   114639151.735       -1530.895          42.000    21815100.349    89329191.385       -1192.916          37.000  
G16  19930397.052   104734944.611        2055.919          47.000                                                                  
G26  18875788.554    99192938.443        -483.721          49.000    18875779.829    77293163.893        -376.874          47.000  
G28  20440290.072   107414449.064       -1727.985          46.000    20440278.848    83699525.098       -1346.396          45.000  
G31  19263905.550   101232508.474        -496.644          47.000    19263893.325    78882425.130        -386.994          45.000  
C06  35196129.775   183275483.891         -87.126          47.000    35196109.662   141720151.392         -67.382          47.000  
C09  36346458.479   189265548.183         -56.736          45.000    36346441.906   146352062.065         -43.710          47.000  
C13  37952798.077   197630178.996       -2439.307          37.000    37952796.940   152820186.057       -1886.221          40.000  
C16  35631391.316   185542004.162        -100.741          47.000    35631378.005   143472794.744         -77.925          47.000  
C23  21665406.810   112817459.093       -1811.746          43.000                                                                  
C32  22023843.898   114683936.289       -2674.529          46.000                                                                  
G32  22008702.782   115656515.273       -3715.307          42.000    22008700.400    90121949.574       -2894.811          40.000  
G27  23285839.074   122367919.671        3655.464          36.000    23285857.826    95351706.976        2849.000          34.000  
G04  21771577.340                        2795.047          27.000    21771574.259                        2177.920          30.000  
C37  21223585.286   110516776.692         331.084          49.000                                                                  
C08  38842384.342   202262485.049       -2540.659          33.000    38842381.586   156402174.743       -1964.743          41.000  
C20  22301159.996   116127992.176         542.498          48.000                                                                  
C28  24325267.889   126668060.697        2440.932          42.000                                                                  
C07  37675014.034   196183684.418        1052.582          40.000    37674999.559   151701611.214         814.081          43.000  
C10  38654508.894   201284171.541         915.016          34.000    38654505.428   155645678.218         707.434          43.000  
G29                                                                  22181577.204                       -1528.762          30.000  
> 2025 10 28 07 05 29.3960000  0 21                     
G03  21815116.993   114639212.979       -1531.047          42.000    21815111.995    89329239.097       -1192.941          37.000  
G16  19930381.399   104734862.378        2055.858          47.000                                                                  
G26  18875792.236    99192957.790        -483.719          49.000    18875783.503    77293178.960        -376.730          47.000  
G28  20440303.215   107414518.185       -1728.058          46.000    20440292.000    83699578.954       -1346.406          45.000  
G31  19263909.337   101232528.341        -496.687          47.000    19263897.124    78882440.611        -387.056          45.000  
C06  35196130.460   183275487.375         -87.126          47.000    35196110.327   141720154.087         -67.388          47.000  
C09  36346458.925   189265550.452         -56.748          45.000    36346442.344   146352063.813         -43.713          47.000  
C13  37952816.831   197630276.581       -2439.584          37.000    37952815.684   152820261.503       -1886.167          40.000  
C16  35631392.075   185542008.184        -100.584          48.000    35631378.742   143472797.859         -77.931          47.000  
C23  21665420.742   112817531.545       -1811.479          43.000                                                                  
C32  22023864.383   114684043.283       -2674.741          46.000                                                                  
G32  22008731.046   115656663.869       -3715.088          42.000    22008728.665    90122065.373       -2894.924          40.000  
G27  23285811.259   122367773.417        3656.069          36.000    23285829.975    95351593.054        2848.518          34.000  
G04  21771556.398                        2795.227          27.000    21771552.980                        2178.375          30.000  
C37  21223582.719   110516763.454         330.981          49.000                                                                  
C08  38842403.856   202262586.679       -2540.639          33.000    38842401.103   156402253.344       -1965.003          41.000  
C20  22301155.824   116127970.479         542.437          48.000                                                                  
C28  24325249.134   126667963.064        2440.834          42.000                                                                  
C07  37675005.933   196183642.305        1052.728          40.000    37674991.473   151701578.661         813.898          43.000  
C10  38654501.866   201284134.934         915.101          34.000    38654498.412   155645649.917         707.416          43.000  
G29                                                                  22181592.148                       -1529.027          30.000  
> 2025 10 28 07 05 29.4360000  0 21                     
G03  21815128.668   114639274.233       -1531.316          42.000    21815123.643    89329286.826       -1193.173          37.000  
G16  19930365.754   104734780.149        2055.747          47.000                                                                  
G26  18875795.907    99192977.137        -483.713          49.000    18875787.207    77293194.041        -376.920          47.000  
G28  20440316.356   107414587.306       -1728.074          46.000    20440305.159    83699632.818       -1346.592          45.000  
G31  19263913.106   101232548.209        -496.705          47.000    19263900.900    78882456.093        -387.080          45.000  
C06  35196131.108   183275490.862         -87.192          47.000    35196110.989   141720156.781         -67.380          47.000  
C09  36346459.371   189265552.715         -56.653          45.000    36346442.765   146352065.564         -43.778          47.000  
C13  37952835.572   197630374.147       -2439.417          37.000    37952834.417   152820336.955       -1886.232          40.000  
C16  35631392.862   185542012.207        -100.555          48.000    35631379.499   143472800.973         -77.889          47.000  
C23  21665434.637   112817604.008       -1811.556          43.000                                                                  
C32  22023884.943   114684150.275       -2674.840          46.000                                                                  
G32  22008759.335   115656812.489       -3715.368          42.000    22008756.922    90122181.168       -2894.937          40.000  
G27  23285783.431   122367627.200        3655.724          36.000    23285802.145    95351479.096        2848.892          34.000  
G04  21771535.722                        2795.605          27.000    21771531.718                        2178.423          30.000  
C37  21223580.171   110516750.213         330.963          49.000                                                                  
C08  38842423.378   202262688.356       -2541.661          33.000    38842420.615   156402331.948       -1965.173          41.000  
C20  22301151.656   116127948.785         542.344          48.000                                                                  
C28  24325230.361   126667865.429        2440.796          42.000                                                                  
C07  37674997.859   196183600.186        1052.930          40.000    37674983.407   151701546.103         813.898          43.000  
C10  38654494.835   201284098.324         915.239          34.000    38654491.367   155645621.608         707.582          43.000  
G29                                                                  22181607.104                       -1528.736          30.000  
> 2025 10 28 07 05 29.4760000  0 21                     
G03  21815140.337   114639335.485       -1531.401          42.000    21815135.298    89329334.554       -1193.277          37.000  
G16  19930350.115   104734697.915        2055.776          47.000                                                                  
G26  18875799.586    99192996.484        -483.707          49.000    18875790.895    77293209.115        -376.881          47.000  
G28  20440329.512   107414656.428       -1728.104          46.000    20440318.315    83699686.683       -1346.651          45.000  
G31  19263916.880   101232568.073        -496.625          47.000    19263904.674    78882471.570        -386.994          45.000  
C06  35196131.789   183275494.340         -87.052          47.000    35196111.643   141720159.473         -67.341          47.000  
C09  36346459.811   189265554.983         -56.693          45.000    36346443.190   146352067.322         -43.917          47.000  
C13  37952854.276   197630471.722       -2439.472          37.000    37952853.169   152820412.398       -1886.114          40.000  
C16  35631393.634   185542016.234        -100.638          47.000    35631380.251   143472804.086         -77.850          47.000  
C23  21665448.572   112817676.467       -1811.538          43.000                                                                  
C32  22023905.476   114684257.262       -2674.745          46.000                                                                  
G32  22008787.613   115656961.096       -3715.266          42.000    22008785.212    90122296.959       -2894.862          40.000  
G27  23285755.604   122367480.964        3655.781          36.000    23285774.321    95351365.160        2848.702          34.000  
G04  21771514.525                        2795.031          27.000    21771510.459                        2178.397          30.000  
C37  21223577.639   110516736.973         330.951          49.000                                                                  
C08  38842442.912   202262790.011       -2541.737          33.000    38842440.150   156402410.556       -1965.286          41.000  
C20  22301147.490   116127927.091         542.289          48.000                                                                  
C28  24325211.620   126667767.789        2440.924          42.000                                                                  
C07  37674989.774   196183558.076        1052.789          40.000    37674975.308   151701513.543         813.940          43.000  
C10  38654487.796   201284061.714         915.227          34.000    38654484.332   155645593.303         707.626          43.000  
G29                                                                  22181622.029                       -1527.899          30.000  
> 2025 10 28 07 05 29.5160000  0 21                     
G03  21815152.003   114639396.733       -1531.334          42.000    21815146.956    89329382.256       -1192.802          36.000  
G16  19930334.451   104734615.681        2055.799          47.000                                                                  
G26  18875803.281    99193015.835        -483.801          49.000    18875794.585    77293224.195        -376.988          47.000  
G28  20440342.657   107414725.547       -1728.051          46.000    20440331.464    83699740.544       -1346.606          45.000  
G31  19263920.657   101232587.935        -496.588          47.000    19263908.472    78882487.050        -387.025          45.000  
C06  35196132.460   183275497.829         -87.159          47.000    35196112.314   141720162.170         -67.408          47.000  
C09  36346460.238   189265557.249         -56.693          45.000    36346443.633   146352069.074         -43.909          47.000  
C13  37952873.011   197630569.282       -2439.225          37.000    37952871.911   152820487.861       -1886.422          40.000  
C16  35631394.383   185542020.269        -100.815          48.000    35631381.035   143472807.199         -77.832          47.000  
C23  21665462.500   112817748.924       -1811.436          43.000                                                                  
C32  22023926.040   114684364.250       -2674.726          46.000                                                                  
G32  22008815.882   115657109.697       -3715.149          42.000    22008813.481    90122412.751       -2894.767          40.000  
G27  23285727.749   122367334.715        3656.084          36.000    23285746.466    95351251.253        2847.999          34.000  
G04  21771493.596                        2795.064          27.000    21771489.160                        2178.166          30.000  
C37  21223575.073   110516723.730         330.997          49.000                                                                  
C08  38842462.419   202262891.656       -2541.441          33.000    38842459.690   156402489.153       -1965.111          41.000  
C20  22301143.300   116127905.395         542.327          48.000                                                                  
C28  24325192.895   126667670.152        2440.877          42.000                                                                  
C07  37674981.663   196183515.978        1052.478          40.000    37674967.190   151701480.978         814.056          43.000  
C10  38654480.766   201284025.117         915.041          34.000    38654477.314   155645564.991         707.759          43.000  
G29                                                                  22181636.981                       -1528.145          30.000  
> 2025 10 28 07 05 29.5560000  0 21                     
G03  21815163.638   114639457.963       -1530.989          42.000    21815158.599    89329429.984       -1193.052          36.000  
G16  19930318.780   104734533.445        2055.846          47.000                                                                  
G26  18875806.976    99193035.181        -483.724          49.000    18875798.267    77293239.273        -377.012          47.000  
G28  20440355.801   107414794.665       -1728.004          46.000    20440344.605    83699794.404       -1346.560          45.000  
G31  19263924.440   101232607.803        -496.650          47.000    19263912.238    78882502.528        -387.000          45.000  
C06  35196133.124   183275501.312         -87.140          47.000    35196113.023   141720164.862         -67.347          47.000  
C09  36346460.662   189265559.513         -56.628          45.000    36346444.071   146352070.828         -43.881          47.000  
C13  37952891.748   197630666.864       -2439.459          37.000    37952890.624   152820563.300       -1886.216          40.000  
C16  35631395.155   185542024.296        -100.758          47.000    35631381.816   143472810.314         -77.880          47.000  
C23  21665476.419   112817821.383       -1811.463          43.000                                                                  
C32  22023946.587   114684471.242       -2674.789          46.000                                                                  
G32  22008844.177   115657258.308       -3715.237          42.000    22008841.770    90122528.561       -2895.111          40.000  
G27  23285699.923   122367188.522        3655.233          36.000    23285718.622    95351137.288        2848.569          34.000  
G04  21771472.498                        2794.903          27.000    21771467.856                        2177.645          30.000  
C37  21223572.497   110516710.492         330.926          49.000                                                                  
C08  38842481.934   202262993.274       -2540.808          33.000    38842479.228   156402567.742       -1964.866          41.000  
C20  22301139.140   116127883.704         542.284          48.000                                                                  
C28  24325174.132   126667572.517        2440.833          42.000                                                                  
C07  37674973.549   196183473.887        1052.185          40.000    37674959.110   151701448.417         814.087          43.000  
C10  38654473.733   201283988.542         914.507          34.000    38654470.279   155645536.690         707.604          43.000  
G29                                                                  22181651.902                       -1528.500          30.000  
> 2025 10 28 07 05 29.5960000  0 21                     
G03  21815175.303   114639519.202       -1530.955          41.000    21815170.263    89329477.689       -1192.736          36.000  
G16  19930303.119   104734451.218        2055.725          47.000                                                                  
G26  18875810.612    99193054.530        -483.755          49.000    18875801.951    77293254.352        -377.018          47.000  
G28  20440368.970   107414863.788       -1728.063          45.000    20440357.758    83699848.258       -1346.438          45.000  
G31  19263928.189   101232627.667        -496.656          46.000    19263916.024    78882518.009        -387.037          45.000  
C06  35196133.793   183275504.797         -87.146          47.000    35196113.761   141720167.558         -67.380          47.000  
C09  36346461.095   189265561.785         -56.782          45.000    36346444.486   146352072.578         -43.818          47.000  
C13  37952910.512   197630764.432       -2439.347          37.000    37952909.338   152820638.751       -1886.290          40.000  
C16  35631395.930   185542028.324        -100.758          48.000    35631382.594   143472813.423         -77.822          47.000  
C23  21665490.350   112817893.845       -1811.494          43.000                                                                  
C32  22023967.111   114684578.242       -2674.981          46.000                                                                  
G32  22008872.467   115657406.918       -3715.299          41.000    22008870.063    90122644.359       -2895.091          40.000  
G27  23285672.082   122367042.273        3655.708          36.000    23285690.808    95351023.346        2848.573          34.000  
G04  21771450.949                        2795.364          26.000    21771446.588                        2177.935          30.000  
C37  21223569.977   110516697.250         330.978          49.000                                                                  
C08  38842501.462   202263094.919       -2540.955          33.000    38842498.740   156402646.330       -1964.723          41.000  
C20  22301134.994   116127862.004         542.432          48.000                                                                  
C28  24325155.393   126667474.889        2440.715          42.000                                                                  
C07  37674965.455   196183431.786        1052.295          40.000    37674950.988   151701415.860         813.977          43.000  
C10  38654466.722   201283951.952         914.404          34.000    38654463.279   155645508.391         707.488          43.000  
G29                                                                  22181666.859                       -1529.995          30.000  
> 2025 10 28 07 05 29.6360000  0 21                     
G03  21815186.970   114639580.448       -1531.088          41.000    21815181.908    89329525.411       -1192.856          36.000  
G16  19930287.462   104734368.994        2055.602          47.000                                                                  
G26  18875814.296    99193073.883        -483.857          49.000    18875805.628    77293269.426        -376.923          47.000  
G28  20440382.120   107414932.916       -1728.194          45.000    20440370.908    83699902.115       -1346.407          45.000  
G31  19263931.968   101232647.542        -496.822          46.000    19263919.811    78882533.493        -387.136          45.000  
C06  35196134.450   183275508.284         -87.197          47.000    35196114.451   141720170.253         -67.402          47.000  
C09  36346461.522   189265564.055         -56.812          45.000    36346444.927   146352074.332         -43.850          47.000  
C13  37952929.233   197630862.021       -2439.677          37.000    37952928.081   152820714.200       -1886.275          40.000  
C16  35631396.697   185542032.353        -100.777          47.000    35631383.385   143472816.539         -77.895          47.000  
C23  21665504.241   112817966.316       -1811.727          43.000                                                                  
C32  22023987.666   114684685.233       -2674.905          46.000                                                                  
G32  22008900.754   115657555.528       -3715.317          41.000    22008898.339    90122760.166       -2895.208          40.000  
G27  23285644.254   122366896.041        3655.731          36.000    23285662.967    95350909.393        2848.692          34.000  
G04  21771429.797                        2795.089          26.000    21771425.326                        2176.995          30.000  
C37  21223567.442   110516684.013         330.941          49.000                                                                  
C08  38842520.995   202263196.565       -2541.198          33.000    38842518.267   156402724.921       -1964.743          41.000  
C20  22301130.829   116127840.318         542.216          48.000                                                                  
C28  24325136.619   126667377.259        2440.685          42.000                                                                  
C07  37674957.345   196183389.683        1052.454          40.000    37674942.895   151701383.307         813.855          43.000  
C10  38654459.695   201283915.324         915.077          34.000    38654456.240   155645480.095         707.367          43.000  
G29                                                                  22181681.821                       -1529.434          30.000  
> 2025 10 28 07 05 29.6760000  0 21                     
G03  21815198.632   114639641.698       -1531.245          41.000    21815193.570    89329573.168       -1193.565          36.000  
G16  19930271.799   104734286.772        2055.523          47.000                                                                  
G26  18875817.993    99193093.242        -483.967          49.000    18875809.311    77293284.508        -377.031          47.000  
G28  20440395.282   107415002.039       -1728.157          45.000    20440384.063    83699955.989       -1346.723          45.000  
G31  19263935.750   101232667.416        -496.920          46.000    19263923.596    78882548.984        -387.264          45.000  
C06  35196135.135   183275511.774         -87.247          47.000    35196115.117   141720172.949         -67.421          47.000  
C09  36346462.017   189265566.323         -56.772          45.000    36346445.377   146352076.091         -43.990          47.000  
C13  37952947.977   197630959.577       -2439.286          37.000    37952946.835   152820789.651       -1886.286          40.000  
C16  35631397.478   185542036.379        -100.724          48.000    35631384.195   143472819.648         -77.788          47.000  
C23  21665518.174   112818038.786       -1811.813          43.000                                                                  
C32  22024008.229   114684792.229       -2674.948          46.000                                                                  
G32  22008929.038   115657704.146       -3715.510          41.000    22008926.621    90122875.979       -2895.394          40.000  
G27  23285616.423   122366749.798        3655.913          36.000    23285635.122    95350795.464        2848.365          34.000  
G04  21771408.468                        2795.394          26.000    21771404.013                        2177.398          30.000  
C37  21223564.895   110516670.780         330.813          49.000                                                                  
C08  38842540.534   202263298.235       -2541.677          33.000    38842537.777   156402803.533       -1965.209          41.000  
C20  22301126.634   116127818.631         542.136          48.000                                                                  
C28  24325117.878   126667279.622        2440.794          42.000                                                                  
C07  37674949.227   196183347.568        1052.777          40.000    37674934.794   151701350.749         813.867          43.000  
C10  38654452.640   201283878.731         914.917          34.000    38654449.201   155645451.799         707.314          43.000  
G29                                                                  22181696.765                       -1529.538          30.000  
> 2025 10 28 07 05 29.7160000  0 21                     
G03  21815210.277   114639702.958       -1531.494          41.000    21815205.217    89329620.901       -1193.554          36.000  
G16  19930256.124   104734204.545        2055.560          47.000                                                                  
G26  18875821.664    99193112.596        -483.933          49.000    18875813.005    77293299.596        -377.213          47.000  
G28  20440408.442   107415071.161       -1728.122          46.000    20440397.207    83700009.857       -1346.749          45.000  
G31  19263939.535   101232687.291        -496.907          46.000    19263927.374    78882564.473        -387.282          45.000  
C06  35196135.835   183275515.261         -87.246          47.000    35196115.799   141720175.652         -67.592          47.000  
C09  36346462.459   189265568.593         -56.765          45.000    36346445.817   146352077.845         -43.944          47.000  
C13  37952966.725   197631057.165       -2439.544          37.000    37952965.564   152820865.107       -1886.400          40.000  
C16  35631398.227   185542040.405        -100.664          48.000    35631384.993   143472822.771         -77.985          47.000  
C23  21665532.085   112818111.242       -1811.558          43.000                                                                  
C32  22024028.758   114684899.227       -2675.004          46.000                                                                  
G32  22008957.300   115657852.750       -3715.227          41.000    22008954.907    90122991.771       -2895.029          40.000  
G27  23285588.632   122366603.581        3655.594          36.000    23285607.290    95350681.539        2848.146          34.000  
G04  21771386.952                        2795.288          26.000    21771382.730                        2178.336          30.000  
C37  21223562.353   110516657.544         330.828          49.000                                                                  
C08  38842560.041   202263399.876       -2541.333          33.000    38842557.321   156402882.139       -1965.323          41.000  
C20  22301122.485   116127796.948         542.051          48.000                                                                  
C28  24325099.126   126667181.990        2440.767          42.000                                                                  
C07  37674941.138   196183305.462        1052.747          40.000    37674926.698   151701318.193         813.849          43.000  
C10  38654445.594   201283842.118         915.149          34.000    38654442.173   155645423.490         707.539          43.000  
G29                                                                  22181711.686                       -1528.879          30.000  
> 2025 10 28 07 05 29.7560000  0 21                     
G03  21815221.967   114639764.208       -1531.421          41.000    21815216.878    89329668.632       -1193.495          36.000  
G16  19930240.478   104734122.321        2055.557          47.000                                                                  
G26  18875825.369    99193131.950        -483.868          49.000    18875816.686    77293314.678        -377.159          47.000  
G28  20440421.587   107415140.286       -1728.127          46.000    20440410.369    83700063.717       -1346.579          45.000  
G31  19263943.307   101232707.160        -496.833          46.000    19263931.154    78882579.950        -387.029          45.000  
C06  35196136.531   183275518.745         -87.158          47.000    35196116.476   141720178.344         -67.462          47.000  
C09  36346462.907   189265570.856         -56.632          45.000    36346446.281   146352079.595         -43.848          47.000  
C13  37952985.478   197631154.730       -2439.307          37.000    37952984.325   152820940.569       -1886.532          40.000  
C16  35631399.001   185542044.431        -100.680          48.000    35631385.790   143472825.886         -77.963          47.000  
C23  21665546.033   112818183.698       -1811.415          43.000                                                                  
C32  22024049.318   114685006.217       -2674.853          46.000                                                                  
G32  22008985.576   115658001.361       -3715.252          41.000    22008983.174    90123107.563       -2894.864          40.000  
G27  23285560.777   122366457.349        3655.731          36.000    23285579.470    95350567.592        2848.390          34.000  
G04  21771365.821                        2795.239          26.000    21771361.437                        2179.070          30.000  
C37  21223559.812   110516644.303         330.932          49.000                                                                  
C08  38842579.585   202263501.524       -2541.252          33.000    38842576.831   156402960.740       -1965.218          41.000  
C20  22301118.336   116127775.260         542.069          48.000                                                                  
C28  24325080.373   126667084.352        2440.901          42.000                                                                  
C07  37674933.029   196183263.356        1052.655          40.000    37674918.598   151701285.628         813.995          43.000  
C10  38654438.550   201283805.508         915.237          34.000    38654435.150   155645395.183         707.628          43.000  
G29                                                                  22181726.628                       -1528.497          30.000  
> 2025 10 28 07 05 29.7960000  0 21                     
G03  21815233.645   114639825.461       -1531.394          41.000    21815228.543    89329716.348       -1193.070          36.000  
G16  19930224.826   104734040.092        2055.652          47.000                                                                  
G26  18875829.028    99193151.303        -483.864          49.000    18875820.356    77293329.758        -377.095          47.000  
G28  20440434.731   107415209.411       -1728.135          46.000    20440423.534    83700117.575       -1346.490          45.000  
G31  19263947.101   101232727.032        -496.789          46.000    19263934.947    78882595.431        -386.980          45.000  
C06  35196137.205   183275522.226         -87.081          47.000    35196117.154   141720181.037         -67.390          47.000  
C09  36346463.357   189265573.117         -56.525          45.000    36346446.715   146352081.350         -43.868          47.000  
C13  37953004.210   197631252.298       -2439.228          37.000    37953003.079   152821016.024       -1886.407          40.000  
C16  35631399.794   185542048.461        -100.733          47.000    35631386.594   143472829.005         -77.985          47.000  
C23  21665559.959   112818256.170       -1811.714          43.000                                                                  
C32  22024069.842   114685113.209       -2674.810          46.000                                                                  
G32  22009013.841   115658149.978       -3715.377          41.000    22009011.455    90123223.370       -2895.071          40.000  
G27  23285532.952   122366311.127        3655.670          36.000    23285551.625    95350453.643        2848.687          34.000  
G04  21771344.432                        2795.002          26.000    21771340.177                        2177.712          30.000  
C37  21223557.267   110516631.065         330.931          49.000                                                                  
C08  38842599.102   202263603.146       -2540.752          33.000    38842596.360   156403039.316       -1964.663          41.000  
C20  22301114.189   116127753.570         542.144          48.000                                                                  
C28  24325061.629   126666986.718        2440.881          42.000                                                                  
C07  37674924.931   196183221.253        1052.557          40.000    37674910.526   151701253.072         813.916          43.000  
C10  38654431.513   201283768.928         914.714          34.000    38654428.137   155645366.882         707.572          43.000  
G29                                                                  22181741.561                       -1528.744          30.000  
> 2025 10 28 07 05 29.8360000  0 21                     
G03  21815245.306   114639886.715       -1531.393          41.000    21815240.196    89329764.074       -1193.042          36.000  
G16  19930209.176   104733957.867        2055.644          47.000                                                                  
G26  18875832.682    99193170.661        -483.933          49.000    18875824.032    77293344.839        -377.071          47.000  
G28  20440447.900   107415278.536       -1728.141          46.000    20440436.695    83700171.443       -1346.631          45.000  
G31  19263950.906   101232746.902        -496.790          46.000    19263938.751    78882610.917        -387.067          45.000  
C06  35196137.859   183275525.711         -87.069          47.000    35196117.816   141720183.733         -67.405          47.000  
C09  36346463.770   189265575.382         -56.593          45.000    36346447.145   146352083.106         -43.906          47.000  
C13  37953022.976   197631349.874       -2439.398          37.000    37953021.829   152821091.459       -1886.036          40.000  
C16  35631400.539   185542052.489        -100.745          47.000    35631387.343   143472832.114         -77.841          47.000  
C23  21665573.873   112818328.634       -1811.687          43.000                                                                  
C32  22024090.375   114685220.210       -2674.967          46.000                                                                  
G32  22009042.118   115658298.587       -3715.296          41.000    22009039.750    90123339.172       -2895.095          40.000  
G27  23285505.133   122366164.927        3655.216          35.000    23285523.770    95350339.696        2848.726          34.000  
G04  21771323.300                        2795.085          26.000    21771318.926                        2178.196          30.000  
C37  21223554.700   110516617.835         330.789          49.000                                                                  
C08  38842618.632   202263704.804       -2541.246          33.000    38842615.865   156403117.912       -1964.772          41.000  
C20  22301110.014   116127731.878         542.236          48.000                                                                  
C28  24325042.873   126666889.093        2440.651          42.000                                                                  
C07  37674916.852   196183179.138        1052.789          40.000    37674902.436   151701220.517         813.849          43.000  
C10  38654424.493   201283732.306         915.152          34.000    38654421.107   155645338.585         707.474          43.000  
G29                                                                  22181756.503                       -1529.563          30.000  
> 2025 10 28 07 05 29.8760000  0 21                     
G03  21815256.952   114639947.956       -1531.109          41.000    21815251.860    89329811.812       -1193.270          36.000  
G16  19930193.559   104733875.646        2055.558          47.000                                                                  
G26  18875836.361    99193190.018        -483.996          49.000    18875827.719    77293359.922        -377.096          47.000  
G28  20440461.058   107415347.662       -1728.194          46.000    20440449.855    83700225.306       -1346.631          45.000  
G31  19263954.712   101232766.768        -496.673          46.000    19263942.524    78882626.403        -387.135          45.000  
C06  35196138.532   183275529.192         -87.025          47.000    35196118.489   141720186.433         -67.490          47.000  
C09  36346464.182   189265577.651         -56.701          45.000    36346447.579   146352084.863         -43.949          47.000  
C13  37953041.715   197631447.449       -2439.388          37.000    37953040.552   152821166.897       -1885.838          40.000  
C16  35631401.364   185542056.521        -100.795          48.000    35631388.117   143472835.226         -77.801          47.000  
C23  21665587.809   112818401.093       -1811.579          43.000                                                                  
C32  22024110.933   114685327.206       -2674.959          46.000                                                                  
G32  22009070.389   115658447.195       -3715.240          41.000    22009068.041    90123454.980       -2895.232          40.000  
G27  23285477.293   122366018.618        3657.084          35.000    23285495.929    95350225.755        2848.583          34.000  
G04  21771301.846                        2794.880          26.000    21771297.653                        2178.366          30.000  
C37  21223552.120   110516604.602         330.759          49.000                                                                  
C08  38842638.149   202263806.429       -2540.957          33.000    38842635.425   156403196.522       -1965.058          41.000  
C20  22301105.863   116127710.190         542.230          48.000                                                                  
C28  24325024.124   126666791.447        2440.992          42.000                                                                  
C07  37674908.759   196183137.031        1052.734          40.000    37674894.345   151701187.957         813.947          43.000  
C10  38654417.461   201283695.697         915.277          34.000    38654414.059   155645310.280         707.536          43.000  
G29                                                                  22181771.452                       -1529.773          30.000  
> 2025 10 28 07 05 29.9160000  0 21                     
G03  21815268.612   114640009.225       -1531.541          41.000    21815263.503    89329859.534       -1193.144          36.000  
G16  19930177.911   104733793.422        2055.552          47.000                                                                  
G26  18875840.035    99193209.381        -484.101          49.000    18875831.403    77293375.005        -377.109          47.000  
G28  20440474.221   107415416.790       -1728.211          46.000    20440462.990    83700279.174       -1346.736          45.000  
G31  19263958.474   101232786.638        -496.698          46.000    19263946.309    78882641.892        -387.258          45.000  
C06  35196139.163   183275532.673         -87.015          47.000    35196119.144   141720189.124         -67.384          47.000  
C09  36346464.617   189265579.920         -56.750          45.000    36346448.003   146352086.610         -43.778          47.000  
C13  37953060.448   197631545.034       -2439.585          37.000    37953059.305   152821242.353       -1886.134          40.000  
C16  35631402.181   185542060.537        -100.560          48.000    35631388.891   143472838.341         -77.876          47.000  
C23  21665601.736   112818473.566       -1811.774          43.000                                                                  
C32  22024131.458   114685434.206       -2674.996          46.000                                                                  
G32  22009098.669   115658595.817       -3715.483          41.000    22009096.308    90123570.783       -2895.181          40.000  
G27  23285449.465   122365872.387        3656.617          36.000    23285468.080    95350111.790        2849.069          34.000  
G04  21771280.966                        2795.310          26.000    21771276.390                        2178.486          30.000  
C37  21223549.610   110516591.365         330.825          49.000                                                                  
C08  38842657.667   202263908.065       -2540.862          33.000    38842654.937   156403275.125       -1965.118          41.000  
C20  22301101.681   116127688.503         542.187          48.000                                                                  
C28  24325005.378   126666693.817        2440.835          42.000                                                                  
C07  37674900.662   196183094.935        1052.533          40.000    37674886.279   151701155.398         813.959          43.000  
C10  38654410.444   201283659.124         914.619          34.000    38654407.050   155645281.981         707.462          43.000  
G29                                                                  22181786.401                       -1528.533          30.000  
> 2025 10 28 07 05 29.9560000  0 21                     
G03  21815280.274   114640070.478       -1531.456          41.000    21815275.172    89329907.278       -1193.453          36.000  
G16  19930162.290   104733711.205        2055.448          47.000                                                                  
G26  18875843.731    99193228.742        -484.105          49.000    18875835.112    77293390.096        -377.240          47.000  
G28  20440487.363   107415485.917       -1728.196          46.000    20440476.142    83700333.051       -1346.957          45.000  
G31  19263962.249   101232806.511        -496.778          46.000    19263950.102    78882657.383        -387.325          45.000  
C06  35196139.832   183275536.161         -87.144          47.000    35196119.833   141720191.823         -67.438          47.000  
C09  36346465.080   189265582.186         -56.717          45.000    36346448.433   146352088.361         -43.767          47.000  
C13  37953079.207   197631642.623       -2439.817          37.000    37953078.086   152821317.810       -1886.371          40.000  
C16  35631402.968   185542064.567        -100.654          48.000    35631389.669   143472841.453         -77.826          47.000  
C23  21665615.674   112818546.025       -1811.622          43.000                                                                  
C32  22024152.002   114685541.205       -2675.040          46.000                                                                  
G32  22009126.952   115658744.435       -3715.526          41.000    22009124.596    90123686.588       -2895.187          40.000  
G27  23285421.653   122365726.196        3655.459          35.000    23285440.268    95349997.860        2848.677          34.000  
G04  21771259.260                        2795.427          26.000    21771255.073                        2178.272          30.000  
C37  21223547.092   110516578.132         330.806          49.000                                                                  
C08  38842677.196   202264009.709       -2541.044          33.000    38842674.446   156403353.732       -1965.233          41.000  
C20  22301097.519   116127666.822         542.051          48.000                                                                  
C28  24324986.642   126666596.179        2440.892          42.000                                                                  
C07  37674892.562   196183052.831        1052.496          40.000    37674878.172   151701122.842         813.910          43.000  
C10  38654403.426   201283622.514         914.924          34.000    38654400.028   155645253.682         707.439          43.000  
G29                                                                  22181801.338                       -1528.829          31.000  
> 2025 10 28 07 05 29.9960000  0 21                     
G03  21815291.906   114640131.729       -1531.360          41.000    21815286.821    89329954.990       -1193.036          36.000  
G16  19930146.635   104733628.988        2055.356          47.000                                                                  
G26  18875847.407    99193248.098        -483.997          49.000    18875838.783    77293405.183        -377.251          47.000  
G28  20440500.514   107415555.049       -1728.280          46.000    20440489.282    83700386.906       -1346.656          45.000  
G31  19263966.024   101232826.393        -497.025          46.000    19263953.878    78882672.873        -387.300          45.000  
C06  35196140.484   183275539.654         -87.299          47.000    35196120.539   141720194.515         -67.393          47.000  
C09  36346465.534   189265584.453         -56.697          45.000    36346448.887   146352090.116         -43.838          47.000  
C13  37953097.967   197631740.190       -2439.427          37.000    37953096.791   152821393.274       -1886.647          40.000  
C16  35631403.753   185542068.596        -100.713          48.000    35631390.430   143472844.567         -77.840          47.000  
C23  21665629.593   112818618.485       -1811.554          43.000                                                                  
C32  22024172.527   114685648.212       -2675.195          46.000                                                                  
G32  22009155.221   115658893.049       -3715.437          41.000    22009152.868    90123802.389       -2895.150          40.000  
G27  23285393.819   122365579.968        3655.594          36.000    23285412.439    95349883.929        2848.386          34.000  
G04  21771238.025                        2795.159          26.000    21771233.836                        2178.157          30.000  
C37  21223544.570   110516564.894         330.890          49.000                                                                  
C08  38842696.729   202264111.380       -2541.574          33.000    38842693.955   156403432.308       -1964.691          41.000  
C20  22301093.317   116127645.144         541.929          48.000                                                                  
C28  24324967.901   126666498.536        2441.005          42.000                                                                  
C07  37674884.479   196183010.725        1052.545          40.000    37674870.082   151701090.287         813.904          43.000  
C10  38654396.392   201283585.886         915.459          34.000    38654393.005   155645225.382         707.439          43.000  
G29                                                                  22181816.243                       -1528.420          30.000  
> 2025 10 28 07 05 30.0360000  0 21                     
G03  21815303.547   114640192.982       -1531.355          41.000    21815298.489    89330002.738       -1193.459          36.000  
G16  19930130.986   104733546.768        2055.395          47.000                                                                  
G26  18875851.071    99193267.454        -483.928          49.000    18875842.447    77293420.266        -377.129          47.000  
G28  20440513.659   107415624.176       -1728.245          46.000    20440502.432    83700440.772       -1346.672          45.000  
G31  19263969.810   101232846.278        -497.159          46.000    19263957.648    78882688.357        -387.188          45.000  
C06  35196141.140   183275543.133         -87.122          47.000    35196121.199   141720197.204         -67.295          47.000  
C09  36346465.960   189265586.719         -56.678          45.000    36346449.301   146352091.865         -43.782          47.000  
C13  37953116.699   197631837.756       -2439.162          37.000    37953115.537   152821468.736       -1886.704          40.000  
C16  35631404.536   185542072.624        -100.727          48.000    35631391.176   143472847.679         -77.793          47.000  
C23  21665643.509   112818690.949       -1811.605          43.000                                                                  
C32  22024193.070   114685755.207       -2675.051          46.000                                                                  
G32  22009183.492   115659041.662       -3715.400          41.000    22009181.150    90123918.186       -2895.051          40.000  
G27  23285365.982   122365433.743        3655.573          36.000    23285384.600    95349770.044        2847.399          34.000  
G04  21771216.660                        2795.184          26.000    21771212.579                        2177.469          30.000  
C37  21223541.992   110516551.663         330.813          49.000                                                                  
C08  38842716.241   202264213.010       -2541.053          33.000    38842713.456   156403510.892       -1964.544          41.000  
C20  22301089.175   116127623.468         541.849          48.000                                                                  
C28  24324949.153   126666400.915        2440.655          42.000                                                                  
C07  37674876.396   196182968.625        1052.466          40.000    37674861.986   151701057.728         813.910          43.000  
C10  38654389.365   201283549.281         915.335          34.000    38654385.973   155645197.076         707.585          43.000  
G29                                                                  22181831.187                       -1529.242          30.000  
> 2025 10 28 07 05 30.0760000  0 21                     
G03  21815315.206   114640254.234       -1531.292          41.000    21815310.151    89330050.488       -1193.752          36.000  
G16  19930115.318   104733464.544        2055.511          47.000                                                                  
G26  18875854.750    99193286.817        -484.043          49.000    18875846.129    77293435.348        -377.073          47.000  
G28  20440526.823   107415693.305       -1728.267          46.000    20440515.596    83700494.638       -1346.679          45.000  
G31  19263973.591   101232866.148        -496.918          46.000    19263961.419    78882703.837        -387.060          45.000  
C06  35196141.814   183275546.622         -87.168          47.000    35196121.885   141720199.900         -67.363          47.000  
C09  36346466.387   189265588.984         -56.667          45.000    36346449.743   146352093.626         -43.979          47.000  
C13  37953135.449   197631935.312       -2438.902          37.000    37953134.264   152821544.183       -1886.420          40.000  
C16  35631405.315   185542076.653        -100.773          48.000    35631391.927   143472850.796         -77.902          47.000  
C23  21665657.427   112818763.431       -1811.937          43.000                                                                  
C32  22024213.621   114685862.210       -2675.087          46.000                                                                  
G32  22009211.776   115659190.287       -3715.580          41.000    22009209.441    90124033.998       -2895.231          40.000  
G27  23285338.153   122365287.513        3655.683          36.000    23285356.758    95349656.090        2848.104          34.000  
G04  21771195.091                        2794.973          26.000    21771191.321                        2176.443          30.000  
C37  21223539.453   110516538.425         330.872          49.000                                                                  
C08  38842735.759   202264314.642       -2540.689          33.000    38842732.965   156403589.481       -1964.598          41.000  
C20  22301085.004   116127601.788         541.868          48.000                                                                  
C28  24324930.410   126666303.278        2440.787          42.000                                                                  
C07  37674868.318   196182926.520        1052.570          40.000    37674853.894   151701025.176         813.800          43.000  
C10  38654382.328   201283512.691         914.981          34.000    38654378.949   155645168.766         707.761          43.000  
G29                                                                  22181846.133                       -1529.203          30.000  
> 2025 10 28 07 05 30.1160000  0 21                     
G03  21815326.876   114640315.513       -1531.828          41.000    21815321.803    89330098.229       -1193.782          36.000  
G16  19930099.663   104733382.330        2055.383          47.000                                                                  
G26  18875858.455    99193306.185        -484.174          49.000    18875849.823    77293450.445        -377.326          47.000  
G28  20440539.978   107415762.438       -1728.364          46.000    20440528.741    83700548.509       -1346.790          45.000  
G31  19263977.337   101232886.036        -497.171          46.000    19263965.209    78882719.330        -387.227          45.000  
C06  35196142.458   183275550.121         -87.412          47.000    35196122.564   141720202.602         -67.515          47.000  
C09  36346466.820   189265591.268         -57.003          45.000    36346450.187   146352095.390         -44.115          47.000  
C13  37953154.198   197632032.915       -2439.617          37.000    37953153.011   152821619.626       -1886.183          40.000  
C16  35631406.076   185542080.690        -100.907          48.000    35631392.684   143472853.919         -78.069          47.000  
C23  21665671.341   112818835.900       -1811.909          43.000                                                                  
C32  22024234.178   114685969.220       -2675.237          46.000                                                                  
G32  22009240.035   115659338.906       -3715.561          41.000    22009237.704    90124149.809       -2895.317          40.000  
G27  23285310.331   122365141.287        3655.676          36.000    23285328.927    95349542.165        2848.058          34.000  
G04  21771174.060                        2795.416          26.000    21771170.032                        2177.737          30.000  
C37  21223536.862   110516525.202         330.640          49.000                                                                  
C08  38842755.285   202264416.320       -2541.424          33.000    38842752.515   156403668.108       -1965.344          41.000  
C20  22301080.817   116127580.119         541.721          48.000                                                                  
C28  24324911.664   126666205.649        2440.743          42.000                                                                  
C07  37674860.230   196182884.426        1052.356          40.000    37674845.829   151700992.625         813.751          43.000  
C10  38654375.312   201283476.123         914.415          34.000    38654371.931   155645140.483         707.323          43.000  
G29                                                                  22181861.059                       -1529.220          30.000  
> 2025 10 28 07 05 30.1560000  0 21                     
G03  21815338.544   114640376.793       -1532.092          41.000    21815333.454    89330145.953       -1193.414          36.000  
G16  19930084.013   104733300.125        2055.153          47.000                                                                  
G26  18875862.145    99193325.569        -484.548          49.000    18875853.547    77293465.540        -377.438          47.000  
G28  20440553.151   107415831.585       -1728.648          46.000    20440541.877    83700602.381       -1346.873          45.000  
G31  19263981.112   101232905.917        -497.108          46.000    19263969.006    78882734.828        -387.417          45.000  
C06  35196143.137   183275553.614         -87.433          47.000    35196123.234   141720205.310         -67.706          47.000  
C09  36346467.264   189265593.549         -57.087          45.000    36346450.635   146352097.153         -44.150          47.000  
C13  37953172.951   197632130.496       -2439.586          37.000    37953171.749   152821695.083       -1886.310          40.000  
C16  35631406.843   185542084.730        -101.039          48.000    35631393.445   143472857.042         -78.144          47.000  
C23  21665685.270   112818908.372       -1811.875          43.000                                                                  
C32  22024254.719   114686076.233       -2675.353          46.000                                                                  
G32  22009268.314   115659487.524       -3715.485          41.000    22009265.976    90124265.622       -2895.448          40.000  
G27  23285282.490   122364995.068        3655.573          36.000    23285301.093    95349428.214        2848.513          34.000  
G04  21771152.412                        2794.545          26.000    21771148.782                        2177.936          30.000  
C37  21223534.290   110516511.986         330.413          49.000                                                                  
C08  38842774.807   202264517.976       -2541.442          33.000    38842772.026   156403746.713       -1965.337          41.000  
C20  22301076.647   116127558.446         541.722          48.000                                                                  
C28  24324892.892   126666108.029        2440.541          42.000                                                                  
C07  37674852.139   196182842.330        1052.325          40.000    37674837.729   151700960.070         813.812          43.000  
C10  38654368.304   201283439.534         914.542          34.000    38654364.902   155645112.189         707.256          43.000  
G29                                                                  22181875.995                       -1529.241          30.000  
> 2025 10 28 07 05 30.1960000  0 21                     
G03  21815350.185   114640438.061       -1531.928          41.000    21815345.102    89330193.692       -1193.420          36.000  
G16  19930068.380   104733217.913        2055.170          47.000                                                                  
G26  18875865.837    99193344.938        -484.398          49.000    18875857.234    77293480.642        -377.585          47.000  
G28  20440566.280   107415900.714       -1728.422          46.000    20440555.032    83700656.252       -1346.860          45.000  
G31  19263984.899   101232925.802        -497.182          46.000    19263972.807    78882750.319        -387.342          45.000  
C06  35196143.814   183275557.102         -87.329          47.000    35196123.901   141720208.011         -67.639          47.000  
C09  36346467.686   189265595.818         -56.879          45.000    36346451.104   146352098.913         -44.095          47.000  
C13  37953191.674   197632228.086       -2439.769          37.000    37953190.467   152821770.543       -1886.483          40.000  
C16  35631407.666   185542088.759        -100.862          47.000    35631394.202   143472860.164         -78.123          47.000  
C23  21665699.191   112818980.838       -1811.736          43.000                                                                  
C32  22024275.296   114686183.240       -2675.251          46.000                                                                  
G32  22009296.602   115659636.148       -3715.566          41.000    22009294.232    90124381.421       -2895.191          40.000  
G27  23285254.676   122364848.845        3655.553          36.000    23285273.292    95349314.251        2848.940          34.000  
G04  21771131.372                        2794.859          26.000    21771127.477                        2178.241          30.000  
C37  21223531.781   110516498.759         330.515          49.000                                                                  
C08  38842794.337   202264619.610       -2540.989          33.000    38842791.532   156403825.315       -1965.273          41.000  
C20  22301072.491   116127536.770         541.808          48.000                                                                  
C28  24324874.151   126666010.408        2440.468          42.000                                                                  
C07  37674844.034   196182800.240        1052.234          40.000    37674829.642   151700927.512         813.922          43.000  
C10  38654361.274   201283402.952         914.522          34.000    38654357.861   155645083.893         707.283          43.000  
G29                                                                  22181890.955                       -1529.809          30.000  
> 2025 10 28 07 05 30.2360000  0 21                     
G03  21815361.850   114640499.328       -1531.807          41.000    21815356.760    89330241.436       -1193.552          36.000  
G16  19930052.741   104733135.697        2055.283          47.000                                                                  
G26  18875869.509    99193364.297        -484.133          49.000    18875860.908    77293495.728        -377.344          47.000  
G28  20440579.426   107415969.839       -1728.226          46.000    20440568.168    83700710.119       -1346.753          45.000  
G31  19263988.672   101232945.670        -496.855          46.000    19263976.566    78882765.803        -387.163          45.000  
C06  35196144.439   183275560.586         -87.197          47.000    35196124.543   141720210.706         -67.491          47.000  
C09  36346468.100   189265598.075         -56.563          45.000    36346451.510   146352100.656         -43.753          47.000  
C13  37953210.403   197632325.650       -2439.417          37.000    37953209.200   152821845.989       -1886.323          40.000  
C16  35631408.451   185542092.785        -100.706          47.000    35631394.966   143472863.274         -77.892          47.000  
C23  21665713.123   112819053.310       -1811.775          43.000                                                                  
C32  22024295.892   114686290.245       -2675.183          46.000                                                                  
G32  22009324.868   115659784.766       -3715.510          41.000    22009322.526    90124497.232       -2895.285          40.000  
G27  23285226.868   122364702.627        3655.421          36.000    23285245.458    95349200.319        2848.594          34.000  
G04  21771110.248                        2794.703          26.000    21771106.221                        2177.641          30.000  
C37  21223529.264   110516485.525         330.703          49.000                                                                  
C08  38842813.858   202264721.220       -2540.366          33.000    38842811.050   156403903.911       -1965.083          41.000  
C20  22301068.353   116127515.089         541.956          48.000                                                                  
C28  24324855.393   126665912.770        2440.743          42.000                                                                  
C07  37674835.948   196182758.129        1052.588          40.000    37674821.548   151700894.955         813.885          43.000  
C10  38654354.238   201283366.329         915.227          34.000    38654350.871   155645055.595         707.372          43.000  
G29                                                                  22181905.924                       -1529.577          30.000  
> 2025 10 28 07 05 30.2760000  0 21                     
G03  21815373.501   114640560.578       -1531.451          41.000    21815368.421    89330289.167       -1193.375          36.000  
G16  19930037.100   104733053.481        2055.369          47.000                                                                  
G26  18875873.164    99193383.651        -483.878          49.000    18875864.590    77293510.814        -377.187          47.000  
G28  20440592.585   107416038.966       -1728.174          46.000    20440581.317    83700763.989       -1346.740          45.000  
G31  19263992.445   101232965.550        -496.936          46.000    19263980.343    78882781.290        -387.145          45.000  
C06  35196145.089   183275564.064         -87.017          47.000    35196125.208   141720213.395         -67.289          47.000  
C09  36346468.532   189265600.340         -56.542          45.000    36346451.951   146352102.405         -43.676          47.000  
C13  37953229.143   197632423.215       -2439.136          37.000    37953227.942   152821921.439       -1886.287          40.000  
C16  35631409.215   185542096.810        -100.654          47.000    35631395.708   143472866.388         -77.851          47.000  
C23  21665727.047   112819125.773       -1811.631          43.000                                                                  
C32  22024316.432   114686397.245       -2675.059          46.000                                                                  
G32  22009353.143   115659933.392       -3715.647          41.000    22009350.805    90124613.036       -2895.191          40.000  
G27  23285199.030   122364556.400        3655.573          35.000    23285217.634    95349086.411        2847.712          34.000  
G04  21771088.971                        2794.717          26.000    21771084.931                        2178.016          30.000  
C37  21223526.722   110516472.283         330.983          49.000                                                                  
C08  38842833.382   202264822.899       -2541.340          33.000    38842830.587   156403982.511       -1965.058          41.000  
C20  22301064.188   116127493.413         541.912          48.000                                                                  
C28  24324836.655   126665815.138        2440.786          42.000                                                                  
C07  37674827.860   196182716.015        1052.826          40.000    37674813.470   151700862.391         814.026          43.000  
C10  38654347.203   201283329.729         915.144          34.000    38654343.826   155645027.298         707.438          43.000  
G29                                                                  22181920.856                       -1529.658          30.000  
> 2025 10 28 07 05 30.3160000  0 21                     
G03  21815385.164   114640621.834       -1531.372          41.000    21815380.060    89330336.911       -1193.560          36.000  
G16  19930021.431   104732971.260        2055.484          47.000                                                                  
G26  18875876.876    99193403.021        -484.115          49.000    18875868.250    77293525.902        -377.183          47.000  
G28  20440605.747   107416108.094       -1728.184          46.000    20440594.457    83700817.858       -1346.736          45.000  
G31  19263996.220   101232985.420        -496.782          46.000    19263984.144    78882796.784        -387.263          45.000  
C06  35196145.731   183275567.551         -87.117          47.000    35196125.855   141720216.083         -67.206          47.000  
C09  36346468.949   189265602.610         -56.654          45.000    36346452.371   146352104.152         -43.641          47.000  
C13  37953247.877   197632520.791       -2439.227          37.000    37953246.675   152821996.875       -1886.007          40.000  
C16  35631409.974   185542100.833        -100.580          47.000    35631396.461   143472869.496         -77.724          47.000  
C23  21665740.953   112819198.236       -1811.563          43.000                                                                  
C32  22024336.973   114686504.244       -2674.961          46.000                                                                  
G32  22009381.396   115660082.007       -3715.484          41.000    22009379.076    90124728.836       -2895.073          40.000  
G27  23285171.197   122364410.141        3656.330          36.000    23285189.826    95348972.480        2847.880          34.000  
G04  21771067.823                        2794.488          26.000    21771063.658                        2178.760          30.000  
C37  21223524.161   110516459.049         330.931          49.000                                                                  
C08  38842852.903   202264924.556       -2541.513          33.000    38842850.134   156404061.108       -1964.955          41.000  
C20  22301060.020   116127471.738         541.857          48.000                                                                  
C28  24324817.894   126665717.501        2440.911          42.000                                                                  
C07  37674819.810   196182673.906        1052.850          40.000    37674805.379   151700829.833         813.983          43.000  
C10  38654340.188   201283293.115         915.326          34.000    38654336.801   155644998.989         707.656          43.000  
G29                                                                  22181935.814                       -1529.204          30.000  
> 2025 10 28 07 05 30.3560000  0 21                     
G03  21815396.823   114640683.109       -1531.663          41.000    21815391.728    89330384.637       -1193.243          36.000  
G16  19930005.797   104732889.047        2055.421          47.000                                                                  
G26  18875880.567    99193422.387        -484.165          49.000    18875871.936    77293540.991        -377.210          47.000  
G28  20440618.875   107416177.222       -1728.194          46.000    20440607.600    83700871.714       -1346.508          45.000  
G31  19263999.999   101233005.304        -497.036          46.000    19263987.932    78882812.275        -387.300          45.000  
C06  35196146.351   183275571.041         -87.231          47.000    35196126.515   141720218.776         -67.260          47.000  
C09  36346469.396   189265604.878         -56.693          45.000    36346452.809   146352105.911         -43.866          47.000  
C13  37953266.603   197632618.375       -2439.453          37.000    37953265.433   152822072.332       -1886.193          40.000  
C16  35631410.695   185542104.869        -100.785          47.000    35631397.228   143472872.608         -77.763          47.000  
C23  21665754.878   112819270.703       -1811.622          43.000                                                                  
C32  22024357.522   114686611.250       -2675.055          46.000                                                                  
G32  22009409.665   115660230.634       -3715.590          41.000    22009407.354    90124844.642       -2895.073          40.000  
G27  23285143.348   122364263.941        3655.623          36.000    23285161.996    95348858.503        2848.893          34.000  
G04  21771046.858                        2794.601          26.000    21771042.379                        2177.755          30.000  
C37  21223521.578   110516445.816         330.877          49.000                                                                  
C08  38842872.429   202265026.221       -2541.730          33.000    38842869.680   156404139.690       -1964.683          41.000  
C20  22301055.868   116127450.067         541.765          48.000                                                                  
C28  24324799.132   126665619.869        2440.838          42.000                                                                  
C07  37674811.710   196182631.801        1052.734          40.000    37674797.316   151700797.285         813.745          43.000  
C10  38654333.165   201283256.541         914.699          34.000    38654329.759   155644970.690         707.578          43.000  
G29                                                                  22181950.738                       -1528.690          30.000  
> 2025 10 28 07 05 30.3960000  0 21                     
G03  21815408.457   114640744.364       -1531.487          41.000    21815403.387    89330432.389       -1193.571          36.000  
G16  19929990.155   104732806.834        2055.367          47.000                                                                  
G26  18875884.259    99193441.758        -484.264          49.000    18875875.645    77293556.082        -377.248          47.000  
G28  20440632.033   107416246.360       -1728.390          46.000    20440620.762    83700925.583       -1346.618          45.000  
G31  19264003.780   101233025.183        -497.035          46.000    19263991.710    78882827.761        -387.182          45.000  
C06  35196147.013   183275574.516         -87.003          47.000    35196127.189   141720221.472         -67.374          47.000  
C09  36346469.828   189265607.143         -56.680          45.000    36346453.247   146352107.666         -43.915          47.000  
C13  37953285.352   197632715.958       -2439.534          37.000    37953284.177   152822147.794       -1886.439          40.000  
C16  35631411.451   185542108.898        -100.789          47.000    35631397.997   143472875.728         -77.934          47.000  
C23  21665768.799   112819343.167       -1811.596          43.000                                                                  
C32  22024378.063   114686718.251       -2675.050          46.000                                                                  
G32  22009437.933   115660379.252       -3715.496          41.000    22009435.638    90124960.453       -2895.256          40.000  
G27  23285115.535   122364117.709        3655.706          35.000    23285134.153    95348744.569        2848.536          34.000  
G04  21771025.633                        2794.962          26.000    21771021.110                        2177.831          30.000  
C37  21223518.981   110516432.586         330.753          49.000                                                                  
C08  38842891.954   202265127.884       -2541.764          33.000    38842889.216   156404218.304       -1965.125          41.000  
C20  22301051.717   116127428.393         541.790          48.000                                                                  
C28  24324780.404   126665522.229        2440.990          42.000                                                                  
C07  37674803.631   196182589.690        1052.789          40.000    37674789.216   151700764.724         813.904          43.000  
C10  38654326.130   201283219.940         914.749          34.000    38654322.721   155644942.392         707.532          43.000  
G29                                                                  22181965.664                       -1528.411          30.000  
> 2025 10 28 07 05 30.4360000  0 21                     
G03  21815420.116   114640805.623       -1531.469          41.000    21815415.030    89330480.137       -1193.748          36.000  
G16  19929974.525   104732724.624        2055.267          47.000                                                                  
G26  18875887.938    99193461.126        -484.257          49.000    18875879.328    77293571.179        -377.411          47.000  
G28  20440645.216   107416315.491       -1728.358          46.000    20440633.902    83700979.453       -1346.683          45.000  
G31  19264007.547   101233045.060        -496.986          46.000    19263995.495    78882843.243        -387.090          45.000  
C06  35196147.658   183275577.996         -86.952          47.000    35196127.838   141720224.167         -67.410          47.000  
C09  36346470.245   189265609.412         -56.717          45.000    36346453.669   146352109.412         -43.781          47.000  
C13  37953304.070   197632813.549       -2439.785          37.000    37953302.914   152822223.250       -1886.480          40.000  
C16  35631412.217   185542112.918        -100.605          47.000    35631398.785   143472878.835         -77.781          47.000  
C23  21665782.685   112819415.637       -1811.710          43.000                                                                  
C32  22024398.613   114686825.261       -2675.199          46.000                                                                  
G32  22009466.223   115660527.859       -3715.286          41.000    22009463.907    90125076.262       -2895.260          40.000  
G27  23285087.728   122363971.470        3655.965          35.000    23285106.316    95348630.637        2848.302          34.000  
G04  21771004.101                        2795.085          26.000    21770999.825                        2177.497          30.000  
C37  21223516.462   110516419.360         330.653          49.000                                                                  
C08  38842911.462   202265229.515       -2541.185          33.000    38842908.745   156404296.900       -1965.034          41.000  
C20  22301047.585   116127406.717         541.852          48.000                                                                  
C28  24324761.658   126665424.595        2440.918          42.000                                                                  
C07  37674795.524   196182547.572        1052.911          40.000    37674781.136   151700732.179         813.678          42.000  
C10  38654319.092   201283183.350         914.644          34.000    38654315.682   155644914.088         707.590          43.000  
G29                                                                  22181980.611                       -1528.892          30.000  
> 2025 10 28 07 05 30.4760000  0 21                     
G03  21815431.773   114640866.886       -1531.591          41.000    21815426.682    89330527.863       -1193.425          36.000  
G16  19929958.889   104732642.413        2055.251          47.000                                                                  
G26  18875891.613    99193480.495        -484.256          49.000    18875883.024    77293586.275        -377.453          47.000  
G28  20440658.360   107416384.618       -1728.225          46.000    20440647.069    83701033.324       -1346.774          45.000  
G31  19264011.320   101233064.926        -496.739          47.000    19263999.289    78882858.734        -387.239          45.000  
C06  35196148.327   183275581.475         -86.918          47.000    35196128.482   141720226.855         -67.284          47.000  
C09  36346470.693   189265611.670         -56.525          45.000    36346454.104   146352111.159         -43.666          47.000  
C13  37953322.796   197632911.092       -2439.032          37.000    37953321.645   152822298.688       -1886.171          40.000  
C16  35631412.991   185542116.935        -100.459          47.000    35631399.580   143472881.950         -77.876          47.000  
C23  21665796.602   112819488.096       -1811.565          43.000                                                                  
C32  22024419.181   114686932.263       -2675.136          46.000                                                                  
G32  22009494.512   115660676.461       -3715.095          41.000    22009492.179    90125192.058       -2895.036          40.000  
G27  23285059.875   122363825.191        3656.744          35.000    23285078.480    95348516.683        2848.678          34.000  
G04  21770983.079                        2795.325          26.000    21770978.586                        2177.037          30.000  
C37  21223513.938   110516406.127         330.741          49.000                                                                  
C08  38842930.983   202265331.151       -2541.119          33.000    38842928.273   156404375.506       -1965.148          41.000  
C20  22301043.441   116127385.040         541.901          48.000                                                                  
C28  24324742.912   126665326.962        2440.840          42.000                                                                  
C07  37674787.451   196182505.467        1052.686          40.000    37674773.053   151700699.617         813.879          42.000  
C10  38654312.055   201283146.727         915.252          34.000    38654308.644   155644885.777         707.723          43.000  
G29                                                                  22181995.532                       -1529.042          30.000  
> 2025 10 28 07 05 30.5160000  0 21                     
G03  21815443.441   114640928.151       -1531.704          41.000    21815438.353    89330575.615       -1193.651          36.000  
G16  19929943.253   104732560.193        2055.401          47.000                                                                  
G26  18875895.291    99193499.861        -484.192          49.000    18875886.716    77293601.361        -377.289          47.000  
G28  20440671.496   107416453.740       -1728.092          46.000    20440660.219    83701087.191       -1346.746          45.000  
G31  19264015.119   101233084.811        -497.042          46.000    19264003.057    78882874.218        -387.184          45.000  
C06  35196149.002   183275584.954         -86.949          47.000    35196129.149   141720229.541         -67.195          47.000  
C09  36346471.110   189265613.926         -56.428          45.000    36346454.549   146352112.916         -43.834          47.000  
C13  37953341.519   197633008.637       -2438.593          37.000    37953340.381   152822374.141       -1886.315          40.000  
C16  35631413.750   185542120.956        -100.478          47.000    35631400.346   143472885.063         -77.888          47.000  
C23  21665810.523   112819560.560       -1811.598          43.000                                                                  
C32  22024439.731   114687039.264       -2675.054          46.000                                                                  
G32  22009522.793   115660825.091       -3715.501          41.000    22009520.447    90125307.863       -2895.163          40.000  
G27  23285032.030   122363678.990        3655.759          35.000    23285050.682    95348402.760        2848.146          34.000  
G04  21770961.306                        2795.131          26.000    21770957.313                        2178.174          30.000  
C37  21223511.402   110516392.888         330.915          49.000                                                                  
C08  38842950.498   202265432.745       -2540.301          33.000    38842947.788   156404454.090       -1964.823          41.000  
C20  22301039.291   116127363.364         541.919          48.000                                                                  
C28  24324724.164   126665229.321        2440.950          42.000                                                                  
C07  37674779.386   196182463.366        1052.496          40.000    37674764.955   151700667.058         813.934          42.000  
C10  38654305.026   201283110.109         915.378          34.000    38654301.589   155644857.474         707.648          43.000  
G29                                                                  22182010.479                       -1530.066          30.000  
> 2025 10 28 07 05 30.5560000  0 21                     
G03  21815455.121   114640989.417       -1531.733          41.000    21815450.018    89330623.367       -1193.795          36.000  
G16  19929927.604   104732477.980        2055.364          47.000                                                                  
G26  18875898.991    99193519.234        -484.306          49.000    18875890.389    77293616.450        -377.239          47.000  
G28  20440684.656   107416522.873       -1728.241          46.000    20440673.373    83701141.052       -1346.602          45.000  
G31  19264018.906   101233104.687        -496.974          47.000    19264006.851    78882889.716        -387.430          45.000  
C06  35196149.649   183275588.438         -87.063          47.000    35196129.829   141720232.241         -67.404          47.000  
C09  36346471.526   189265616.193         -56.583          45.000    36346454.994   146352114.666         -43.820          47.000  
C13  37953360.242   197633106.218       -2439.090          37.000    37953359.156   152822449.586       -1886.220          40.000  
C16  35631414.512   185542124.985        -100.643          47.000    35631401.155   143472888.177         -77.908          47.000  
C23  21665824.428   112819633.027       -1811.693          43.000                                                                  
C32  22024460.275   114687146.270       -2675.117          46.000                                                                  
G32  22009551.076   115660973.707       -3715.469          41.000    22009548.720    90125423.664       -2895.120          40.000  
G27  23285004.183   122363532.717        3656.454          35.000    23285022.875    95348288.787        2848.909          34.000  
G04  21770940.172                        2795.162          26.000    21770936.055                        2178.072          30.000  
C37  21223508.852   110516379.654         330.892          49.000                                                                  
C08  38842970.025   202265534.423       -2541.261          33.000    38842967.314   156404532.687       -1964.854          42.000  
C20  22301035.111   116127341.698         541.703          48.000                                                                  
C28  24324705.416   126665131.676        2441.055          42.000                                                                  
C07  37674771.304   196182421.253        1052.661          40.000    37674756.871   151700634.503         813.947          42.000  
C10  38654298.012   201283073.518         915.063          34.000    38654294.599   155644829.168         707.662          43.000  
G29                                                                  22182025.414                       -1529.050          30.000  
> 2025 10 28 07 05 30.5960000  0 21                     
G03  21815466.793   114641050.697       -1531.995          41.000    21815461.681    89330671.114       -1193.831          36.000  
G16  19929911.977   104732395.768        2055.323          47.000                                                                  
G26  18875902.658    99193538.598        -484.173          49.000    18875894.080    77293631.541        -377.284          47.000  
G28  20440697.827   107416592.005       -1728.312          46.000    20440686.516    83701194.922       -1346.690          45.000  
G31  19264022.699   101233124.572        -497.103          46.000    19264010.649    78882905.205        -387.411          45.000  
C06  35196150.318   183275591.927         -87.200          47.000    35196130.530   141720234.941         -67.511          47.000  
C09  36346471.939   189265618.461         -56.671          45.000    36346455.422   146352116.417         -43.801          47.000  
C13  37953378.988   197633203.807       -2439.606          37.000    37953377.888   152822525.043       -1886.381          40.000  
C16  35631415.252   185542129.021        -100.815          47.000    35631401.946   143472891.291         -77.900          47.000  
C23  21665838.336   112819705.495       -1811.768          43.000                                                                  
C32  22024480.846   114687253.281       -2675.242          46.000                                                                  
G32  22009579.353   115661122.327       -3715.505          41.000    22009576.999    90125539.470       -2895.206          40.000  
G27  23284976.383   122363386.497        3655.991          35.000    23284995.024    95348174.872        2848.191          34.000  
G04  21770919.043                        2795.242          26.000    21770914.746                        2178.147          30.000  
C37  21223506.285   110516366.425         330.788          49.000                                                                  
C08  38842989.561   202265636.072       -2541.274          33.000    38842986.840   156404611.282       -1964.850          43.000  
C20  22301030.967   116127320.031         541.648          48.000                                                                  
C28  24324686.672   126665034.046        2440.870          42.000                                                                  
C07  37674763.211   196182379.149        1052.600          40.000    37674748.770   151700601.932         814.178          42.000  
C10  38654290.978   201283036.894         915.457          34.000    38654287.567   155644800.872         707.477          43.000  
G29                                                                  22182040.352                       -1528.407          30.000  
> 2025 10 28 07 05 30.6360000  0 21                     
G03  21815478.454   114641111.971       -1531.971          41.000    21815473.335    89330718.852       -1193.583          36.000  
G16  19929896.336   104732313.558        2055.244          47.000                                                                  
G26  18875906.350    99193557.968        -484.243          49.000    18875897.763    77293646.635        -377.334          47.000  
G28  20440710.977   107416661.140       -1728.387          46.000    20440699.668    83701248.803       -1346.972          45.000  
G31  19264026.453   101233144.446        -496.936          46.000    19264014.454    78882920.697        -387.386          45.000  
C06  35196151.001   183275595.407         -87.123          47.000    35196131.184   141720237.630         -67.374          47.000  
C09  36346472.348   189265620.724         -56.650          45.000    36346455.860   146352118.163         -43.713          47.000  
C13  37953397.731   197633301.406       -2440.013          37.000    37953396.621   152822600.504       -1886.516          40.000  
C16  35631416.005   185542133.052        -100.849          47.000    35631402.760   143472894.396         -77.721          47.000  
C23  21665852.257   112819777.959       -1811.697          43.000                                                                  
C32  22024501.386   114687360.294       -2675.359          46.000                                                                  
G32  22009607.634   115661270.942       -3715.424          41.000    22009605.294    90125655.289       -2895.436          40.000  
G27  23284948.557   122363240.267        3655.850          35.000    23284967.183    95348060.925        2848.529          34.000  
G04  21770897.497                        2795.080          26.000    21770893.446                        2179.033          30.000  
C37  21223503.735   110516353.194         330.756          49.000                                                                  
C08  38843009.075   202265737.704       -2541.020          33.000    38843006.361   156404689.881       -1964.949          43.000  
C20  22301026.806   116127298.364         541.631          48.000                                                                  
C28  24324667.895   126664936.414        2440.823          42.000                                                                  
C07  37674755.142   196182337.040        1052.606          40.000    37674740.717   151700569.377         813.989          42.000  
C10  38654283.974   201283000.315         914.765          34.000    38654280.517   155644772.569         707.534          43.000  
G29                                                                  22182055.326                       -1529.196          30.000  
> 2025 10 28 07 05 30.6760000  0 21                     
G03  21815490.126   114641173.246       -1531.937          41.000    21815484.997    89330766.579       -1193.303          36.000  
G16  19929880.690   104732231.342        2055.318          47.000                                                                  
G26  18875910.030    99193577.339        -484.268          49.000    18875901.457    77293661.733        -377.428          47.000  
G28  20440724.126   107416730.271       -1728.352          46.000    20440712.806    83701302.669       -1346.813          45.000  
G31  19264030.224   101233164.328        -497.022          47.000    19264018.227    78882936.192        -387.385          45.000  
C06  35196151.685   183275598.886         -87.050          47.000    35196131.889   141720240.322         -67.335          47.000  
C09  36346472.799   189265622.986         -56.599          45.000    36346456.304   146352119.919         -43.873          47.000  
C13  37953416.478   197633398.991       -2439.952          37.000    37953415.344   152822675.941       -1886.171          40.000  
C16  35631416.785   185542137.079        -100.774          47.000    35631403.541   143472897.505         -77.687          47.000  
C23  21665866.178   112819850.428       -1811.741          43.000                                                                  
C32  22024521.934   114687467.301       -2675.245          46.000                                                                  
G32  22009635.925   115661419.564       -3715.524          41.000    22009633.582    90125771.105       -2895.515          40.000  
G27  23284920.734   122363094.041        3655.665          35.000    23284939.351    95347946.987        2848.464          34.000  
G04  21770876.587                        2795.390          26.000    21770872.190                        2177.132          30.000  
C37  21223501.171   110516339.969         330.623          49.000                                                                  
C08  38843028.584   202265839.376       -2541.577          33.000    38843025.896   156404768.466       -1964.733          43.000  
C20  22301022.647   116127276.693         541.730          48.000                                                                  
C28  24324649.145   126664838.774        2440.918          42.000                                                                  
C07  37674747.057   196182294.946        1052.393          40.000    37674732.628   151700536.820         813.940          42.000  
C10  38654276.971   201282963.743         914.358          34.000    38654273.522   155644744.262         707.612          43.000  
G29                                                                  22182070.258                       -1528.950          30.000  
> 2025 10 28 07 05 30.7160000  0 21                     
G03  21815501.768   114641234.504       -1531.616          41.000    21815496.666    89330814.294       -1192.839          36.000  
G16  19929865.059   104732149.132        2055.258          47.000                                                                  
G26  18875913.716    99193596.710        -484.305          49.000    18875905.130    77293676.827        -377.395          47.000  
G28  20440737.283   107416799.399       -1728.287          46.000    20440725.951    83701356.529       -1346.617          45.000  
G31  19264033.984   101233184.207        -497.004          47.000    19264021.997    78882951.677        -387.212          45.000  
C06  35196152.393   183275602.367         -87.030          47.000    35196132.527   141720243.001         -67.086          47.000  
C09  36346473.234   189265625.256         -56.752          45.000    36346456.744   146352121.671         -43.878          47.000  
C13  37953435.231   197633496.549       -2439.307          37.000    37953434.079   152822751.397       -1886.311          40.000  
C16  35631417.562   185542141.102        -100.650          47.000    35631404.328   143472900.608         -77.592          47.000  
C23  21665880.087   112819922.883       -1811.495          43.000                                                                  
C32  22024542.480   114687574.304       -2675.140          46.000                                                                  
G32  22009664.206   115661568.184       -3715.561          41.000    22009661.841    90125886.908       -2895.257          40.000  
G27  23284892.872   122362947.819        3655.475          35.000    23284911.551    95347833.070        2848.048          34.000  
G04  21770855.312                        2794.923          26.000    21770850.942                        2177.457          30.000  
C37  21223498.633   110516326.737         330.697          49.000                                                                  
C08  38843048.113   202265941.049       -2541.787          33.000    38843045.421   156404847.063       -1964.847          42.000  
C20  22301018.486   116127255.020         541.822          48.000                                                                  
C28  24324630.410   126664741.123        2441.170          42.000                                                                  
C07  37674738.972   196182252.827        1052.753          40.000    37674724.552   151700504.255         814.038          42.000  
C10  38654269.953   201282927.128         914.985          34.000    38654266.472   155644715.966         707.461          43.000  
G29                                                                  22182085.190                       -1529.341          30.000  
> 2025 10 28 07 05 30.7560000  0 21                     
G03  21815513.415   114641295.767       -1531.531          41.000    21815508.318    89330862.056       -1193.563          36.000  
G16  19929849.413   104732066.921        2055.256          47.000                                                                  
G26  18875917.409    99193616.082        -484.324          49.000    18875908.817    77293691.927        -377.527          47.000  
G28  20440750.443   107416868.530       -1728.280          46.000    20440739.114    83701410.406       -1346.832          45.000  
G31  19264037.780   101233204.096        -497.164          47.000    19264025.768    78882967.169        -387.275          45.000  
C06  35196153.055   183275605.848         -87.012          47.000    35196133.194   141720245.690         -67.139          47.000  
C09  36346473.674   189265627.522         -56.725          45.000    36346457.158   146352123.424         -43.863          47.000  
C13  37953453.945   197633594.092       -2438.755          37.000    37953452.796   152822826.858       -1886.582          40.000  
C16  35631418.347   185542145.121        -100.521          47.000    35631405.125   143472903.729         -77.857          47.000  
C23  21665893.999   112819995.354       -1811.660          43.000                                                                  
C32  22024563.023   114687681.314       -2675.221          46.000                                                                  
G32  22009692.510   115661716.819       -3715.834          41.000    22009690.132    90126002.716       -2895.183          40.000  
G27  23284865.046   122362801.626        3654.971          35.000    23284883.731    95347719.087        2848.934          34.000  
G04  21770833.210                        2794.520          26.000    21770829.673                        2177.176          30.000  
C37  21223496.079   110516313.512         330.620          49.000                                                                  
C08  38843067.644   202266042.660       -2540.830          34.000    38843064.933   156404925.658       -1964.864          42.000  
C20  22301014.304   116127233.353         541.741          48.000                                                                  
C28  24324611.645   126664643.489        2440.975          42.000                                                                  
C07  37674730.869   196182210.716        1052.783          40.000    37674716.470   151700471.690         814.099          42.000  
C10  38654262.940   201282890.524         915.081          34.000    38654259.442   155644687.667         707.430          43.000  
G29                                                                  22182100.124                       -1530.809          30.000  
> 2025 10 28 07 05 30.7960000  0 21                     
G03  21815525.057   114641357.029       -1531.541          41.000    21815519.981    89330909.796       -1193.534          36.000  
G16  19929833.783   104731984.716        2055.150          47.000                                                                  
G26  18875921.123    99193635.458        -484.410          49.000    18875912.518    77293707.021        -377.450          47.000  
G28  20440763.593   107416937.663       -1728.326          46.000    20440752.263    83701464.264       -1346.600          45.000  
G31  19264041.519   101233223.971        -496.991          47.000    19264029.545    78882982.661        -387.318          45.000  
C06  35196153.756   183275609.322         -86.902          47.000    35196133.848   141720248.392         -67.393          47.000  
C09  36346474.088   189265629.773         -56.413          45.000    36346457.594   146352125.168         -43.671          47.000  
C13  37953472.691   197633691.682       -2439.313          37.000    37953471.535   152822902.302       -1886.317          40.000  
C16  35631419.134   185542149.132        -100.332          47.000    35631405.917   143472906.839         -77.818          47.000  
C23  21665907.912   112820067.817       -1811.636          43.000                                                                  
C32  22024583.567   114687788.317       -2675.122          46.000                                                                  
G32  22009720.798   115661865.439       -3715.702          41.000    22009718.405    90126118.508       -2894.828          40.000  
G27  23284837.219   122362655.361        3655.955          35.000    23284855.888    95347605.164        2848.398          34.000  
G04  21770811.938                        2794.697          26.000    21770808.395                        2177.200          30.000  
C37  21223493.602   110516300.271         330.878          49.000                                                                  
C08  38843087.155   202266144.288       -2540.612          34.000    38843084.458   156405004.250       -1964.825          42.000  
C20  22301010.162   116127211.682         541.747          48.000                                                                  
C28  24324592.890   126664545.845        2441.079          42.000                                                                  
C07  37674722.776   196182168.600        1052.850          40.000    37674708.387   151700439.128         814.075          42.000  
C10  38654255.918   201282853.922         915.080          34.000    38654252.401   155644659.374         707.316          43.000  
G29                                                                  22182115.049                       -1529.723          30.000  
> 2025 10 28 07 05 30.8360000  0 21                     
G03  21815536.730   114641418.310       -1531.895          41.000    21815531.628    89330957.519       -1193.219          36.000  
G16  19929818.117   104731902.504        2055.214          47.000                                                                  
G26  18875924.786    99193654.821        -484.195          49.000    18875916.195    77293722.113        -377.349          47.000  
G28  20440776.745   107417006.783       -1728.118          46.000    20440765.433    83701518.129       -1346.590          45.000  
G31  19264045.287   101233243.847        -496.917          47.000    19264033.306    78882998.147        -387.213          45.000  
C06  35196154.447   183275612.788         -86.696          47.000    35196134.519   141720251.077         -67.269          47.000  
C09  36346474.527   189265632.023         -56.226          45.000    36346458.017   146352126.908         -43.496          47.000  
C13  37953491.432   197633789.249       -2439.250          37.000    37953490.270   152822977.750       -1886.197          40.000  
C16  35631419.896   185542153.146        -100.280          47.000    35631406.682   143472909.947         -77.754          47.000  
C23  21665921.826   112820140.273       -1811.485          43.000                                                                  
C32  22024604.135   114687895.324       -2675.134          46.000                                                                  
G32  22009749.064   115662014.037       -3715.178          41.000    22009746.689    90126234.300       -2894.802          40.000  
G27  23284809.389   122362509.101        3656.388          35.000    23284828.046    95347491.217        2848.423          34.000  
G04  21770790.669                        2794.872          26.000    21770787.117                        2177.068          30.000  
C37  21223491.092   110516287.030         331.028          49.000                                                                  
C08  38843106.688   202266245.896       -2540.132          34.000    38843103.962   156405082.832       -1964.599          42.000  
C20  22301006.022   116127190.005         541.871          48.000                                                                  
C28  24324574.152   126664448.203        2441.058          42.000                                                                  
C07  37674714.683   196182126.489        1052.820          40.000    37674700.320   151700406.572         813.959          42.000  
C10  38654248.888   201282817.295         915.590          34.000    38654245.348   155644631.071         707.451          43.000  
G29                                                                  22182129.969                       -1528.525          30.000  
> 2025 10 28 07 05 30.8760000  0 21                     
G03  21815548.368   114641479.575       -1531.824          41.000    21815543.268    89331005.283       -1193.844          36.000  
G16  19929802.454   104731820.285        2055.402          47.000                                                                  
G26  18875928.458    99193674.187        -484.160          49.000    18875919.872    77293737.198        -377.181          47.000  
G28  20440789.885   107417075.910       -1728.129          46.000    20440778.610    83701571.990       -1346.522          45.000  
G31  19264049.043   101233263.713        -496.714          47.000    19264037.084    78883013.637        -387.263          45.000  
C06  35196155.131   183275616.264         -86.818          47.000    35196135.192   141720253.760         -67.137          47.000  
C09  36346474.967   189265634.289         -56.466          45.000    36346458.447   146352128.651         -43.488          47.000  
C13  37953510.183   197633886.817       -2439.200          37.000    37953508.990   152823053.197       -1886.146          40.000  
C16  35631420.678   185542157.162        -100.312          47.000    35631407.456   143472913.050         -77.653          47.000  
C23  21665935.747   112820212.731       -1811.436          43.000                                                                  
C32  22024624.699   114688002.333       -2675.235          46.000                                                                  
G32  22009777.340   115662162.648       -3715.188          41.000    22009774.975    90126350.132       -2895.520          40.000  
G27  23284781.582   122362362.865        3656.106          35.000    23284800.223    95347377.276        2848.536          34.000  
G04  21770769.253                        2795.034          26.000    21770765.846                        2178.161          30.000  
C37  21223488.539   110516273.793         330.984          49.000                                                                  
C08  38843126.219   202266347.524       -2540.324          34.000    38843123.516   156405161.425       -1964.696          42.000  
C20  22301001.848   116127168.335         541.796          48.000                                                                  
C28  24324555.373   126664350.567        2440.924          42.000                                                                  
C07  37674706.565   196182084.377        1052.808          40.000    37674692.233   151700374.008         814.026          42.000  
C10  38654241.849   201282780.648         916.155          34.000    38654238.326   155644602.738         708.061          43.000  
G29                                                                  22182144.943                       -1529.622          30.000  
> 2025 10 28 07 05 30.9160000  0 21                     
G03  21815560.032   114641540.850       -1531.916          41.000    21815554.944    89331053.061       -1194.275          36.000  
G16  19929786.806   104731738.073        2055.341          47.000                                                                  
G26  18875932.157    99193693.553        -484.136          49.000    18875923.552    77293752.292        -377.297          47.000  
G28  20440803.049   107417145.044       -1728.281          46.000    20440791.771    83701625.865       -1346.753          45.000  
G31  19264052.842   101233283.593        -496.900          47.000    19264040.871    78883029.124        -387.238          45.000  
C06  35196155.818   183275619.744         -86.957          47.000    35196135.848   141720256.451         -67.186          47.000  
C09  36346475.397   189265636.556         -56.656          45.000    36346458.880   146352130.396         -43.535          47.000  
C13  37953528.947   197633984.396       -2439.324          37.000    37953527.701   152823128.647       -1886.208          40.000  
C16  35631421.442   185542161.177        -100.362          47.000    35631408.236   143472916.161         -77.719          47.000  
C23  21665949.680   112820285.202       -1811.689          43.000                                                                  
C32  22024645.230   114688109.352       -2675.427          46.000                                                                  
G32  22009805.630   115662311.278       -3715.551          41.000    22009803.275    90126465.958       -2895.821          40.000  
G27  23284753.732   122362216.611        3656.215          35.000    23284772.386    95347263.275        2849.479          34.000  
G04  21770747.902                        2794.872          26.000    21770744.565                        2178.922          30.000  
C37  21223485.991   110516260.569         330.686          49.000                                                                  
C08  38843145.756   202266449.194       -2541.310          34.000    38843143.052   156405240.021       -1964.853          42.000  
C20  22300997.657   116127146.675         541.543          48.000                                                                  
C28  24324536.623   126664252.933        2440.831          42.000                                                                  
C07  37674698.471   196182042.276        1052.606          40.000    37674684.145   151700341.453         813.916          42.000  
C10  38654234.794   201282744.011         916.287          34.000    38654231.291   155644574.431         707.931          43.000  
G29                                                                  22182159.878                       -1529.759          30.000  
> 2025 10 28 07 05 30.9560000  0 21                     
G03  21815571.691   114641602.129       -1531.988          41.000    21815566.591    89331100.799       -1193.797          36.000  
G16  19929771.171   104731655.875        2055.082          47.000                                                                  
G26  18875935.864    99193712.932        -484.414          49.000    18875927.257    77293767.395        -377.536          47.000  
G28  20440816.223   107417214.183       -1728.427          46.000    20440804.934    83701679.740       -1346.921          45.000  
G31  19264056.631   101233303.476        -497.073          47.000    19264044.664    78883044.612        -387.239          45.000  
C06  35196156.497   183275623.227         -87.084          47.000    35196136.526   141720259.137         -67.162          47.000  
C09  36346475.811   189265638.824         -56.761          45.000    36346459.299   146352132.159         -43.942          47.000  
C13  37953547.698   197634081.979       -2439.479          37.000    37953546.445   152823204.079       -1885.922          40.000  
C16  35631422.232   185542165.210        -100.667          47.000    35631408.983   143472919.281         -77.949          47.000  
C23  21665963.597   112820357.668       -1811.725          43.000                                                                  
C32  22024665.771   114688216.364       -2675.375          46.000                                                                  
G32  22009833.922   115662459.910       -3715.836          41.000    22009831.574    90126581.757       -2895.324          40.000  
G27  23284725.890   122362070.440        3654.724          35.000    23284744.528    95347149.350        2848.668          34.000  
G04  21770726.845                        2794.748          26.000    21770723.323                        2178.002          30.000  
C37  21223483.421   110516247.346         330.531          49.000                                                                  
C08  38843165.257   202266550.880       -2542.156          34.000    38843162.553   156405318.616       -1964.882          42.000  
C20  22300993.485   116127125.013         541.458          48.000                                                                  
C28  24324517.876   126664155.297        2440.819          42.000                                                                  
C07  37674690.386   196182000.175        1052.484          40.000    37674676.047   151700308.910         813.574          42.000  
C10  38654227.814   201282707.470         914.558          34.000    38654224.259   155644546.125         707.789          43.000  
G29                                                                  22182174.840                       -1528.604          30.000  
> 2025 10 28 07 05 30.9960000  0 21                     
G03  21815583.351   114641663.395       -1531.779          41.000    21815578.249    89331148.511       -1193.025          36.000  
G16  19929755.537   104731573.674        2054.981          47.000                                                                  
G26  18875939.555    99193732.305        -484.418          49.000    18875930.941    77293782.499        -377.659          47.000  
G28  20440829.392   107417283.317       -1728.396          46.000    20440818.105    83701733.614       -1346.946          45.000  
G31  19264060.415   101233323.367        -497.288          47.000    19264048.462    78883060.104        -387.306          45.000  
C06  35196157.171   183275626.710         -87.131          47.000    35196137.196   141720261.831         -67.302          47.000  
C09  36346476.253   189265641.076         -56.453          45.000    36346459.710   146352133.905         -43.811          47.000  
C13  37953566.442   197634179.566       -2439.625          37.000    37953565.178   152823279.534       -1886.142          40.000  
C16  35631423.006   185542169.232        -100.647          47.000    35631409.737   143472922.383         -77.749          47.000  
C23  21665977.513   112820430.138       -1811.792          43.000                                                                  
C32  22024686.325   114688323.371       -2675.269          46.000                                                                  
G32  22009862.217   115662608.544       -3715.919          41.000    22009859.857    90126697.552       -2894.983          40.000  
G27  23284698.096   122361924.225        3654.799          35.000    23284716.663    95347035.434        2847.966          34.000  
G04  21770705.806                        2794.724          26.000    21770702.055                        2177.605          30.000  
C37  21223480.884   110516234.120         330.537          49.000                                                                  
C08  38843184.775   202266652.539       -2541.985          34.000    38843182.055   156405397.213       -1964.952          42.000  
C20  22300989.350   116127103.351         541.453          48.000                                                                  
C28  24324499.157   126664057.651        2440.991          42.000                                                                  
C07  37674682.310   196181958.074        1052.515          39.000    37674667.955   151700276.355         813.715          42.000  
C10  38654220.768   201282670.859         914.910          33.000    38654217.255   155644517.832         707.469          43.000  
G29                                                                  22182189.753                       -1529.095          30.000  
> 2025 10 28 07 05 31.0360000  0 21                     
G03  21815595.023   114641724.681       -1532.083          41.000    21815589.896    89331196.227       -1192.792          36.000  
G16  19929739.902   104731491.462        2055.142          47.000                                                                  
G26  18875943.247    99193751.687        -484.560          49.000    18875934.619    77293797.596        -377.574          47.000  
G28  20440842.533   107417352.442       -1728.245          46.000    20440831.247    83701787.480       -1346.784          45.000  
G31  19264064.187   101233343.239        -497.003          47.000    19264052.243    78883075.600        -387.392          45.000  
C06  35196157.848   183275630.185         -87.002          47.000    35196137.865   141720264.514         -67.147          47.000  
C09  36346476.682   189265643.326         -56.284          45.000    36346460.141   146352135.648         -43.669          47.000  
C13  37953585.184   197634277.113       -2438.995          37.000    37953583.877   152823354.993       -1886.424          40.000  
C16  35631423.812   185542173.244        -100.434          47.000    35631410.513   143472925.490         -77.709          47.000  
C23  21665991.444   112820502.598       -1811.621          43.000                                                                  
C32  22024706.886   114688430.374       -2675.164          46.000                                                                  
G32  22009890.485   115662757.157       -3715.542          41.000    22009888.128    90126813.339       -2894.713          40.000  
G27  23284670.251   122361777.974        3655.663          35.000    23284688.857    95346921.508        2847.848          34.000  
G04  21770684.547                        2794.960          26.000    21770680.760                        2177.592          30.000  
C37  21223478.367   110516220.884         330.765          49.000                                                                  
C08  38843204.300   202266754.173       -2541.296          34.000    38843201.566   156405475.805       -1964.864          42.000  
C20  22300985.217   116127081.685         541.527          48.000                                                                  
C28  24324480.417   126663960.011        2441.003          42.000                                                                  
C07  37674674.228   196181915.967        1052.631          39.000    37674659.853   151700243.771         814.343          42.000  
C10  38654213.729   201282634.258         914.959          33.000    38654210.215   155644489.531         707.422          43.000  
G29                                                                  22182204.735                       -1529.640          30.000  
> 2025 10 28 07 05 31.0760000  0 21                     
G03  21815606.706   114641785.969       -1532.237          41.000    21815601.531    89331243.987       -1193.578          36.000  
G16  19929724.260   104731409.254        2055.155          47.000                                                                  
G26  18875946.923    99193771.061        -484.464          49.000    18875938.303    77293812.686        -377.365          47.000  
G28  20440855.676   107417421.572       -1728.206          46.000    20440844.405    83701841.330       -1346.402          45.000  
G31  19264067.978   101233363.124        -497.096          47.000    19264056.054    78883091.096        -387.447          45.000  
C06  35196158.520   183275633.658         -86.863          47.000    35196138.523   141720267.207         -67.269          47.000  
C09  36346477.132   189265645.583         -56.353          45.000    36346460.590   146352137.398         -43.728          47.000  
C13  37953603.923   197634374.674       -2438.876          37.000    37953602.628   152823430.444       -1886.416          40.000  
C16  35631424.609   185542177.264        -100.451          47.000    35631411.244   143472928.597         -77.699          47.000  
C23  21666005.361   112820575.057       -1811.508          43.000                                                                  
C32  22024727.420   114688537.384       -2675.227          46.000                                                                  
G32  22009918.772   115662905.768       -3715.263          41.000    22009916.414    90126929.154       -2895.191          40.000  
G27  23284642.418   122361631.709        3656.382          35.000    23284660.970    95346807.555        2848.427          34.000  
G04  21770663.187                        2794.816          26.000    21770659.501                        2177.649          30.000  
C37  21223475.846   110516207.642         330.987          49.000                                                                  
C08  38843223.801   202266855.776       -2540.443          34.000    38843221.083   156405554.379       -1964.483          42.000  
C20  22300981.077   116127060.019         541.589          48.000                                                                  
C28  24324461.662   126663862.388        2440.679          42.000                                                                  
C07  37674666.126   196181873.845        1052.936          39.000    37674651.766   151700211.187         814.636          42.000  
C10  38654206.686   201282597.635         915.365          33.000    38654203.193   155644461.244         707.166          43.000  
G29                                                                  22182219.648                       -1528.049          30.000  
> 2025 10 28 07 05 31.1160000  0 21                     
G03  21815618.358   114641847.243       -1532.007          41.000    21815613.193    89331291.786       -1194.789          33.000  
G16  19929708.580   104731327.037        2055.341          47.000                                                                  
G26  18875950.581    99193790.438        -484.469          49.000    18875941.985    77293827.777        -377.285          47.000  
G28  20440868.824   107417490.698       -1728.184          46.000    20440857.574    83701895.204       -1346.668          45.000  
G31  19264071.734   101233382.986        -496.726          47.000    19264059.861    78883106.581        -387.249          45.000  
C06  35196159.182   183275637.121         -86.631          47.000    35196139.218   141720269.894         -67.228          47.000  
C09  36346477.569   189265647.838         -56.353          45.000    36346461.053   146352139.142         -43.671          47.000  
C13  37953622.665   197634472.227       -2438.752          37.000    37953621.354   152823505.893       -1886.301          40.000  
C16  35631425.367   185542181.282        -100.480          47.000    35631411.971   143472931.703         -77.660          47.000  
C23  21666019.294   112820647.510       -1811.359          43.000                                                                  
C32  22024747.964   114688644.393       -2675.221          46.000                                                                  
G32  22009947.069   115663054.373       -3715.112          41.000    22009944.708    90127044.978       -2895.568          40.000  
G27  23284614.597   122361485.456        3656.565          35.000    23284633.118    95346693.576        2849.185          34.000  
G04  21770642.193                        2795.146          26.000    21770638.227                        2176.768          30.000  
C37  21223473.319   110516194.401         331.057          49.000                                                                  
C08  38843243.308   202266957.390       -2540.220          34.000    38843240.590   156405632.972       -1964.653          42.000  
C20  22300976.921   116127038.348         541.718          48.000                                                                  
C28  24324442.930   126663764.733        2441.160          42.000                                                                  
C07  37674658.020   196181831.735        1052.893          39.000    37674643.677   151700178.637         814.087          42.000  
C10  38654199.658   201282561.031         915.132          33.000    38654196.152   155644432.925         707.674          43.000  
G29                                                                  22182234.616                       -1529.987          30.000  
> 2025 10 28 07 05 31.1560000  0 21                     
G03  21815630.012   114641908.498       -1531.523          41.000    21815624.874    89331339.583       -1195.217          33.000  
G16  19929692.950   104731244.825        2055.325          47.000                                                                  
G26  18875954.242    99193809.802        -484.224          49.000    18875945.669    77293842.866        -377.219          47.000  
G28  20440881.982   107417559.828       -1728.212          46.000    20440870.738    83701949.074       -1346.779          45.000  
G31  19264075.526   101233402.866        -496.875          47.000    19264063.635    78883122.060        -387.034          45.000  
C06  35196159.831   183275640.592         -86.686          47.000    35196139.888   141720272.580         -67.211          47.000  
C09  36346477.991   189265650.102         -56.512          45.000    36346461.503   146352140.885         -43.629          47.000  
C13  37953641.406   197634569.818       -2439.405          37.000    37953640.080   152823581.305       -1885.662          40.000  
C16  35631426.155   185542185.294        -100.364          47.000    35631412.725   143472934.808         -77.629          47.000  
C23  21666033.170   112820719.983       -1811.709          43.000                                                                  
C32  22024768.496   114688751.404       -2675.277          46.000                                                                  
G32  22009975.333   115663202.993       -3715.327          41.000    22009973.001    90127160.788       -2895.407          40.000  
G27  23284586.778   122361339.213        3656.450          35.000    23284605.285    95346579.629        2849.011          34.000  
G04  21770621.344                        2795.810          26.000    21770616.971                        2177.708          30.000  
C37  21223470.781   110516181.161         331.073          49.000                                                                  
C08  38843262.832   202267059.000       -2540.019          34.000    38843260.099   156405711.553       -1964.572          42.000  
C20  22300972.724   116127016.682         541.681          48.000                                                                  
C28  24324424.166   126663667.083        2441.256          42.000                                                                  
C07  37674649.936   196181789.624        1052.856          39.000    37674635.588   151700146.084         813.824          42.000  
C10  38654192.602   201282524.400         915.587          33.000    38654189.095   155644404.588         708.240          43.000  
G29                                                                  22182249.562                       -1529.110          30.000  
> 2025 10 28 07 05 31.1960000  0 21                     
G03  21815641.666   114641969.751       -1531.297          41.000    21815636.516    89331387.309       -1193.796          36.000  
G16  19929677.316   104731162.614        2055.289          47.000                                                                  
G26  18875957.909    99193829.187        -484.510          49.000    18875949.361    77293857.957        -377.278          47.000  
G28  20440895.138   107417628.959       -1728.244          46.000    20440883.885    83702002.941       -1346.734          45.000  
G31  19264079.296   101233422.742        -496.913          47.000    19264067.422    78883137.551        -387.158          45.000  
C06  35196160.480   183275644.070         -86.851          47.000    35196140.553   141720275.261         -67.092          47.000  
C09  36346478.419   189265652.364         -56.561          45.000    36346461.973   146352142.630         -43.643          47.000  
C13  37953660.127   197634667.390       -2439.431          38.000    37953658.823   152823656.735       -1885.647          40.000  
C16  35631426.929   185542189.301        -100.229          47.000    35631413.489   143472937.916         -77.691          47.000  
C23  21666047.102   112820792.444       -1811.676          43.000                                                                  
C32  22024789.055   114688858.403       -2675.084          46.000                                                                  
G32  22010003.625   115663351.612       -3715.439          41.000    22010001.293    90127276.579       -2894.939          40.000  
G27  23284558.964   122361192.989        3655.905          35.000    23284577.423    95346465.675        2848.924          34.000  
G04  21770600.113                        2795.483          26.000    21770595.662                        2178.425          30.000  
C37  21223468.239   110516167.931         330.825          49.000                                                                  
C08  38843282.357   202267160.688       -2541.477          34.000    38843279.619   156405790.154       -1964.879          42.000  
C20  22300968.541   116126995.020         541.582          48.000                                                                  
C28  24324405.407   126663569.429        2441.359          42.000                                                                  
C07  37674641.859   196181747.516        1052.649          39.000    37674627.520   151700113.525         813.867          42.000  
C10  38654185.540   201282487.793         915.409          33.000    38654182.091   155644376.266         708.239          43.000  
G29                                                                  22182264.505                       -1529.357          30.000  
> 2025 10 28 07 05 31.2360000  0 21                     
G03  21815653.327   114642031.020       -1531.537          41.000    21815648.153    89331435.023       -1192.899          36.000  
G16  19929661.664   104731080.407        2055.210          47.000                                                                  
G26  18875961.610    99193848.567        -484.558          49.000    18875953.052    77293873.055        -377.403          47.000  
G28  20440908.278   107417698.089       -1728.258          46.000    20440897.046    83702056.815       -1346.823          45.000  
G31  19264083.097   101233442.627        -497.104          47.000    19264071.202    78883153.051        -387.417          45.000  
C06  35196161.142   183275647.547         -86.946          47.000    35196141.218   141720277.951         -67.201          47.000  
C09  36346478.840   189265654.613         -56.337          45.000    36346462.405   146352144.370         -43.580          47.000  
C13  37953678.871   197634764.959       -2439.320          38.000    37953677.552   152823732.188       -1886.134          40.000  
C16  35631427.687   185542193.329        -100.521          47.000    35631414.237   143472941.028         -77.782          47.000  
C23  21666061.001   112820864.913       -1811.736          43.000                                                                  
C32  22024809.592   114688965.410       -2675.128          46.000                                                                  
G32  22010031.892   115663500.227       -3715.419          41.000    22010029.586    90127392.373       -2894.768          40.000  
G27  23284531.113   122361046.746        3655.942          35.000    23284549.587    95346351.740        2848.503          34.000  
G04  21770579.158                        2794.960          26.000    21770574.364                        2178.705          30.000  
C37  21223465.675   110516154.702         330.719          49.000                                                                  
C08  38843301.888   202267262.368       -2542.185          34.000    38843299.140   156405868.764       -1965.215          42.000  
C20  22300964.374   116126973.356         541.545          48.000                                                                  
C28  24324386.646   126663471.771        2441.417          42.000                                                                  
C07  37674633.745   196181705.407        1052.606          39.000    37674619.434   151700080.958         814.069          42.000  
C10  38654178.504   201282451.146         915.917          33.000    38654175.058   155644347.971         707.702          43.000  
G29                                                                  22182279.465                       -1530.160          30.000  
> 2025 10 28 07 05 31.2760000  0 21                     
G03  21815664.983   114642092.291       -1531.771          41.000    21815659.784    89331482.752       -1192.886          38.000  
G16  19929646.028   104730998.213        2054.945          47.000                                                                  
G26  18875965.276    99193867.944        -484.493          49.000    18875956.730    77293888.153        -377.477          47.000  
G28  20440921.439   107417767.215       -1728.226          46.000    20440910.182    83702110.677       -1346.637          45.000  
G31  19264086.877   101233462.499        -496.930          47.000    19264074.973    78883168.540        -387.361          45.000  
C06  35196161.799   183275651.026         -86.987          47.000    35196141.862   141720280.636         -67.166          47.000  
C09  36346479.276   189265656.873         -56.428          45.000    36346462.829   146352146.111         -43.536          47.000  
C13  37953697.629   197634862.538       -2439.472          38.000    37953696.277   152823807.669       -1886.846          40.000  
C16  35631428.453   185542197.350        -100.561          47.000    35631415.007   143472944.134         -77.740          47.000  
C23  21666074.917   112820937.364       -1811.427          43.000                                                                  
C32  22024830.125   114689072.419       -2675.204          46.000                                                                  
G32  22010060.169   115663648.865       -3715.880          41.000    22010057.869    90127508.180       -2895.008          40.000  
G27  23284503.272   122360900.495        3656.152          35.000    23284521.713    95346237.775        2848.850          34.000  
G04  21770558.107                        2794.439          26.000    21770553.076                        2178.609          31.000  
C37  21223463.122   110516141.476         330.601          49.000                                                                  
C08  38843321.422   202267363.975       -2540.972          34.000    38843318.661   156405947.354       -1964.984          42.000  
C20  22300960.202   116126951.687         541.650          48.000                                                                  
C28  24324367.900   126663374.126        2441.230          42.000                                                                  
C07  37674625.666   196181663.286        1052.893          39.000    37674611.336   151700048.402         814.008          42.000  
C10  38654171.472   201282414.512         915.934          33.000    38654168.025   155644319.681         707.318          42.000  
G29                                                                  22182294.423                       -1529.839          30.000  
> 2025 10 28 07 05 31.3160000  0 21                     
G03  21815676.656   114642153.579       -1532.171          41.000    21815671.446    89331530.483       -1193.073          38.000  
G16  19929630.359   104730916.003        2055.082          47.000                                                                  
G26  18875968.948    99193887.312        -484.292          49.000    18875960.400    77293903.250        -377.482          47.000  
G28  20440934.593   107417836.345       -1728.266          46.000    20440923.321    83702164.540       -1346.584          45.000  
G31  19264090.683   101233482.384        -497.065          47.000    19264078.745    78883184.034        -387.398          45.000  
C06  35196162.474   183275654.499         -86.919          47.000    35196142.515   141720283.321         -67.147          47.000  
C09  36346479.718   189265659.127         -56.359          45.000    36346463.280   146352147.856         -43.607          47.000  
C13  37953716.369   197634960.094       -2439.079          38.000    37953715.002   152823883.120       -1886.635          40.000  
C16  35631429.209   185542201.363        -100.454          47.000    35631415.771   143472947.233         -77.542          47.000  
C23  21666088.828   112821009.825       -1811.422          43.000                                                                  
C32  22024850.655   114689179.437       -2675.415          46.000                                                                  
G32  22010088.436   115663797.500       -3716.020          41.000    22010086.149    90127624.004       -2895.500          40.000  
G27  23284475.457   122360754.265        3655.907          35.000    23284493.842    95346123.803        2849.075          34.000  
G04  21770536.811                        2794.821          26.000    21770531.829                        2178.382          31.000  
C37  21223460.607   110516128.240         330.726          49.000                                                                  
C08  38843340.952   202267465.620       -2540.931          34.000    38843338.197   156406025.935       -1964.657          42.000  
C20  22300956.010   116126930.021         541.619          48.000                                                                  
C28  24324349.132   126663276.522        2440.343          42.000                                                                  
C07  37674617.563   196181621.163        1053.064          39.000    37674603.258   151700015.846         813.910          42.000  
C10  38654164.443   201282377.968         914.177          33.000    38654160.957   155644291.393         707.117          42.000  
G29                                                                  22182309.361                       -1529.456          30.000  
> 2025 10 28 07 05 31.3560000  0 21                     
G03  21815688.330   114642214.871       -1532.436          41.000    21815683.106    89331578.219       -1193.238          38.000  
G16  19929614.702   104730833.793        2055.170          47.000                                                                  
G26  18875972.646    99193906.681        -484.206          49.000    18875964.067    77293918.345        -377.438          47.000  
G28  20440947.755   107417905.486       -1728.494          46.000    20440936.478    83702218.408       -1346.686          44.000  
G31  19264094.467   101233502.262        -497.029          47.000    19264082.517    78883199.510        -387.077          45.000  
C06  35196163.158   183275657.973         -86.893          47.000    35196143.153   141720285.999         -67.031          47.000  
C09  36346480.175   189265661.382         -56.373          45.000    36346463.716   146352149.597         -43.523          47.000  
C13  37953735.105   197635057.645       -2438.847          38.000    37953733.746   152823958.568       -1886.382          40.000  
C16  35631429.969   185542205.376        -100.397          47.000    35631416.529   143472950.329         -77.439          47.000  
C23  21666102.756   112821082.281       -1811.380          43.000                                                                  
C32  22024871.207   114689286.442       -2675.251          46.000                                                                  
G32  22010116.705   115663946.125       -3715.804          41.000    22010114.412    90127739.808       -2895.309          40.000  
G27  23284447.625   122360608.010        3656.207          35.000    23284466.002    95346009.856        2848.683          34.000  
G04  21770515.704                        2794.461          26.000    21770510.567                        2177.240          31.000  
C37  21223458.102   110516115.009         330.746          49.000                                                                  
C08  38843360.450   202267567.254       -2540.790          34.000    38843357.720   156406104.507       -1964.295          42.000  
C20  22300951.846   116126908.361         541.514          48.000                                                                  
C28  24324330.369   126663178.900        2440.282          42.000                                                                  
C07  37674609.463   196181579.053        1052.863          39.000    37674595.197   151699983.284         813.971          42.000  
C10  38654157.415   201282341.341         915.063          29.000    38654153.914   155644263.063         707.822          42.000  
G29                                                                  22182324.305                       -1529.321          30.000  
> 2025 10 28 07 05 31.3960000  0 21                     
G03  21815699.978   114642276.160       -1532.461          41.000    21815694.738    89331625.944       -1193.157          38.000  
G16  19929599.069   104730751.585        2055.188          47.000                                                                  
G26  18875976.337    99193926.045        -484.109          49.000    18875967.743    77293933.445        -377.526          47.000  
G28  20440960.899   107417974.613       -1728.345          46.000    20440949.633    83702272.275       -1346.740          44.000  
G31  19264098.249   101233522.145        -497.103          47.000    19264086.283    78883214.994        -387.097          45.000  
C06  35196163.820   183275661.441         -86.769          47.000    35196143.811   141720288.678         -67.009          47.000  
C09  36346480.635   189265663.633         -56.311          45.000    36346464.164   146352151.344         -43.619          47.000  
C13  37953753.832   197635155.188       -2438.631          38.000    37953752.459   152824034.001       -1885.958          40.000  
C16  35631430.714   185542209.388        -100.313          47.000    35631417.276   143472953.429         -77.472          47.000  
C23  21666116.656   112821154.738       -1811.388          43.000                                                                  
C32  22024891.773   114689393.441       -2675.078          46.000                                                                  
G32  22010144.989   115664094.718       -3715.094          41.000    22010142.680    90127855.627       -2895.445          40.000  
G27  23284419.787   122360461.760        3656.208          35.000    23284438.195    95345895.986        2847.161          34.000  
G04  21770494.118                        2794.818          26.000    21770489.269                        2177.138          31.000  
C37  21223455.580   110516101.772         330.862          49.000                                                                  
C08  38843379.967   202267668.844       -2540.074          34.000    38843377.225   156406183.075       -1964.164          42.000  
C20  22300947.690   116126886.700         541.471          48.000                                                                  
C28  24324311.629   126663081.251        2440.863          42.000                                                                  
C07  37674601.380   196181536.939        1052.820          39.000    37674587.109   151699950.712         814.215          42.000  
C10  38654150.333   201282304.673         916.121          33.000    38654146.854   155644234.750         707.868          42.000  
G29                                                                  22182339.219                       -1529.437          30.000  
> 2025 10 28 07 05 31.4360000  0 21                     
G03  21815711.631   114642337.449       -1532.393          41.000    21815706.386    89331673.682       -1193.378          38.000  
G16  19929583.427   104730669.377        2055.185          47.000                                                                  
G26  18875980.041    99193945.424        -484.344          49.000    18875971.421    77293948.547        -377.606          46.000  
G28  20440974.033   107418043.738       -1728.187          46.000    20440962.792    83702326.142       -1346.752          45.000  
G31  19264102.007   101233542.020        -496.960          47.000    19264090.080    78883230.486        -387.239          45.000  
C06  35196164.454   183275664.912         -86.753          47.000    35196144.465   141720291.360         -67.037          47.000  
C09  36346481.092   189265665.880         -56.210          45.000    36346464.608   146352153.086         -43.600          47.000  
C13  37953772.556   197635252.777       -2439.366          38.000    37953771.180   152824109.418       -1885.480          40.000  
C16  35631431.476   185542213.400        -100.304          47.000    35631418.018   143472956.535         -77.605          47.000  
C23  21666130.537   112821227.211       -1811.723          43.000                                                                  
C32  22024912.291   114689500.457       -2675.309          46.000                                                                  
G32  22010173.272   115664243.331       -3715.143          41.000    22010170.971    90127971.434       -2895.269          40.000  
G27  23284391.963   122360315.540        3655.719          35.000    23284410.339    95345782.002        2848.503          34.000  
G04  21770472.816                        2794.830          26.000    21770467.991                        2178.385          31.000  
C37  21223453.028   110516088.537         330.872          49.000                                                                  
C08  38843399.487   202267770.504       -2540.996          34.000    38843396.737   156406261.678       -1964.768          42.000  
C20  22300943.503   116126865.051         541.238          48.000                                                                  
C28  24324292.866   126662983.603        2441.178          42.000                                                                  
C07  37674593.290   196181494.818        1052.966          39.000    37674579.027   151699918.137         814.368          42.000  
C10  38654143.271   201282268.038         916.088          33.000    38654139.853   155644206.438         707.821          42.000  
G29                                                                  22182354.124                       -1529.457          30.000  
> 2025 10 28 07 05 31.4760000  0 21                     
G03  21815723.295   114642398.714       -1531.856          41.000    21815718.055    89331721.458       -1194.218          36.000  
G16  19929567.766   104730587.164        2055.279          47.000                                                                  
G26  18875983.717    99193964.798        -484.418          49.000    18875975.116    77293963.653        -377.686          46.000  
G28  20440987.206   107418112.868       -1728.208          46.000    20440975.940    83702380.006       -1346.700          45.000  
G31  19264105.778   101233561.895        -496.887          47.000    19264093.889    78883245.984        -387.424          45.000  
C06  35196165.107   183275668.377         -86.670          47.000    35196145.124   141720294.040         -67.018          47.000  
C09  36346481.535   189265668.128         -56.168          45.000    36346465.048   146352154.825         -43.537          47.000  
C13  37953791.311   197635350.365       -2439.675          38.000    37953789.904   152824184.859       -1885.697          40.000  
C16  35631432.218   185542217.417        -100.399          47.000    35631418.778   143472959.633         -77.550          47.000  
C23  21666144.447   112821299.675       -1811.719          43.000                                                                  
C32  22024932.810   114689607.479       -2675.532          46.000                                                                  
G32  22010201.549   115664391.941       -3715.171          41.000    22010199.230    90128087.225       -2894.897          40.000  
G27  23284364.137   122360169.301        3655.771          35.000    23284382.499    95345668.006        2849.558          34.000  
G04  21770451.655                        2795.004          26.000    21770446.702                        2179.349          31.000  
C37  21223450.475   110516075.309         330.769          49.000                                                                  
C08  38843419.015   202267872.158       -2541.358          34.000    38843416.283   156406340.271       -1964.902          42.000  
C20  22300939.349   116126843.395         541.289          48.000                                                                  
C28  24324274.128   126662885.943        2441.547          42.000                                                                  
C07  37674585.240   196181452.711        1052.759          39.000    37674570.936   151699885.572         814.246          42.000  
C10  38654136.222   201282231.488         914.385          33.000    38654132.805   155644178.134         707.654          42.000  
G29                                                                  22182369.052                       -1529.042          30.000  
> 2025 10 28 07 05 31.5160000  0 21                     
G03  21815734.939   114642459.969       -1531.447          41.000    21815729.718    89331769.254       -1194.916          36.000  
G16  19929552.139   104730504.959        2055.180          47.000                                                                  
G26  18875987.409    99193984.177        -484.517          49.000    18875978.806    77293978.760        -377.708          46.000  
G28  20441000.365   107418181.992       -1728.155          46.000    20440989.069    83702433.870       -1346.715          45.000  
G31  19264109.576   101233581.770        -496.893          47.000    19264097.668    78883261.476        -387.404          45.000  
C06  35196165.767   183275671.838         -86.548          47.000    35196145.749   141720296.721         -67.034          47.000  
C09  36346481.974   189265670.383         -56.309          45.000    36346465.485   146352156.570         -43.615          47.000  
C13  37953810.047   197635447.925       -2439.259          38.000    37953808.654   152824260.328       -1886.344          40.000  
C16  35631432.980   185542221.422        -100.234          47.000    35631419.538   143472962.734         -77.542          47.000  
C23  21666158.368   112821372.135       -1811.598          43.000                                                                  
C32  22024953.355   114689714.490       -2675.392          46.000                                                                  
G32  22010229.844   115664540.572       -3715.589          41.000    22010227.513    90128203.023       -2894.869          40.000  
G27  23284336.305   122360023.050        3656.068          35.000    23284354.644    95345554.026        2849.758          34.000  
G04  21770430.116                        2795.469          26.000    21770425.422                        2177.895          31.000  
C37  21223447.926   110516062.081         330.687          49.000                                                                  
C08  38843438.570   202267973.790       -2541.160          34.000    38843435.797   156406418.868       -1964.971          42.000  
C20  22300935.206   116126821.732         541.505          48.000                                                                  
C28  24324255.362   126662788.290        2441.509          42.000                                                                  
C07  37674577.149   196181410.614        1052.478          39.000    37674562.853   151699853.004         814.191          42.000  
C10  38654129.209   201282194.913         914.031          33.000    38654125.739   155644149.822         707.695          42.000  
G29                                                                  22182384.007                       -1528.842          30.000  
> 2025 10 28 07 05 31.5560000  0 21                     
G03  21815746.604   114642521.235       -1531.467          41.000    21815741.392    89331817.050       -1195.119          36.000  
G16  19929536.513   104730422.753        2055.135          47.000                                                                  
G26  18875991.088    99194003.555        -484.508          49.000    18875982.488    77293993.867        -377.688          46.000  
G28  20441013.568   107418251.129       -1728.338          46.000    20441002.233    83702487.738       -1346.753          45.000  
G31  19264113.374   101233601.651        -496.986          47.000    19264101.442    78883276.963        -387.300          45.000  
C06  35196166.432   183275675.305         -86.580          47.000    35196146.413   141720299.403         -67.068          47.000  
C09  36346482.405   189265672.638         -56.385          45.000    36346465.923   146352158.309         -43.576          47.000  
C13  37953828.778   197635545.464       -2438.691          38.000    37953827.399   152824335.771       -1886.305          40.000  
C16  35631433.744   185542225.436        -100.301          47.000    35631420.336   143472965.835         -77.563          47.000  
C23  21666172.303   112821444.584       -1811.341          43.000                                                                  
C32  22024973.929   114689821.488       -2675.074          46.000                                                                  
G32  22010258.117   115664689.186       -3715.544          41.000    22010255.799    90128318.821       -2894.871          40.000  
G27  23284308.446   122359876.793        3656.390          35.000    23284326.835    95345440.073        2849.285          34.000  
G04  21770408.701                        2795.455          26.000    21770404.152                        2176.801          31.000  
C37  21223445.379   110516048.850         330.695          48.000                                                                  
C08  38843458.094   202268075.384       -2540.242          34.000    38843455.308   156406497.456       -1964.863          42.000  
C20  22300931.053   116126800.064         541.671          48.000                                                                  
C28  24324236.580   126662690.643        2441.359          42.000                                                                  
C07  37674569.072   196181368.498        1052.704          40.000    37674554.741   151699820.460         813.696          42.000  
C10  38654122.144                         915.914          33.000    38654118.695   155644121.501         707.893          42.000  
G29                                                                  22182398.958                       -1528.548          30.000  
> 2025 10 28 07 05 31.5960000  0 21                     
G03  21815758.260   114642582.513       -1531.779          41.000    21815753.035    89331864.785       -1194.010          36.000  
G16  19929520.885   104730340.553        2055.017          47.000                                                                  
G26  18875994.799    99194022.936        -484.543          48.000    18875986.177    77294008.968        -377.593          46.000  
G28  20441026.733   107418320.253       -1728.218          46.000    20441015.369    83702541.607       -1346.802          45.000  
G31  19264117.140   101233621.530        -497.023          47.000    19264105.211    78883292.456        -387.349          45.000  
C06  35196167.123   183275678.774         -86.675          47.000    35196147.055   141720302.075         -66.921          47.000  
C09  36346482.859   189265674.885         -56.269          45.000    36346466.363   146352160.044         -43.449          47.000  
C13  37953847.522   197635643.009       -2438.573          38.000    37953846.142   152824411.231       -1886.501          40.000  
C16  35631434.519   185542229.443        -100.223          47.000    35631421.118   143472968.935         -77.508          47.000  
C23  21666186.233   112821517.031       -1811.200          43.000                                                                  
C32  22024994.477   114689928.483       -2674.866          46.000                                                                  
G32  22010286.394   115664837.803       -3715.505          41.000    22010284.076    90128434.632       -2895.165          40.000  
G27  23284280.620   122359730.551        3656.232          35.000    23284299.024    95345326.190        2847.565          33.000  
G04  21770386.871                        2795.210          26.000    21770382.878                        2177.179          31.000  
C37  21223442.859   110516035.617         330.773          49.000                                                                  
C08  38843477.595   202268177.009       -2540.377          34.000    38843474.802   156406576.035       -1964.597          42.000  
C20  22300926.878   116126778.406         541.546          49.000                                                                  
C28  24324217.827   126662593.007        2440.995          42.000                                                                  
C07  37674560.982   196181326.375        1052.991          40.000    37674546.666   151699787.895         813.910          42.000  
C10  38654115.061   201282121.608         916.042          33.000    38654111.658   155644093.196         707.719          42.000  
G29                                                                  22182413.908                       -1529.726          30.000  
> 2025 10 28 07 05 31.6360000  0 21                     
G03  21815769.915   114642643.807       -1532.269          41.000    21815764.677    89331912.530       -1193.544          36.000  
G16  19929505.257   104730258.351        2054.990          47.000                                                                  
G26  18875998.452    99194042.305        -484.354          48.000    18875989.854    77294024.065        -377.475          46.000  
G28  20441039.882   107418389.381       -1728.193          46.000    20441028.528    83702595.484       -1346.950          44.000  
G31  19264120.930   101233641.416        -497.183          47.000    19264108.994    78883307.949        -387.367          45.000  
C06  35196167.766   183275682.243         -86.741          48.000    35196147.695   141720304.759         -67.008          47.000  
C09  36346483.285   189265677.130         -56.202          45.000    36346466.812   146352161.782         -43.457          47.000  
C13  37953866.275   197635740.574       -2438.879          38.000    37953864.862   152824486.660       -1886.046          40.000  
C16  35631435.271   185542233.450        -100.186          47.000    35631421.911   143472972.034         -77.476          47.000  
C23  21666200.152   112821589.491       -1811.334          43.000                                                                  
C32  22025015.001   114690035.493       -2675.055          46.000                                                                  
G32  22010314.684   115664986.410       -3715.274          41.000    22010312.378    90128550.448       -2895.394          40.000  
G27  23284252.819   122359584.362        3655.197          35.000    23284271.224    95345212.276        2847.462          33.000  
G04  21770365.593                        2795.135          26.000    21770361.596                        2177.600          31.000  
C37  21223440.332   110516022.382         330.830          49.000                                                                  
C08  38843497.121   202268278.642       -2540.665          34.000    38843494.323   156406654.616       -1964.552          42.000  
C20  22300922.695   116126756.742         541.564          49.000                                                                  
C28  24324199.068   126662495.351        2441.215          42.000                                                                  
C07  37674552.888   196181284.264        1052.838          40.000    37674538.591   151699755.332         814.020          43.000  
C10  38654108.026   201282084.970         916.227          33.000    38654104.626   155644064.876         707.862          42.000  
G29                                                                  22182428.825                       -1530.236          30.000  
> 2025 10 28 07 05 31.6760000  0 21                     
G03  21815781.570   114642705.104       -1532.584          41.000    21815776.332    89331960.278       -1193.472          36.000  
G16  19929489.606   104730176.150        2054.954          47.000                                                                  
G26  18876002.142    99194061.696        -484.632          48.000    18875993.548    77294039.161        -377.427          46.000  
G28  20441053.036   107418458.512       -1728.293          46.000    20441041.696    83702649.366       -1347.073          45.000  
G31  19264124.729   101233661.298        -497.157          47.000    19264112.777    78883323.444        -387.428          45.000  
C06  35196168.435   183275685.714         -86.798          48.000    35196148.380   141720307.443         -67.086          47.000  
C09  36346483.731   189265679.373         -56.121          45.000    36346467.225   146352163.525         -43.541          47.000  
C13  37953885.021   197635838.160       -2439.443          38.000    37953883.598   152824562.089       -1885.809          40.000  
C16  35631436.026   185542237.463        -100.267          47.000    35631422.696   143472975.142         -77.649          47.000  
C23  21666214.042   112821661.970       -1811.832          43.000                                                                  
C32  22025035.543   114690142.510       -2675.348          46.000                                                                  
G32  22010342.954   115665135.007       -3714.977          41.000    22010340.648    90128666.261       -2895.460          40.000  
G27  23284225.001   122359438.127        3655.422          35.000    23284243.366    95345098.300        2848.557          33.000  
G04  21770344.033                        2795.029          26.000    21770340.321                        2178.305          31.000  
C37  21223437.771   110516009.158         330.662          49.000                                                                  
C08  38843516.647   202268380.281       -2540.967          34.000    38843513.856   156406733.220       -1964.991          42.000  
C20  22300918.537   116126735.086         541.416          49.000                                                                  
C28  24324180.304   126662397.702        2441.222          42.000                                                                  
C07  37674544.800   196181242.167        1052.576          40.000    37674530.517   151699722.755         814.355          43.000  
C10  38654100.961   201282048.367         915.465          33.000    38654097.594   155644036.581         707.515          42.000  
G29                                                                  22182443.770                       -1530.262          30.000  
> 2025 10 28 07 05 31.7160000  0 21                     
G03  21815793.223   114642766.388       -1532.407          41.000    21815787.968    89332008.021       -1193.468          36.000  
G16  19929473.955   104730093.951        2054.931          47.000                                                                  
G26  18876005.830    99194081.080        -484.687          48.000    18875997.250    77294054.274        -377.692          46.000  
G28  20441066.175   107418527.643       -1728.324          46.000    20441054.819    83702703.233       -1346.892          44.000  
G31  19264128.520   101233681.188        -497.274          47.000    19264116.576    78883338.942        -387.483          45.000  
C06  35196169.106   183275689.184         -86.814          48.000    35196149.063   141720310.125         -67.097          47.000  
C09  36346484.160   189265681.642         -56.552          45.000    36346467.647   146352165.262         -43.482          47.000  
C13  37953903.757   197635935.749       -2439.797          38.000    37953902.321   152824637.540       -1886.074          40.000  
C16  35631436.774   185542241.480        -100.390          47.000    35631423.468   143472978.247         -77.656          47.000  
C23  21666227.951   112821734.431       -1811.700          43.000                                                                  
C32  22025056.097   114690249.537       -2675.701          46.000                                                                  
G32  22010371.232   115665283.634       -3715.447          41.000    22010368.934    90128782.077       -2895.520          40.000  
G27  23284197.149   122359291.866        3656.091          35.000    23284215.535    95344984.327        2849.185          33.000  
G04  21770322.480                        2795.590          26.000    21770319.010                        2178.207          31.000  
C37  21223435.248   110515995.933         330.587          49.000                                                                  
C08  38843536.179   202268481.944       -2541.452          34.000    38843533.401   156406811.818       -1965.046          42.000  
C20  22300914.378   116126713.436         541.213          49.000                                                                  
C28  24324161.563   126662300.047        2441.323          42.000                                                                  
C07  37674536.725   196181200.056        1052.698          40.000    37674522.454   151699690.189         814.270          43.000  
C10  38654093.923                         914.954          33.000    38654090.550   155644008.284         707.282          42.000  
G29                                                                  22182458.682                       -1530.352          30.000  
> 2025 10 28 07 05 31.7560000  0 21                     
G03  21815804.879   114642827.677       -1532.354          41.000    21815799.640    89332055.783       -1193.797          36.000  
G16  19929458.323   104730011.760        2054.775          47.000                                                                  
G26  18876009.528    99194100.474        -484.835          48.000    18876000.944    77294069.382        -377.766          46.000  
G28  20441079.323   107418596.780       -1728.433          46.000    20441067.972    83702757.095       -1346.692          44.000  
G31  19264132.292   101233701.070        -497.163          47.000    19264120.353    78883354.434        -387.359          45.000  
C06  35196169.756   183275692.666         -87.023          48.000    35196149.722   141720312.814         -67.213          47.000  
C09  36346484.598   189265683.909         -56.756          45.000    36346468.081   146352167.019         -43.812          47.000  
C13  37953922.497   197636033.337       -2439.913          38.000    37953921.058   152824712.993       -1886.328          40.000  
C16  35631437.529   185542245.503        -100.577          47.000    35631424.239   143472981.359         -77.805          47.000  
C23  21666241.865   112821806.891       -1811.585          43.000                                                                  
C32  22025076.669   114690356.568       -2675.890          46.000                                                                  
G32  22010399.517   115665432.266       -3715.775          41.000    22010397.228    90128897.892       -2895.449          40.000  
G27  23284169.323   122359145.591        3656.775          35.000    23284187.709    95344870.353        2849.490          34.000  
G04  21770301.192                        2795.085          26.000    21770297.750                        2177.425          31.000  
C37  21223432.707   110515982.712         330.494          49.000                                                                  
C08  38843555.724   202268583.626       -2541.975          34.000    38843552.929   156406890.410       -1964.929          42.000  
C20  22300910.228   116126691.788         541.110          49.000                                                                  
C28  24324142.837   126662202.403        2441.136          42.000                                                                  
C07  37674528.622   196181157.944        1052.826          40.000    37674514.348   151699657.611         814.447          43.000  
C10  38654086.866                         914.037          32.000    38654083.487   155643979.961         707.690          42.000  
G29                                                                  22182473.607                       -1530.454          30.000  
> 2025 10 28 07 05 31.7960000  0 21                     
G03  21815816.528   114642888.957       -1532.164          41.000    21815811.316    89332103.545       -1193.964          36.000  
G16  19929442.668   104729929.566        2054.761          47.000                                                                  
G26  18876013.209    99194119.850        -484.594          48.000    18876004.627    77294084.492        -377.833          46.000  
G28  20441092.488   107418665.916       -1728.482          46.000    20441081.141    83702810.957       -1346.565          44.000  
G31  19264136.082   101233720.956        -497.162          47.000    19264124.128    78883369.926        -387.304          45.000  
C06  35196170.423   183275696.138         -86.921          48.000    35196150.413   141720315.503         -67.242          47.000  
C09  36346485.002   189265686.168         -56.655          45.000    36346468.503   146352168.763         -43.725          47.000  
C13  37953941.235   197636130.880       -2439.068          38.000    37953939.783   152824788.445       -1886.427          40.000  
C16  35631438.340   185542249.514        -100.427          47.000    35631425.014   143472984.467         -77.773          47.000  
C23  21666255.754   112821879.349       -1811.504          43.000                                                                  
C32  22025097.225   114690463.588       -2675.712          46.000                                                                  
G32  22010427.806   115665580.906       -3716.014          41.000    22010425.491    90129013.685       -2894.975          40.000  
G27  23284141.483   122358999.329        3656.835          35.000    23284159.856    95344756.369        2849.778          34.000  
G04  21770279.927                        2795.079          26.000    21770276.480                        2178.113          30.000  
C37  21223430.175   110515969.485         330.575          49.000                                                                  
C08  38843575.230   202268685.243       -2541.040          34.000    38843572.423   156406969.000       -1964.840          42.000  
C20  22300906.078   116126670.131         541.271          49.000                                                                  
C28  24324124.077   126662104.762        2441.019          42.000                                                                  
C07  37674520.502   196181115.838        1052.722          40.000    37674506.251   151699625.058         814.032          43.000  
C10  38654079.798                         914.242          32.000    38654076.427   155643951.662         707.538          42.000  
G29                                                                  22182488.559                       -1530.575          30.000  
> 2025 10 28 07 05 31.8360000  0 21                     
G03  21815828.193   114642950.242       -1532.128          41.000    21815822.966    89332151.298       -1193.912          36.000  
G16  19929427.025   104729847.369        2054.841          47.000                                                                  
G26  18876016.884    99194139.232        -484.544          48.000    18876008.324    77294099.592        -377.675          46.000  
G28  20441105.634   107418735.046       -1728.366          46.000    20441094.298    83702864.823       -1346.583          44.000  
G31  19264139.862   101233740.832        -496.984          47.000    19264127.895    78883385.416        -387.243          45.000  
C06  35196171.109   183275699.599         -86.685          48.000    35196151.127   141720318.179         -67.056          47.000  
C09  36346485.423   189265688.408         -56.228          45.000    36346468.899   146352170.501         -43.565          47.000  
C13  37953959.980   197636228.434       -2438.819          38.000    37953958.500   152824863.882       -1886.180          40.000  
C16  35631439.134   185542253.522        -100.288          47.000    35631425.788   143472987.566         -77.584          47.000  
C23  21666269.688   112821951.806       -1811.436          43.000                                                                  
C32  22025117.787   114690570.592       -2675.293          46.000                                                                  
G32  22010456.074   115665729.547       -3716.153          41.000    22010453.769    90129129.485       -2894.897          40.000  
G27  23284113.653   122358853.083        3656.477          35.000    23284132.009    95344642.419        2849.158          34.000  
G04  21770258.481                        2794.675          26.000    21770255.201                        2178.315          30.000  
C37  21223427.627   110515956.246         330.830          49.000                                                                  
C08  38843594.747   202268786.850       -2540.330          34.000    38843591.944   156407047.583       -1964.652          42.000  
C20  22300901.929   116126648.477         541.321          49.000                                                                  
C28  24324105.325   126662007.116        2441.059          42.000                                                                  
C07  37674512.413   196181073.705        1053.131          40.000    37674498.177   151699592.495         813.989          43.000  
C10  38654072.759                         914.965          32.000    38654069.406   155643923.355         707.594          42.000  
G29                                                                  22182503.514                       -1529.937          30.000  
> 2025 10 28 07 05 31.8760000  0 21                     
G03  21815839.842   114643011.522       -1532.041          41.000    21815834.611    89332199.049       -1193.842          36.000  
G16  19929411.340   104729765.161        2055.072          47.000                                                                  
G26  18876020.552    99194158.604        -484.351          48.000    18876012.014    77294114.687        -377.487          46.000  
G28  20441118.784   107418804.174       -1728.284          46.000    20441107.455    83702918.688       -1346.614          44.000  
G31  19264143.660   101233760.714        -497.015          47.000    19264131.679    78883400.905        -387.188          45.000  
C06  35196171.800   183275703.065         -86.616          48.000    35196151.785   141720320.855         -66.906          47.000  
C09  36346485.826   189265690.648         -55.971          45.000    36346469.330   146352172.235         -43.396          47.000  
C13  37953978.724   197636325.990       -2438.738          38.000    37953977.255   152824939.320       -1885.969          40.000  
C16  35631439.930   185542257.531        -100.212          47.000    35631426.563   143472990.661         -77.438          47.000  
C23  21666283.583   112822024.270       -1811.499          43.000                                                                  
C32  22025138.318   114690677.605       -2675.240          46.000                                                                  
G32  22010484.354   115665878.170       -3715.813          41.000    22010482.049    90129245.296       -2895.093          40.000  
G27  23284085.819   122358706.859        3655.819          36.000    23284104.202    95344528.488        2848.420          34.000  
G04  21770237.216                        2794.672          26.000    21770233.924                        2178.367          30.000  
C37  21223425.056   110515943.008         330.935          49.000                                                                  
C08  38843614.270   202268888.472       -2540.254          35.000    38843611.478   156407126.165       -1964.573          42.000  
C20  22300897.787   116126626.821         541.376          49.000                                                                  
C28  24324086.579   126661909.472        2441.047          42.000                                                                  
C07  37674504.326   196181031.586        1053.046          40.000    37674490.081   151699559.931         814.032          43.000  
C10  38654065.702                         915.256          32.000    38654062.406   155643895.043         707.712          42.000  
G29                                                                  22182518.442                       -1529.270          30.000  
> 2025 10 28 07 05 31.9160000  0 21                     
G03  21815851.496   114643072.814       -1532.225          41.000    21815846.280    89332246.800       -1193.805          36.000  
G16  19929395.696   104729682.953        2055.197          47.000                                                                  
G26  18876024.253    99194177.989        -484.505          48.000    18876015.699    77294129.788        -377.482          47.000  
G28  20441131.953   107418873.314       -1728.469          46.000    20441120.621    83702972.570       -1346.940          44.000  
G31  19264147.443   101233780.595        -497.028          47.000    19264135.471    78883416.401        -387.318          45.000  
C06  35196172.474   183275706.529         -86.591          48.000    35196152.481   141720323.536         -66.958          47.000  
C09  36346486.251   189265692.901         -56.137          45.000    36346469.767   146352173.969         -43.324          47.000  
C13  37953997.455   197636423.557       -2439.007          38.000    37953995.981   152825014.745       -1885.656          40.000  
C16  35631440.714   185542261.545        -100.288          47.000    35631427.330   143472993.755         -77.339          47.000  
C23  21666297.496   112822096.736       -1811.626          43.000                                                                  
C32  22025158.876   114690784.621       -2675.355          45.000                                                                  
G32  22010512.614   115666026.785       -3715.478          41.000    22010510.315    90129361.109       -2895.229          40.000  
G27  23284057.961   122358560.619        3655.686          36.000    23284076.383    95344414.526        2848.605          34.000  
G04  21770216.097                        2794.654          26.000    21770212.665                        2177.768          30.000  
C37  21223422.481   110515929.778         330.822          49.000                                                                  
C08  38843633.794   202268990.102       -2540.441          35.000    38843631.005   156407204.753       -1964.636          42.000  
C20  22300893.650   116126605.167         541.351          49.000                                                                  
C28  24324067.798   126661811.837        2440.877          42.000                                                                  
C07  37674496.242   196180989.469        1052.960          40.000    37674481.984   151699527.362         814.142          43.000  
C10  38654058.632                         915.987          32.000    38654055.365   155643866.730         707.808          42.000  
G29                                                                  22182533.371                       -1529.049          30.000  
> 2025 10 28 07 05 31.9560000  0 21                     
G03  21815863.156   114643134.089       -1532.017          41.000    21815857.945    89332294.542       -1193.598          36.000  
G16  19929380.061   104729600.747        2055.196          47.000                                                                  
G26  18876027.929    99194197.362        -484.392          48.000    18876019.392    77294144.886        -377.446          47.000  
G28  20441145.100   107418942.442       -1728.320          46.000    20441133.785    83703026.435       -1346.782          44.000  
G31  19264151.208   101233800.478        -497.052          46.000    19264139.246    78883431.894        -387.330          45.000  
C06  35196173.121   183275709.996         -86.633          48.000    35196153.157   141720326.221         -67.065          47.000  
C09  36346486.657   189265695.148         -56.158          45.000    36346470.200   146352175.709         -43.428          47.000  
C13  37954016.205   197636521.125       -2439.130          38.000    37954014.699   152825090.191       -1885.892          40.000  
C16  35631441.514   185542265.547        -100.127          47.000    35631428.068   143472996.855         -77.431          47.000  
C23  21666311.383   112822169.191       -1811.454          43.000                                                                  
C32  22025179.404   114690891.634       -2675.336          45.000                                                                  
G32  22010540.885   115666175.391       -3715.170          41.000    22010538.596    90129476.943       -2895.714          40.000  
G27  23284030.155   122358414.379        3655.793          36.000    23284048.555    95344300.582        2848.500          34.000  
G04  21770195.245                        2794.935          26.000    21770191.424                        2177.428          30.000  
C37  21223419.936   110515916.553         330.688          49.000                                                                  
C08  38843653.291   202269091.736       -2540.693          35.000    38843650.546   156407283.338       -1964.657          42.000  
C20  22300889.484   116126583.515         541.301          49.000                                                                  
C28  24324049.059   126661714.192        2440.962          42.000                                                                  
C07  37674488.133   196180947.351        1052.960          40.000    37674473.886   151699494.796         814.117          43.000  
C10  38654051.599                         916.281          32.000    38654048.351   155643838.410         708.000          42.000  
G29                                                                  22182548.299                       -1529.064          30.000  
> 2025 10 28 07 05 31.9960000  0 21                     
G03  21815874.791   114643195.371       -1532.051          41.000    21815869.604    89332342.318       -1194.128          38.000  
G16  19929364.435   104729518.548        2055.058          47.000                                                                  
G26  18876031.644    99194216.754        -484.662          48.000    18876023.099    77294159.988        -377.549          47.000  
G28  20441158.263   107419011.565       -1728.167          46.000    20441146.944    83703080.309       -1346.847          44.000  
G31  19264154.968   101233820.359        -497.059          46.000    19264143.019    78883447.388        -387.342          45.000  
C06  35196173.767   183275713.465         -86.687          48.000    35196153.805   141720328.907         -67.151          47.000  
C09  36346487.082   189265697.396         -56.179          45.000    36346470.647   146352177.446         -43.427          47.000  
C13  37954034.922   197636618.690       -2439.102          38.000    37954033.462   152825165.634       -1885.984          40.000  
C16  35631442.277   185542269.551        -100.086          47.000    35631428.828   143472999.957         -77.503          47.000  
C23  21666325.313   112822241.639       -1811.255          43.000                                                                  
C32  22025199.928   114690998.645       -2675.280          45.000                                                                  
G32  22010569.195   115666324.010       -3715.305          41.000    22010566.863    90129592.759       -2895.611          40.000  
G27  23284002.307   122358268.121        3656.177          36.000    23284020.706    95344186.622        2848.754          34.000  
G04  21770173.670                        2794.922          26.000    21770170.124                        2177.714          30.000  
C37  21223417.434   110515903.323         330.695          49.000                                                                  
C08  38843672.841   202269193.340       -2540.325          34.000    38843670.054   156407361.925       -1964.704          42.000  
C20  22300885.298   116126561.867         541.191          49.000                                                                  
C28  24324030.325   126661616.537        2441.216          42.000                                                                  
C07  37674480.042   196180905.237        1052.917          40.000    37674465.804   151699462.223         814.252          43.000  
C10  38654044.558                         914.967          32.000    38654041.341   155643810.097         707.955          42.000  
G29                                                                  22182563.240                       -1529.789          30.000  
> 2025 10 28 07 05 32.0360000  0 21                     
G03  21815886.447   114643256.669       -1532.385          41.000    21815881.267    89332390.071       -1194.024          38.000  
G16  19929348.809   104729436.351        2054.932          47.000                                                                  
G26  18876035.334    99194236.137        -484.667          48.000    18876026.801    77294175.103        -377.831          47.000  
G28  20441171.429   107419080.699       -1728.269          46.000    20441160.076    83703134.174       -1346.707          44.000  
G31  19264158.762   101233840.243        -497.083          46.000    19264146.800    78883462.880        -387.323          45.000  
C06  35196174.461   183275716.935         -86.753          48.000    35196154.497   141720331.585         -67.057          47.000  
C09  36346487.518   189265699.644         -56.237          45.000    36346471.078   146352179.190         -43.555          47.000  
C13  37954053.657   197636716.262       -2439.216          38.000    37954052.201   152825241.084       -1886.147          40.000  
C16  35631443.025   185542273.562        -100.222          47.000    35631429.586   143473003.060         -77.593          47.000  
C23  21666339.246   112822314.112       -1811.576          43.000                                                                  
C32  22025220.482   114691105.671       -2675.554          45.000                                                                  
G32  22010597.481   115666472.648       -3715.780          41.000    22010595.141    90129708.557       -2895.244          40.000  
G27  23283974.477   122358121.875        3656.204          36.000    23283992.878    95344072.646        2849.199          34.000  
G04  21770151.998                        2794.940          26.000    21770148.831                        2177.652          30.000  
C37  21223414.907   110515890.091         330.747          49.000                                                                  
C08  38843692.385   202269294.993       -2540.998          34.000    38843689.554   156407440.511       -1964.711          43.000  
C20  22300881.127   116126540.221         541.093          49.000                                                                  
C28  24324011.574   126661518.884        2441.347          42.000                                                                  
C07  37674471.947   196180863.118        1052.948          40.000    37674457.720   151699429.660         814.154          43.000  
C10  38654037.540                         914.584          32.000    38654034.320   155643781.797         707.700          42.000  
G29                                                                  22182578.202                       -1530.405          30.000  
> 2025 10 28 07 05 32.0760000  0 21                     
G03  21815898.108   114643317.967       -1532.551          41.000    21815892.927    89332437.811       -1193.670          38.000  
G16  19929333.188   104729354.160        2054.750          47.000                                                                  
G26  18876039.007    99194255.526        -484.741          48.000    18876030.480    77294190.209        -377.789          47.000  
G28  20441184.590   107419149.830       -1728.289          46.000    20441173.205    83703188.043       -1346.690          44.000  
G31  19264162.529   101233860.122        -497.040          46.000    19264150.566    78883478.376        -387.404          45.000  
C06  35196175.122   183275720.395         -86.635          48.000    35196155.185   141720334.267         -67.057          47.000  
C09  36346487.939   189265701.895         -56.312          45.000    36346471.515   146352180.929         -43.540          47.000  
C13  37954072.409   197636813.826       -2439.076          38.000    37954070.936   152825316.510       -1885.809          40.000  
C16  35631443.795   185542277.571        -100.265          47.000    35631430.366   143473006.157         -77.505          47.000  
C23  21666353.161   112822386.580       -1811.694          43.000                                                                  
C32  22025241.031   114691212.688       -2675.534          45.000                                                                  
G32  22010625.769   115666621.265       -3715.571          41.000    22010623.425    90129824.356       -2894.982          40.000  
G27  23283946.629   122357975.602        3656.687          36.000    23283965.022    95343958.684        2849.186          34.000  
G04  21770130.486                        2794.834          26.000    21770127.574                        2177.796          30.000  
C37  21223412.400   110515876.854         330.868          49.000                                                                  
C08  38843711.897   202269396.628       -2541.017          34.000    38843709.043   156407519.096       -1964.678          43.000  
C20  22300877.007   116126518.572         541.124          49.000                                                                  
C28  24323992.843   126661421.224        2441.515          42.000                                                                  
C07  37674463.851   196180821.002        1052.954          40.000    37674449.608   151699397.093         814.148          43.000  
C10  38654030.490                         914.898          32.000    38654027.288   155643753.492         707.605          42.000  
G29                                                                  22182593.140                       -1529.796          30.000  
> 2025 10 28 07 05 32.1160000  0 21                     
G03  21815909.771   114643379.261       -1532.509          41.000    21815904.590    89332485.565       -1193.807          38.000  
G16  19929317.533   104729271.965        2054.766          47.000                                                                  
G26  18876042.683    99194274.903        -484.583          48.000    18876034.159    77294205.306        -377.574          47.000  
G28  20441197.735   107419218.957       -1728.236          46.000    20441186.357    83703241.911       -1346.698          44.000  
G31  19264166.342   101233880.004        -497.046          46.000    19264154.327    78883493.860        -387.231          45.000  
C06  35196175.798   183275723.862         -86.635          48.000    35196155.871   141720336.941         -66.925          47.000  
C09  36346488.401   189265704.140         -56.228          45.000    36346471.939   146352182.661         -43.381          47.000  
C13  37954091.155   197636911.383       -2438.966          38.000    37954089.670   152825391.946       -1885.833          40.000  
C16  35631444.549   185542281.576        -100.205          47.000    35631431.122   143473009.255         -77.444          47.000  
C23  21666367.072   112822459.030       -1811.410          43.000                                                                  
C32  22025261.590   114691319.706       -2675.483          45.000                                                                  
G32  22010654.058   115666769.890       -3715.640          41.000    22010651.714    90129940.152       -2894.849          40.000  
G27  23283918.804   122357829.349        3656.624          36.000    23283937.171    95343844.725        2849.086          34.000  
G04  21770108.913                        2794.785          26.000    21770106.312                        2177.994          30.000  
C37  21223409.849   110515863.613         330.980          49.000                                                                  
C08  38843731.398   202269498.253       -2540.830          34.000    38843728.551   156407597.676       -1964.587          43.000  
C20  22300872.887   116126496.917         541.278          49.000                                                                  
C28  24323974.082   126661323.574        2441.409          42.000                                                                  
C07  37674455.739   196180778.886        1052.899          40.000    37674441.525   151699364.518         814.313          43.000  
C10  38654023.434                         915.531          32.000    38654020.264   155643725.170         707.881          42.000  
G29                                                                  22182608.095                       -1529.663          30.000  
> 2025 10 28 07 05 32.1560000  0 21                     
G03  21815921.438   114643440.531       -1531.984          41.000    21815916.273    89332533.322       -1193.952          38.000  
G16  19929301.870   104729189.762        2054.932          47.000                                                                  
G26  18876046.357    99194294.292        -484.665          48.000    18876037.857    77294220.413        -377.670          47.000  
G28  20441210.920   107419288.095       -1728.413          46.000    20441199.530    83703295.783       -1346.785          44.000  
G31  19264170.132   101233899.885        -497.053          46.000    19264158.114    78883509.348        -387.195          45.000  
C06  35196176.473   183275727.330         -86.688          48.000    35196156.562   141720339.614         -66.831          47.000  
C09  36346488.812   189265706.385         -56.145          45.000    36346472.379   146352184.399         -43.408          47.000  
C13  37954109.876   197637008.950       -2439.107          38.000    37954108.402   152825467.376       -1885.771          40.000  
C16  35631445.343   185542285.577        -100.088          47.000    35631431.891   143473012.353         -77.426          47.000  
C23  21666381.003   112822531.483       -1811.286          43.000                                                                  
C32  22025282.135   114691426.723       -2675.478          46.000                                                                  
G32  22010682.329   115666918.502       -3715.422          41.000    22010679.988    90130055.957       -2895.020          40.000  
G27  23283890.971   122357683.122        3655.999          36.000    23283909.294    95343730.774        2848.810          34.000  
G04  21770087.704                        2794.593          26.000    21770085.012                        2178.254          30.000  
C37  21223407.284   110515850.366         331.144          49.000                                                                  
C08  38843750.900   202269599.866       -2540.481          34.000    38843748.098   156407676.260       -1964.636          43.000  
C20  22300868.764   116126475.263         541.340          49.000                                                                  
C28  24323955.344   126661225.916        2441.438          42.000                                                                  
C07  37674447.679   196180736.772        1052.869          40.000    37674433.406   151699331.949         814.258          43.000  
C10  38654016.427                         915.747          32.000    38654013.240   155643696.861         707.820          42.000  
G29                                                                  22182623.027                       -1530.599          30.000  
> 2025 10 28 07 05 32.1960000  0 21                     
G03  21815933.125   114643501.832       -1532.303          41.000    21815927.954    89332581.084       -1194.043          38.000  
G16  19929286.232   104729107.562        2054.961          47.000                                                                  
G26  18876050.039    99194313.672        -484.602          48.000    18876041.541    77294235.523        -377.752          47.000  
G28  20441224.091   107419357.234       -1728.501          46.000    20441212.698    83703349.649       -1346.725          44.000  
G31  19264173.926   101233919.779        -497.318          46.000    19264161.930    78883524.846        -387.399          45.000  
C06  35196177.128   183275730.791         -86.588          48.000    35196157.225   141720342.296         -66.968          47.000  
C09  36346489.255   189265708.627         -56.076          45.000    36346472.835   146352186.142         -43.529          47.000  
C13  37954128.615   197637106.524       -2439.325          38.000    37954127.134   152825542.828       -1886.127          40.000  
C16  35631446.090   185542289.582        -100.139          47.000    35631432.649   143473015.441         -77.280          47.000  
C23  21666394.906   112822603.941       -1811.364          43.000                                                                  
C32  22025302.697   114691533.746       -2675.565          46.000                                                                  
G32  22010710.616   115667067.131       -3715.666          41.000    22010708.263    90130171.778       -2895.406          40.000  
G27  23283863.153   122357536.882        3655.862          36.000    23283881.462    95343616.823        2848.764          34.000  
G04  21770066.625                        2794.781          26.000    21770063.730                        2178.166          30.000  
C37  21223404.721   110515837.132         330.952          49.000                                                                  
C08  38843770.409   202269701.509       -2540.816          34.000    38843767.632   156407754.841       -1964.597          43.000  
C20  22300864.565   116126453.619         541.167          49.000                                                                  
C28  24323936.575   126661128.275        2441.145          42.000                                                                  
C07  37674439.594   196180694.646        1053.064          40.000    37674425.300   151699299.387         814.093          43.000  
C10  38654009.374                         915.544          32.000    38654006.192   155643668.541         707.934          42.000  
G29                                                                  22182637.982                       -1530.576          30.000  
> 2025 10 28 07 05 32.2360000  0 21                     
G03  21815944.811   114643563.122       -1532.349          41.000    21815939.623    89332628.835       -1193.832          38.000  
G16  19929270.589   104729025.374        2054.739          47.000                                                                  
G26  18876053.752    99194333.068        -484.822          48.000    18876045.243    77294250.635        -377.865          47.000  
G28  20441237.238   107419426.379       -1728.675          46.000    20441225.853    83703403.522       -1346.831          44.000  
G31  19264177.692   101233939.663        -497.231          46.000    19264165.723    78883540.348        -387.583          45.000  
C06  35196177.808   183275734.265         -86.781          48.000    35196157.895   141720344.977         -67.026          47.000  
C09  36346489.684   189265710.882         -56.289          45.000    36346473.250   146352187.890         -43.667          47.000  
C13  37954147.366   197637204.083       -2439.115          38.000    37954145.883   152825618.266       -1886.087          40.000  
C16  35631446.832   185542293.603        -100.459          47.000    35631433.425   143473018.550         -77.573          47.000  
C23  21666408.844   112822676.407       -1811.592          43.000                                                                  
C32  22025323.219   114691640.776       -2675.732          46.000                                                                  
G32  22010738.918   115667215.764       -3715.871          41.000    22010736.556    90130287.597       -2895.514          40.000  
G27  23283835.297   122357390.617        3656.309          36.000    23283853.651    95343502.904        2848.129          34.000  
G04  21770045.369                        2795.005          26.000    21770042.473                        2177.947          30.000  
C37  21223402.135   110515823.916         330.550          48.000                                                                  
C08  38843789.945   202269803.176       -2541.425          34.000    38843787.184   156407833.436       -1964.845          43.000  
C20  22300860.393   116126431.972         541.117          49.000                                                                  
C28  24323917.818   126661030.632        2441.036          42.000                                                                  
C07  37674431.513   196180652.535        1052.808          40.000    37674417.224   151699266.831         813.867          43.000  
C10  38654002.325   201281535.841         915.528          32.000    38653999.161   155643640.238         707.697          42.000  
G29                                                                  22182652.930                       -1529.761          30.000  
> 2025 10 28 07 05 32.2760000  0 21                     
G03  21815956.473   114643624.434       -1532.678          41.000    21815951.281    89332676.607       -1194.173          38.000  
G16  19929254.960   104728943.191        2054.574          47.000                                                                  
G26  18876057.445    99194352.461        -484.902          48.000    18876048.926    77294265.752        -378.001          47.000  
G28  20441250.388   107419495.519       -1728.647          46.000    20441239.019    83703457.408       -1347.116          44.000  
G31  19264181.497   101233959.558        -497.366          46.000    19264169.515    78883555.857        -387.785          45.000  
C06  35196178.445   183275737.740         -86.882          48.000    35196158.559   141720347.665         -67.174          47.000  
C09  36346490.102   189265713.137         -56.427          45.000    36346473.695   146352189.629         -43.590          47.000  
C13  37954166.120   197637301.656       -2439.272          38.000    37954164.627   152825693.731       -1886.499          40.000  
C16  35631447.596   185542297.620        -100.523          47.000    35631434.184   143473021.658         -77.718          47.000  
C23  21666422.747   112822748.878       -1811.777          43.000                                                                  
C32  22025343.783   114691747.798       -2675.687          46.000                                                                  
G32  22010767.209   115667364.408       -3716.111          41.000    22010764.839    90130403.412       -2895.468          40.000  
G27  23283807.454   122357244.393        3655.857          36.000    23283825.816    95343388.928        2848.833          34.000  
G04  21770024.385                        2794.856          26.000    21770021.208                        2178.134          30.000  
C37  21223399.650   110515810.697         330.373          49.000                                                                  
C08  38843809.452   202269904.804       -2541.124          34.000    38843806.745   156407912.039       -1965.069          43.000  
C20  22300856.230   116126410.334         540.927          49.000                                                                  
C28  24323899.095   126660932.984        2441.095          42.000                                                                  
C07  37674423.415   196180610.431        1052.612          40.000    37674409.155   151699234.271         813.898          42.000  
C10  38653995.276   201281499.238         915.136          32.000    38653992.159   155643611.944         707.400          42.000  
G29                                                                  22182667.843                       -1529.737          30.000  
> 2025 10 28 07 05 32.3160000  0 21                     
G03  21815968.146   114643685.743       -1532.805          41.000    21815962.946    89332724.387       -1194.479          38.000  
G16  19929239.302   104728861.007        2054.509          46.000                                                                  
G26  18876061.155    99194371.863        -485.043          47.000    18876052.622    77294280.865        -377.960          47.000  
G28  20441263.529   107419564.664       -1728.694          45.000    20441252.183    83703511.288       -1347.106          45.000  
G31  19264185.264   101233979.444        -497.273          46.000    19264173.297    78883571.352        -387.562          45.000  
C06  35196179.129   183275741.211         -86.871          48.000    35196159.223   141720350.347         -67.135          47.000  
C09  36346490.534   189265715.380         -56.259          45.000    36346474.143   146352191.375         -43.651          47.000  
C13  37954184.852   197637399.223       -2439.329          38.000    37954183.370   152825769.161       -1886.028          40.000  
C16  35631448.361   185542301.629        -100.413          47.000    35631434.941   143473024.760         -77.707          47.000  
C23  21666436.664   112822821.339       -1811.673          43.000                                                                  
C32  22025364.350   114691854.823       -2675.687          46.000                                                                  
G32  22010795.501   115667513.032       -3715.821          41.000    22010793.113    90130519.230       -2895.448          40.000  
G27  23283779.607   122357098.132        3656.205          36.000    23283797.957    95343274.953        2849.276          34.000  
G04  21770002.927                        2794.706          26.000    21769999.924                        2177.605          30.000  
C37  21223397.129   110515797.469         330.502          49.000                                                                  
C08  38843828.981   202270006.419       -2540.569          34.000    38843826.258   156407990.625       -1964.888          43.000  
C20  22300852.112   116126388.687         541.033          49.000                                                                  
C28  24323880.367   126660835.333        2441.219          43.000                                                                  
C07  37674415.342   196180568.329        1052.515          40.000    37674401.064   151699201.701         814.111          42.000  
C10  38653988.259   201281462.616         915.330          32.000    38653985.163   155643583.642         707.404          42.000  
G29                                                                  22182682.772                       -1529.589          30.000  
> 2025 10 28 07 05 32.3560000  0 21                     
G03  21815979.803   114643747.028       -1532.355          41.000    21815974.622    89332772.132       -1193.959          38.000  
G16  19929223.633   104728778.817        2054.612          46.000                                                                  
G26  18876064.852    99194391.252        -484.864          47.000    18876056.313    77294295.974        -377.826          47.000  
G28  20441276.685   107419633.789       -1728.330          46.000    20441265.330    83703565.144       -1346.656          45.000  
G31  19264189.039   101233999.329        -497.167          46.000    19264177.071    78883586.835        -387.210          45.000  
C06  35196179.777   183275744.670         -86.650          48.000    35196159.898   141720353.027         -67.053          47.000  
C09  36346490.979   189265717.618         -56.024          45.000    36346474.570   146352193.102         -43.359          47.000  
C13  37954203.575   197637496.787       -2439.281          37.000    37954202.108   152825844.607       -1886.081          40.000  
C16  35631449.120   185542305.630        -100.176          47.000    35631435.698   143473027.862         -77.657          47.000  
C23  21666450.586   112822893.797       -1811.496          43.000                                                                  
C32  22025384.867   114691961.858       -2675.866          46.000                                                                  
G32  22010823.766   115667661.659       -3715.728          41.000    22010821.374    90130635.025       -2895.088          40.000  
G27  23283751.761   122356951.863        3656.704          36.000    23283770.111    95343160.969        2849.685          34.000  
G04  21769981.792                        2794.544          26.000    21769978.659                        2177.880          30.000  
C37  21223394.606   110515784.227         330.870          49.000                                                                  
C08  38843848.510   202270108.042       -2540.422          34.000    38843845.735   156408069.209       -1964.711          43.000  
C20  22300847.941   116126367.041         541.107          49.000                                                                  
C28  24323861.643   126660737.672        2441.471          43.000                                                                  
C07  37674407.270   196180526.221        1052.625          40.000    37674392.994   151699169.137         814.124          43.000  
C10  38653981.236   201281426.009         915.203          32.000    38653978.149   155643555.331         707.606          42.000  
G29                                                                  22182697.696                       -1528.922          30.000  
> 2025 10 28 07 05 32.3960000  0 21                     
G03  21815991.457   114643808.331       -1532.504          41.000    21815986.278    89332819.894       -1194.006          37.000  
G16  19929207.986   104728696.639        2054.465          46.000                                                                  
G26  18876068.553    99194410.653        -485.003          47.000    18876059.997    77294311.083        -377.745          47.000  
G28  20441289.869   107419702.928       -1728.389          45.000    20441278.498    83703619.012       -1346.631          45.000  
G31  19264192.828   101234019.210        -497.045          46.000    19264180.862    78883602.326        -387.175          45.000  
C06  35196180.438   183275748.132         -86.556          48.000    35196160.546   141720355.701         -66.918          47.000  
C09  36346491.408   189265719.872         -56.223          45.000    36346474.980   146352194.836         -43.331          47.000  
C13  37954222.318   197637594.357       -2439.368          37.000    37954220.827   152825920.057       -1886.191          40.000  
C16  35631449.898   185542309.634        -100.088          47.000    35631436.460   143473030.952         -77.381          47.000  
C23  21666464.511   112822966.260       -1811.516          43.000                                                                  
C32  22025405.431   114692068.879       -2675.684          46.000                                                                  
G32  22010852.025   115667810.284       -3715.673          41.000    22010849.669    90130750.836       -2895.235          40.000  
G27  23283723.891   122356805.600        3656.737          36.000    23283742.278    95343047.011        2849.303          34.000  
G04  21769960.118                        2794.353          26.000    21769957.393                        2177.520          30.000  
C37  21223392.067   110515770.989         330.960          49.000                                                                  
C08  38843868.030   202270209.685       -2540.769          34.000    38843865.255   156408147.784       -1964.437          43.000  
C20  22300843.778   116126345.394         541.162          49.000                                                                  
C28  24323842.873   126660640.029        2441.199          43.000                                                                  
C07  37674399.172   196180484.107        1052.802          40.000    37674384.906   151699136.562         814.343          43.000  
C10  38653974.170   201281389.403         915.115          32.000    38653971.146   155643527.008         707.963          42.000  
G29                                                                  22182712.653                       -1529.564          30.000  
> 2025 10 28 07 05 32.4360000  0 21                     
G03  21816003.116   114643869.629       -1532.490          41.000    21815997.956    89332867.669       -1194.251          37.000  
G16  19929192.352   104728614.451        2054.580          46.000                                                                  
G26  18876072.240    99194430.050        -484.983          47.000    18876063.680    77294326.195        -377.777          47.000  
G28  20441303.050   107419772.065       -1728.400          45.000    20441291.664    83703672.883       -1346.689          45.000  
G31  19264196.632   101234039.104        -497.242          46.000    19264184.642    78883617.825        -387.367          45.000  
C06  35196181.100   183275751.595         -86.548          48.000    35196161.220   141720358.386         -67.040          47.000  
C09  36346491.824   189265722.119         -56.217          45.000    36346475.401   146352196.579         -43.472          46.000  
C13  37954241.057   197637691.913       -2439.055          37.000    37954239.550   152825995.501       -1886.170          40.000  
C16  35631450.672   185542313.646        -100.204          47.000    35631437.232   143473034.042         -77.278          47.000  
C23  21666478.416   112823038.723       -1811.535          43.000                                                                  
C32  22025425.980   114692175.902       -2675.566          46.000                                                                  
G32  22010880.336   115667958.915       -3715.723          41.000    22010877.942    90130866.664       -2895.652          40.000  
G27  23283696.050   122356659.387        3655.786          36.000    23283714.450    95342933.077        2848.829          34.000  
G04  21769938.849                        2794.360          26.000    21769936.131                        2177.503          30.000  
C37  21223389.469   110515757.757         330.878          50.000                                                                  
C08  38843887.538   202270311.319       -2540.833          35.000    38843884.754   156408226.373       -1964.559          43.000  
C20  22300839.624   116126323.748         541.143          49.000                                                                  
C28  24323824.132   126660542.383        2441.118          43.000                                                                  
C07  37674391.074   196180441.995        1052.832          40.000    37674376.798   151699103.991         814.313          43.000  
C10  38653967.137   201281352.772         915.628          32.000    38653964.101   155643498.688         708.065          43.000  
G29                                                                  22182727.604                       -1530.163          30.000  
> 2025 10 28 07 05 32.4760000  0 21                     
G03  21816014.774   114643930.915       -1532.259          41.000    21816009.623    89332915.432       -1194.167          37.000  
G16  19929176.693   104728532.253        2054.840          46.000                                                                  
G26  18876075.906    99194449.443        -484.869          47.000    18876067.343    77294341.295        -377.571          48.000  
G28  20441316.196   107419841.192       -1728.224          45.000    20441304.817    83703726.751       -1346.672          45.000  
G31  19264200.415   101234058.983        -497.051          46.000    19264188.416    78883633.323        -387.434          45.000  
C06  35196181.745   183275755.046         -86.321          48.000    35196161.887   141720361.062         -66.968          47.000  
C09  36346492.264   189265724.354         -55.988          45.000    36346475.837   146352198.311         -43.364          46.000  
C13  37954259.788   197637789.494       -2439.274          37.000    37954258.279   152826070.977       -1886.757          40.000  
C16  35631451.443   185542317.645        -100.046          47.000    35631438.003   143473037.136         -77.276          47.000  
C23  21666492.323   112823111.181       -1811.460          43.000                                                                  
C32  22025446.527   114692282.921       -2675.473          46.000                                                                  
G32  22010908.616   115668107.531       -3715.531          41.000    22010906.222    90130982.470       -2895.362          40.000  
G27  23283668.216   122356513.154        3655.692          36.000    23283686.616    95342819.148        2848.420          34.000  
G04  21769917.611                        2794.715          26.000    21769914.842                        2177.276          30.000  
C37  21223386.924   110515744.516         330.978          50.000                                                                  
C08  38843907.055   202270412.937       -2540.655          35.000    38843904.265   156408304.952       -1964.484          43.000  
C20  22300835.464   116126302.101         541.162          48.000                                                                  
C28  24323805.387   126660444.723        2441.368          43.000                                                                  
C07  37674382.997   196180399.876        1052.960          40.000    37674368.709   151699071.426         814.166          43.000  
C10  38653960.090   201281316.154         915.567          32.000    38653957.095   155643470.368         708.067          43.000  
G29                                                                  22182742.536                       -1530.380          30.000  
> 2025 10 28 07 05 32.5160000  0 21                     
G03  21816026.426   114643992.190       -1531.941          41.000    21816021.263    89332963.180       -1193.918          37.000  
G16  19929161.030   104728450.045        2055.122          46.000                                                                  
G26  18876079.587    99194468.825        -484.599          47.000    18876071.047    77294356.396        -377.511          48.000  
G28  20441329.324   107419910.320       -1728.185          45.000    20441317.984    83703780.617       -1346.647          45.000  
G31  19264204.195   101234078.865        -497.008          46.000    19264192.193    78883648.815        -387.341          45.000  
C06  35196182.375   183275758.509         -86.434          48.000    35196162.510   141720363.738         -66.888          47.000  
C09  36346492.713   189265726.594         -55.959          45.000    36346476.297   146352200.045         -43.314          46.000  
C13  37954278.517   197637887.032       -2438.704          37.000    37954277.032   152826146.406       -1886.184          40.000  
C16  35631452.192   185542321.642         -99.977          47.000    35631438.776   143473040.233         -77.386          46.000  
C23  21666506.233   112823183.643       -1811.551          43.000                                                                  
C32  22025467.087   114692389.932       -2675.301          46.000                                                                  
G32  22010936.913   115668256.150       -3715.427          41.000    22010934.496    90131098.278       -2895.219          40.000  
G27  23283640.349   122356366.911        3655.786          36.000    23283658.799    95342705.198        2848.530          34.000  
G04  21769896.736                        2795.149          26.000    21769893.560                        2177.405          30.000  
C37  21223384.373   110515731.280         330.931          50.000                                                                  
C08  38843926.566   202270514.546       -2540.277          35.000    38843923.774   156408383.538       -1964.599          43.000  
C20  22300831.330   116126280.456         541.125          48.000                                                                  
C28  24323786.659   126660347.063        2441.479          43.000                                                                  
C07  37674374.917   196180357.762        1052.899          40.000    37674360.643   151699038.859         814.111          42.000  
C10  38653953.034   201281279.548         915.197          32.000    38653950.073   155643442.045         708.107          43.000  
G29                                                                  22182757.452                       -1530.230          30.000  
> 2025 10 28 07 05 32.5560000  0 21                     
G03  21816038.080   114644053.484       -1532.172          41.000    21816032.895    89333010.922       -1193.657          38.000  
G16  19929145.401   104728367.838        2055.240          46.000                                                                  
G26  18876083.298    99194488.213        -484.628          47.000    18876074.724    77294371.495        -377.475          48.000  
G28  20441342.479   107419979.448       -1728.190          45.000    20441331.160    83703834.485       -1346.683          45.000  
G31  19264207.976   101234098.735        -496.793          46.000    19264195.986    78883664.309        -387.310          45.000  
C06  35196183.026   183275761.968         -86.443          48.000    35196163.163   141720366.426         -67.090          47.000  
C09  36346493.135   189265728.830         -55.892          45.000    36346476.718   146352201.776         -43.259          46.000  
C13  37954297.268   197637984.568       -2438.370          37.000    37954295.744   152826221.819       -1885.612          40.000  
C16  35631452.965   185542325.642         -99.993          47.000    35631439.546   143473043.344         -77.706          46.000  
C23  21666520.166   112823256.082       -1811.129          43.000                                                                  
C32  22025487.638   114692496.944       -2675.247          46.000                                                                  
G32  22010965.205   115668404.768       -3715.403          42.000    22010962.773    90131214.099       -2895.426          40.000  
G27  23283612.518   122356220.649        3656.218          36.000    23283630.952    95342591.233        2848.848          34.000  
G04  21769875.838                        2794.986          26.000    21769872.279                        2178.260          30.000  
C37  21223381.857   110515718.038         330.994          49.000                                                                  
C08  38843946.088   202270616.160       -2540.236          35.000    38843943.310   156408462.131       -1964.792          43.000  
C20  22300827.171   116126258.812         541.088          48.000                                                                  
C28  24323767.898   126660249.412        2441.375          43.000                                                                  
C07  37674366.847   196180315.620        1053.412          40.000    37674352.552   151699006.293         814.124          42.000  
C10  38653946.009   201281242.926         915.341          32.000    38653943.066   155643413.733         707.873          43.000  
G29                                                                  22182772.389                       -1529.742          30.000  
> 2025 10 28 07 05 32.5960000  0 21                     
G03  21816049.737   114644114.776       -1532.306          41.000    21816044.543    89333058.692       -1194.076          37.000  
G16  19929129.771   104728285.642        2055.060          46.000                                                                  
G26  18876086.971    99194507.595        -484.542          48.000    18876078.411    77294386.601        -377.603          48.000  
G28  20441355.648   107420048.587       -1728.400          46.000    20441344.313    83703888.349       -1346.650          45.000  
G31  19264211.756   101234118.623        -497.072          46.000    19264199.748    78883679.793        -387.151          45.000  
C06  35196183.646   183275765.434         -86.589          47.000    35196163.797   141720369.101         -66.996          47.000  
C09  36346493.566   189265731.073         -56.008          45.000    36346477.147   146352203.507         -43.228          46.000  
C13  37954315.976   197638082.115       -2438.425          37.000    37954314.463   152826297.257       -1885.688          40.000  
C16  35631453.721   185542329.647        -100.059          47.000    35631440.342   143473046.447         -77.704          46.000  
C23  21666534.076   112823328.542       -1811.315          43.000                                                                  
C32  22025508.217   114692603.953       -2675.174          46.000                                                                  
G32  22010993.480   115668553.372       -3715.206          42.000    22010991.054    90131329.903       -2895.201          40.000  
G27  23283584.689   122356074.374        3656.761          36.000    23283603.112    95342477.312        2848.171          34.000  
G04  21769854.824                        2795.668          26.000    21769851.019                        2178.337          30.000  
C37  21223379.323   110515704.798         331.006          49.000                                                                  
C08  38843965.575   202270717.770       -2540.111          35.000    38843962.843   156408540.708       -1964.580          43.000  
C20  22300823.027   116126237.158         541.248          48.000                                                                  
C28  24323749.152   126660151.755        2441.432          43.000                                                                  
C07  37674358.763   196180273.478        1053.638          40.000    37674344.464   151698973.717         814.343          42.000  
C10  38653938.949   201281206.306         915.358          32.000    38653936.051   155643385.421         707.773          43.000  
G29                                                                  22182787.336                       -1530.495          30.000  
> 2025 10 28 07 05 32.6360000  0 21                     
G03  21816061.397   114644176.065       -1532.304          41.000    21816056.221    89333106.467       -1194.349          37.000  
G16  19929114.140   104728203.456        2054.751          46.000                                                                  
G26  18876090.671    99194526.982        -484.607          48.000    18876082.092    77294401.705        -377.615          48.000  
G28  20441368.784   107420117.708       -1728.155          46.000    20441357.472    83703942.225       -1346.848          45.000  
G31  19264215.539   101234138.500        -497.029          46.000    19264203.535    78883695.294        -387.385          44.000  
C06  35196184.298   183275768.899         -86.632          47.000    35196164.435   141720371.784         -67.069          47.000  
C09  36346494.001   189265733.317         -56.104          44.000    36346477.558   146352205.243         -43.351          46.000  
C13  37954334.710   197638179.718       -2439.520          37.000    37954333.185   152826372.676       -1885.458          40.000  
C16  35631454.450   185542333.658        -100.229          47.000    35631441.084   143473049.545         -77.615          46.000  
C23  21666547.979   112823401.000       -1811.429          43.000                                                                  
C32  22025528.776   114692710.974       -2675.412          46.000                                                                  
G32  22011021.766   115668702.006       -3715.650          42.000    22011019.324    90131445.701       -2894.971          40.000  
G27  23283556.863   122355928.144        3656.210          36.000    23283575.281    95342363.366        2848.312          34.000  
G04  21769833.243                        2795.242          26.000    21769829.728                        2178.063          30.000  
C37  21223376.763   110515691.565         330.857          49.000                                                                  
C08  38843985.105   202270819.390       -2540.361          35.000    38843982.329   156408619.285       -1964.465          43.000  
C20  22300818.877   116126215.514         541.168          48.000                                                                  
C28  24323730.414   126660054.088        2441.602          43.000                                                                  
C07  37674350.671   196180231.373        1052.972          40.000    37674336.359   151698941.141         814.429          42.000  
C10  38653931.883   201281169.679         915.480          32.000    38653929.002   155643357.098         707.941          43.000  
G29                                                                  22182802.294                       -1529.346          30.000  
> 2025 10 28 07 05 32.6760000  0 21                     
G03  21816073.070   114644237.372       -1532.598          41.000    21816067.887    89333154.249       -1194.595          37.000  
G16  19929098.508   104728121.279        2054.442          47.000                                                                  
G26  18876094.336    99194546.366        -484.621          48.000    18876085.793    77294416.824        -377.916          48.000  
G28  20441381.931   107420186.833       -1728.114          46.000    20441370.634    83703996.091       -1346.737          45.000  
G31  19264219.360   101234158.406        -497.528          46.000    19264207.318    78883710.801        -387.607          44.000  
C06  35196184.956   183275772.373         -86.827          47.000    35196165.089   141720374.464         -67.054          47.000  
C09  36346494.439   189265735.559         -56.102          44.000    36346478.017   146352206.983         -43.496          46.000  
C13  37954353.477   197638277.278       -2439.331          37.000    37954351.934   152826448.130       -1885.926          40.000  
C16  35631455.213   185542337.665        -100.271          46.000    35631441.877   143473052.643         -77.541          45.000  
C23  21666561.927   112823473.467       -1811.635          42.000                                                                  
C32  22025549.311   114692818.008       -2675.772          46.000                                                                  
G32  22011050.062   115668850.634       -3715.754          42.000    22011047.601    90131561.501       -2894.936          40.000  
G27  23283529.043   122355781.892        3656.158          36.000    23283547.426    95342249.395        2848.872          34.000  
G04  21769811.999                        2794.981          26.000    21769808.467                        2177.019          30.000  
C37  21223374.214   110515678.337         330.699          48.000                                                                  
C08  38844004.629   202270921.006       -2540.468          34.000    38844001.853   156408697.857       -1964.333          43.000  
C20  22300814.718   116126193.870         541.100          48.000                                                                  
C28  24323711.683   126659956.443        2441.294          43.000                                                                  
C07  37674342.574   196180189.259        1052.740          40.000    37674328.251   151698908.568         814.355          42.000  
C10  38653924.859   201281133.089         914.982          32.000    38653921.988   155643328.762         708.285          43.000  
G29                                                                  22182817.236                       -1528.942          30.000  
> 2025 10 28 07 05 32.7160000  0 21                     
G03  21816084.736   114644298.682       -1532.846          41.000    21816079.541    89333202.022       -1194.508          37.000  
G16  19929082.888   104728039.109        2054.159          47.000                                                                  
G26  18876098.012    99194565.774        -485.054          48.000    18876089.489    77294431.940        -377.988          47.000  
G28  20441395.089   107420255.969       -1728.361          46.000    20441383.798    83704049.978       -1347.070          45.000  
G31  19264223.144   101234178.310        -497.723          46.000    19264211.123    78883726.310        -387.753          44.000  
C06  35196185.639   183275775.845         -86.892          47.000    35196165.768   141720377.161         -67.350          47.000  
C09  36346494.891   189265737.813         -56.303          44.000    36346478.425   146352208.725         -43.557          46.000  
C13  37954372.182   197638374.845       -2439.315          37.000    37954370.661   152826523.592       -1886.413          40.000  
C16  35631455.965   185542341.688        -100.527          46.000    35631442.652   143473055.758         -77.783          45.000  
C23  21666575.835   112823545.947       -1811.953          42.000                                                                  
C32  22025569.870   114692925.044       -2675.962          46.000                                                                  
G32  22011078.328   115668999.256       -3715.657          42.000    22011075.891    90131677.314       -2895.200          40.000  
G27  23283501.215   122355635.640        3656.268          36.000    23283519.549    95342135.412        2849.363          34.000  
G04  21769790.625                        2794.578          26.000    21769787.224                        2177.179          30.000  
C37  21223371.615   110515665.114         330.531          48.000                                                                  
C08  38844024.176   202271022.685       -2541.365          34.000    38844021.377   156408776.441       -1964.467          43.000  
C20  22300810.550   116126172.236         540.860          48.000                                                                  
C28  24323692.912   126659858.799        2441.114          43.000                                                                  
C07  37674334.484   196180147.135        1052.863          40.000    37674320.146   151698876.016         813.885          42.000  
C10  38653917.853   201281096.509         914.622          32.000    38653914.951   155643300.452         707.968          43.000  
G29                                                                  22182832.168                       -1530.177          30.000  
> 2025 10 28 07 05 32.7560000  0 21                     
G03  21816096.390   114644359.989       -1532.860          41.000    21816091.194    89333249.783       -1194.217          37.000  
G16  19929067.251   104727956.927        2054.292          47.000                                                                  
G26  18876101.705    99194585.173        -485.125          48.000    18876093.200    77294447.062        -378.110          47.000  
G28  20441408.245   107420325.133       -1728.965          46.000    20441396.965    83704103.876       -1347.475          44.000  
G31  19264226.936   101234198.223        -497.918          46.000    19264214.910    78883741.827        -387.906          44.000  
C06  35196186.295   183275779.324         -87.010          47.000    35196166.405   141720379.854         -67.391          46.000  
C09  36346495.337   189265740.059         -56.255          44.000    36346478.851   146352210.464         -43.580          46.000  
C13  37954390.935   197638472.424       -2439.503          37.000    37954389.404   152826599.064       -1886.791          40.000  
C16  35631456.732   185542345.722        -100.836          46.000    35631443.410   143473058.861         -77.720          45.000  
C23  21666589.742   112823618.434       -1812.223          42.000                                                                  
C32  22025590.456   114693032.078       -2675.977          46.000                                                                  
G32  22011106.587   115669147.890       -3715.864          42.000    22011104.180    90131793.160       -2895.952          40.000  
G27  23283473.376   122355489.404        3655.989          36.000    23283491.710    95342021.454        2849.180          34.000  
G04  21769769.164                        2794.406          26.000    21769765.958                        2178.070          30.000  
C37  21223369.043   110515651.893         330.460          48.000                                                                  
C08  38844043.680   202271124.328       -2541.397          34.000    38844040.912   156408855.038       -1964.797          43.000  
C20  22300806.358   116126150.616         540.503          49.000                                                                  
C28  24323674.154   126659761.153        2441.080          44.000                                                                  
C07  37674326.397   196180105.024        1052.710          40.000    37674312.081   151698843.478         813.422          42.000  
C10  38653910.819   201281059.911         914.757          32.000    38653907.879   155643272.153         707.531          43.000  
G29                                                                  22182847.134                       -1530.767          30.000  
> 2025 10 28 07 05 32.7960000  0 21                     
G03  21816108.059   114644421.306       -1533.014          41.000    21816102.870    89333297.558       -1194.320          37.000  
G16  19929051.616   104727874.750        2054.333          47.000                                                                  
G26  18876105.412    99194604.597        -485.593          47.000    18876096.887    77294462.190        -378.252          46.000  
G28  20441421.433   107420394.296       -1729.231          45.000    20441410.112    83704157.763       -1347.448          44.000  
G31  19264230.729   101234218.127        -497.811          45.000    19264218.681    78883757.338        -387.880          44.000  
C06  35196186.988   183275782.802         -87.043          46.000    35196167.058   141720382.538         -67.246          46.000  
C09  36346495.793   189265742.303         -56.165          44.000    36346479.281   146352212.197         -43.425          46.000  
C13  37954409.674   197638569.976       -2439.042          37.000    37954408.149   152826674.524       -1886.750          40.000  
C16  35631457.522   185542349.743        -100.724          45.000    35631444.192   143473061.981         -77.951          45.000  
C23  21666603.662   112823690.924       -1812.342          42.000                                                                  
C32  22025611.014   114693139.128       -2676.249          46.000                                                                  
G32  22011134.876   115669296.548       -3716.371          41.000    22011132.473    90131908.991       -2896.014          40.000  
G27  23283445.523   122355343.147        3656.249          36.000    23283463.884    95341907.519        2848.572          34.000  
G04  21769747.930                        2794.167          26.000    21769744.675                        2178.256          30.000  
C37  21223366.525   110515638.674         330.395          48.000                                                                  
C08  38844063.202   202271225.956       -2541.092          31.000    38844060.434   156408933.629       -1964.889          43.000  
C20  22300802.194   116126129.002         540.271          49.000                                                                  
C28  24323655.415   126659663.495        2441.305          44.000                                                                  
C07  37674318.298   196180062.916        1052.545          40.000    37674304.014   151698810.929         813.519          42.000  
C10  38653903.778   201281023.267         915.625          33.000    38653900.863   155643243.862         707.211          43.000  
G29                                                                  22182862.056                       -1530.016          30.000  
> 2025 10 28 07 05 32.8360000  0 21                     
G03  21816119.712   114644482.612       -1532.891          41.000    21816114.548    89333345.337       -1194.464          37.000  
G16  19929035.979   104727792.564        2054.522          47.000                                                                  
G26  18876109.097    99194624.004        -485.472          47.000    18876100.582    77294477.310        -378.160          46.000  
G28  20441434.604   107420463.448       -1729.089          45.000    20441423.286    83704211.661       -1347.568          44.000  
G31  19264234.499   101234238.040        -497.847          45.000    19264222.474    78883772.859        -388.015          44.000  
C06  35196187.634   183275786.274         -86.952          46.000    35196167.742   141720385.226         -67.247          46.000  
C09  36346496.205   189265744.554         -56.254          44.000    36346479.723   146352213.937         -43.479          46.000  
C13  37954428.422   197638667.550       -2439.261          37.000    37954426.852   152826749.963       -1886.333          40.000  
C16  35631458.291   185542353.760        -100.589          45.000    35631444.961   143473065.093         -77.925          45.000  
C23  21666617.601   112823763.395       -1812.023          42.000                                                                  
C32  22025631.572   114693246.170       -2676.201          46.000                                                                  
G32  22011163.151   115669445.192       -3716.329          41.000    22011160.752    90132024.811       -2895.786          40.000  
G27  23283417.692   122355196.904        3656.112          36.000    23283436.067    95341793.574        2848.562          34.000  
G04  21769726.874                        2793.946          26.000    21769723.428                        2177.887          30.000  
C37  21223363.971   110515625.461         330.278          48.000                                                                  
C08  38844082.713   202271327.621       -2541.405          31.000    38844079.955   156409012.225       -1964.991          43.000  
C20  22300798.052   116126107.394         540.095          49.000                                                                  
C28  24323636.655   126659565.849        2441.228          44.000                                                                  
C07  37674310.227   196180020.842        1051.971          40.000    37674295.926   151698778.370         813.782          42.000  
C10  38653896.754   201280986.673         915.270          33.000    38653893.862   155643215.564         707.228          43.000  
G29                                                                  22182877.007                       -1530.245          30.000  
> 2025 10 28 07 05 32.8760000  0 21                     
G03  21816131.398   114644543.921       -1532.801          41.000    21816126.235    89333393.116       -1194.538          37.000  
G16  19929020.349   104727710.388        2054.432          47.000                                                                  
G26  18876112.785    99194643.415        -485.399          47.000    18876104.264    77294492.430        -378.070          46.000  
G28  20441447.773   107420532.593       -1728.854          45.000    20441436.450    83704265.542       -1347.266          44.000  
G31  19264238.286   101234257.948        -497.798          45.000    19264226.276    78883788.367        -387.854          44.000  
C06  35196188.303   183275789.736         -86.659          46.000    35196168.390   141720387.902         -67.024          45.000  
C09  36346496.649   189265746.816         -56.495          44.000    36346480.164   146352215.671         -43.408          46.000  
C13  37954447.179   197638765.110       -2439.128          37.000    37954445.599   152826825.415       -1886.329          40.000  
C16  35631459.072   185542357.788        -100.694          44.000    35631445.742   143473068.197         -77.689          45.000  
C23  21666631.506   112823835.863       -1811.766          42.000                                                                  
C32  22025652.129   114693353.212       -2676.137          46.000                                                                  
G32  22011191.438   115669593.846       -3716.419          41.000    22011189.013    90132140.628       -2895.555          40.000  
G27  23283389.861   122355050.635        3656.552          36.000    23283408.239    95341679.651        2848.126          34.000  
G04  21769705.670                        2794.115          26.000    21769702.180                        2177.022          30.000  
C37  21223361.493   110515612.247         330.250          49.000                                                                  
C08  38844102.208   202271429.218       -2540.432          31.000    38844099.465   156409090.807       -1964.772          43.000  
C20  22300793.909   116126085.777         540.208          49.000                                                                  
C28  24323617.917   126659468.226        2440.773          43.000                                                                  
C07  37674302.170   196179978.752        1051.978          40.000    37674287.847   151698745.811         813.922          42.000  
C10  38653889.719   201280950.057         915.329          33.000    38653886.837   155643187.275         707.080          43.000  
G29                                                                  22182891.958                       -1530.245          30.000  
> 2025 10 28 07 05 32.9160000  0 21                     
G03  21816143.075   114644605.238       -1532.895          41.000    21816137.897    89333440.886       -1194.354          37.000  
G16  19929004.728   104727628.220        2054.258          46.000                                                                  
G26  18876116.467    99194662.826        -485.348          47.000    18876107.958    77294507.560        -378.209          46.000  
G28  20441460.910   107420601.749       -1728.908          45.000    20441449.608    83704319.420       -1347.061          44.000  
G31  19264242.098   101234277.873        -498.081          45.000    19264230.068    78883803.872        -387.732          43.000  
C06  35196188.967   183275793.210         -86.748          46.000    35196169.088   141720390.595         -67.201          45.000  
C09  36346497.081   189265749.078         -56.637          44.000    36346480.586   146352217.412         -43.505          46.000  
C13  37954465.931   197638862.696       -2439.512          37.000    37954464.340   152826900.863       -1886.296          40.000  
C16  35631459.862   185542361.800        -100.438          44.000    35631446.523   143473071.302         -77.609          45.000  
C23  21666645.416   112823908.319       -1811.431          42.000                                                                  
C32  22025672.661   114693460.265       -2676.298          46.000                                                                  
G32  22011219.712   115669742.483       -3716.130          41.000    22011217.301    90132256.441       -2895.350          40.000  
G27  23283362.034   122354904.400        3656.179          36.000    23283380.396    95341565.715        2848.269          34.000  
G04  21769684.546                        2794.328          26.000    21769680.900                        2177.548          30.000  
C37  21223358.984   110515599.035         330.227          49.000                                                                  
C08  38844121.720   202271530.883       -2541.085          31.000    38844119.027   156409169.395       -1964.747          43.000  
C20  22300789.767   116126064.157         540.387          49.000                                                                  
C28  24323599.170   126659370.604        2440.519          43.000                                                                  
C07  37674294.051   196179936.638        1052.417          40.000    37674279.752   151698713.248         814.063          42.000  
C10  38653882.695   201280913.454         915.081          33.000    38653879.811   155643158.973         707.304          43.000  
G29                                                                  22182906.893                       -1530.111          30.000  
> 2025 10 28 07 05 32.9560000  0 21                     
G03  21816154.754   114644666.566       -1533.126          41.000    21816149.541    89333488.678       -1194.713          37.000  
G16  19928989.096   104727546.058        2054.045          46.000                                                                  
G26  18876120.185    99194682.244        -485.455          47.000    18876111.651    77294522.692        -378.321          46.000  
G28  20441474.068   107420670.903       -1728.907          45.000    20441462.788    83704373.296       -1346.938          44.000  
G31  19264245.891   101234297.776        -497.772          45.000    19264233.865    78883819.390        -387.880          43.000  
C06  35196189.639   183275796.686         -86.863          46.000    35196169.769   141720393.292         -67.397          45.000  
C09  36346497.542   189265751.348         -56.790          45.000    36346481.006   146352219.166         -43.763          46.000  
C13  37954484.677   197638960.268       -2439.466          37.000    37954483.101   152826976.304       -1886.095          40.000  
C16  35631460.647   185542365.822        -100.522          44.000    35631447.264   143473074.414         -77.727          44.000  
C23  21666659.320   112823980.810       -1811.951          42.000                                                                  
C32  22025693.251   114693567.312       -2676.235          46.000                                                                  
G32  22011247.973   115669891.129       -3716.131          41.000    22011245.573    90132372.261       -2895.421          40.000  
G27  23283334.192   122354758.154        3656.036          36.000    23283352.576    95341451.764        2848.699          34.000  
G04  21769663.186                        2794.540          26.000    21769659.610                        2177.997          30.000  
C37  21223356.463   110515585.820         330.288          49.000                                                                  
C08  38844141.234   202271632.539       -2541.272          32.000    38844138.572   156409247.995       -1964.929          43.000  
C20  22300785.627   116126042.538         540.424          49.000                                                                  
C28  24323580.450   126659272.984        2440.361          43.000                                                                  
C07  37674285.981   196179894.546        1052.313          40.000    37674271.669   151698680.694         813.916          42.000  
C10  38653875.669   201280876.842         915.116          33.000    38653872.787   155643130.670         707.483          43.000  
G29                                                                  22182921.869                       -1530.532          30.000  
> 2025 10 28 07 05 32.9960000  0 21                     
G03  21816166.409   114644727.896       -1533.274          41.000    21816161.221    89333536.455       -1194.486          37.000  
G16  19928973.452   104727463.895        2053.991          46.000                                                                  
G26  18876123.875    99194701.661        -485.511          47.000    18876115.353    77294537.834        -378.565          45.000  
G28  20441487.229   107420740.058       -1728.933          45.000    20441475.951    83704427.180       -1347.042          44.000  
G31  19264249.680   101234317.687        -497.766          45.000    19264237.670    78883834.909        -387.953          43.000  
C06  35196190.332   183275800.164         -86.965          46.000    35196170.461   141720395.978         -67.271          45.000  
C09  36346497.995   189265753.605         -56.588          45.000    36346481.417   146352220.915         -43.822          46.000  
C13  37954503.428   197639057.839       -2439.373          37.000    37954501.850   152827051.779       -1886.578          40.000  
C16  35631461.445   185542369.838        -100.464          44.000    35631448.037   143473077.518         -77.668          44.000  
C23  21666673.225   112824053.295       -1812.157          42.000                                                                  
C32  22025713.787   114693674.359       -2676.216          46.000                                                                  
G32  22011276.234   115670039.765       -3715.951          41.000    22011273.854    90132488.086       -2895.584          40.000  
G27  23283306.384   122354611.912        3655.921          36.000    23283324.725    95341337.846        2848.329          34.000  
G04  21769641.850                        2794.657          26.000    21769638.340                        2177.213          30.000  
C37  21223353.880   110515572.609         330.270          49.000                                                                  
C08  38844160.774   202271734.184       -2541.155          32.000    38844158.083   156409326.603       -1965.191          43.000  
C20  22300781.497   116126020.915         540.534          49.000                                                                  
C28  24323561.707   126659175.345        2440.691          43.000                                                                  
C07  37674277.890   196179852.426        1052.808          40.000    37674263.580   151698648.134         813.971          44.000  
C10  38653868.633   201280840.277         914.358          33.000    38653865.742   155643102.379         707.349          43.000  
G29                                                                  22182936.831                       -1530.754          30.000  
> 2025 10 28 07 05 33.0360000  0 21                     
G03  21816178.083   114644789.215       -1533.087          41.000    21816172.911    89333584.269       -1195.123          37.000  
G16  19928957.815   104727381.736        2053.919          46.000                                                                  
G26  18876127.585    99194721.090        -485.735          47.000    18876119.054    77294552.970        -378.541          45.000  
G28  20441500.410   107420809.223       -1729.087          45.000    20441489.137    83704481.079       -1347.349          44.000  
G31  19264253.466   101234337.592        -497.662          45.000    19264241.454    78883850.429        -388.021          43.000  
C06  35196191.031   183275803.648         -87.078          46.000    35196171.127   141720398.668         -67.250          44.000  
C09  36346498.440   189265755.850         -56.263          45.000    36346481.842   146352222.657         -43.679          46.000  
C13  37954522.152   197639155.427       -2439.575          37.000    37954520.593   152827127.238       -1886.594          40.000  
C16  35631462.220   185542373.868        -100.653          44.000    35631448.797   143473080.627         -77.736          44.000  
C23  21666687.165   112824125.776       -1812.185          42.000                                                                  
C32  22025734.360   114693781.405       -2676.185          47.000                                                                  
G32  22011304.510   115670188.405       -3715.953          41.000    22011302.119    90132603.898       -2895.460          40.000  
G27  23283278.548   122354465.685        3655.699          36.000    23283296.905    95341223.888        2848.722          33.000  
G04  21769620.275                        2794.582          26.000    21769617.089                        2176.372          30.000  
C37  21223351.349   110515559.398         330.250          49.000                                                                  
C08  38844180.280   202271835.805       -2540.739          32.000    38844177.605   156409405.192       -1964.964          43.000  
C20  22300777.324   116125999.297         540.490          49.000                                                                  
C28  24323542.978   126659077.705        2440.913          43.000                                                                  
C07  37674269.786   196179810.326        1052.625          40.000    37674255.476   151698615.574         814.008          44.000  
C10  38653861.629   201280803.680         914.548          33.000    38653858.724   155643074.072         707.538          43.000  
G29                                                                  22182951.776                       -1531.000          30.000  
> 2025 10 28 07 05 33.0760000  0 21                     
G03  21816189.747   114644850.532       -1532.949          41.000    21816184.581    89333632.048       -1194.784          37.000  
G16  19928942.154   104727299.571        2053.985          46.000                                                                  
G26  18876131.266    99194740.509        -485.631          47.000    18876122.748    77294568.101        -378.427          45.000  
G28  20441513.602   107420878.388       -1729.139          45.000    20441502.287    83704534.969       -1347.362          44.000  
G31  19264257.263   101234357.507        -497.823          45.000    19264245.249    78883865.946        -388.021          43.000  
C06  35196191.722   183275807.127         -87.058          45.000    35196171.803   141720401.366         -67.424          44.000  
C09  36346498.881   189265758.108         -56.359          45.000    36346482.281   146352224.407         -43.775          46.000  
C13  37954540.909   197639253.001       -2439.462          38.000    37954539.315   152827202.703       -1886.717          40.000  
C16  35631463.013   185542377.887        -100.559          44.000    35631449.572   143473083.744         -77.876          44.000  
C23  21666701.091   112824198.256       -1812.114          42.000                                                                  
C32  22025754.917   114693888.458       -2676.310          47.000                                                                  
G32  22011332.780   115670337.056       -3716.178          41.000    22011330.410    90132719.737       -2895.846          40.000  
G27  23283250.722   122354319.445        3655.865          36.000    23283269.073    95341109.952        2848.531          33.000  
G04  21769598.757                        2794.071          26.000    21769595.791                        2177.357          30.000  
C37  21223348.821   110515546.188         330.226          49.000                                                                  
C08  38844199.814   202271937.450       -2540.922          32.000    38844197.110   156409483.799       -1965.139          42.000  
C20  22300773.140   116125977.684         540.355          49.000                                                                  
C28  24323524.265   126658980.057        2441.163          43.000                                                                  
C07  37674261.708   196179768.224        1052.545          40.000    37674247.389   151698583.023         813.824          44.000  
C10  38653854.578   201280767.063         915.101          33.000    38653851.705   155643045.773         707.493          43.000  
G29                                                                  22182966.720                       -1530.708          30.000  
> 2025 10 28 07 05 33.1160000  0 21                     
G03  21816201.397   114644911.864       -1533.210          41.000    21816196.269    89333679.840       -1194.762          37.000  
G16  19928926.498   104727217.413        2053.923          46.000                                                                  
G26  18876134.954    99194759.937        -485.718          47.000    18876126.466    77294583.238        -378.406          45.000  
G28  20441526.756   107420947.548       -1729.089          44.000    20441515.451    83704588.860       -1347.398          44.000  
G31  19264261.055   101234377.420        -497.865          45.000    19264249.030    78883881.464        -387.989          43.000  
C06  35196192.383   183275810.620         -87.260          45.000    35196172.511   141720404.066         -67.559          44.000  
C09  36346499.335   189265760.381         -56.689          45.000    36346482.717   146352226.162         -43.874          46.000  
C13  37954559.643   197639350.581       -2439.509          38.000    37954558.058   152827278.156       -1886.551          40.000  
C16  35631463.802   185542381.922        -100.813          44.000    35631450.336   143473086.858         -77.925          44.000  
C23  21666715.014   112824270.747       -1812.295          42.000                                                                  
C32  22025775.492   114693995.512       -2676.383          47.000                                                                  
G32  22011361.067   115670485.711       -3716.395          41.000    22011358.713    90132835.581       -2896.135          40.000  
G27  23283222.889   122354173.215        3655.861          36.000    23283241.231    95340996.018        2848.385          33.000  
G04  21769577.617                        2794.583          26.000    21769574.504                        2177.469          31.000  
C37  21223346.287   110515532.985         330.099          49.000                                                                  
C08  38844219.317   202272039.085       -2540.899          32.000    38844216.632   156409562.397       -1965.077          42.000  
C20  22300768.951   116125956.085         540.028          49.000                                                                  
C28  24323505.522   126658882.435        2440.809          43.000                                                                  
C07  37674253.631   196179726.130        1052.374          39.000    37674239.303   151698550.482         813.531          44.000  
C10  38653847.550   201280730.472         914.908          33.000    38653844.672   155643017.481         707.362          43.000  
G29                                                                  22182981.680                       -1530.776          30.000  
> 2025 10 28 07 05 33.1560000  0 21                     
G03  21816213.082   114644973.199       -1533.357          41.000    21816207.937    89333727.629       -1194.751          37.000  
G16  19928910.867   104727135.262        2053.774          46.000                                                                  
G26  18876138.631    99194779.360        -485.646          47.000    18876130.141    77294598.377        -378.463          45.000  
G28  20441539.915   107421016.716       -1729.186          44.000    20441528.601    83704642.749       -1347.361          44.000  
G31  19264264.863   101234397.341        -498.013          45.000    19264252.806    78883896.985        -388.026          43.000  
C06  35196193.060   183275814.105         -87.261          45.000    35196173.143   141720406.752         -67.327          44.000  
C09  36346499.777   189265762.647         -56.749          45.000    36346483.181   146352227.913         -43.853          46.000  
C13  37954578.359   197639448.164       -2439.589          38.000    37954576.813   152827353.601       -1886.255          39.000  
C16  35631464.566   185542385.941        -100.637          44.000    35631451.096   143473089.970         -77.916          44.000  
C23  21666728.939   112824343.236       -1812.305          42.000                                                                  
C32  22025796.067   114694102.565       -2676.376          47.000                                                                  
G32  22011389.363   115670634.367       -3716.454          41.000    22011387.012    90132951.405       -2895.845          40.000  
G27  23283195.050   122354026.988        3655.697          36.000    23283213.401    95340882.074        2848.495          33.000  
G04  21769556.198                        2793.986          26.000    21769553.217                        2177.339          31.000  
C37  21223343.726   110515519.793         329.847          49.000                                                                  
C08  38844238.850   202272140.737       -2541.191          32.000    38844236.170   156409641.007       -1965.223          42.000  
C20  22300764.800   116125934.482         539.987          49.000                                                                  
C28  24323486.776   126658784.802        2440.785          43.000                                                                  
C07  37674245.562   196179684.036        1052.338          39.000    37674231.219   151698517.928         813.654          44.000  
C10  38653840.493   201280693.872         915.029          34.000    38653837.679   155642989.187         707.305          43.000  
G29                                                                  22182996.644                       -1530.739          30.000  
> 2025 10 28 07 05 33.1960000  0 21                     
G03  21816224.724   114645034.529       -1533.329          41.000    21816219.598    89333775.422       -1194.814          37.000  
G16  19928895.204   104727053.097        2053.973          46.000                                                                  
G26  18876142.312    99194798.783        -485.609          47.000    18876133.837    77294613.515        -378.489          45.000  
G28  20441553.044   107421085.872       -1729.020          44.000    20441541.747    83704696.639       -1347.307          44.000  
G31  19264268.668   101234417.258        -497.975          45.000    19264256.593    78883912.509        -388.081          43.000  
C06  35196193.740   183275817.587         -87.169          45.000    35196173.831   141720409.443         -67.303          44.000  
C09  36346500.245   189265764.907         -56.605          45.000    36346483.636   146352229.655         -43.655          46.000  
C13  37954597.106   197639545.766       -2439.979          38.000    37954595.546   152827429.072       -1886.632          39.000  
C16  35631465.355   185542389.961        -100.560          44.000    35631451.896   143473093.085         -77.891          44.000  
C23  21666742.870   112824415.721       -1812.222          42.000                                                                  
C32  22025816.644   114694209.607       -2676.176          47.000                                                                  
G32  22011417.664   115670783.021       -3716.440          43.000    22011415.306    90133067.231       -2895.715          40.000  
G27  23283167.231   122353880.767        3655.497          35.000    23283185.589    95340768.158        2847.997          33.000  
G04  21769534.672                        2794.242          26.000    21769531.930                        2177.570          31.000  
C37  21223341.235   110515506.581         330.089          49.000                                                                  
C08  38844258.343   202272242.387       -2541.329          32.000    38844255.673   156409719.598       -1964.975          42.000  
C20  22300760.679   116125912.869         540.186          49.000                                                                  
C28  24323468.015   126658687.184        2440.527          43.000                                                                  
C07  37674237.478   196179641.956        1052.063          39.000    37674223.101   151698485.369         813.843          44.000  
C10  38653833.456   201280657.265         915.244          34.000    38653830.663   155642960.891         707.307          43.000  
G29                                                                  22183011.584                       -1530.547          29.000  
> 2025 10 28 07 05 33.2360000  0 21                     
G03  21816236.385   114645095.867       -1533.409          41.000    21816231.267    89333823.219       -1194.844          37.000  
G16  19928879.559   104726970.937        2053.992          46.000                                                                  
G26  18876146.007    99194818.199        -485.464          47.000    18876137.512    77294628.652        -378.469          45.000  
G28  20441566.205   107421155.034       -1729.028          44.000    20441554.897    83704750.533       -1347.365          44.000  
G31  19264272.447   101234437.174        -497.944          45.000    19264260.379    78883928.010        -387.661          43.000  
C06  35196194.420   183275821.070         -87.111          45.000    35196174.514   141720412.126         -67.148          44.000  
C09  36346500.695   189265767.172         -56.638          45.000    36346484.072   146352231.404         -43.682          46.000  
C13  37954615.874   197639643.339       -2439.654          38.000    37954614.269   152827504.532       -1886.627          39.000  
C16  35631466.117   185542393.973        -100.366          44.000    35631452.646   143473096.196         -77.832          44.000  
C23  21666756.783   112824488.197       -1812.014          42.000                                                                  
C32  22025837.170   114694316.657       -2676.202          47.000                                                                  
G32  22011445.942   115670931.666       -3716.272          43.000    22011443.582    90133183.050       -2895.554          40.000  
G27  23283139.394   122353734.533        3655.671          35.000    23283157.767    95340654.225        2848.092          33.000  
G04  21769513.313                        2793.858          26.000    21769510.680                        2178.108          31.000  
C37  21223338.717   110515493.369         330.236          49.000                                                                  
C08  38844277.855   202272343.976       -2540.320          32.000    38844275.194   156409798.198       -1964.998          42.000  
C20  22300756.559   116125891.255         540.315          49.000                                                                  
C28  24323449.266   126658589.546        2440.766          43.000                                                                  
C07  37674229.396   196179599.855        1052.374          39.000    37674214.997   151698452.807         814.001          45.000  
C10  38653826.407   201280620.695         914.582          34.000    38653823.632   155642932.595         707.343          43.000  
G29                                                                  22183026.491                       -1530.813          29.000  
> 2025 10 28 07 05 33.2760000  0 21                     
G03  21816248.038   114645157.200       -1533.370          41.000    21816242.933    89333871.008       -1194.755          37.000  
G16  19928863.915   104726888.775        2054.043          46.000                                                                  
G26  18876149.724    99194837.626        -485.611          46.000    18876141.202    77294643.788        -378.470          45.000  
G28  20441579.346   107421224.187       -1728.881          44.000    20441568.052    83704804.421       -1347.272          44.000  
G31  19264276.249   101234457.081        -497.784          45.000    19264264.180    78883943.525        -387.743          43.000  
C06  35196195.120   183275824.538         -86.837          45.000    35196175.231   141720414.821         -67.249          44.000  
C09  36346501.119   189265769.428         -56.472          45.000    36346484.511   146352233.156         -43.752          46.000  
C13  37954634.616   197639740.906       -2439.341          38.000    37954633.006   152827579.994       -1886.659          39.000  
C16  35631466.885   185542398.005        -100.584          44.000    35631453.401   143473099.310         -77.855          44.000  
C23  21666770.690   112824560.688       -1812.153          42.000                                                                  
C32  22025857.728   114694423.710       -2676.277          47.000                                                                  
G32  22011474.229   115671080.321       -3716.328          43.000    22011471.865    90133298.882       -2895.686          40.000  
G27  23283111.520   122353588.276        3656.211          35.000    23283129.918    95340540.264        2848.677          33.000  
G04  21769492.195                        2793.866          26.000    21769489.438                        2177.130          31.000  
C37  21223336.190   110515480.158         330.270          49.000                                                                  
C08  38844297.380   202272445.664       -2541.495          32.000    38844294.726   156409876.806       -1965.125          42.000  
C20  22300752.404   116125869.640         540.388          49.000                                                                  
C28  24323430.534   126658491.902        2440.999          44.000                                                                  
C07  37674221.302   196179557.752        1052.545          39.000    37674206.904   151698420.245         814.063          45.000  
C10  38653819.373   201280584.115         914.276          34.000    38653816.625   155642904.290         707.512          43.000  
G29                                                                  22183041.452                       -1530.467          29.000  
> 2025 10 28 07 05 33.3160000  0 21                     
G03  21816259.743   114645218.546       -1533.570          41.000    21816254.603    89333918.787       -1194.518          37.000  
G16  19928848.268   104726806.612        2054.053          46.000                                                                  
G26  18876153.417    99194857.052        -485.686          46.000    18876144.918    77294658.924        -378.470          45.000  
G28  20441592.507   107421293.351       -1729.008          43.000    20441581.219    83704858.315       -1347.338          44.000  
G31  19264280.031   101234477.002        -497.969          44.000    19264267.955    78883959.043        -387.867          43.000  
C06  35196195.798   183275828.021         -87.000          45.000    35196175.901   141720417.523         -67.445          44.000  
C09  36346501.560   189265771.682         -56.367          45.000    36346484.936   146352234.903         -43.721          46.000  
C13  37954653.368   197639838.477       -2439.195          38.000    37954651.730   152827655.443       -1886.429          39.000  
C16  35631467.675   185542402.026        -100.565          44.000    35631454.161   143473102.415         -77.767          44.000  
C23  21666784.589   112824633.160       -1811.922          42.000                                                                  
C32  22025878.323   114694530.756       -2676.202          47.000                                                                  
G32  22011502.495   115671228.961       -3716.098          43.000    22011500.139    90133414.706       -2895.630          40.000  
G27  23283083.700   122353442.024        3656.467          35.000    23283102.092    95340426.308        2848.895          33.000  
G04  21769470.943                        2793.879          26.000    21769468.174    89142333.7321       2176.760          31.000  
C37  21223333.624   110515466.957         330.095          49.000                                                                  
C08  38844316.910   202272547.310       -2541.470          32.000    38844314.251   156409955.412       -1965.128          42.000  
C20  22300748.227   116125848.028         540.326          49.000                                                                  
C28  24323411.777   126658394.261        2441.052          44.000                                                                  
C07  37674213.200   196179515.651        1052.490          39.000    37674198.836   151698387.692         813.904          45.000  
C10  38653812.329   201280547.513         914.561          34.000    38653809.585   155642875.986         707.635          43.000  
G29                                                                  22183056.409                       -1530.628          29.000  
> 2025 10 28 07 05 33.3560000  0 21                     
G03  21816271.400   114645279.874       -1533.329          41.000    21816266.283    89333966.580       -1194.704          37.000  
G16  19928832.652   104726724.459        2053.891          46.000                                                                  
G26  18876157.131    99194876.492        -485.967          46.000    18876148.630    77294674.062        -378.470          45.000  
G28  20441605.693   107421362.509       -1728.995          43.000    20441594.371    83704912.192       -1347.077          44.000  
G31  19264283.833   101234496.905        -497.716          44.000    19264271.744    78883974.564        -388.015          43.000  
C06  35196196.459   183275831.502         -87.065          45.000    35196176.553   141720420.215         -67.411          44.000  
C09  36346501.984   189265773.941         -56.428          45.000    36346485.383   146352236.650         -43.696          46.000  
C13  37954672.109   197639936.056       -2439.348          38.000    37954670.459   152827730.910       -1886.648          39.000  
C16  35631468.446   185542406.050        -100.611          44.000    35631454.932   143473105.517         -77.598          44.000  
C23  21666798.485   112824705.640       -1811.950          42.000                                                                  
C32  22025898.848   114694637.808       -2676.290          47.000                                                                  
G32  22011530.786   115671377.618       -3716.299          43.000    22011528.398    90133530.532       -2895.656          40.000  
G27  23283055.876   122353295.814        3655.808          33.000    23283074.235    95340312.352        2848.993          33.000  
G04  21769449.850                        2794.109          26.000    21769446.911    89142246.645        2176.894          31.000  
C37  21223331.077   110515453.758         329.976          49.000                                                                  
C08  38844336.428   202272648.929       -2540.744          32.000    38844333.780   156410034.009       -1965.006          42.000  
C20  22300744.043   116125826.428         540.079          49.000                                                                  
C28  24323393.009   126658296.624        2440.984          44.000                                                                  
C07  37674205.115   196179473.559        1052.368          39.000    37674190.763   151698355.142         813.751          45.000  
C10  38653805.273   201280510.922         914.645          34.000    38653802.571   155642847.678         707.692          43.000  
G29                                                                  22183071.343                       -1530.696          29.000  
