     3.04           OBSERVATION DATA    M: Mixed            RINEX VERSION / TYPE
RTKCONV 2.4.3 b34                       20251028 071256 UTC PGM / RUN BY / DATE 
format: u-blox UBX                                          COMMENT             
log: D:\GPdata\10_28\fingure_up_10_28_phone_1.ubx           COMMENT             
                                                            MARKER NAME         
                                                            MARKER NUMBER       
                                                            MARKER TYPE         
                                                            OBSERVER / AGENCY   
                                                            REC # / TYPE / VERS 
                                                            ANT # / TYPE        
        0.0000        0.0000        0.0000                  APPROX POSITION XYZ 
        0.0000        0.0000        0.0000                  ANTENNA: DELTA H/E/N
G    8 C1C L1C D1C S1C C2L L2L D2L S2L                      SYS / # / OBS TYPES 
C    8 C2I L2I D2I S2I C7I L7I D7I S7I                      SYS / # / OBS TYPES 
  2025    10    28    07    05   56.7560000     GPS         TIME OF FIRST OBS   
  2025    10    28    07    06   23.3160000     GPS         TIME OF LAST OBS    
G L1C                                                       SYS / PHASE SHIFT   
G L2L  0.00000                                              SYS / PHASE SHIFT   
C L2I                                                       SYS / PHASE SHIFT   
C L7I                                                       SYS / PHASE SHIFT   
  0                                                         GLONASS SLOT / FRQ #
 C1C    0.000 C1P    0.000 C2C    0.000 C2P    0.000        GLONASS COD/PHS/BIS 
                                                            END OF HEADER       
> 2025 10 28 07 05 56.7560000  0 21                     
G03  21823129.014   114681316.7361      -1545.973          43.000    21823123.344    89362047.1671      -1204.708          36.000  
G16  19919711.476   104678793.3181       2043.732          47.000                                                                  
G26  18878345.816    99206376.5981       -496.396          49.000    18878336.904    77303635.2061       -386.824          47.000  
G28  20449318.146   107461891.9621      -1734.029          46.000    20449306.803    83736493.5811      -1351.379          45.000  
G31  19266516.548   101246231.0951       -504.070          47.000    19266504.493    78893118.1091       -392.946          45.000  
C06  35196585.924   183277859.9931        -85.470          47.000    35196566.248   141721988.7701        -66.163          47.000  
C09  36346753.556   189267085.1341        -54.622          45.000    36346737.100   146353250.5851        -42.360          47.000  
C13  37965637.832   197697036.0721      -2439.829          37.000    37965635.856   152871883.9571      -1887.031          40.000  
C16  35631918.242   185544749.8881        -98.961          47.000    35631905.242   143474917.9321        -76.570          47.000  
C23  21674948.681   112867145.3921      -1814.383          43.000                                                                  
C32  22037947.142   114757377.6571      -2684.967          45.000                                                                  
G32  22028094.234   115758416.7021      -3721.949          42.000    22028091.619    90201352.9401      -2899.988          40.000  
G27  23266774.305   122267746.2661       3656.903          36.000    23266792.398    95273652.9081       2850.216          34.000  
G04  21757033.158                        2788.285          28.000    21757020.670                        2173.131          30.000  
C37  21221859.381   110507790.4291        325.804          49.000                                                                  
C08  38855756.413   202332114.4921      -2541.326          34.000    38855754.455   156456015.9691      -1964.567          42.000  
C20  22298347.143   116113344.9601        527.532          48.000                                                                  
C28  24312423.892   126601180.7671       2441.824          41.000                                                                  
C07  37669477.927   196154860.1981       1052.216          40.000    37669463.738   151679322.7141        813.409          42.000  
C10  38649695.486   201259109.9171        915.395          33.000    38649692.420   155626299.4231        707.574          43.000  
G29                                                                  22191849.216                       -1540.405          29.000  
> 2025 10 28 07 05 56.7960000  0 21                     
G03  21823140.783   114681378.568       -1545.940          43.000    21823135.105    89362095.334       -1204.366          36.000  
G16  19919695.919   104678711.571        2043.676          47.000                                                                  
G26  18878349.606    99206396.448        -496.294          49.000    18878340.668    77303650.676        -386.800          47.000  
G28  20449331.359   107461961.325       -1734.030          46.000    20449319.989    83736547.628       -1351.298          45.000  
G31  19266520.393   101246251.256        -504.034          47.000    19266508.323    78893133.812        -392.699          45.000  
C06  35196586.605   183277863.406         -85.377          47.000    35196566.921   141721991.406         -65.977          47.000  
C09  36346753.968   189267087.317         -54.610          45.000    36346737.524   146353252.261         -42.063          47.000  
C13  37965656.580   197697133.669       -2439.940          37.000    37965654.602   152871959.415       -1886.695          40.000  
C16  35631919.002   185544753.834         -98.766          47.000    35631906.005   143474920.979         -76.308          47.000  
C23  21674962.629   112867217.962       -1814.313          43.000                                                                  
C32  22037967.754   114757485.062       -2685.098          45.000                                                                  
G32  22028122.561   115758565.574       -3721.831          42.000    22028119.963    90201468.951       -2900.256          40.000  
G27  23266746.483   122267599.993        3656.882          36.000    23266764.548    95273538.943        2849.617          34.000  
G04  21757012.023                        2788.677          28.000    21756999.447                        2173.256          30.000  
C37  21221856.866   110507777.397         325.784          49.000                                                                  
C08  38855775.947   202332216.089       -2540.610          34.000    38855773.961   156456094.539       -1964.390          42.000  
C20  22298343.121   116113323.855         527.606          48.000                                                                  
C28  24312405.107   126601083.083        2442.024          41.000                                                                  
C07  37669469.829   196154818.118        1052.063          40.000    37669455.644   151679290.167         813.599          42.000  
C10  38649688.468   201259073.284         915.740          33.000    38649685.405   155626271.118         707.569          43.000  
G29                                                                  22191864.260                       -1540.362          29.000  
> 2025 10 28 07 05 56.8360000  0 21                     
G03  21823152.557   114681440.400       -1545.877          43.000    21823146.868    89362143.492       -1204.036          36.000  
G16  19919680.358   104678629.818        2043.778          47.000                                                                  
G26  18878353.391    99206416.292        -496.145          49.000    18878344.439    77303666.137        -386.611          47.000  
G28  20449344.550   107462030.679       -1733.883          46.000    20449333.178    83736601.672       -1351.161          45.000  
G31  19266524.263   101246271.418        -504.035          47.000    19266512.163    78893149.523        -392.712          45.000  
C06  35196587.277   183277866.819         -85.300          47.000    35196567.583   141721994.049         -66.041          47.000  
C09  36346754.376   189267089.501         -54.643          45.000    36346737.944   146353253.942         -42.004          47.000  
C13  37965675.340   197697231.268       -2440.007          37.000    37965673.330   152872034.868       -1886.427          40.000  
C16  35631919.768   185544757.781         -98.672          47.000    35631906.778   143474924.030         -76.261          47.000  
C23  21674976.582   112867290.532       -1814.295          43.000                                                                  
C32  22037988.382   114757592.464       -2685.072          45.000                                                                  
G32  22028150.913   115758714.455       -3721.969          42.000    22028148.300    90201584.985       -2900.746          40.000  
G27  23266718.642   122267453.695        3657.369          36.000    23266736.693    95273424.955        2849.763          34.000  
G04  21756990.827                        2788.588          28.000    21756978.236                        2173.459          30.000  
C37  21221854.345   110507764.359         325.899          49.000                                                                  
C08  38855795.444   202332317.642       -2539.233          34.000    38855793.472   156456173.114       -1964.387          42.000  
C20  22298339.080   116113302.749         527.649          48.000                                                                  
C28  24312386.337   126600985.416        2441.844          41.000                                                                  
C07  37669461.762   196154776.027        1052.197          40.000    37669447.580   151679257.610         813.861          42.000  
C10  38649681.452   201259036.713         914.719          33.000    38649678.366   155626242.807         707.679          43.000  
G29                                                                  22191879.309                       -1540.719          29.000  
> 2025 10 28 07 05 56.8760000  0 21                     
G03  21823164.356   114681502.235       -1545.934          43.000    21823158.653    89362191.678       -1204.417          36.000  
G16  19919664.814   104678548.073        2043.631          47.000                                                                  
G26  18878357.186    99206436.142        -496.184          49.000    18878348.234    77303681.600        -386.518          47.000  
G28  20449357.769   107462100.044       -1734.031          46.000    20449346.362    83736655.717       -1351.104          45.000  
G31  19266528.111   101246291.574        -503.955          47.000    19266516.002    78893165.229        -392.632          45.000  
C06  35196587.911   183277870.227         -85.193          47.000    35196568.244   141721996.683         -65.903          47.000  
C09  36346754.807   189267091.679         -54.528          45.000    36346738.364   146353255.631         -42.135          47.000  
C13  37965694.065   197697328.865       -2439.995          37.000    37965692.065   152872110.337       -1886.586          40.000  
C16  35631920.522   185544761.721         -98.535          47.000    35631907.566   143474927.086         -76.324          47.000  
C23  21674990.513   112867363.104       -1814.309          43.000                                                                  
C32  22038009.023   114757699.866       -2685.085          45.000                                                                  
G32  22028179.236   115758863.317       -3721.720          42.000    22028176.636    90201700.978       -2900.187          40.000  
G27  23266690.811   122267307.410        3657.283          36.000    23266708.844    95273310.967        2849.733          34.000  
G04  21756969.386                        2788.799          28.000    21756956.994                        2171.893          30.000  
C37  21221851.806   110507751.324         325.865          49.000                                                                  
C08  38855814.942   202332419.255       -2539.615          34.000    38855812.966   156456251.688       -1964.409          42.000  
C20  22298335.044   116113281.635         527.797          48.000                                                                  
C28  24312367.575   126600887.740        2441.869          41.000                                                                  
C07  37669453.697   196154733.934        1052.283          40.000    37669439.497   151679225.060         813.818          42.000  
C10  38649674.419   201259000.095         915.058          33.000    38649671.328   155626214.496         707.763          43.000  
G29                                                                  22191894.377                       -1540.503          29.000  
> 2025 10 28 07 05 56.9160000  0 21                     
G03  21823176.106   114681564.059       -1545.719          43.000    21823170.419    89362239.889       -1205.017          36.000  
G16  19919649.262   104678466.330        2043.555          47.000                                                                  
G26  18878360.963    99206455.998        -496.336          49.000    18878352.018    77303697.070        -386.679          47.000  
G28  20449370.975   107462169.408       -1734.109          46.000    20449359.537    83736709.764       -1351.143          45.000  
G31  19266531.945   101246311.746        -504.239          47.000    19266519.854    78893180.945        -392.817          45.000  
C06  35196588.559   183277873.649         -85.415          47.000    35196568.895   141721999.330         -66.067          47.000  
C09  36346755.219   189267093.863         -54.600          45.000    36346738.780   146353257.321         -42.230          47.000  
C13  37965712.817   197697426.457       -2439.834          37.000    37965710.792   152872185.803       -1886.699          40.000  
C16  35631921.254   185544765.675         -98.732          47.000    35631908.353   143474930.141         -76.385          47.000  
C23  21675004.480   112867435.671       -1814.227          43.000                                                                  
C32  22038029.651   114757807.272       -2685.160          45.000                                                                  
G32  22028207.557   115759012.199       -3721.939          42.000    22028204.962    90201816.982       -2900.108          40.000  
G27  23266662.975   122267161.131        3657.047          36.000    23266681.008    95273196.978        2849.761          34.000  
G04  21756948.193                        2788.618          28.000    21756935.763                        2172.510          30.000  
C37  21221849.263   110507738.295         325.742          49.000                                                                  
C08  38855834.453   202332520.881       -2540.216          34.000    38855832.474   156456330.266       -1964.460          42.000  
C20  22298330.983   116113260.535         527.624          48.000                                                                  
C28  24312348.818   126600790.076        2441.673          41.000                                                                  
C07  37669445.619   196154691.844        1052.258          40.000    37669431.422   151679192.525         813.525          42.000  
C10  38649667.374   201258963.490         915.139          33.000    38649664.290   155626186.187         707.753          43.000  
G29                                                                  22191909.422                       -1540.595          29.000  
> 2025 10 28 07 05 56.9560000  0 21                     
G03  21823187.860   114681625.899       -1545.896          43.000    21823182.185    89362288.070       -1204.797          36.000  
G16  19919633.678   104678384.579        2043.659          47.000                                                                  
G26  18878364.735    99206475.854        -496.443          49.000    18878355.808    77303712.545        -386.867          47.000  
G28  20449384.171   107462238.777       -1734.211          46.000    20449372.742    83736763.820       -1351.333          45.000  
G31  19266535.782   101246331.921        -504.410          47.000    19266523.687    78893196.663        -392.928          45.000  
C06  35196589.210   183277877.064         -85.442          47.000    35196569.547   141722001.975         -66.139          47.000  
C09  36346755.622   189267096.050         -54.695          45.000    36346739.219   146353259.019         -42.418          47.000  
C13  37965731.573   197697524.048       -2439.731          37.000    37965729.510   152872261.275       -1886.871          40.000  
C16  35631922.002   185544769.629         -98.835          47.000    35631909.132   143474933.201         -76.489          47.000  
C23  21675018.410   112867508.250       -1814.442          43.000                                                                  
C32  22038050.265   114757914.680       -2685.246          45.000                                                                  
G32  22028235.884   115759161.084       -3722.131          42.000    22028233.297    90201932.989       -2900.121          40.000  
G27  23266635.124   122267014.826        3657.405          36.000    23266653.173    95273083.019        2849.228          35.000  
G04  21756926.606                        2788.256          28.000    21756914.544                        2173.028          30.000  
C37  21221846.776   110507725.260         325.796          49.000                                                                  
C08  38855853.967   202332622.529       -2540.987          34.000    38855851.972   156456408.843       -1964.438          42.000  
C20  22298326.914   116113239.440         527.383          48.000                                                                  
C28  24312330.057   126600692.406        2441.662          41.000                                                                  
C07  37669437.527   196154649.756        1052.191          40.000    37669423.339   151679159.985         813.470          42.000  
C10  38649660.345   201258926.872         915.280          33.000    38649657.239   155626157.882         707.646          43.000  
G29                                                                  22191924.458                       -1540.528          29.000  
> 2025 10 28 07 05 56.9960000  0 21                     
G03  21823199.639   114681687.740       -1546.034          43.000    21823193.971    89362336.268       -1204.979          36.000  
G16  19919618.113   104678302.841        2043.503          47.000                                                                  
G26  18878368.528    99206495.714        -496.529          49.000    18878359.584    77303728.029        -387.097          47.000  
G28  20449397.367   107462308.140       -1734.174          46.000    20449385.929    83736817.877       -1351.480          45.000  
G31  19266539.609   101246352.089        -504.366          47.000    19266527.507    78893212.386        -393.050          45.000  
C06  35196589.864   183277880.485         -85.531          47.000    35196570.212   141722004.616         -66.110          47.000  
C09  36346756.013   189267098.239         -54.743          45.000    36346739.655   146353260.709         -42.371          47.000  
C13  37965750.323   197697621.645       -2439.796          37.000    37965748.271   152872336.736       -1886.721          40.000  
C16  35631922.742   185544773.590         -99.021          47.000    35631909.891   143474936.258         -76.499          47.000  
C23  21675032.353   112867580.831       -1814.604          43.000                                                                  
C32  22038070.919   114758022.088       -2685.270          45.000                                                                  
G32  22028264.224   115759309.973       -3722.291          42.000    22028261.611    90202049.002       -2900.265          40.000  
G27  23266607.283   122266868.545        3657.139          36.000    23266625.321    95272969.038        2849.331          34.000  
G04  21756905.463                        2788.469          28.000    21756893.308                        2173.094          30.000  
C37  21221844.303   110507712.229         325.771          49.000                                                                  
C08  38855873.482   202332724.152       -2540.891          34.000    38855871.499   156456487.432       -1964.705          42.000  
C20  22298322.890   116113218.346         527.273          48.000                                                                  
C28  24312311.298   126600594.746        2441.467          41.000                                                                  
C07  37669429.431   196154607.670        1052.039          40.000    37669415.270   151679127.442         813.495          42.000  
C10  38649653.322   201258890.261         915.311          33.000    38649650.203   155626129.584         707.471          43.000  
G29                                                                  22191939.517                       -1540.638          29.000  
> 2025 10 28 07 05 57.0360000  0 21                     
G03  21823211.413   114681749.577       -1546.039          42.000    21823205.748    89362384.447       -1204.724          36.000  
G16  19919602.568   104678221.100        2043.466          47.000                                                                  
G26  18878372.303    99206515.572        -496.558          49.000    18878363.351    77303743.498        -386.910          47.000  
G28  20449410.575   107462377.510       -1734.265          46.000    20449399.135    83736871.932       -1351.515          45.000  
G31  19266543.429   101246372.256        -504.286          47.000    19266531.353    78893228.098        -392.889          45.000  
C06  35196590.507   183277883.909         -85.646          47.000    35196570.861   141722007.262         -66.173          47.000  
C09  36346756.438   189267100.423         -54.691          45.000    36346740.070   146353262.391         -42.179          47.000  
C13  37965769.085   197697719.238       -2439.821          37.000    37965767.051   152872412.211       -1886.860          40.000  
C16  35631923.512   185544777.544         -98.974          47.000    35631910.659   143474939.319         -76.543          47.000  
C23  21675046.307   112867653.402       -1814.424          43.000                                                                  
C32  22038091.553   114758129.495       -2685.269          45.000                                                                  
G32  22028292.551   115759458.847       -3722.065          42.000    22028289.949    90202165.024       -2900.500          40.000  
G27  23266579.448   122266722.264        3656.881          36.000    23266597.466    95272855.034        2849.872          34.000  
G04  21756884.139                        2788.276          28.000    21756872.066                        2173.608          30.000  
C37  21221841.800   110507699.204         325.642          49.000                                                                  
C08  38855892.996   202332825.783       -2540.933          34.000    38855891.005   156456566.014       -1964.713          42.000  
C20  22298318.871   116113197.251         527.256          48.000                                                                  
C28  24312292.535   126600497.073        2441.655          41.000                                                                  
C07  37669421.347   196154565.581        1052.094          40.000    37669407.181   151679094.905         813.434          42.000  
C10  38649646.293   201258853.673         914.948          33.000    38649643.193   155626101.280         707.504          43.000  
G29                                                                  22191954.579    90872348.388       -1540.706          29.000  
> 2025 10 28 07 05 57.0760000  0 21                     
G03  21823223.192   114681811.419       -1546.119          42.000    21823217.539    89362432.612       -1204.311          36.000  
G16  19919587.017   104678139.361        2043.467          47.000                                                                  
G26  18878376.077    99206535.423        -496.399          49.000    18878367.119    77303758.967        -386.784          47.000  
G28  20449423.766   107462446.876       -1734.223          46.000    20449412.326    83736925.989       -1351.500          45.000  
G31  19266547.258   101246392.422        -504.218          47.000    19266535.177    78893243.811        -392.822          45.000  
C06  35196591.134   183277887.331         -85.612          47.000    35196571.516   141722009.902         -66.071          47.000  
C09  36346756.866   189267102.610         -54.709          45.000    36346740.484   146353264.086         -42.321          47.000  
C13  37965787.818   197697816.826       -2439.745          37.000    37965785.798   152872487.674       -1886.679          40.000  
C16  35631924.261   185544781.499         -98.931          47.000    35631911.405   143474942.376         -76.515          47.000  
C23  21675060.244   112867725.981       -1814.500          43.000                                                                  
C32  22038112.183   114758236.900       -2685.194          45.000                                                                  
G32  22028320.889   115759607.727       -3722.041          42.000    22028318.273    90202281.038       -2900.442          40.000  
G27  23266551.610   122266575.990        3656.789          36.000    23266569.610    95272741.081        2849.097          34.000  
G04  21756863.017                        2787.948          28.000    21756850.867                        2172.116          30.000  
C37  21221839.327   110507686.175         325.632          49.000                                                                  
C08  38855912.511   202332927.397       -2540.542          34.000    38855910.537   156456644.583       -1964.451          42.000  
C20  22298314.818   116113176.153         527.349          48.000                                                                  
C28  24312273.791   126600399.387        2442.056          41.000                                                                  
C07  37669413.278   196154523.507        1051.855          40.000    37669399.092   151679062.358         813.593          42.000  
C10  38649639.259   201258817.066         915.044          33.000    38649636.153   155626072.979         707.488          43.000  
G29                                                                  22191969.659    90872410.045       -1541.080          29.000  
> 2025 10 28 07 05 57.1160000  0 21                     
G03  21823234.950   114681873.260       -1546.111          42.000    21823229.310    89362480.802       -1204.535          36.000  
G16  19919571.459   104678057.618        2043.529          47.000                                                                  
G26  18878379.855    99206555.280        -496.438          49.000    18878370.892    77303774.438        -386.741          47.000  
G28  20449436.967   107462516.244       -1734.228          46.000    20449425.491    83736980.031       -1351.224          45.000  
G31  19266551.085   101246412.584        -504.089          47.000    19266539.013    78893259.530        -392.933          45.000  
C06  35196591.802   183277890.744         -85.424          47.000    35196572.169   141722012.542         -66.013          47.000  
C09  36346757.293   189267104.793         -54.672          45.000    36346740.889   146353265.774         -42.289          47.000  
C13  37965806.563   197697914.447       -2440.312          37.000    37965804.519   152872563.140       -1886.673          40.000  
C16  35631925.045   185544785.447         -98.760          47.000    35631912.168   143474945.431         -76.434          47.000  
C23  21675074.226   112867798.570       -1814.668          43.000                                                                  
C32  22038132.808   114758344.311       -2685.256          45.000                                                                  
G32  22028349.242   115759756.614       -3722.210          42.000    22028346.600    90202397.036       -2900.125          40.000  
G27  23266523.751   122266429.717        3656.777          36.000    23266541.784    95272627.101        2849.285          35.000  
G04  21756841.843                        2788.012          28.000    21756829.658                        2172.705          30.000  
C37  21221836.822   110507673.143         325.691          49.000                                                                  
C08  38855932.029   202333028.987       -2539.962          34.000    38855930.057   156456723.154       -1964.312          42.000  
C20  22298310.756   116113155.049         527.509          48.000                                                                  
C28  24312255.033   126600301.718        2441.871          41.000                                                                  
C07  37669405.188   196154481.426        1051.892          40.000    37669391.009   151679029.814         813.617          42.000  
C10  38649632.242   201258780.488         914.555          33.000    38649629.144   155626044.680         707.463          43.000  
G29                                                                  22191984.698                       -1540.784          29.000  
> 2025 10 28 07 05 57.1560000  0 21                     
G03  21823246.726   114681935.094       -1545.894          42.000    21823241.090    89362528.991       -1204.596          36.000  
G16  19919555.895   104677975.872        2043.580          47.000                                                                  
G26  18878383.629    99206575.147        -496.600          49.000    18878374.704    77303789.916        -386.887          47.000  
G28  20449450.159   107462585.608       -1734.160          46.000    20449438.700    83737034.075       -1351.113          45.000  
G31  19266554.938   101246432.755        -504.194          47.000    19266542.840    78893275.245        -392.933          45.000  
C06  35196592.442   183277894.152         -85.244          47.000    35196572.822   141722015.181         -65.989          47.000  
C09  36346757.720   189267106.962         -54.349          45.000    36346741.319   146353267.463         -42.237          47.000  
C13  37965825.296   197698012.027       -2439.864          37.000    37965823.254   152872638.604       -1886.626          40.000  
C16  35631925.842   185544789.399         -98.778          47.000    35631912.904   143474948.481         -76.284          47.000  
C23  21675088.167   112867871.129       -1814.220          43.000                                                                  
C32  22038153.428   114758451.712       -2685.125          45.000                                                                  
G32  22028377.608   115759905.493       -3722.064          42.000    22028374.910    90202513.044       -2900.196          40.000  
G27  23266495.884   122266283.409        3657.401          36.000    23266513.942    95272513.137        2849.048          35.000  
G04  21756821.045                        2788.244          28.000    21756808.419                        2172.688          30.000  
C37  21221834.335   110507660.110         325.783          49.000                                                                  
C08  38855951.535   202333130.612       -2540.445          34.000    38855949.580   156456801.718       -1964.141          42.000  
C20  22298306.694   116113133.950         527.509          48.000                                                                  
C28  24312236.280   126600204.043        2441.888          41.000                                                                  
C07  37669397.137   196154439.334        1052.124          40.000    37669382.933   151678997.262         813.763          42.000  
C10  38649625.232   201258743.877         914.948          33.000    38649622.108   155626016.369         707.647          43.000  
G29                                                                  22191999.752    90872533.288       -1540.809          29.000  
> 2025 10 28 07 05 57.1960000  0 21                     
G03  21823258.495   114681996.925       -1545.732          42.000    21823252.845    89362577.164       -1204.338          36.000  
G16  19919540.361   104677894.131        2043.538          47.000                                                                  
G26  18878387.418    99206595.000        -496.441          49.000    18878378.486    77303805.384        -386.786          47.000  
G28  20449463.340   107462654.968       -1734.032          46.000    20449451.912    83737088.131       -1351.273          45.000  
G31  19266558.777   101246452.924        -504.243          47.000    19266546.674    78893290.956        -392.853          45.000  
C06  35196593.081   183277897.560         -85.181          47.000    35196573.499   141722017.823         -66.031          47.000  
C09  36346758.119   189267109.144         -54.442          45.000    36346741.722   146353269.138         -41.990          47.000  
C13  37965844.053   197698109.596       -2439.410          37.000    37965842.021   152872714.063       -1886.473          40.000  
C16  35631926.634   185544793.351         -98.800          47.000    35631913.645   143474951.532         -76.229          47.000  
C23  21675102.093   112867943.702       -1814.223          43.000                                                                  
C32  22038174.059   114758559.118       -2685.132          45.000                                                                  
G32  22028405.926   115760054.374       -3722.040          42.000    22028403.271    90202629.058       -2900.321          40.000  
G27  23266468.067   122266137.134        3657.174          36.000    23266486.085    95272399.114        2850.044          35.000  
G04  21756799.640                        2789.057          28.000    21756787.228                        2172.737          30.000  
C37  21221831.878   110507647.076         325.838          49.000                                                                  
C08  38855971.073   202333232.229       -2540.479          34.000    38855969.092   156456880.301       -1964.399          42.000  
C20  22298302.642   116113112.851         527.471          48.000                                                                  
C28  24312217.534   126600106.369        2441.829          41.000                                                                  
C07  37669389.052   196154397.242        1052.222          40.000    37669374.855   151678964.714         813.708          42.000  
C10  38649618.189   201258707.249         915.479          33.000    38649615.064   155625988.056         707.779          43.000  
G29                                                                  22192014.814    90872594.901       -1540.588          29.000  
> 2025 10 28 07 05 57.2360000  0 21                     
G03  21823270.247   114682058.760       -1545.805          42.000    21823264.628    89362625.372       -1204.997          36.000  
G16  19919524.806   104677812.382        2043.658          47.000                                                                  
G26  18878391.156    99206614.848        -496.266          49.000    18878382.259    77303820.850        -386.686          47.000  
G28  20449476.540   107462724.331       -1734.043          46.000    20449465.086    83737142.173       -1351.137          45.000  
G31  19266562.615   101246473.084        -504.083          47.000    19266550.517    78893306.672        -392.903          45.000  
C06  35196593.719   183277900.972         -85.240          47.000    35196574.160   141722020.457         -65.886          47.000  
C09  36346758.547   189267111.321         -54.411          45.000    36346742.130   146353270.813         -41.875          47.000  
C13  37965862.778   197698207.203       -2439.873          37.000    37965860.763   152872789.533       -1886.603          40.000  
C16  35631927.443   185544797.293         -98.638          47.000    35631914.389   143474954.588         -76.312          47.000  
C23  21675116.057   112868016.267       -1814.099          43.000                                                                  
C32  22038194.681   114758666.526       -2685.169          45.000                                                                  
G32  22028434.237   115760203.246       -3721.866          42.000    22028431.592    90202745.061       -2900.183          40.000  
G27  23266440.215   122265990.832        3657.487          36.000    23266458.241    95272285.104        2850.344          35.000  
G04  21756778.628                        2788.694          28.000    21756765.995                        2172.941          30.000  
C37  21221829.373   110507634.040         325.913          49.000                                                                  
C08  38855990.615   202333333.851       -2540.564          34.000    38855988.615   156456958.866       -1964.237          42.000  
C20  22298298.613   116113091.746         527.576          48.000                                                                  
C28  24312198.788   126600008.693        2441.836          41.000                                                                  
C07  37669380.955   196154355.147        1052.332          40.000    37669366.764   151678932.165         813.715          42.000  
C10  38649611.162   201258670.622         915.675          33.000    38649608.034   155625959.744         707.798          43.000  
G29                                                                  22192029.865                       -1540.815          29.000  
> 2025 10 28 07 05 57.2760000  0 21                     
G03  21823282.022   114682120.586       -1545.636          42.000    21823276.399    89362673.556       -1204.861          36.000  
G16  19919509.232   104677730.629        2043.778          47.000                                                                  
G26  18878394.942    99206634.704        -496.332          49.000    18878386.060    77303836.328        -386.857          47.000  
G28  20449489.717   107462793.684       -1733.887          46.000    20449478.293    83737196.221       -1351.186          45.000  
G31  19266566.401   101246493.239        -503.917          47.000    19266554.353    78893322.370        -392.625          45.000  
C06  35196594.337   183277904.377         -85.134          47.000    35196574.796   141722023.094         -65.903          47.000  
C09  36346758.962   189267113.499         -54.432          45.000    36346742.558   146353272.501         -42.063          47.000  
C13  37965881.504   197698304.788       -2439.765          37.000    37965879.504   152872864.996       -1886.650          40.000  
C16  35631928.235   185544801.233         -98.526          47.000    35631915.162   143474957.635         -76.223          47.000  
C23  21675130.006   112868088.828       -1814.009          43.000                                                                  
C32  22038215.303   114758773.928       -2685.095          45.000                                                                  
G32  22028462.569   115760352.126       -3722.000          42.000    22028459.909    90202861.073       -2900.258          40.000  
G27  23266412.392   122265844.550        3657.227          36.000    23266430.371    95272171.145        2849.491          35.000  
G04  21756757.071                        2788.923          28.000    21756744.727                        2173.573          30.000  
C37  21221826.907   110507620.998         326.013          49.000                                                                  
C08  38856010.123   202333435.466       -2540.477          34.000    38856008.144   156457037.437       -1964.231          42.000  
C20  22298294.546   116113070.646         527.526          48.000                                                                  
C28  24312180.031   126599911.025        2441.749          41.000                                                                  
C07  37669372.863   196154313.050        1052.393          40.000    37669358.654   151678899.622         813.580          42.000  
C10  38649604.128   201258633.998         915.717          33.000    38649601.016   155625931.431         707.862          43.000  
G29                                                                  22192044.869                       -1540.428          29.000  
> 2025 10 28 07 05 57.3160000  0 21                     
G03  21823293.787   114682182.435       -1546.034          42.000    21823288.176    89362721.727       -1204.487          36.000  
G16  19919493.688   104677648.881        2043.723          47.000                                                                  
G26  18878398.725    99206654.556        -496.301          49.000    18878389.868    77303851.803        -386.893          46.000  
G28  20449502.906   107462863.041       -1733.889          46.000    20449491.478    83737250.269       -1351.207          45.000  
G31  19266570.250   101246513.407        -504.090          47.000    19266558.192    78893338.077        -392.626          45.000  
C06  35196594.984   183277907.786         -85.172          47.000    35196575.438   141722025.728         -65.875          47.000  
C09  36346759.391   189267115.669         -54.312          45.000    36346742.974   146353274.190         -42.215          47.000  
C13  37965900.261   197698402.378       -2439.799          37.000    37965898.232   152872940.448       -1886.445          40.000  
C16  35631929.004   185544805.177         -98.558          47.000    35631915.950   143474960.686         -76.259          47.000  
C23  21675143.933   112868161.394       -1814.061          43.000                                                                  
C32  22038235.920   114758881.327       -2685.021          45.000                                                                  
G32  22028490.894   115760501.005       -3722.024          42.000    22028488.257    90202977.072       -2900.128          40.000  
G27  23266384.569   122265698.268        3657.056          36.000    23266402.524    95272057.152        2849.569          35.000  
G04  21756736.338                        2788.350          28.000    21756723.500                        2173.600          30.000  
C37  21221824.378   110507607.958         326.048          49.000                                                                  
C08  38856029.640   202333537.060       -2540.085          34.000    38856027.651   156457116.009       -1964.259          42.000  
C20  22298290.476   116113049.547         527.471          48.000                                                                  
C28  24312161.290   126599813.342        2441.940          41.000                                                                  
C07  37669364.795   196154270.959        1052.289          40.000    37669350.593   151678867.088         813.361          42.000  
C10  38649597.122   201258597.423         914.788          33.000    38649593.992   155625903.121         707.806          43.000  
G29                                                                  22192059.896                       -1540.343          29.000  
> 2025 10 28 07 05 57.3560000  0 21                     
G03  21823305.574   114682244.272       -1546.059          42.000    21823299.927    89362769.906       -1204.407          36.000  
G16  19919478.151   104677567.143        2043.523          47.000                                                                  
G26  18878402.495    99206674.413        -496.390          49.000    18878393.628    77303867.275        -386.842          46.000  
G28  20449516.111   107462932.407       -1734.061          46.000    20449504.682    83737304.316       -1351.220          44.000  
G31  19266574.096   101246533.572        -504.146          47.000    19266562.033    78893353.797        -392.892          45.000  
C06  35196595.613   183277911.201         -85.299          47.000    35196576.087   141722028.359         -65.803          47.000  
C09  36346759.807   189267117.837         -54.220          45.000    36346743.391   146353275.875         -42.180          47.000  
C13  37965919.017   197698499.983       -2440.068          37.000    37965916.955   152873015.902       -1886.397          40.000  
C16  35631929.761   185544809.118         -98.534          47.000    35631916.693   143474963.736         -76.246          47.000  
C23  21675157.837   112868233.969       -1814.289          43.000                                                                  
C32  22038256.535   114758988.732       -2685.096          45.000                                                                  
G32  22028519.228   115760649.881       -3721.923          42.000    22028516.582    90203093.096       -2900.521          40.000  
G27  23266356.741   122265551.998        3656.708          36.000    23266374.686    95271943.185        2849.164          34.000  
G04  21756715.339                        2788.239          28.000    21756702.268                        2172.841          30.000  
C37  21221821.837   110507594.923         325.937          49.000                                                                  
C08  38856049.145   202333638.658       -2540.034          34.000    38856047.174   156457194.581       -1964.324          42.000  
C20  22298286.403   116113028.448         527.453          48.000                                                                  
C28  24312142.546   126599715.654        2442.134          41.000                                                                  
C07  37669356.721   196154228.872        1052.191          40.000    37669342.510   151678834.531         813.733          42.000  
C10  38649590.086   201258560.791         915.355          33.000    38649586.927   155625874.814         707.713          43.000  
G29                                                                  22192074.951    90872841.387       -1540.454          29.000  
> 2025 10 28 07 05 57.3960000  0 21                     
G03  21823317.346   114682306.104       -1545.898          42.000    21823311.672    89362818.093       -1204.554          36.000  
G16  19919462.580   104677485.398        2043.520          47.000                                                                  
G26  18878406.288    99206694.277        -496.571          49.000    18878397.399    77303882.748        -386.862          46.000  
G28  20449529.310   107463001.771       -1734.109          46.000    20449517.884    83737358.365       -1351.232          44.000  
G31  19266577.916   101246553.729        -504.016          47.000    19266565.882    78893369.517        -392.989          45.000  
C06  35196596.271   183277914.607         -85.219          47.000    35196576.713   141722030.998         -65.913          47.000  
C09  36346760.214   189267120.015         -54.362          45.000    36346743.801   146353277.559         -42.153          47.000  
C13  37965937.770   197698597.566       -2439.728          37.000    37965935.675   152873091.354       -1886.314          40.000  
C16  35631930.530   185544813.065         -98.614          47.000    35631917.417   143474966.791         -76.373          47.000  
C23  21675171.736   112868306.532       -1814.206          43.000                                                                  
C32  22038277.168   114759096.140       -2685.158          45.000                                                                  
G32  22028547.549   115760798.759       -3721.885          42.000    22028544.917    90203209.116       -2900.605          40.000  
G27  23266328.906   122265405.684        3657.423          36.000    23266346.846    95271829.181        2849.717          34.000  
G04  21756694.126                        2788.675          28.000    21756681.070                        2171.747          30.000  
C37  21221819.306   110507581.890         325.841          49.000                                                                  
C08  38856068.669   202333740.259       -2540.005          34.000    38856066.671   156457273.154       -1964.350          42.000  
C20  22298282.358   116113007.348         527.453          48.000                                                                  
C28  24312123.789   126599617.970        2442.162          41.000                                                                  
C07  37669348.647   196154186.782        1052.209          40.000    37669334.405   151678801.965         814.063          42.000  
C10  38649583.058   201258524.174         915.552          33.000    38649579.896   155625846.509         707.610          43.000  
G29                                                                  22192090.012                       -1540.742          29.000  
> 2025 10 28 07 05 57.4360000  0 21                     
G03  21823329.105   114682367.947       -1545.927          42.000    21823323.463    89362866.291       -1204.797          36.000  
G16  19919447.033   104677403.659        2043.432          47.000                                                                  
G26  18878410.047    99206714.129        -496.457          49.000    18878401.150    77303898.217        -386.786          46.000  
G28  20449542.493   107463071.136       -1734.139          46.000    20449531.068    83737412.416       -1351.270          44.000  
G31  19266581.774   101246573.899        -504.189          47.000    19266569.731    78893385.225        -392.835          45.000  
C06  35196596.888   183277918.009         -85.122          47.000    35196577.331   141722033.630         -65.873          47.000  
C09  36346760.622   189267122.192         -54.424          45.000    36346744.210   146353279.239         -42.039          47.000  
C13  37965956.523   197698695.131       -2439.351          37.000    37965954.406   152873166.825       -1886.647          40.000  
C16  35631931.325   185544817.013         -98.670          47.000    35631918.129   143474969.840         -76.360          47.000  
C23  21675185.655   112868379.102       -1814.262          43.000                                                                  
C32  22038297.829   114759203.543       -2685.139          45.000                                                                  
G32  22028575.885   115760947.634       -3721.893          42.000    22028573.240    90203325.113       -2900.186          40.000  
G27  23266301.055   122265259.389        3657.513          36.000    23266318.987    95271715.192        2849.688          34.000  
G04  21756672.880                        2788.574          28.000    21756659.819                        2172.247          29.000  
C37  21221816.784   110507568.857         325.778          49.000                                                                  
C08  38856088.192   202333841.864       -2539.996          34.000    38856086.190   156457351.725       -1964.371          42.000  
C20  22298278.331   116112986.251         527.403          48.000                                                                  
C28  24312105.002   126599520.287        2442.140          41.000                                                                  
C07  37669340.561   196154144.676        1052.496          40.000    37669326.299   151678769.411         813.971          42.000  
C10  38649576.038   201258487.559         915.571          33.000    38649572.884   155625818.204         707.575          43.000  
G29                                                                  22192105.085                       -1540.417          29.000  
> 2025 10 28 07 05 57.4760000  0 21                     
G03  21823340.868   114682429.779       -1545.802          42.000    21823335.211    89362914.448       -1204.205          36.000  
G16  19919431.466   104677321.913        2043.538          47.000                                                                  
G26  18878413.831    99206733.984        -496.438          49.000    18878404.935    77303913.688        -386.787          46.000  
G28  20449555.688   107463140.503       -1734.197          46.000    20449544.284    83737466.456       -1351.106          44.000  
G31  19266585.600   101246594.064        -504.157          47.000    19266573.574    78893400.935        -392.786          45.000  
C06  35196597.535   183277921.420         -85.238          47.000    35196577.990   141722036.270         -65.992          47.000  
C09  36346761.057   189267124.373         -54.537          45.000    36346744.619   146353280.917         -41.984          47.000  
C13  37965975.260   197698792.714       -2439.526          37.000    37965973.151   152873242.283       -1886.515          40.000  
C16  35631932.081   185544820.961         -98.721          47.000    35631918.845   143474972.891         -76.344          47.000  
C23  21675199.566   112868451.674       -1814.311          43.000                                                                  
C32  22038318.459   114759310.949       -2685.157          45.000                                                                  
G32  22028604.212   115761096.511       -3721.912          42.000    22028601.568    90203441.112       -2900.027          40.000  
G27  23266273.214   122265113.106        3657.214          36.000    23266291.137    95271601.198        2849.791          34.000  
G04  21756651.234                        2788.444          28.000    21756638.586                        2172.699          29.000  
C37  21221814.278   110507555.824         325.761          49.000                                                                  
C08  38856107.700   202333943.488       -2540.440          34.000    38856105.703   156457430.290       -1964.247          42.000  
C20  22298274.266   116112965.157         527.330          48.000                                                                  
C28  24312086.230   126599422.605        2442.050          41.000                                                                  
C07  37669332.512   196154102.580        1052.429          40.000    37669318.223   151678736.867         813.739          42.000  
C10  38649569.029   201258450.937         915.612          33.000    38649565.858   155625789.887         707.808          43.000  
G29                                                                  22192120.123                       -1540.736          29.000  
> 2025 10 28 07 05 57.5160000  0 21                     
G03  21823352.650   114682491.599       -1545.502          42.000    21823346.971    89362962.625       -1204.326          36.000  
G16  19919415.913   104677240.171        2043.547          47.000                                                                  
G26  18878417.600    99206753.842        -496.456          49.000    18878408.733    77303929.161        -386.818          46.000  
G28  20449568.882   107463209.863       -1734.103          46.000    20449557.507    83737520.510       -1351.280          44.000  
G31  19266589.424   101246614.220        -503.985          47.000    19266577.391    78893416.643        -392.718          45.000  
C06  35196598.182   183277924.827         -85.187          47.000    35196578.624   141722038.903         -65.896          47.000  
C09  36346761.487   189267126.543         -54.376          45.000    36346745.050   146353282.599         -42.004          47.000  
C13  37965994.003   197698890.301       -2439.630          37.000    37965991.894   152873317.729       -1886.248          40.000  
C16  35631932.846   185544824.901         -98.594          47.000    35631919.619   143474975.942         -76.337          47.000  
C23  21675213.499   112868524.244       -1814.278          43.000                                                                  
C32  22038339.088   114759418.354       -2685.107          45.000                                                                  
G32  22028632.543   115761245.376       -3721.676          42.000    22028629.912    90203557.104       -2899.862          40.000  
G27  23266245.384   122264966.829        3656.918          36.000    23266263.303    95271487.208        2849.722          34.000  
G04  21756630.106                        2788.488          28.000    21756617.339                        2173.529          29.000  
C37  21221811.793   110507542.788         325.822          49.000                                                                  
C08  38856127.211   202334045.156       -2541.392          34.000    38856125.225   156457508.851       -1964.052          42.000  
C20  22298270.240   116112944.059         527.373          48.000                                                                  
C28  24312067.469   126599324.945        2441.665          41.000                                                                  
C07  37669324.450   196154060.491        1052.197          40.000    37669310.159   151678704.330         813.507          42.000  
C10  38649561.995   201258414.358         914.711          33.000    38649558.825   155625761.569         707.956          43.000  
G29                                                                  22192135.199                       -1541.080          29.000  
> 2025 10 28 07 05 57.5560000  0 21                     
G03  21823364.429   114682553.443       -1545.788          42.000    21823358.733    89363010.813       -1204.623          36.000  
G16  19919400.354   104677158.417        2043.757          47.000                                                                  
G26  18878421.357    99206773.695        -496.400          49.000    18878412.524    77303944.632        -386.806          46.000  
G28  20449582.088   107463279.209       -1733.770          46.000    20449570.692    83737574.552       -1351.154          44.000  
G31  19266593.239   101246634.375        -503.899          47.000    19266581.241    78893432.354        -392.756          45.000  
C06  35196598.829   183277928.231         -85.135          47.000    35196579.243   141722041.533         -65.790          47.000  
C09  36346761.910   189267128.704         -54.117          45.000    36346745.472   146353284.276         -41.954          47.000  
C13  37966012.763   197698987.893       -2439.714          37.000    37966010.623   152873393.191       -1886.431          40.000  
C16  35631933.613   185544828.831         -98.336          47.000    35631920.349   143474978.987         -76.198          47.000  
C23  21675227.420   112868596.800       -1814.008          43.000                                                                  
C32  22038359.711   114759525.751       -2684.939          45.000                                                                  
G32  22028660.884   115761394.250       -3721.733          42.000    22028658.252    90203673.103       -2899.889          40.000  
G27  23266217.525   122264820.522        3657.292          36.000    23266235.462    95271373.209        2849.818          34.000  
G04  21756608.847                        2788.302          28.000    21756596.102                        2172.460          29.000  
C37  21221809.294   110507529.739         326.109          49.000                                                                  
C08  38856146.707   202334146.730       -2540.193          34.000    38856144.742   156457587.415       -1964.046          42.000  
C20  22298266.192   116112922.958         527.466          48.000                                                                  
C28  24312048.702   126599227.264        2441.823          41.000                                                                  
C07  37669316.365   196154018.400        1052.216          40.000    37669302.069   151678671.776         813.696          42.000  
C10  38649554.990   201258377.715         915.449          33.000    38649551.781   155625733.257         707.861          43.000  
G29                                                                  22192150.258                       -1540.889          29.000  
> 2025 10 28 07 05 57.5960000  0 21                     
G03  21823376.206   114682615.277       -1545.781          42.000    21823370.516    89363059.012       -1204.888          36.000  
G16  19919384.816   104677076.675        2043.631          47.000                                                                  
G26  18878425.163    99206793.553        -496.464          49.000    18878416.322    77303960.112        -386.995          46.000  
G28  20449595.262   107463348.562       -1733.767          46.000    20449583.887    83737628.602       -1351.240          44.000  
G31  19266597.104   101246654.540        -504.066          47.000    19266585.090    78893448.062        -392.725          45.000  
C06  35196599.491   183277931.628         -84.996          47.000    35196579.893   141722044.161         -65.752          47.000  
C09  36346762.326   189267130.880         -54.261          45.000    36346745.909   146353285.953         -41.950          47.000  
C13  37966031.519   197699085.485       -2439.781          37.000    37966029.314   152873468.642       -1886.359          40.000  
C16  35631934.360   185544832.768         -98.337          47.000    35631921.086   143474982.032         -76.150          47.000  
C23  21675241.361   112868669.362       -1814.037          43.000                                                                  
C32  22038380.355   114759633.144       -2684.810          45.000                                                                  
G32  22028689.224   115761543.133       -3722.002          42.000    22028686.601    90203789.129       -2900.514          40.000  
G27  23266189.697   122264674.226        3657.399          36.000    23266207.614    95271259.204        2850.024          34.000  
G04  21756587.442                        2788.427          28.000    21756574.864                        2172.298          29.000  
C37  21221806.786   110507516.702         326.027          49.000                                                                  
C08  38856166.204   202334248.288       -2539.209          34.000    38856164.248   156457665.988       -1964.271          42.000  
C20  22298262.123   116112901.852         527.583          48.000                                                                  
C28  24312029.921   126599129.574        2442.122          41.000                                                                  
C07  37669308.280   196153976.293        1052.484          40.000    37669293.954   151678639.228         813.678          42.000  
C10  38649547.949   201258341.103         915.303          33.000    38649544.754   155625704.939         707.903          43.000  
G29                                                                  22192165.315                       -1540.594          29.000  
> 2025 10 28 07 05 57.6360000  0 21                     
G03  21823387.984   114682677.132       -1546.216          42.000    21823382.282    89363107.207       -1204.952          36.000  
G16  19919369.268   104676994.945        2043.359          47.000                                                                  
G26  18878428.957    99206813.411        -496.482          49.000    18878420.108    77303975.588        -387.012          46.000  
G28  20449608.474   107463417.930       -1734.039          46.000    20449597.081    83737682.650       -1351.233          44.000  
G31  19266600.959   101246674.709        -504.195          47.000    19266588.934    78893463.785        -393.033          45.000  
C06  35196600.140   183277935.038         -85.172          47.000    35196580.578   141722046.800         -65.927          47.000  
C09  36346762.767   189267133.054         -54.358          45.000    36346746.357   146353287.631         -41.945          47.000  
C13  37966050.267   197699183.049       -2439.393          37.000    37966048.070   152873544.105       -1886.549          40.000  
C16  35631935.079   185544836.718         -98.604          47.000    35631921.830   143474985.078         -76.147          47.000  
C23  21675255.291   112868741.927       -1814.101          43.000                                                                  
C32  22038400.962   114759740.556       -2685.111          45.000                                                                  
G32  22028717.567   115761692.022       -3722.199          42.000    22028714.954    90203905.162       -2900.888          40.000  
G27  23266161.838   122264527.933        3657.317          36.000    23266179.771    95271145.256        2849.116          34.000  
G04  21756566.214                        2788.452          28.000    21756553.655                        2172.249          29.000  
C37  21221804.263   110507503.670         325.845          49.000                                                                  
C08  38856185.734   202334349.904       -2539.766          34.000    38856183.754   156457744.569       -1964.464          42.000  
C20  22298258.041   116112880.762         527.348          48.000                                                                  
C28  24312011.143   126599031.887        2442.167          41.000                                                                  
C07  37669300.193   196153934.195        1052.496          40.000    37669285.856   151678606.677         813.739          42.000  
C10  38649540.929   201258304.518         914.799          33.000    38649537.743   155625676.631         707.773          43.000  
G29                                                                  22192180.370                       -1540.502          29.000  
> 2025 10 28 07 05 57.6760000  0 21                     
G03  21823399.763   114682738.998       -1546.619          42.000    21823394.046    89363155.407       -1205.043          36.000  
G16  19919353.724   104676913.215        2043.214          47.000                                                                  
G26  18878432.732    99206833.275        -496.594          49.000    18878423.901    77303991.064        -386.960          46.000  
G28  20449621.681   107463487.301       -1734.272          46.000    20449610.272    83737736.703       -1351.317          44.000  
G31  19266604.793   101246694.881        -504.318          47.000    19266592.772    78893479.508        -393.162          45.000  
C06  35196600.775   183277938.450         -85.294          47.000    35196581.255   141722049.441         -66.039          47.000  
C09  36346763.187   189267135.236         -54.580          45.000    36346746.767   146353289.312         -41.995          47.000  
C13  37966068.963   197699280.648       -2439.863          37.000    37966066.803   152873619.561       -1886.439          40.000  
C16  35631935.823   185544840.671         -98.801          47.000    35631922.597   143474988.135         -76.358          47.000  
C23  21675269.216   112868814.508       -1814.421          43.000                                                                  
C32  22038421.567   114759847.965       -2685.253          45.000                                                                  
G32  22028745.878   115761840.904       -3722.153          42.000    22028743.278    90204021.165       -2900.522          40.000  
G27  23266133.981   122264381.612        3657.813          36.000    23266151.914    95271031.249        2849.679          34.000  
G04  21756544.454                        2788.409          28.000    21756532.406                        2173.687          29.000  
C37  21221801.735   110507490.644         325.663          49.000                                                                  
C08  38856205.233   202334451.548       -2540.757          34.000    38856203.277   156457823.138       -1964.347          42.000  
C20  22298253.982   116112859.679         527.058          48.000                                                                  
C28  24311992.383   126598934.212        2441.969          41.000                                                                  
C07  37669292.085   196153892.105        1052.289          40.000    37669277.773   151678574.127         813.776          42.000  
C10  38649533.914   201258267.922         914.708          33.000    38649530.699   155625648.320         707.765          43.000  
G29                                                                  22192195.397                       -1540.717          29.000  
> 2025 10 28 07 05 57.7160000  0 21                     
G03  21823411.551   114682800.835       -1546.189          42.000    21823405.824    89363203.597       -1204.852          36.000  
G16  19919338.159   104676831.472        2043.405          47.000                                                                  
G26  18878436.506    99206853.144        -496.730          49.000    18878427.668    77304006.542        -386.971          46.000  
G28  20449634.868   107463556.667       -1734.261          46.000    20449623.466    83737790.751       -1351.261          44.000  
G31  19266608.623   101246715.044        -504.181          47.000    19266596.604    78893495.215        -392.883          45.000  
C06  35196601.421   183277941.861         -85.314          47.000    35196581.878   141722052.076         -65.968          47.000  
C09  36346763.607   189267137.414         -54.575          45.000    36346747.194   146353291.000         -42.172          47.000  
C13  37966087.707   197699378.225       -2439.723          37.000    37966085.560   152873695.025       -1886.544          40.000  
C16  35631936.570   185544844.620         -98.798          47.000    35631923.371   143474991.185         -76.320          47.000  
C23  21675283.159   112868887.084       -1814.486          43.000                                                                  
C32  22038442.186   114759955.380       -2685.407          45.000                                                                  
G32  22028774.206   115761989.779       -3721.978          42.000    22028771.617    90204137.170       -2900.158          40.000  
G27  23266106.135   122264235.322        3657.581          36.000    23266124.080    95270917.270        2849.624          34.000  
G04  21756523.447                        2788.434          28.000    21756511.145                        2173.896          29.000  
C37  21221799.232   110507477.614         325.662          49.000                                                                  
C08  38856224.767   202334553.163       -2540.699          34.000    38856222.784   156457901.713       -1964.392          42.000  
C20  22298249.939   116112838.584         527.196          48.000                                                                  
C28  24311973.630   126598836.543        2441.747          41.000                                                                  
C07  37669283.986   196153850.011        1052.277          40.000    37669269.682   151678541.576         813.788          42.000  
C10  38649526.886   201258231.306         915.120          33.000    38649523.670   155625620.020         707.550          43.000  
G29                                                                  22192210.437                       -1540.895          29.000  
> 2025 10 28 07 05 57.7560000  0 21                     
G03  21823423.301   114682862.668       -1545.903          42.000    21823417.597    89363251.774       -1204.448          36.000  
G16  19919322.600   104676749.733        2043.464          47.000                                                                  
G26  18878440.284    99206873.004        -496.634          49.000    18878431.424    77304022.017        -386.933          46.000  
G28  20449648.072   107463626.038       -1734.342          46.000    20449636.682    83737844.798       -1351.216          44.000  
G31  19266612.473   101246735.215        -504.280          47.000    19266600.442    78893510.925        -392.791          45.000  
C06  35196602.081   183277945.273         -85.323          47.000    35196582.551   141722054.711         -65.948          47.000  
C09  36346764.053   189267139.595         -54.571          45.000    36346747.620   146353292.679         -42.094          47.000  
C13  37966106.470   197699475.813       -2439.662          37.000    37966104.293   152873770.487       -1886.625          40.000  
C16  35631937.322   185544848.563         -98.711          47.000    35631924.132   143474994.228         -76.169          47.000  
C23  21675297.100   112868959.660       -1814.528          43.000                                                                  
C32  22038462.826   114760062.793       -2685.462          45.000                                                                  
G32  22028802.545   115762138.657       -3721.935          42.000    22028799.928    90204253.169       -2899.975          40.000  
G27  23266078.299   122264089.069        3656.682          36.000    23266096.231    95270803.277        2849.688          34.000  
G04  21756502.210                        2788.607          28.000    21756489.887                        2173.789          29.000  
C37  21221796.736   110507464.581         325.722          49.000                                                                  
C08  38856244.270   202334654.792       -2540.828          34.000    38856242.308   156457980.281       -1964.220          42.000  
C20  22298245.867   116112817.494         527.190          48.000                                                                  
C28  24311954.882   126598738.869        2441.699          41.000                                                                  
C07  37669275.923   196153807.916        1052.307          40.000    37669261.604   151678509.027         813.702          42.000  
C10  38649519.851   201258194.686         915.346          33.000    38649516.662   155625591.711         707.558          43.000  
G29                                                                  22192225.494                       -1540.858          29.000  
> 2025 10 28 07 05 57.7960000  0 21                     
G03  21823435.060   114682924.511       -1545.975          42.000    21823429.368    89363300.003       -1205.282          36.000  
G16  19919307.062   104676667.996        2043.449          47.000                                                                  
G26  18878444.071    99206892.865        -496.596          49.000    18878435.208    77304037.494        -386.953          46.000  
G28  20449661.277   107463695.408       -1734.324          46.000    20449649.902    83737898.858       -1351.426          44.000  
G31  19266616.323   101246755.397        -504.476          47.000    19266604.302    78893526.644        -392.933          45.000  
C06  35196602.787   183277948.685         -85.348          47.000    35196583.227   141722057.348         -65.948          47.000  
C09  36346764.479   189267141.768         -54.417          45.000    36346748.060   146353294.364         -42.111          47.000  
C13  37966125.212   197699573.425       -2440.069          37.000    37966123.023   152873845.958       -1886.810          40.000  
C16  35631938.080   185544852.509         -98.685          47.000    35631924.888   143474997.285         -76.340          47.000  
C23  21675311.072   112869032.232       -1814.439          43.000                                                                  
C32  22038483.450   114760170.216       -2685.634          45.000                                                                  
G32  22028830.886   115762287.542       -3722.041          42.000    22028828.264    90204369.173       -2899.998          40.000  
G27  23266050.473   122263942.800        3656.593          35.000    23266068.400    95270689.277        2849.838          34.000  
G04  21756480.701                        2788.401          28.000    21756468.648                        2173.684          29.000  
C37  21221794.251   110507451.552         325.697          49.000                                                                  
C08  38856263.777   202334756.382       -2540.175          34.000    38856261.846   156458058.849       -1964.193          42.000  
C20  22298241.796   116112796.412         527.048          48.000                                                                  
C28  24311936.119   126598641.203        2441.589          41.000                                                                  
C07  37669267.838   196153765.832        1052.094          40.000    37669253.520   151678476.493         813.379          42.000  
C10  38649512.821   201258158.066         915.480          33.000    38649509.638   155625563.396         707.734          43.000  
G29                                                                  22192240.547                       -1540.999          29.000  
> 2025 10 28 07 05 57.8360000  0 21                     
G03  21823446.807   114682986.373       -1546.353          42.000    21823441.149    89363348.192       -1205.021          36.000  
G16  19919291.496   104676586.259        2043.422          47.000                                                                  
G26  18878447.895    99206912.743        -496.879          49.000    18878438.998    77304052.979        -387.116          46.000  
G28  20449674.463   107463764.775       -1734.264          46.000    20449663.111    83737952.921       -1351.597          44.000  
G31  19266620.156   101246775.567        -504.402          47.000    19266608.132    78893542.366        -393.019          45.000  
C06  35196603.471   183277952.093         -85.267          47.000    35196583.922   141722059.992         -66.100          47.000  
C09  36346764.904   189267143.940         -54.310          45.000    36346748.510   146353296.052         -42.213          47.000  
C13  37966143.956   197699671.007       -2439.780          37.000    37966141.758   152873921.431       -1886.899          40.000  
C16  35631938.830   185544856.452         -98.620          47.000    35631925.628   143475000.337         -76.372          47.000  
C23  21675324.989   112869104.808       -1814.471          43.000                                                                  
C32  22038504.112   114760277.632       -2685.570          45.000                                                                  
G32  22028859.228   115762436.428       -3722.141          42.000    22028856.627    90204485.190       -2900.292          40.000  
G27  23266022.651   122263796.503        3657.034          35.000    23266040.575    95270575.312        2849.345          34.000  
G04  21756459.618                        2788.247          28.000    21756447.431                        2173.134          29.000  
C37  21221791.771   110507438.524         325.685          49.000                                                                  
C08  38856283.289   202334858.005       -2540.390          34.000    38856281.374   156458137.411       -1964.059          42.000  
C20  22298237.742   116112775.328         527.055          48.000                                                                  
C28  24311917.336   126598543.512        2442.044          41.000                                                                  
C07  37669259.734   196153723.744        1052.087          40.000    37669245.391   151678443.941         813.586          42.000  
C10  38649505.792   201258121.463         915.175          33.000    38649502.600   155625535.076         707.948          43.000  
G29                                                                  22192255.601                       -1541.177          29.000  
> 2025 10 28 07 05 57.8760000  0 21                     
G03  21823458.574   114683048.223       -1546.356          42.000    21823452.913    89363396.396       -1205.102          36.000  
G16  19919275.933   104676504.531        2043.235          47.000                                                                  
G26  18878451.680    99206932.611        -496.838          49.000    18878442.771    77304068.462        -387.146          46.000  
G28  20449687.662   107463834.143       -1734.238          46.000    20449676.317    83738006.970       -1351.399          44.000  
G31  19266624.011   101246795.739        -504.377          47.000    19266611.953    78893558.088        -393.087          45.000  
C06  35196604.132   183277955.505         -85.295          47.000    35196584.587   141722062.632         -66.088          47.000  
C09  36346765.318   189267146.114         -54.307          45.000    36346748.938   146353297.734         -42.148          47.000  
C13  37966162.689   197699768.602       -2439.873          37.000    37966160.500   152873996.903       -1886.873          40.000  
C16  35631939.559   185544860.402         -98.726          47.000    35631926.415   143475003.390         -76.384          47.000  
C23  21675338.909   112869177.374       -1814.281          43.000                                                                  
C32  22038524.748   114760385.050       -2685.525          45.000                                                                  
G32  22028887.532   115762585.308       -3722.090          42.000    22028884.973    90204601.223       -2900.776          40.000  
G27  23265994.805   122263650.211        3657.156          35.000    23266012.747    95270461.329        2849.489          34.000  
G04  21756438.005                        2788.000          28.000    21756426.204                        2172.910          29.000  
C37  21221789.296   110507425.498         325.642          49.000                                                                  
C08  38856302.809   202334959.607       -2540.110          34.000    38856300.879   156458215.996       -1964.418          42.000  
C20  22298233.714   116112754.245         527.037          48.000                                                                  
C28  24311898.582   126598445.828        2442.180          41.000                                                                  
C07  37669251.653   196153681.651        1052.197          40.000    37669237.298   151678411.392         813.684          42.000  
C10  38649498.756   201258084.846         915.228          33.000    38649495.564   155625506.771         707.758          43.000  
G29                                                                  22192270.673                       -1540.967          29.000  
> 2025 10 28 07 05 57.9160000  0 21                     
G03  21823470.350   114683110.083       -1546.505          42.000    21823464.662    89363444.583       -1204.830          36.000  
G16  19919260.385   104676422.809        2043.041          47.000                                                                  
G26  18878455.452    99206952.485        -496.906          49.000    18878446.547    77304083.948        -387.194          46.000  
G28  20449700.882   107463903.513       -1734.257          46.000    20449689.510    83738061.029       -1351.472          44.000  
G31  19266627.841   101246815.917        -504.432          47.000    19266615.781    78893573.816        -393.228          45.000  
C06  35196604.818   183277958.917         -85.336          47.000    35196585.241   141722065.269         -66.021          47.000  
C09  36346765.708   189267148.298         -54.550          45.000    36346749.359   146353299.419         -42.161          47.000  
C13  37966181.425   197699866.201       -2440.033          37.000    37966179.247   152874072.342       -1886.315          40.000  
C16  35631940.297   185544864.349         -98.718          47.000    35631927.175   143475006.443         -76.408          47.000  
C23  21675352.823   112869249.951       -1814.389          43.000                                                                  
C32  22038545.385   114760492.456       -2685.282          45.000                                                                  
G32  22028915.871   115762734.187       -3722.034          42.000    22028913.305    90204717.243       -2900.728          40.000  
G27  23265966.932   122263503.912        3657.354          35.000    23265984.921    95270347.349        2849.518          34.000  
G04  21756417.028                        2788.443          28.000    21756404.996                        2172.544          29.000  
C37  21221786.801   110507412.474         325.598          49.000                                                                  
C08  38856322.316   202335061.235       -2540.478          34.000    38856320.376   156458294.575       -1964.524          42.000  
C20  22298229.676   116112733.163         527.019          48.000                                                                  
C28  24311879.831   126598348.148        2442.099          41.000                                                                  
C07  37669243.597   196153639.558        1052.301          40.000    37669229.218   151678378.852         813.562          42.000  
C10  38649491.736   201258048.239         915.140          33.000    38649488.525   155625478.483         707.294          43.000  
G29                                                                  22192285.713                       -1540.955          29.000  
> 2025 10 28 07 05 57.9560000  0 21                     
G03  21823482.110   114683171.930       -1546.287          42.000    21823476.417    89363492.762       -1204.570          36.000  
G16  19919244.830   104676341.085        2042.991          47.000                                                                  
G26  18878459.222    99206972.357        -496.854          49.000    18878450.326    77304099.436        -387.249          46.000  
G28  20449714.060   107463972.884       -1734.283          46.000    20449702.690    83738115.075       -1351.262          44.000  
G31  19266631.682   101246836.094        -504.457          47.000    19266619.613    78893589.538        -393.159          45.000  
C06  35196605.481   183277962.332         -85.413          47.000    35196585.933   141722067.904         -65.934          47.000  
C09  36346766.128   189267150.482         -54.649          45.000    36346749.752   146353301.107         -42.204          47.000  
C13  37966200.178   197699963.799       -2439.944          37.000    37966198.004   152874147.816       -1886.622          40.000  
C16  35631941.058   185544868.299         -98.749          47.000    35631927.947   143475009.496         -76.380          47.000  
C23  21675366.763   112869322.527       -1814.426          43.000                                                                  
C32  22038566.014   114760599.872       -2685.339          45.000                                                                  
G32  22028944.205   115762883.089       -3722.395          42.000    22028941.634    90204833.248       -2900.326          40.000  
G27  23265939.088   122263357.616        3657.512          35.000    23265957.063    95270233.360        2849.766          34.000  
G04  21756395.929                        2788.603          28.000    21756383.735                        2172.143          29.000  
C37  21221784.289   110507399.448         325.600          49.000                                                                  
C08  38856341.824   202335162.854       -2540.552          34.000    38856339.908   156458373.150       -1964.474          42.000  
C20  22298225.649   116112712.084         526.951          48.000                                                                  
C28  24311861.082   126598250.478        2441.889          41.000                                                                  
C07  37669235.524   196153597.449        1052.612          40.000    37669221.144   151678346.306         813.617          42.000  
C10  38649484.711   201258011.642         914.923          34.000    38649481.477   155625450.176         707.451          43.000  
G29                                                                  22192300.763                       -1541.066          29.000  
> 2025 10 28 07 05 57.9960000  0 21                     
G03  21823493.864   114683233.783       -1546.327          42.000    21823488.175    89363540.946       -1204.582          36.000  
G16  19919229.275   104676259.356        2043.086          47.000                                                                  
G26  18878462.999    99206992.228        -496.835          49.000    18878454.110    77304114.924        -387.253          46.000  
G28  20449727.276   107464042.264       -1734.479          46.000    20449715.869    83738169.124       -1351.207          44.000  
G31  19266635.522   101246856.268        -504.407          47.000    19266623.470    78893605.250        -392.894          45.000  
C06  35196606.149   183277965.741         -85.338          47.000    35196586.584   141722070.542         -65.939          47.000  
C09  36346766.563   189267152.657         -54.480          45.000    36346750.184   146353302.797         -42.274          47.000  
C13  37966218.920   197700061.388       -2439.754          37.000    37966216.776   152874223.314       -1887.268          39.000  
C16  35631941.814   185544872.244         -98.689          47.000    35631928.720   143475012.543         -76.275          47.000  
C23  21675380.679   112869395.109       -1814.532          43.000                                                                  
C32  22038586.630   114760707.302       -2685.644          45.000                                                                  
G32  22028972.502   115763031.972       -3722.262          42.000    22028969.976    90204949.267       -2900.434          40.000  
G27  23265911.226   122263211.318        3657.499          35.000    23265929.235    95270119.393        2849.385          34.000  
G04  21756374.358                        2788.366          28.000    21756362.496                        2172.264          29.000  
C37  21221781.841   110507386.420         325.651          49.000                                                                  
C08  38856361.336   202335264.457       -2540.300          34.000    38856359.427   156458451.716       -1964.271          42.000  
C20  22298221.580   116112691.004         526.927          48.000                                                                  
C28  24311842.332   126598152.790        2442.074          41.000                                                                  
C07  37669227.420   196153555.369        1052.252          40.000    37669213.087   151678313.753         813.800          42.000  
C10  38649477.688   201257975.033         915.055          34.000    38649474.435   155625421.866         707.618          43.000  
G29                                                                  22192315.825    90873827.533       -1541.194          29.000  
> 2025 10 28 07 05 58.0360000  0 21                     
G03  21823505.645   114683295.636       -1546.314          42.000    21823499.958    89363589.146       -1204.846          36.000  
G16  19919213.742   104676177.626        2043.183          47.000                                                                  
G26  18878466.795    99207012.107        -496.967          49.000    18878457.887    77304130.408        -387.177          46.000  
G28  20449740.445   107464111.633       -1734.342          46.000    20449729.071    83738223.183       -1351.389          44.000  
G31  19266639.362   101246876.442        -504.408          47.000    19266627.320    78893620.965        -392.864          45.000  
C06  35196606.827   183277969.154         -85.338          47.000    35196587.238   141722073.183         -66.012          47.000  
C09  36346767.004   189267154.842         -54.556          45.000    36346750.613   146353304.481         -42.196          47.000  
C13  37966237.643   197700158.959       -2439.393          37.000    37966235.521   152874298.778       -1886.958          39.000  
C16  35631942.548   185544876.194         -98.729          47.000    35631929.502   143475015.597         -76.350          47.000  
C23  21675394.629   112869467.684       -1814.455          43.000                                                                  
C32  22038607.265   114760814.735       -2685.848          45.000                                                                  
G32  22029000.840   115763180.868       -3722.437          42.000    22028998.327    90205065.283       -2900.460          40.000  
G27  23265883.389   122263065.047        3657.079          35.000    23265901.383    95270005.387        2849.834          34.000  
G04  21756353.504                        2787.869          28.000    21756341.270                        2172.005          29.000  
C37  21221779.337   110507373.389         325.741          49.000                                                                  
C08  38856380.872   202335366.089       -2540.561          34.000    38856378.931   156458530.279       -1964.112          42.000  
C20  22298217.533   116112669.927         526.884          48.000                                                                  
C28  24311823.533   126598055.116        2441.913          41.000                                                                  
C07  37669219.320   196153513.290        1051.959          40.000    37669205.006   151678281.210         813.672          42.000  
C10  38649470.618   201257938.398         915.617          34.000    38649467.406   155625393.558         707.646          43.000  
G29                                                                  22192330.859    90873889.157       -1540.985          29.000  
> 2025 10 28 07 05 58.0760000  0 21                     
G03  21823517.413   114683357.495       -1546.434          41.000    21823511.740    89363637.364       -1205.289          36.000  
G16  19919198.173   104676095.896        2043.225          47.000                                                                  
G26  18878470.552    99207031.973        -496.802          49.000    18878461.668    77304145.897        -387.234          46.000  
G28  20449753.641   107464181.008       -1734.401          46.000    20449742.294    83738277.248       -1351.624          44.000  
G31  19266643.211   101246896.623        -504.506          47.000    19266631.163    78893636.688        -393.013          45.000  
C06  35196607.499   183277972.567         -85.343          47.000    35196587.896   141722075.819         -65.979          47.000  
C09  36346767.426   189267157.023         -54.569          45.000    36346751.027   146353306.163         -42.120          47.000  
C13  37966256.388   197700256.543       -2439.484          37.000    37966254.258   152874374.215       -1886.272          39.000  
C16  35631943.319   185544880.139         -98.677          47.000    35631930.266   143475018.649         -76.356          47.000  
C23  21675408.584   112869540.264       -1814.492          43.000                                                                  
C32  22038627.905   114760922.154       -2685.646          45.000                                                                  
G32  22029029.204   115763329.769       -3722.572          42.000    22029026.659    90205181.307       -2900.565          40.000  
G27  23265855.562   122262918.755        3657.162          35.000    23265873.504    95269891.367        2850.321          34.000  
G04  21756332.444                        2788.250          28.000    21756320.062                        2172.125          29.000  
C37  21221776.808   110507360.363         325.693          49.000                                                                  
C08  38856400.383   202335467.689       -2540.329          34.000    38856398.442   156458608.853       -1964.249          42.000  
C20  22298213.492   116112648.847         526.928          48.000                                                                  
C28  24311804.752   126597957.440        2441.870          41.000                                                                  
C07  37669211.217   196153471.207        1051.953          38.000    37669196.934   151678248.663         813.641          42.000  
C10  38649463.577   201257901.769         915.722          34.000    38649460.389   155625365.264         707.401          43.000  
G29                                                                  22192345.901    90873950.803       -1541.059          29.000  
> 2025 10 28 07 05 58.1160000  0 21                     
G03  21823529.170   114683419.360       -1546.557          41.000    21823523.510    89363685.585       -1205.539          36.000  
G16  19919182.627   104676014.175        2043.048          47.000                                                                  
G26  18878474.341    99207051.847        -496.814          49.000    18878465.444    77304161.381        -387.159          46.000  
G28  20449766.828   107464250.381       -1734.379          46.000    20449755.500    83738331.309       -1351.640          44.000  
G31  19266647.047   101246916.805        -504.604          47.000    19266635.042    78893652.421        -393.271          45.000  
C06  35196608.160   183277975.979         -85.316          47.000    35196588.573   141722078.453         -65.933          47.000  
C09  36346767.860   189267159.198         -54.461          45.000    36346751.457   146353307.844         -42.032          47.000  
C13  37966275.157   197700354.146       -2439.891          37.000    37966273.015   152874449.684       -1886.485          39.000  
C16  35631944.119   185544884.084         -98.665          47.000    35631931.054   143475021.707         -76.438          47.000  
C23  21675422.512   112869612.840       -1814.435          43.000                                                                  
C32  22038648.534   114761029.575       -2685.559          45.000                                                                  
G32  22029057.544   115763478.663       -3722.514          42.000    22029054.968    90205297.317       -2900.377          39.000  
G27  23265827.719   122262772.465        3657.204          35.000    23265845.667    95269777.393        2849.689          34.000  
G04  21756311.327                        2788.001          28.000    21756298.821                        2172.815          29.000  
C37  21221774.249   110507347.345         325.494          49.000                                                                  
C08  38856419.921   202335569.323       -2540.750          34.000    38856417.976   156458687.421       -1964.209          42.000  
C20  22298209.434   116112627.770         526.891          48.000                                                                  
C28  24311785.986   126597859.771        2441.740          41.000                                                                  
C07  37669203.114   196153429.123        1052.026          38.000    37669188.841   151678216.123         813.531          42.000  
C10  38649456.540   201257865.165         915.329          33.000    38649453.348   155625336.955         707.594          43.000  
G29                                                                  22192360.940    90874012.461       -1541.280          29.000  
> 2025 10 28 07 05 58.1560000  0 21                     
G03  21823540.936   114683481.228       -1546.674          41.000    21823535.291    89363733.817       -1205.867          36.000  
G16  19919167.069   104675932.445        2043.161          47.000                                                                  
G26  18878478.120    99207071.717        -496.764          49.000    18878469.239    77304176.864        -387.090          46.000  
G28  20449780.010   107464319.745       -1734.169          46.000    20449768.681    83738385.365       -1351.497          44.000  
G31  19266650.868   101246936.978        -504.450          47.000    19266638.890    78893668.144        -393.215          45.000  
C06  35196608.836   183277979.391         -85.325          47.000    35196589.239   141722081.095         -66.005          47.000  
C09  36346768.290   189267161.377         -54.462          45.000    36346751.906   146353309.525         -42.034          47.000  
C13  37966293.901   197700451.753       -2440.203          37.000    37966291.760   152874525.145       -1886.490          39.000  
C16  35631944.895   185544888.032         -98.678          47.000    35631931.793   143475024.756         -76.339          47.000  
C23  21675436.462   112869685.409       -1814.273          43.000                                                                  
C32  22038669.177   114761136.984       -2685.292          45.000                                                                  
G32  22029085.872   115763627.555       -3722.452          42.000    22029083.305    90205413.332       -2900.372          39.000  
G27  23265799.909   122262626.200        3656.836          35.000    23265817.822    95269663.423        2849.210          34.000  
G04  21756289.761                        2787.916          28.000    21756277.603                        2172.596          29.000  
C37  21221771.744   110507334.326         325.394          49.000                                                                  
C08  38856439.420   202335670.936       -2540.594          34.000    38856437.476   156458765.981       -1964.095          43.000  
C20  22298205.411   116112606.695         526.829          48.000                                                                  
C28  24311767.233   126597762.110        2441.519          42.000                                                                  
C07  37669195.041   196153387.023        1052.386          38.000    37669180.764   151678183.584         813.458          42.000  
C10  38649449.519   201257828.595         914.557          33.000    38649446.315   155625308.640         707.771          43.000  
G29                                                                  22192376.025    90874074.092       -1541.077          29.000  
> 2025 10 28 07 05 58.1960000  0 21                     
G03  21823552.706   114683543.059       -1546.024          42.000    21823547.055    89363782.016       -1205.403          36.000  
G16  19919151.520   104675850.723        2043.062          47.000                                                                  
G26  18878481.923    99207091.595        -496.904          49.000    18878473.046    77304192.354        -387.211          46.000  
G28  20449793.210   107464389.124       -1734.345          46.000    20449781.882    83738439.422       -1351.472          44.000  
G31  19266654.710   101246957.155        -504.406          47.000    19266642.738    78893683.867        -393.165          45.000  
C06  35196609.481   183277982.803         -85.310          47.000    35196589.877   141722083.736         -66.084          47.000  
C09  36346768.700   189267163.560         -54.552          45.000    36346752.319   146353311.213         -42.143          47.000  
C13  37966312.654   197700549.367       -2440.437          37.000    37966310.504   152874600.596       -1886.327          39.000  
C16  35631945.691   185544891.981         -98.704          47.000    35631932.547   143475027.805         -76.248          47.000  
C23  21675450.415   112869757.978       -1814.237          43.000                                                                  
C32  22038689.761   114761244.405       -2685.419          45.000                                                                  
G32  22029114.205   115763776.445       -3722.307          42.000    22029111.630    90205529.356       -2900.572          39.000  
G27  23265772.069   122262479.930        3656.699          36.000    23265790.017    95269549.479        2848.599          34.000  
G04  21756268.961                        2788.122          28.000    21756256.402                        2172.608          29.000  
C37  21221769.243   110507321.306         325.413          49.000                                                                  
C08  38856458.930   202335772.513       -2539.824          34.000    38856456.989   156458844.564       -1964.408          43.000  
C20  22298201.392   116112585.619         526.836          48.000                                                                  
C28  24311748.448   126597664.422        2441.937          41.000                                                                  
C07  37669186.966   196153344.932        1052.405          38.000    37669172.696   151678151.051         813.275          42.000  
C10  38649442.468   201257791.976         915.007          33.000    38649439.295   155625280.339         707.569          43.000  
G29                                                                  22192391.098    90874135.720       -1540.893          29.000  
> 2025 10 28 07 05 58.2360000  0 21                     
G03  21823564.476   114683604.934       -1546.539          42.000    21823558.836    89363830.183       -1204.492          36.000  
G16  19919135.978   104675769.005        2042.972          47.000                                                                  
G26  18878485.742    99207111.480        -497.117          49.000    18878476.824    77304207.843        -387.240          46.000  
G28  20449806.430   107464458.504       -1734.494          46.000    20449795.082    83738493.487       -1351.599          44.000  
G31  19266658.525   101246977.329        -504.376          47.000    19266646.555    78893699.587        -393.060          45.000  
C06  35196610.142   183277986.217         -85.365          47.000    35196590.514   141722086.373         -66.035          47.000  
C09  36346769.126   189267165.730         -54.340          45.000    36346752.699   146353312.904         -42.281          47.000  
C13  37966331.399   197700646.966       -2440.245          37.000    37966329.263   152874676.066       -1886.607          39.000  
C16  35631946.457   185544895.935         -98.827          47.000    35631933.324   143475030.866         -76.434          47.000  
C23  21675464.344   112869830.567       -1814.617          43.000                                                                  
C32  22038710.396   114761351.828       -2685.512          45.000                                                                  
G32  22029142.513   115763925.331       -3722.184          42.000    22029139.962    90205645.380       -2900.652          39.000  
G27  23265744.246   122262333.625        3657.246          36.000    23265762.181    95269435.486        2849.244          34.000  
G04  21756247.673                        2787.979          28.000    21756235.182                        2172.570          29.000  
C37  21221766.785   110507308.283         325.493          49.000                                                                  
C08  38856478.456   202335874.169       -2540.770          34.000    38856476.502   156458923.146       -1964.570          43.000  
C20  22298197.323   116112564.550         526.700          48.000                                                                  
C28  24311729.672   126597566.766        2441.592          41.000                                                                  
C07  37669178.898   196153302.850        1052.161          39.000    37669164.633   151678118.511         813.397          42.000  
C10  38649435.449   201257755.376         914.996          33.000    38649432.263   155625252.032         707.648          43.000  
G29                                                                  22192406.159                       -1541.218          29.000  
> 2025 10 28 07 05 58.2760000  0 21                     
G03  21823576.242   114683666.807       -1546.853          42.000    21823570.578    89363878.373       -1204.548          36.000  
G16  19919120.420   104675687.278        2043.062          47.000                                                                  
G26  18878489.508    99207131.361        -497.094          49.000    18878480.620    77304223.329        -387.221          46.000  
G28  20449819.627   107464527.881       -1734.489          46.000    20449808.274    83738547.541       -1351.465          44.000  
G31  19266662.363   101246997.502        -504.364          47.000    19266650.362    78893715.307        -392.993          45.000  
C06  35196610.806   183277989.629         -85.356          47.000    35196591.178   141722089.013         -66.014          47.000  
C09  36346769.530   189267167.906         -54.364          45.000    36346753.103   146353314.590         -42.247          47.000  
C13  37966350.116   197700744.538       -2439.661          37.000    37966347.994   152874751.539       -1886.756          39.000  
C16  35631947.254   185544899.880         -98.719          47.000    35631934.056   143475033.922         -76.463          47.000  
C23  21675478.293   112869903.154       -1814.739          43.000                                                                  
C32  22038731.030   114761459.255       -2685.655          45.000                                                                  
G32  22029170.853   115764074.234       -3722.459          42.000    22029168.293    90205761.399       -2900.582          39.000  
G27  23265716.401   122262187.319        3657.534          36.000    23265734.331    95269321.491        2849.664          34.000  
G04  21756226.672                        2788.347          28.000    21756213.982                        2172.738          29.000  
C37  21221764.302   110507295.255         325.646          49.000                                                                  
C08  38856497.956   202335975.770       -2540.441          34.000    38856496.030   156459001.723       -1964.523          43.000  
C20  22298193.304   116112543.474         526.781          48.000                                                                  
C28  24311710.917   126597469.090        2441.727          41.000                                                                  
C07  37669170.840   196153260.748        1052.435          39.000    37669156.546   151678085.944         813.959          42.000  
C10  38649428.434   201257718.733         915.818          33.000    38649425.228   155625223.727         707.634          43.000  
G29                                                                  22192421.221                       -1541.261          29.000  
> 2025 10 28 07 05 58.3160000  0 21                     
G03  21823588.032   114683728.678       -1546.891          42.000    21823582.340    89363926.572       -1204.850          36.000  
G16  19919104.855   104675605.553        2043.083          47.000                                                                  
G26  18878493.258    99207151.238        -497.017          49.000    18878484.383    77304238.816        -387.189          46.000  
G28  20449832.818   107464597.258       -1734.508          46.000    20449821.469    83738601.593       -1351.355          44.000  
G31  19266666.202   101247017.684        -504.525          47.000    19266654.189    78893731.035        -393.191          45.000  
C06  35196611.418   183277993.042         -85.356          47.000    35196591.820   141722091.652         -66.035          47.000  
C09  36346769.920   189267170.087         -54.505          45.000    36346753.477   146353316.275         -42.183          47.000  
C13  37966368.848   197700842.116       -2439.392          37.000    37966366.713   152874827.010       -1886.809          39.000  
C16  35631948.034   185544903.824         -98.649          47.000    35631934.821   143475036.971         -76.323          47.000  
C23  21675492.204   112869975.731       -1814.609          43.000                                                                  
C32  22038751.646   114761566.691       -2685.884          45.000                                                                  
G32  22029199.188   115764223.125       -3722.383          42.000    22029196.648    90205877.429       -2900.699          39.000  
G27  23265688.579   122262041.038        3657.173          36.000    23265706.518    95269207.473        2850.383          34.000  
G04  21756205.553                        2788.059          28.000    21756192.726                        2172.588          29.000  
C37  21221761.792   110507282.227         325.707          49.000                                                                  
C08  38856517.479   202336077.366       -2540.113          34.000    38856515.535   156459080.299       -1964.510          43.000  
C20  22298189.286   116112522.401         526.812          48.000                                                                  
C28  24311692.137   126597371.427        2441.581          41.000                                                                  
C07  37669162.781   196153218.670        1052.106          39.000    37669148.458   151678053.412         813.544          42.000  
C10  38649421.405   201257682.073         916.486          33.000    38649418.162   155625195.419         707.706          43.000  
G29                                                                  22192436.281                       -1541.298          29.000  
> 2025 10 28 07 05 58.3560000  0 21                     
G03  21823599.807   114683790.551       -1546.926          42.000    21823594.133    89363974.803       -1205.650          36.000  
G16  19919089.279   104675523.823        2043.209          47.000                                                                  
G26  18878497.013    99207171.107        -496.804          49.000    18878488.172    77304254.309        -387.303          46.000  
G28  20449846.029   107464666.638       -1734.544          46.000    20449834.685    83738655.653       -1351.430          44.000  
G31  19266670.045   101247037.872        -504.728          47.000    19266658.017    78893746.764        -393.258          45.000  
C06  35196612.040   183277996.453         -85.316          47.000    35196592.469   141722094.299         -66.179          47.000  
C09  36346770.329   189267172.272         -54.669          45.000    36346753.913   146353317.961         -42.170          47.000  
C13  37966387.585   197700939.717       -2439.710          37.000    37966385.459   152874902.464       -1886.525          39.000  
C16  35631948.804   185544907.773         -98.709          47.000    35631935.564   143475040.028         -76.432          47.000  
C23  21675506.148   112870048.311       -1814.539          43.000                                                                  
C32  22038772.279   114761674.113       -2685.701          45.000                                                                  
G32  22029227.515   115764372.015       -3722.315          42.000    22029224.967    90205993.459       -2900.740          39.000  
G27  23265660.738   122261894.766        3656.906          36.000    23265678.671    95269093.496        2849.883          34.000  
G04  21756184.364                        2788.314          28.000    21756171.536                        2172.154          29.000  
C37  21221759.271   110507269.202         325.678          49.000                                                                  
C08  38856536.972   202336179.004       -2540.633          34.000    38856535.068   156459158.873       -1964.465          43.000  
C20  22298185.232   116112501.324         526.892          48.000                                                                  
C28  24311673.406   126597273.748        2441.838          41.000                                                                  
C07  37669154.697   196153176.587        1051.984          39.000    37669140.416   151678020.883         813.226          42.000  
C10  38649414.380   201257645.494         915.112          33.000    38649411.149   155625167.095         707.983          43.000  
G29                                                                  22192451.335                       -1541.046          29.000  
> 2025 10 28 07 05 58.3960000  0 21                     
G03  21823611.550   114683852.404       -1546.598          42.000    21823605.936    89364023.038       -1205.995          36.000  
G16  19919073.778   104675442.107        2042.997          47.000                                                                  
G26  18878500.788    99207190.997        -497.114          49.000    18878491.950    77304269.804        -387.416          46.000  
G28  20449859.236   107464736.001       -1734.263          46.000    20449847.894    83738709.716       -1351.569          44.000  
G31  19266673.887   101247058.060        -504.782          47.000    19266661.876    78893762.497        -393.374          45.000  
C06  35196612.694   183277999.867         -85.328          47.000    35196593.110   141722096.934         -66.036          47.000  
C09  36346770.743   189267174.461         -54.799          45.000    36346754.333   146353319.647         -42.146          47.000  
C13  37966406.333   197701037.320       -2439.976          37.000    37966404.209   152874977.914       -1886.305          39.000  
C16  35631949.563   185544911.730         -98.887          47.000    35631936.316   143475043.084         -76.478          47.000  
C23  21675520.087   112870120.891       -1814.514          43.000                                                                  
C32  22038792.920   114761781.532       -2685.539          45.000                                                                  
G32  22029255.863   115764520.918       -3722.520          42.000    22029253.298    90206109.486       -2900.716          39.000  
G27  23265632.924   122261748.510        3656.418          36.000    23265650.848    95268979.521        2849.388          34.000  
G04  21756162.916                        2788.095          28.000    21756150.326                        2172.323          29.000  
C37  21221756.747   110507256.183         325.522          49.000                                                                  
C08  38856556.492   202336280.658       -2541.240          34.000    38856554.609   156459237.457       -1964.608          43.000  
C20  22298181.191   116112480.254         526.781          48.000                                                                  
C28  24311654.646   126597176.067        2442.007          42.000                                                                  
C07  37669146.650   196153134.508        1051.868          39.000    37669132.337   151677988.346         813.287          42.000  
C10  38649407.366   201257608.934         914.198          33.000    38649404.123   155625138.798         707.593          43.000  
G29                                                                  22192466.432                       -1541.052          29.000  
> 2025 10 28 07 05 58.4360000  0 21                     
G03  21823623.328   114683914.246       -1546.199          42.000    21823617.704    89364071.261       -1205.898          36.000  
G16  19919058.236   104675360.405        2042.630          47.000                                                                  
G26  18878504.605    99207210.895        -497.433          49.000    18878495.743    77304285.300        -387.464          46.000  
G28  20449872.444   107464805.396       -1734.684          46.000    20449861.103    83738763.786       -1351.740          44.000  
G31  19266677.720   101247078.254        -504.898          47.000    19266665.723    78893778.231        -393.417          45.000  
C06  35196613.335   183278003.288         -85.468          47.000    35196593.766   141722099.579         -66.124          47.000  
C09  36346771.173   189267176.650         -54.832          45.000    36346754.769   146353321.335         -42.196          47.000  
C13  37966425.063   197701134.922       -2440.015          37.000    37966422.946   152875053.392       -1886.730          39.000  
C16  35631950.329   185544915.689         -99.011          47.000    35631937.045   143475046.139         -76.476          47.000  
C23  21675534.004   112870193.474       -1814.553          43.000                                                                  
C32  22038813.543   114761888.954       -2685.541          45.000                                                                  
G32  22029284.198   115764669.816       -3722.500          42.000    22029281.621    90206225.508       -2900.610          39.000  
G27  23265605.106   122261602.258        3656.135          36.000    23265623.025    95268865.593        2848.483          34.000  
G04  21756141.556                        2787.985          28.000    21756129.140                        2172.435          29.000  
C37  21221754.223   110507243.178         325.159          49.000                                                                  
C08  38856575.998   202336382.272       -2540.749          34.000    38856574.106   156459316.038       -1964.618          43.000  
C20  22298177.106   116112459.193         526.565          48.000                                                                  
C28  24311635.900   126597078.386        2442.040          42.000                                                                  
C07  37669138.576   196153092.447        1051.532          39.000    37669124.265   151677955.813         813.312          42.000  
C10  38649400.327   201257572.306         914.948          33.000    38649397.099   155625110.517         707.108          43.000  
G29                                                                  22192481.498                       -1541.414          29.000  
> 2025 10 28 07 05 58.4760000  0 21                     
G03  21823635.100   114683976.107       -1546.400          42.000    21823629.457    89364119.458       -1205.303          36.000  
G16  19919042.693   104675278.695        2042.603          47.000                                                                  
G26  18878508.382    99207230.797        -497.629          49.000    18878499.524    77304300.798        -387.500          46.000  
G28  20449885.627   107464874.776       -1734.653          46.000    20449874.289    83738817.858       -1351.852          44.000  
G31  19266681.541   101247098.435        -504.688          47.000    19266669.564    78893793.967        -393.434          45.000  
C06  35196613.996   183278006.705         -85.485          47.000    35196594.424   141722102.224         -66.160          47.000  
C09  36346771.600   189267178.836         -54.785          45.000    36346755.193   146353323.028         -42.291          47.000  
C13  37966443.815   197701232.505       -2439.776          37.000    37966441.682   152875128.897       -1887.383          40.000  
C16  35631951.086   185544919.637         -98.835          47.000    35631937.796   143475049.194         -76.446          47.000  
C23  21675547.949   112870266.051       -1814.451          43.000                                                                  
C32  22038834.148   114761996.398       -2685.945          45.000                                                                  
G32  22029312.542   115764818.706       -3722.401          42.000    22029309.973    90206341.532       -2900.617          39.000  
G27  23265577.252   122261455.953        3656.919          36.000    23265595.181    95268751.585        2849.473          34.000  
G04  21756120.110                        2787.818          28.000    21756107.901                        2172.635          29.000  
C37  21221751.734   110507230.169         325.091          49.000                                                                  
C08  38856595.513   202336483.868       -2540.162          34.000    38856593.630   156459394.608       -1964.381          43.000  
C20  22298173.050   116112438.138         526.338          48.000                                                                  
C28  24311617.141   126596980.726        2441.669          42.000                                                                  
C07  37669130.519   196153050.350        1052.130          39.000    37669116.184   151677923.268         813.501          42.000  
C10  38649393.265   201257535.677         915.226          33.000    38649390.072   155625082.228         707.055          43.000  
G29                                                                  22192496.560                       -1541.549          29.000  
> 2025 10 28 07 05 58.5160000  0 21                     
G03  21823646.889   114684038.017       -1547.431          41.000    21823641.222    89364167.632       -1204.528          36.000  
G16  19919027.137   104675196.979        2042.739          47.000                                                                  
G26  18878512.143    99207250.689        -497.510          49.000    18878503.301    77304316.292        -387.441          46.000  
G28  20449898.845   107464944.162       -1734.686          46.000    20449887.494    83738871.922       -1351.754          44.000  
G31  19266685.357   101247118.611        -504.491          47.000    19266673.386    78893809.690        -393.237          45.000  
C06  35196614.632   183278010.130         -85.635          47.000    35196595.080   141722104.862         -66.039          47.000  
C09  36346772.041   189267181.013         -54.516          45.000    36346755.603   146353324.716         -42.277          47.000  
C13  37966462.580   197701330.099       -2439.843          37.000    37966460.412   152875204.378       -1887.283          40.000  
C16  35631951.856   185544923.591         -98.882          47.000    35631938.540   143475052.246         -76.360          47.000  
C23  21675561.867   112870338.636       -1814.573          43.000                                                                  
C32  22038854.779   114762103.842       -2686.147          45.000                                                                  
G32  22029340.879   115764967.600       -3722.402          42.000    22029338.312    90206457.554       -2900.561          39.000  
G27  23265549.440   122261309.645        3657.571          36.000    23265567.327    95268637.570        2850.165          34.000  
G04  21756098.496                        2787.887          28.000    21756086.649                        2172.678          29.000  
C37  21221749.274   110507217.154         325.219          49.000                                                                  
C08  38856615.004   202336585.474       -2540.061          34.000    38856613.156   156459473.173       -1964.177          44.000  
C20  22298169.003   116112417.073         526.457          48.000                                                                  
C28  24311598.372   126596883.063        2441.559          42.000                                                                  
C07  37669122.416   196153008.251        1052.448          39.000    37669108.072   151677890.706         813.916          42.000  
C10  38649386.272   201257499.054         915.458          33.000    38649383.060   155625053.919         707.444          43.000  
G29                                                                  22192511.634                       -1541.297          29.000  
> 2025 10 28 07 05 58.5560000  0 21                     
G03  21823658.669   114684099.925       -1547.896          41.000    21823652.968    89364215.799       -1204.133          36.000  
G16  19919011.571   104675115.265        2042.789          47.000                                                                  
G26  18878515.914    99207270.572        -497.225          49.000    18878507.094    77304331.792        -387.517          46.000  
G28  20449912.044   107465013.541       -1734.579          46.000    20449900.723    83738925.977       -1351.567          44.000  
G31  19266689.209   101247138.803        -504.676          47.000    19266677.219    78893825.416        -393.163          45.000  
C06  35196615.278   183278013.555         -85.708          47.000    35196595.720   141722107.501         -65.995          47.000  
C09  36346772.446   189267183.191         -54.470          45.000    36346756.020   146353326.408         -42.346          47.000  
C13  37966481.336   197701427.708       -2440.157          37.000    37966479.145   152875279.811       -1886.336          40.000  
C16  35631952.612   185544927.558         -99.104          47.000    35631939.291   143475055.294         -76.223          47.000  
C23  21675575.809   112870411.222       -1814.660          43.000                                                                  
C32  22038875.401   114762211.259       -2685.697          45.000                                                                  
G32  22029369.224   115765116.508       -3722.657          42.000    22029366.645    90206573.568       -2900.451          39.000  
G27  23265521.596   122261163.360        3657.471          36.000    23265539.493    95268523.611        2849.474          33.000  
G04  21756077.247                        2787.670          28.000    21756065.441                        2172.751          29.000  
C37  21221746.810   110507204.134         325.375          49.000                                                                  
C08  38856634.503   202336687.087       -2540.153          34.000    38856632.662   156459551.738       -1964.122          44.000  
C20  22298164.958   116112396.023         526.285          47.000                                                                  
C28  24311579.623   126596785.405        2441.366          42.000                                                                  
C07  37669114.320   196152966.176        1052.057          39.000    37669100.005   151677858.153         813.953          42.000  
C10  38649379.251   201257462.470         914.837          33.000    38649376.030   155625025.588         708.054          43.000  
G29                                                                  22192526.689                       -1541.444          29.000  
> 2025 10 28 07 05 58.5960000  0 21                     
G03  21823670.453   114684161.797       -1547.312          41.000    21823664.756    89364264.032       -1205.244          36.000  
G16  19918996.035   104675033.553        2042.789          47.000                                                                  
G26  18878519.678    99207290.451        -497.001          49.000    18878510.871    77304347.297        -387.642          46.000  
G28  20449925.271   107465082.937       -1734.823          46.000    20449913.926    83738980.048       -1351.740          44.000  
G31  19266693.054   101247158.996        -504.818          47.000    19266681.054    78893841.152        -393.312          45.000  
C06  35196615.909   183278016.972         -85.563          47.000    35196596.368   141722110.138         -65.946          47.000  
C09  36346772.858   189267185.374         -54.523          45.000    36346756.435   146353328.098         -42.294          47.000  
C13  37966500.077   197701525.345       -2440.781          37.000    37966497.870   152875355.247       -1885.917          40.000  
C16  35631953.374   185544931.511         -98.974          47.000    35631940.017   143475058.354         -76.405          47.000  
C23  21675589.734   112870483.810       -1814.747          42.000                                                                  
C32  22038896.034   114762318.697       -2685.866          45.000                                                                  
G32  22029397.570   115765265.413       -3722.647          42.000    22029394.964    90206689.594       -2900.589          39.000  
G27  23265493.794   122261017.117        3656.562          36.000    23265511.667    95268409.677        2848.723          34.000  
G04  21756056.391                        2788.026          28.000    21756044.211                        2173.269          30.000  
C37  21221744.314   110507191.124         325.316          49.000                                                                  
C08  38856654.030   202336788.700       -2540.345          34.000    38856652.169   156459630.349       -1964.955          44.000  
C20  22298160.916   116112374.976         526.101          48.000                                                                  
C28  24311560.863   126596687.728        2441.694          41.000                                                                  
C07  37669106.230   196152924.105        1051.733          39.000    37669091.931   151677825.637         813.220          42.000  
C10  38649372.202   201257425.826         915.311          33.000    38649368.993   155624997.286         707.798          43.000  
G29                                                                  22192541.758                       -1541.266          29.000  
> 2025 10 28 07 05 58.6360000  0 21                     
G03  21823682.208   114684223.647       -1546.571          42.000    21823676.550    89364312.280       -1206.103          36.000  
G16  19918980.469   104674951.842        2042.789          46.000                                                                  
G26  18878523.482    99207310.332        -496.961          49.000    18878514.637    77304362.804        -387.773          46.000  
G28  20449938.480   107465152.319       -1734.719          45.000    20449927.135    83739034.113       -1351.725          44.000  
G31  19266696.883   101247179.190        -504.891          46.000    19266684.909    78893856.887        -393.398          45.000  
C06  35196616.562   183278020.382         -85.343          47.000    35196597.042   141722112.776         -65.950          47.000  
C09  36346773.272   189267187.551         -54.454          45.000    36346756.815   146353329.780         -42.155          47.000  
C13  37966518.802   197701622.957       -2440.577          37.000    37966516.621   152875430.752       -1886.952          40.000  
C16  35631954.136   185544935.457         -98.765          47.000    35631940.776   143475061.418         -76.545          47.000  
C23  21675603.687   112870556.405       -1814.921          42.000                                                                  
C32  22038916.674   114762426.130       -2685.847          45.000                                                                  
G32  22029425.899   115765414.323       -3722.784          42.000    22029423.300    90206805.620       -2900.669          39.000  
G27  23265465.957   122260870.843        3656.642          36.000    23265483.838    95268295.654        2849.824          34.000  
G04  21756035.051                        2787.646          28.000    21756023.002                        2171.348          30.000  
C37  21221741.785   110507178.116         325.207          48.000                                                                  
C08  38856673.597   202336890.363       -2541.151          34.000    38856671.659   156459708.934       -1964.900          44.000  
C20  22298156.899   116112353.914         526.342          48.000                                                                  
C28  24311542.129   126596590.052        2441.865          41.000                                                                  
C07  37669098.155   196152882.025        1051.794          39.000    37669083.861   151677793.114         812.994          42.000  
C10  38649365.188   201257389.271         914.297          33.000    38649361.980   155624969.005         707.276          42.000  
G29                                                                  22192556.822                       -1541.456          29.000  
> 2025 10 28 07 05 58.6760000  0 21                     
G03  21823693.967   114684285.486       -1546.066          42.000    21823688.348    89364360.562       -1207.101          36.000  
G16  19918964.926   104674870.133        2042.721          46.000                                                                  
G26  18878527.273    99207330.229        -497.317          49.000    18878518.416    77304378.315        -387.851          46.000  
G28  20449951.684   107465221.714       -1734.860          45.000    20449940.331    83739088.184       -1351.795          44.000  
G31  19266700.735   101247199.384        -504.909          46.000    19266688.752    78893872.620        -393.385          45.000  
C06  35196617.228   183278023.788         -85.173          47.000    35196597.692   141722115.422         -66.123          47.000  
C09  36346773.652   189267189.744         -54.715          45.000    36346757.224   146353331.468         -42.169          47.000  
C13  37966537.508   197701720.526       -2439.703          37.000    37966535.350   152875506.241       -1887.282          40.000  
C16  35631954.874   185544939.410         -98.777          47.000    35631941.528   143475064.473         -76.470          47.000  
C23  21675617.629   112870628.998       -1814.924          42.000                                                                  
C32  22038937.306   114762533.560       -2685.747          45.000                                                                  
G32  22029454.268   115765563.234       -3722.864          42.000    22029451.630    90206921.650       -2900.818          39.000  
G27  23265438.133   122260724.540        3657.198          36.000    23265455.988    95268181.628        2850.568          34.000  
G04  21756013.741                        2787.555          28.000    21756001.816                        2171.267          29.000  
C37  21221739.239   110507165.116         325.036          48.000                                                                  
C08  38856693.114   202336991.949       -2540.182          34.000    38856691.178   156459787.497       -1964.399          44.000  
C20  22298152.854   116112332.847         526.570          48.000                                                                  
C28  24311523.362   126596492.394        2441.602          41.000                                                                  
C07  37669090.036   196152839.961        1051.581          39.000    37669075.788   151677760.594         812.885          42.000  
C10  38649358.144   201257352.696         914.081          33.000    38649354.925   155624940.707         707.287          42.000  
G29                                                                  22192571.877                       -1541.560          29.000  
> 2025 10 28 07 05 58.7160000  0 21                     
G03  21823705.751   114684347.381       -1546.905          42.000    21823700.136    89364408.817       -1206.903          36.000  
G16  19918949.384   104674788.444        2042.331          46.000                                                                  
G26  18878531.054    99207350.148        -497.873          49.000    18878522.217    77304393.837        -388.074          46.000  
G28  20449964.890   107465291.104       -1734.829          45.000    20449953.551    83739142.259       -1351.915          44.000  
G31  19266704.567   101247219.579        -504.902          47.000    19266692.600    78893888.361        -393.527          45.000  
C06  35196617.876   183278027.213         -85.454          47.000    35196598.360   141722118.071         -66.250          47.000  
C09  36346774.061   189267191.948         -55.048          45.000    36346757.658   146353333.156         -42.209          47.000  
C13  37966556.256   197701818.113       -2439.586          37.000    37966554.083   152875581.711       -1887.010          40.000  
C16  35631955.617   185544943.367         -98.905          47.000    35631942.292   143475067.537         -76.582          47.000  
C23  21675631.575   112870701.601       -1815.085          42.000                                                                  
C32  22038957.944   114762640.997       -2685.885          45.000                                                                  
G32  22029482.622   115765712.168       -3723.310          42.000    22029479.968    90207037.691       -2901.040          39.000  
G27  23265410.283   122260578.260        3657.087          36.000    23265428.127    95268067.612        2850.677          34.000  
G04  21755991.835                        2787.525          28.000    21755980.582                        2170.817          29.000  
C37  21221736.752   110507152.118         324.892          48.000                                                                  
C08  38856712.628   202337093.594       -2540.709          34.000    38856710.670   156459866.057       -1964.083          44.000  
C20  22298148.785   116112311.788         526.526          48.000                                                                  
C28  24311504.612   126596394.727        2441.609          41.000                                                                  
C07  37669081.949   196152797.896        1051.477          39.000    37669067.680   151677728.053         813.275          42.000  
C10  38649351.118   201257316.102         914.508          33.000    38649347.898   155624912.416         707.227          42.000  
G29                                                                  22192586.930                       -1541.763          29.000  
> 2025 10 28 07 05 58.7560000  0 21                     
G03  21823717.526   114684409.296       -1547.744          42.000    21823711.909    89364457.014       -1205.606          36.000  
G16  19918933.843   104674706.756        2042.120          46.000                                                                  
G26  18878534.825    99207370.055        -497.877          49.000    18878526.021    77304409.342        -387.850          46.000  
G28  20449978.080   107465360.497       -1734.832          45.000    20449966.743    83739196.332       -1351.909          44.000  
G31  19266708.393   101247239.780        -505.063          47.000    19266696.437    78893904.101        -393.550          45.000  
C06  35196618.544   183278030.646         -85.740          47.000    35196599.020   141722120.720         -66.311          47.000  
C09  36346774.514   189267194.142         -55.010          45.000    36346758.081   146353334.848         -42.304          47.000  
C13  37966575.012   197701915.764       -2440.685          37.000    37966572.839   152875657.184       -1886.895          40.000  
C16  35631956.360   185544947.331         -99.071          47.000    35631943.079   143475070.598         -76.604          47.000  
C23  21675645.530   112870774.190       -1814.861          42.000                                                                  
C32  22038978.541   114762748.440       -2686.065          45.000                                                                  
G32  22029510.953   115765861.099       -3723.448          42.000    22029508.305    90207153.732       -2901.156          39.000  
G27  23265382.467   122260432.003        3656.611          36.000    23265400.295    95267953.693        2848.967          34.000  
G04  21755970.666                        2787.688          28.000    21755959.390                        2171.062          30.000  
C37  21221734.238   110507139.125         324.796          49.000                                                                  
C08  38856732.166   202337195.274       -2541.721          34.000    38856730.192   156459944.648       -1964.493          44.000  
C20  22298144.718   116112290.735         526.378          49.000                                                                  
C28  24311485.846   126596297.086        2441.147          41.000                                                                  
C07  37669073.889   196152755.825        1051.587          39.000    37669059.611   151677695.498         813.739          42.000  
C10  38649344.081   201257279.439         915.932          33.000    38649340.848   155624884.114         707.346          42.000  
G29                                                                  22192601.977    90874998.901       -1541.633          29.000  
> 2025 10 28 07 05 58.7960000  0 21                     
G03  21823729.308   114684471.210       -1548.122          42.000    21823723.652    89364505.202       -1204.703          36.000  
G16  19918918.284   104674625.059        2042.222          46.000                                                                  
G26  18878538.627    99207389.957        -497.727          49.000    18878529.804    77304424.849        -387.737          46.000  
G28  20449991.276   107465429.898       -1734.994          45.000    20449979.938    83739250.401       -1351.814          44.000  
G31  19266712.236   101247259.982        -505.105          47.000    19266700.296    78893919.844        -393.574          45.000  
C06  35196619.214   183278034.070         -85.736          47.000    35196599.708   141722123.363         -66.219          47.000  
C09  36346774.920   189267196.327         -54.777          45.000    36346758.506   146353336.542         -42.372          47.000  
C13  37966593.781   197702013.407       -2441.188          37.000    37966591.579   152875732.656       -1886.853          40.000  
C16  35631957.100   185544951.289         -99.038          47.000    35631943.858   143475073.663         -76.666          47.000  
C23  21675659.456   112870846.781       -1814.807          42.000                                                                  
C32  22038999.144   114762855.901       -2686.461          45.000                                                                  
G32  22029539.287   115766009.987       -3722.572          43.000    22029536.632    90207269.774       -2901.178          40.000  
G27  23265354.642   122260285.742        3656.483          36.000    23265372.485    95267839.761        2848.359          34.000  
G04  21755949.212                        2787.502          28.000    21755938.189                        2171.180          30.000  
C37  21221731.763   110507126.121         324.956          49.000                                                                  
C08  38856751.679   202337296.930       -2541.791          34.000    38856749.720   156460023.254       -1964.986          44.000  
C20  22298140.655   116112269.686         526.199          49.000                                                                  
C28  24311467.098   126596199.434        2441.136          41.000                                                                  
C07  37669065.802   196152713.736        1052.020          39.000    37669051.508   151677662.969         813.422          42.000  
C10  38649337.058   201257242.850         915.381          33.000    38649333.809   155624855.804         707.546          42.000  
G29                                                                  22192617.031    90875060.570       -1541.707          29.000  
> 2025 10 28 07 05 58.8360000  0 21                     
G03  21823741.095   114684533.109       -1547.857          42.000    21823735.428    89364553.396       -1204.558          36.000  
G16  19918902.728   104674543.359        2042.362          46.000                                                                  
G26  18878542.407    99207409.853        -497.500          49.000    18878533.603    77304440.357        -387.687          46.000  
G28  20450004.468   107465499.293       -1734.984          45.000    20449993.145    83739304.460       -1351.587          44.000  
G31  19266716.077   101247280.181        -505.055          47.000    19266704.109    78893935.578        -393.457          45.000  
C06  35196619.896   183278037.487         -85.544          47.000    35196600.377   141722126.007         -66.151          47.000  
C09  36346775.343   189267198.505         -54.525          45.000    36346758.943   146353338.236         -42.388          47.000  
C13  37966612.541   197702111.001       -2440.420          37.000    37966610.318   152875808.117       -1886.680          40.000  
C16  35631957.857   185544955.249         -99.022          47.000    35631944.628   143475076.723         -76.571          47.000  
C23  21675673.389   112870919.365       -1814.650          42.000                                                                  
C32  22039019.789   114762963.361       -2686.606          45.000                                                                  
G32  22029567.599   115766158.871       -3722.111          43.000    22029564.959    90207385.797       -2900.765          40.000  
G27  23265326.781   122260139.452        3657.063          36.000    23265344.645    95267725.804        2848.494          34.000  
G04  21755928.054                        2787.515          27.000    21755917.005                        2171.780          30.000  
C37  21221729.284   110507113.105         325.262          49.000                                                                  
C08  38856771.208   202337398.541       -2540.874          34.000    38856769.242   156460101.848       -1964.985          43.000  
C20  22298136.640   116112248.637         526.163          49.000                                                                  
C28  24311448.344   126596101.776        2441.268          41.000                                                                  
C07  37669057.707   196152671.686        1051.563          39.000    37669043.447   151677630.427         813.495          42.000  
C10  38649330.040   201257206.298         914.322          33.000    38649326.783   155624827.521         707.212          42.000  
G29                                                                  22192632.072    90875122.251       -1541.909          29.000  
> 2025 10 28 07 05 58.8760000  0 21                     
G03  21823752.864   114684594.993       -1547.375          42.000    21823747.195    89364601.599       -1204.758          36.000  
G16  19918887.155   104674461.654        2042.533          46.000                                                                  
G26  18878546.188    99207429.757        -497.578          49.000    18878537.379    77304455.862        -387.633          46.000  
G28  20450017.655   107465568.679       -1734.779          46.000    20450006.334    83739358.541       -1351.896          44.000  
G31  19266719.919   101247300.375        -504.907          47.000    19266707.933    78893951.312        -393.353          45.000  
C06  35196620.553   183278040.904         -85.461          47.000    35196601.052   141722128.642         -65.968          47.000  
C09  36346775.739   189267200.693         -54.613          45.000    36346759.352   146353339.923         -42.260          47.000  
C13  37966631.251   197702208.577       -2439.756          39.000    37966629.055   152875883.609       -1887.157          40.000  
C16  35631958.616   185544959.209         -99.015          47.000    35631945.420   143475079.775         -76.417          47.000  
C23  21675687.336   112870991.960       -1814.850          43.000                                                                  
C32  22039040.417   114763070.797       -2686.174          45.000                                                                  
G32  22029595.940   115766307.780       -3722.428          43.000    22029593.280    90207501.829       -2900.742          40.000  
G27  23265298.918   122259993.130        3658.037          36.000    23265316.798    95267611.777        2849.850          34.000  
G04  21755906.972                        2787.205          27.000    21755895.797                        2172.116          29.000  
C37  21221726.796   110507100.091         325.391          50.000                                                                  
C08  38856790.690   202337500.078       -2538.941          34.000    38856788.737   156460180.428       -1964.679          43.000  
C20  22298132.609   116112227.591         526.078          49.000                                                                  
C28  24311429.592   126596004.104        2441.630          41.000                                                                  
C07  37669049.623   196152629.618        1051.636          39.000    37669035.371   151677597.880         813.654          42.000  
C10  38649323.015   201257169.755         913.646          33.000    38649319.751   155624799.242         706.985          41.000  
G29                                                                  22192647.145    90875183.913       -1541.804          29.000  
> 2025 10 28 07 05 58.9160000  0 21                     
G03  21823764.639   114684656.871       -1546.989          42.000    21823758.971    89364649.815       -1205.125          36.000  
G16  19918871.590   104674379.946        2042.680          46.000                                                                  
G26  18878550.006    99207449.673        -497.830          49.000    18878541.176    77304471.368        -387.640          46.000  
G28  20450030.861   107465638.080       -1734.952          46.000    20450019.554    83739412.617       -1351.982          44.000  
G31  19266723.748   101247320.562        -504.704          47.000    19266711.784    78893967.055        -393.526          45.000  
C06  35196621.226   183278044.318         -85.367          47.000    35196601.704   141722131.283         -65.995          47.000  
C09  36346776.163   189267202.888         -54.844          45.000    36346759.744   146353341.614         -42.281          47.000  
C13  37966649.996   197702306.159       -2439.569          39.000    37966647.822   152875959.091       -1887.137          40.000  
C16  35631959.400   185544963.168         -99.009          47.000    35631946.193   143475082.836         -76.459          47.000  
C23  21675701.284   112871064.554       -1814.924          43.000                                                                  
C32  22039061.075   114763178.227       -2685.813          45.000                                                                  
G32  22029624.274   115766456.687       -3722.579          43.000    22029621.612    90207617.862       -2900.737          40.000  
G27  23265271.054   122259846.844        3657.683          36.000    23265288.958    95267497.789        2849.978          34.000  
G04  21755885.442                        2787.530          27.000    21755874.588                        2172.159          30.000  
C37  21221724.238   110507087.080         325.345          50.000                                                                  
C08  38856810.195   202337601.659       -2538.853          34.000    38856808.272   156460259.010       -1964.566          44.000  
C20  22298128.585   116112206.546         526.041          48.000                                                                  
C28  24311410.850   126595906.419        2442.056          41.000                                                                  
C07  37669041.550   196152587.532        1051.996          39.000    37669027.301   151677565.351         813.348          42.000  
C10  38649315.969   201257133.134         914.730          33.000    38649312.689   155624770.942         707.269          41.000  
G29                                                                  22192662.205    90875245.588       -1541.878          29.000  
> 2025 10 28 07 05 58.9560000  0 21                     
G03  21823776.407   114684718.745       -1546.781          42.000    21823770.749    89364698.045       -1205.633          36.000  
G16  19918856.033   104674298.244        2042.603          46.000                                                                  
G26  18878553.780    99207469.584        -497.852          49.000    18878544.976    77304486.872        -387.629          46.000  
G28  20450044.072   107465707.469       -1734.805          46.000    20450032.756    83739466.702       -1352.139          44.000  
G31  19266727.601   101247340.769        -505.031          47.000    19266715.632    78893982.792        -393.457          45.000  
C06  35196621.908   183278047.740         -85.493          47.000    35196602.380   141722133.939         -66.260          47.000  
C09  36346776.616   189267205.075         -54.791          45.000    36346760.165   146353343.307         -42.338          47.000  
C13  37966668.750   197702403.764       -2439.916          39.000    37966666.566   152876034.579       -1887.244          40.000  
C16  35631960.141   185544967.125         -98.964          47.000    35631946.956   143475085.902         -76.611          47.000  
C23  21675715.221   112871137.149       -1814.960          43.000                                                                  
C32  22039081.696   114763285.693       -2686.365          45.000                                                                  
G32  22029652.617   115766605.625       -3723.276          43.000    22029649.947    90207733.915       -2901.141          40.000  
G27  23265243.254   122259700.601        3656.682          36.000    23265261.112    95267383.796        2850.021          34.000  
G04  21755864.301                        2787.405          27.000    21755853.376                        2172.338          30.000  
C37  21221721.681   110507074.069         325.298          51.000                                                                  
C08  38856829.721   202337703.307       -2540.196          34.000    38856827.798   156460337.578       -1964.282          44.000  
C20  22298124.539   116112185.506         525.956          48.000                                                                  
C28  24311392.080   126595808.771        2441.553          41.000                                                                  
C07  37669033.458   196152545.452        1052.045          39.000    37669019.214   151677532.824         813.141          42.000  
C10  38649308.940   201257096.518         915.255          33.000    38649305.691   155624742.642         707.417          41.000  
G29                                                                  22192677.277    90875307.252       -1541.779          29.000  
> 2025 10 28 07 05 58.9960000  0 21                     
G03  21823788.194   114684780.639       -1547.076          42.000    21823782.540    89364746.286       -1206.092          37.000  
G16  19918840.505   104674216.560        2042.243          46.000                                                                  
G26  18878557.528    99207489.489        -497.724          49.000    18878548.752    77304502.373        -387.586          46.000  
G28  20450057.273   107465776.859       -1734.783          46.000    20450045.972    83739520.788       -1352.209          44.000  
G31  19266731.445   101247360.980        -505.259          47.000    19266719.459    78893998.535        -393.600          45.000  
C06  35196622.576   183278051.163         -85.591          47.000    35196603.065   141722136.599         -66.504          47.000  
C09  36346777.046   189267207.260         -54.700          45.000    36346760.577   146353345.006         -42.458          47.000  
C13  37966687.527   197702501.405       -2440.670          39.000    37966685.320   152876110.055       -1887.061          40.000  
C16  35631960.895   185544971.075         -98.849          47.000    35631947.745   143475088.963         -76.615          47.000  
C23  21675729.189   112871209.736       -1814.807          43.000                                                                  
C32  22039102.283   114763393.155       -2686.574          45.000                                                                  
G32  22029680.953   115766754.541       -3723.119          43.000    22029678.287    90207849.940       -2900.810          40.000  
G27  23265215.409   122259554.370        3655.792          36.000    23265233.245    95267269.796        2850.098          34.000  
G04  21755842.930                        2787.722          27.000    21755832.173                        2172.262          30.000  
C37  21221719.178   110507061.061         325.194          51.000                                                                  
C08  38856849.273   202337805.003       -2541.873          34.000    38856847.302   156460416.162       -1964.446          44.000  
C20  22298120.515   116112164.465         525.950          48.000                                                                  
C28  24311373.343   126595711.128        2441.215          41.000                                                                  
C07  37669025.378   196152503.363        1052.222          39.000    37669011.133   151677500.301         813.037          42.000  
C10  38649301.897   201257059.925         915.140          33.000    38649298.657   155624714.334         707.647          41.000  
G29                                                                  22192692.349    90875368.894       -1541.454          29.000  
> 2025 10 28 07 05 59.0360000  0 21                     
G03  21823799.963   114684842.544       -1547.504          42.000    21823794.301    89364794.516       -1206.058          37.000  
G16  19918824.966   104674134.878        2042.034          46.000                                                                  
G26  18878561.310    99207509.392        -497.611          49.000    18878552.556    77304517.885        -387.730          46.000  
G28  20450070.484   107465846.264       -1735.026          46.000    20450059.172    83739574.856       -1351.918          44.000  
G31  19266735.289   101247381.186        -505.282          47.000    19266723.299    78894014.281        -393.710          45.000  
C06  35196623.232   183278054.598         -85.859          46.000    35196603.721   141722139.254         -66.537          46.000  
C09  36346777.456   189267209.457         -54.905          45.000    36346761.006   146353346.711         -42.653          47.000  
C13  37966706.296   197702599.009       -2440.405          39.000    37966704.068   152876185.547       -1887.213          40.000  
C16  35631961.664   185544975.037         -98.998          47.000    35631948.523   143475092.030         -76.720          47.000  
C23  21675743.134   112871282.338       -1814.978          43.000                                                                  
C32  22039122.879   114763500.589       -2686.136          46.000                                                                  
G32  22029709.287   115766903.456       -3723.044          43.000    22029706.601    90207965.971       -2900.800          40.000  
G27  23265187.573   122259408.100        3656.190          36.000    23265205.437    95267155.865        2848.949          34.000  
G04  21755821.766                        2787.615          27.000    21755810.978                        2172.933          30.000  
C37  21221716.704   110507048.052         325.169          51.000                                                                  
C08  38856868.788   202337906.657       -2541.955          34.000    38856866.857   156460494.750       -1964.657          44.000  
C20  22298116.476   116112143.421         526.012          48.000                                                                  
C28  24311354.581   126595613.459        2441.511          41.000                                                                  
C07  37669017.296   196152461.277        1052.216          41.000    37669003.038   151677467.776         813.025          42.000  
C10  38649294.855   201257023.324         915.208          33.000    38649291.618   155624686.037         707.583          41.000  
G29                                                                  22192707.401    90875430.585       -1541.798          29.000  
> 2025 10 28 07 05 59.0760000  0 21                     
G03  21823811.733   114684904.441       -1547.544          42.000    21823806.083    89364842.746       -1205.952          37.000  
G16  19918809.408   104674053.193        2042.003          46.000                                                                  
G26  18878565.088    99207529.300        -497.683          49.000    18878556.350    77304533.409        -388.056          46.000  
G28  20450083.694   107465915.659       -1734.995          46.000    20450072.368    83739628.922       -1351.670          44.000  
G31  19266739.130   101247401.395        -505.331          47.000    19266727.172    78894030.040        -393.949          45.000  
C06  35196623.938   183278058.033         -85.981          46.000    35196604.378   141722141.908         -66.510          46.000  
C09  36346777.868   189267211.651         -54.947          45.000    36346761.422   146353348.409         -42.591          46.000  
C13  37966725.016   197702696.620       -2440.359          39.000    37966722.804   152876261.024       -1887.044          40.000  
C16  35631962.435   185544979.012         -99.322          46.000    35631949.274   143475095.100         -76.819          46.000  
C23  21675757.073   112871354.952       -1815.348          43.000                                                                  
C32  22039143.528   114763608.022       -2685.876          46.000                                                                  
G32  22029737.664   115767052.392       -3723.367          43.000    22029734.936    90208082.010       -2900.988          40.000  
G27  23265159.696   122259261.824        3656.628          36.000    23265177.603    95267041.903        2848.699          34.000  
G04  21755800.175                        2787.820          27.000    21755789.801                        2171.131          30.000  
C37  21221714.178   110507035.051         325.011          51.000                                                                  
C08  38856888.299   202338008.327       -2542.115          34.000    38856886.374   156460573.335       -1964.692          44.000  
C20  22298112.391   116112122.385         525.908          48.000                                                                  
C28  24311335.800   126595515.778        2441.857          41.000                                                                  
C07  37669009.215   196152419.216        1051.666          41.000    37668994.964   151677435.243         813.153          42.000  
C10  38649287.808                         914.924          33.000    38649284.581   155624657.750         707.268          41.000  
G29                                                                  22192722.459    90875492.254       -1541.785          29.000  
> 2025 10 28 07 05 59.1160000  0 21                     
G03  21823823.498   114684966.336       -1547.478          42.000    21823817.878    89364890.973       -1205.773          37.000  
G16  19918793.856   104673971.506        2042.064          46.000                                                                  
G26  18878568.865    99207549.211        -497.764          49.000    18878560.145    77304548.921        -387.964          46.000  
G28  20450096.893   107465985.058       -1734.991          46.000    20450085.578    83739682.999       -1351.790          44.000  
G31  19266742.980   101247421.608        -505.385          46.000    19266731.005    78894045.794        -393.973          45.000  
C06  35196624.604   183278061.469         -86.016          46.000    35196605.061   141722144.579         -66.754          46.000  
C09  36346778.292   189267213.846         -54.924          45.000    36346761.828   146353350.105         -42.501          46.000  
C13  37966743.761   197702794.261       -2440.840          37.000    37966741.549   152876336.502       -1886.955          41.000  
C16  35631963.182   185544982.984         -99.423          46.000    35631950.053   143475098.170         -76.833          46.000  
C23  21675771.035   112871427.560       -1815.361          43.000                                                                  
C32  22039164.121   114763715.473       -2686.110          46.000                                                                  
G32  22029765.988   115767201.309       -3723.146          43.000    22029763.277    90208198.055       -2901.155          40.000  
G27  23265131.821   122259115.515        3657.460          36.000    23265149.780    95266927.919        2849.198          34.000  
G04  21755779.115                        2786.830          27.000    21755768.576                        2171.686          30.000  
C37  21221711.707   110507022.052         324.912          50.000                                                                  
C08  38856907.819   202338109.953       -2541.391          34.000    38856905.891   156460651.933       -1964.940          44.000  
C20  22298108.356   116112101.344         525.951          48.000                                                                  
C28  24311317.038   126595418.129        2441.412          41.000                                                                  
C07  37669001.148   196152377.195        1050.653          41.000    37668986.884   151677402.723         812.958          42.000  
C10  38649280.774                         913.142          33.000    38649277.570   155624629.469         707.022          41.000  
G29                                                                  22192737.507    90875553.918       -1541.730          29.000  
> 2025 10 28 07 05 59.1560000  0 21                     
G03  21823835.274   114685028.241       -1547.634          42.000    21823829.644    89364939.201       -1205.757          37.000  
G16  19918778.303   104673889.823        2042.006          46.000                                                                  
G26  18878572.666    99207569.130        -497.958          49.000    18878563.936    77304564.436        -387.936          46.000  
G28  20450110.122   107466054.456       -1734.993          46.000    20450098.775    83739737.072       -1351.807          44.000  
G31  19266746.837   101247441.832        -505.588          46.000    19266734.845    78894061.541        -393.824          45.000  
C06  35196625.298   183278064.899         -85.889          46.000    35196605.743   141722147.237         -66.639          45.000  
C09  36346778.714   189267216.053         -55.164          45.000    36346762.254   146353351.804         -42.501          46.000  
C13  37966762.514   197702891.898       -2441.039          37.000    37966760.299   152876411.972       -1886.742          41.000  
C16  35631963.950   185544986.958         -99.465          46.000    35631950.826   143475101.249         -76.965          46.000  
C23  21675784.986   112871500.181       -1815.565          43.000                                                                  
C32  22039184.728   114763822.935       -2686.471          46.000                                                                  
G32  22029794.323   115767350.213       -3722.703          43.000    22029791.605    90208314.110       -2901.414          39.000  
G27  23265103.978   122258969.225        3657.478          36.000    23265121.966    95266813.965        2849.012          34.000  
G04  21755758.262                        2787.642          27.000    21755747.352                        2172.831          30.000  
C37  21221709.212   110507009.059         324.770          50.000                                                                  
C08  38856927.321   202338211.616       -2541.525          34.000    38856925.411   156460730.534       -1965.114          44.000  
C20  22298104.294   116112080.311         525.834          48.000                                                                  
C28  24311298.291   126595320.482        2441.203          41.000                                                                  
C07  37668993.091   196152335.132        1051.074          41.000    37668978.796   151677370.208         812.836          42.000  
C10  38649273.766                         912.830          33.000    38649270.567   155624601.192         706.861          41.000  
G29                                                                  22192752.556    90875615.604       -1541.920          29.000  
> 2025 10 28 07 05 59.1960000  0 21                     
G03  21823847.064   114685090.158       -1547.881          42.000    21823841.440    89364987.459       -1206.278          37.000  
G16  19918762.768   104673808.132        2042.128          46.000                                                                  
G26  18878576.443    99207589.050        -498.042          49.000    18878567.695    77304579.954        -387.967          46.000  
G28  20450123.330   107466123.860       -1735.109          46.000    20450112.002    83739791.146       -1351.855          44.000  
G31  19266750.684   101247462.046        -505.507          46.000    19266738.697    78894077.288        -393.738          45.000  
C06  35196625.947   183278068.338         -85.967          46.000    35196606.406   141722149.902         -66.654          45.000  
C09  36346779.142   189267218.260         -55.242          44.000    36346762.684   146353353.507         -42.578          45.000  
C13  37966781.266   197702989.515       -2440.708          37.000    37966779.041   152876487.425       -1886.355          41.000  
C16  35631964.733   185544990.927         -99.367          46.000    35631951.604   143475104.313         -76.763          45.000  
C23  21675798.910   112871572.769       -1815.032          43.000                                                                  
C32  22039205.390   114763930.389       -2686.480          46.000                                                                  
G32  22029822.667   115767499.106       -3722.372          43.000    22029819.954    90208430.160       -2901.417          39.000  
G27  23265076.161   122258822.979        3656.681          36.000    23265094.123    95266700.007        2848.794          34.000  
G04  21755736.936                        2787.399          27.000    21755726.124                        2172.902          30.000  
C37  21221706.745   110506996.058         324.878          49.000                                                                  
C08  38856946.845   202338313.210       -2540.354          34.000    38856944.929   156460809.122       -1964.918          44.000  
C20  22298100.258   116112059.275         525.835          48.000                                                                  
C28  24311279.533   126595222.823        2441.316          41.000                                                                  
C07  37668984.959   196152293.026        1052.179          41.000    37668970.692   151677337.668         813.245          42.000  
C10  38649266.734                         914.080          33.000    38649263.537   155624572.906         707.006          41.000  
G29                                                                  22192767.627    90875677.285       -1542.006          29.000  
> 2025 10 28 07 05 59.2360000  0 21                     
G03  21823858.839   114685152.069       -1547.890          42.000    21823853.258    89365035.713       -1206.448          37.000  
G16  19918747.210   104673726.451        2042.035          46.000                                                                  
G26  18878580.234    99207608.970        -498.071          49.000    18878571.480    77304595.479        -388.124          46.000  
G28  20450136.564   107466193.266       -1735.198          46.000    20450125.209    83739845.239       -1352.234          44.000  
G31  19266754.529   101247482.252        -505.260          46.000    19266742.547    78894093.040        -393.775          45.000  
C06  35196626.607   183278071.775         -85.941          45.000    35196607.070   141722152.549         -66.377          45.000  
C09  36346779.577   189267220.459         -55.105          44.000    36346763.114   146353355.213         -42.658          45.000  
C13  37966800.014   197703087.122       -2440.352          37.000    37966797.772   152876562.888       -1886.382          41.000  
C16  35631965.479   185544994.900         -99.338          45.000    35631952.367   143475107.401         -77.078          45.000  
C23  21675812.881   112871645.364       -1814.840          43.000                                                                  
C32  22039226.032   114764037.840       -2686.417          46.000                                                                  
G32  22029851.001   115767648.033       -3722.874          43.000    22029848.319    90208546.212       -2901.357          39.000  
G27  23265048.293   122258676.732        3656.156          36.000    23265066.290    95266586.050        2848.657          33.000  
G04  21755715.948                        2787.294          27.000    21755704.906                        2171.383          29.000  
C37  21221704.267   110506983.065         324.823          49.000                                                                  
C08  38856966.354   202338414.809       -2539.876          34.000    38856964.467   156460887.700       -1964.598          44.000  
C20  22298096.246   116112038.245         525.736          48.000                                                                  
C28  24311260.790   126595125.165        2441.360          41.000                                                                  
C07  37668976.859   196152250.931        1052.551          41.000    37668962.572   151677305.117         813.696          42.000  
C10  38649259.679                         916.388          33.000    38649256.486   155624544.614         707.225          41.000  
G29                                                                  22192782.705    90875738.986       -1542.282          29.000  
> 2025 10 28 07 05 59.2760000  0 21                     
G03  21823870.629   114685213.962       -1547.529          42.000    21823865.035    89365083.956       -1206.208          37.000  
G16  19918731.655   104673644.766        2042.058          47.000                                                                  
G26  18878584.032    99207628.886        -498.000          49.000    18878575.272    77304611.001        -388.115          46.000  
G28  20450149.764   107466262.683       -1735.407          45.000    20450138.436    83739899.316       -1352.097          43.000  
G31  19266758.372   101247502.464        -505.273          46.000    19266746.390    78894108.787        -393.701          45.000  
C06  35196627.266   183278075.222         -86.105          45.000    35196607.713   141722155.203         -66.345          45.000  
C09  36346780.007   189267222.645         -54.788          44.000    36346763.536   146353356.923         -42.758          45.000  
C13  37966818.750   197703184.725       -2440.134          37.000    37966816.538   152876638.368       -1886.722          41.000  
C16  35631966.241   185544998.869         -99.293          45.000    35631953.136   143475110.470         -76.922          45.000  
C23  21675826.805   112871717.963       -1814.889          43.000                                                                  
C32  22039246.665   114764145.295       -2686.416          45.000                                                                  
G32  22029879.345   115767796.969       -3723.296          43.000    22029876.645    90208662.260       -2901.244          39.000  
G27  23265020.468   122258530.457        3656.482          36.000    23265038.466    95266472.123        2848.230          33.000  
G04  21755695.038                        2787.406          27.000    21755683.690                        2171.627          29.000  
C37  21221701.744   110506970.085         324.543          48.000                                                                  
C08  38856985.859   202338516.390       -2539.399          34.000    38856983.965   156460966.275       -1964.406          44.000  
C20  22298092.201   116112017.220         525.589          48.000                                                                  
C28  24311242.016   126595027.503        2441.422          40.000                                                                  
C07  37668968.782   196152208.871        1051.874          39.000    37668954.480   151677272.567         813.831          43.000  
C10  38649252.651                         916.239          33.000    38649249.456   155624516.325         707.225          41.000  
G29                                                                  22192797.759    90875800.658       -1542.159          29.000  
> 2025 10 28 07 05 59.3160000  0 21                     
G03  21823882.415   114685275.876       -1547.733          42.000    21823876.793    89365132.181       -1205.742          36.000  
G16  19918716.113   104673563.086        2041.993          47.000                                                                  
G26  18878587.825    99207648.806        -498.019          48.000    18878579.071    77304626.538        -388.364          46.000  
G28  20450162.956   107466332.093       -1735.391          45.000    20450151.623    83739953.402       -1352.139          43.000  
G31  19266762.240   101247522.687        -505.514          46.000    19266750.253    78894124.532        -393.665          44.000  
C06  35196627.937   183278078.671         -86.267          45.000    35196608.376   141722157.863         -66.449          45.000  
C09  36346780.411   189267224.843         -54.836          44.000    36346763.970   146353358.631         -42.767          45.000  
C13  37966837.473   197703282.321       -2439.902          37.000    37966835.301   152876713.867       -1887.249          41.000  
C16  35631967.020   185545002.853         -99.524          45.000    35631953.888   143475113.542         -76.871          45.000  
C23  21675840.731   112871790.581       -1815.261          43.000                                                                  
C32  22039267.301   114764252.753       -2686.452          45.000                                                                  
G32  22029907.698   115767945.919       -3723.733          43.000    22029904.971    90208778.295       -2900.958          39.000  
G27  23264992.623   122258384.162        3657.039          36.000    23265010.636    95266358.143        2849.011          33.000  
G04  21755673.997                        2787.382          27.000    21755662.458                        2171.851          29.000  
C37  21221699.257   110506957.107         324.396          48.000                                                                  
C08  38857005.386   202338617.997       -2539.755          34.000    38857003.474   156461044.863       -1964.562          44.000  
C20  22298088.184   116111996.192         525.590          48.000                                                                  
C28  24311223.270   126594929.866        2441.082          40.000                                                                  
C07  37668960.737   196152166.829        1051.099          39.000    37668946.393   151677240.023         813.770          43.000  
C10  38649245.626                         915.628          33.000    38649242.435   155624488.025         707.421          41.000  
G29                                                                  22192812.823    90875862.328       -1542.005          29.000  
> 2025 10 28 07 05 59.3560000  0 21                     
G03  21823894.191   114685337.786       -1547.789          42.000    21823888.579    89365180.407       -1205.598          36.000  
G16  19918700.588   104673481.404        2042.023          47.000                                                                  
G26  18878591.623    99207668.728        -498.075          48.000    18878582.832    77304642.060        -388.217          46.000  
G28  20450176.151   107466401.498       -1735.229          44.000    20450164.852    83740007.492       -1352.254          42.000  
G31  19266766.125   101247542.912        -505.655          46.000    19266754.101    78894140.292        -393.948          44.000  
C06  35196628.612   183278082.109         -86.119          45.000    35196609.013   141722160.513         -66.329          45.000  
C09  36346780.829   189267227.033         -54.789          43.000    36346764.407   146353360.326         -42.512          45.000  
C13  37966856.201   197703379.918       -2439.909          37.000    37966854.064   152876789.362       -1887.463          41.000  
C16  35631967.769   185545006.840         -99.700          45.000    35631954.642   143475116.627         -77.060          45.000  
C23  21675854.678   112871863.179       -1815.114          43.000                                                                  
C32  22039287.946   114764360.230       -2686.825          45.000                                                                  
G32  22029936.047   115768094.846       -3723.497          43.000    22029933.298    90208894.323       -2900.643          39.000  
G27  23264964.746   122258237.845        3657.743          37.000    23264982.793    95266244.133        2850.060          33.000  
G04  21755652.900                        2787.737          27.000    21755641.261                        2171.987          29.000  
C37  21221696.799   110506944.120         324.511          47.000                                                                  
C08  38857024.902   202338719.640       -2540.591          34.000    38857022.995   156461123.464       -1964.866          44.000  
C20  22298084.151   116111975.157         525.769          48.000                                                                  
C28  24311204.508   126594832.227        2441.000          40.000                                                                  
C07  37668952.662   196152124.810        1050.421          39.000    37668938.301   151677207.502         813.208          43.000  
C10  38649238.596                         914.911          33.000    38649235.402   155624459.733         707.349          41.000  
G29                                                                  22192827.869    90875923.958       -1541.421          29.000  
> 2025 10 28 07 05 59.3960000  0 21                     
G03  21823905.958   114685399.697       -1547.826          42.000    21823900.358    89365228.683       -1206.482          36.000  
G16  19918685.013   104673399.711        2042.211          48.000                                                                  
G26  18878595.429    99207688.659        -498.250          48.000    18878586.618    77304657.577        -388.060          46.000  
G28  20450189.368   107466470.904       -1735.157          44.000    20450178.041    83740061.575       -1352.213          42.000  
G31  19266769.971   101247563.127        -505.506          46.000    19266757.969    78894156.052        -394.071          44.000  
C06  35196629.278   183278085.539         -85.876          45.000    35196609.647   141722163.164         -66.266          45.000  
C09  36346781.236   189267229.231         -54.885          43.000    36346764.841   146353362.021         -42.375          45.000  
C13  37966874.969   197703477.572       -2440.908          37.000    37966872.817   152876864.849       -1887.458          41.000  
C16  35631968.545   185545010.820         -99.654          45.000    35631955.399   143475119.690         -76.761          45.000  
C23  21675868.631   112871935.771       -1814.868          42.000                                                                  
C32  22039308.566   114764467.689       -2686.692          45.000                                                                  
G32  22029964.390   115768243.758       -3723.023          43.000    22029961.613    90209010.340       -2900.343          40.000  
G27  23264936.912   122258091.566        3657.408          36.000    23264954.939    95266130.141        2850.136          33.000  
G04  21755632.013                        2788.127          27.000    21755620.030                        2171.770          29.000  
C37  21221694.327   110506931.123         324.794          46.000                                                                  
C08  38857044.424   202338821.261       -2540.648          34.000    38857042.519   156461202.052       -1964.795          44.000  
C20  22298080.139   116111954.114         526.016          48.000                                                                  
C28  24311185.753   126594734.595        2440.827          40.000                                                                  
C07  37668944.598   196152082.748        1051.038          39.000    37668930.257   151677174.988         812.842          42.000  
C10  38649231.587                         913.218          33.000    38649228.326   155624431.436         707.379          41.000  
G29                                                                  22192842.921    90875985.586       -1540.986          29.000  
> 2025 10 28 07 05 59.4360000  0 21                     
G03  21823917.738   114685461.608       -1547.792          42.000    21823912.133    89365276.933       -1206.457          36.000  
G16  19918669.480   104673318.023        2042.210          48.000                                                                  
G26  18878599.229    99207708.584        -498.222          48.000    18878590.409    77304673.094        -387.936          46.000  
G28  20450202.576   107466540.300       -1734.960          44.000    20450191.236    83740115.658       -1352.194          41.000  
G31  19266773.775   101247583.335        -505.240          46.000    19266761.804    78894171.798        -393.823          44.000  
C06  35196629.936   183278088.960         -85.592          45.000    35196610.293   141722165.826         -66.482          45.000  
C09  36346781.667   189267231.425         -54.852          43.000    36346765.256   146353363.715         -42.323          45.000  
C13  37966893.693   197703575.190       -2440.751          37.000    37966891.587   152876940.334       -1887.296          41.000  
C16  35631969.339   185545014.780         -99.219          45.000    35631956.149   143475122.745         -76.447          45.000  
C23  21675882.552   112872008.376       -1815.016          42.000                                                                  
C32  22039329.183   114764575.151       -2686.616          45.000                                                                  
G32  22029992.743   115768392.669       -3722.777          43.000    22029989.942    90209126.384       -2900.796          39.000  
G27  23264909.051   122257945.306        3656.868          36.000    23264927.099    95266016.207        2849.022          33.000  
G04  21755610.619                        2787.795          27.000    21755598.814                        2172.573          29.000  
C37  21221691.860   110506918.127         324.892          46.000                                                                  
C08  38857063.950   202338922.929       -2541.505          34.000    38857062.049   156461280.631       -1964.601          44.000  
C20  22298076.100   116111933.070         526.113          48.000                                                                  
C28  24311166.998   126594636.941        2441.161          40.000                                                                  
C07  37668936.518   196152040.683        1051.483          39.000    37668922.182   151677142.464         812.872          42.000  
C10  38649224.606                         911.167          28.000    38649221.293   155624403.155         707.152          41.000  
G29                                                                  22192857.951                       -1541.694          29.000  
> 2025 10 28 07 05 59.4760000  0 21                     
G03  21823929.503   114685523.504       -1547.548          42.000    21823923.920    89365325.182       -1206.410          36.000  
G16  19918653.929   104673236.334        2042.227          48.000                                                                  
G26  18878603.005    99207728.503        -498.077          48.000    18878594.196    77304688.608        -387.844          46.000  
G28  20450215.774   107466609.690       -1734.778          44.000    20450204.433    83740169.730       -1351.953          41.000  
G31  19266777.609   101247603.540        -505.100          46.000    19266765.632    78894187.538        -393.558          44.000  
C06  35196630.611   183278092.378         -85.399          45.000    35196610.955   141722168.468         -66.221          45.000  
C09  36346782.087   189267233.627         -55.019          42.000    36346765.696   146353365.413         -42.396          45.000  
C13  37966912.452   197703672.797       -2440.477          35.000    37966910.339   152877015.822       -1887.268          41.000  
C16  35631970.115   185545018.739         -98.993          45.000    35631956.902   143475125.809         -76.478          45.000  
C23  21675896.495   112872080.992       -1815.292          41.000                                                                  
C32  22039349.791   114764682.616       -2686.654          45.000                                                                  
G32  22030021.066   115768541.574       -3722.556          44.000    22030018.275    90209242.431       -2901.131          39.000  
G27  23264881.204   122257799.053        3656.486          36.000    23264899.288    95265902.243        2848.955          33.000  
G04  21755589.200                        2787.887          27.000    21755577.587                        2172.880          29.000  
C37  21221689.336   110506905.137         324.830          45.000                                                                  
C08  38857083.501   202339024.615       -2542.259          31.000    38857081.557   156461359.222       -1964.708          44.000  
C20  22298072.044   116111912.029         526.099          48.000                                                                  
C28  24311148.247   126594539.267        2441.691          40.000                                                                  
C07  37668928.442   196151998.601        1052.045          39.000    37668914.098   151677109.930         813.110          42.000  
C10  38649217.595                         911.246          28.000    38649214.288   155624374.855         707.373          41.000  
G29                                                                  22192873.031                       -1541.761          29.000  
> 2025 10 28 07 05 59.5160000  0 21                     
G03  21823941.298   114685585.408       -1547.518          42.000    21823935.705    89365373.407       -1205.828          36.000  
G16  19918638.396   104673154.655        2042.050          48.000                                                                  
G26  18878606.808    99207748.425        -498.078          48.000    18878597.996    77304704.131        -387.990          46.000  
G28  20450228.959   107466679.078       -1734.697          44.000    20450217.667    83740223.821       -1352.179          41.000  
G31  19266781.461   101247623.753        -505.200          46.000    19266769.485    78894203.287        -393.671          44.000  
C06  35196631.252   183278095.807         -85.511          45.000    35196611.595   141722171.115         -66.161          45.000  
C09  36346782.515   189267235.809         -54.738          42.000    36346766.118   146353367.112         -42.459          45.000  
C13  37966931.165   197703770.365       -2439.659          35.000    37966929.093   152877091.283       -1886.752          41.000  
C16  35631970.857   185545022.704         -99.024          45.000    35631957.650   143475128.873         -76.536          45.000  
C23  21675910.436   112872153.603       -1815.339          41.000                                                                  
C32  22039370.430   114764790.080       -2686.616          45.000                                                                  
G32  22030049.404   115768690.494       -3722.796          44.000    22030046.622    90209358.481       -2901.347          39.000  
G27  23264853.366   122257652.823        3655.871          36.000    23264871.428    95265788.252        2849.404          33.000  
G04  21755568.066                        2787.613          27.000    21755556.366                        2172.887          29.000  
C37  21221686.821   110506892.145         324.795          45.000                                                                  
C08  38857102.989   202339126.268       -2541.957          31.000    38857101.095   156461437.817       -1964.891          44.000  
C20  22298067.973   116111890.996         525.896          48.000                                                                  
C28  24311129.511   126594441.599        2441.866          40.000                                                                  
C07  37668920.372   196151956.525        1052.118          39.000    37668906.035   151677077.409         813.049          42.000  
C10  38649210.532                         911.637          28.000    38649207.238   155624346.558         707.414          42.000  
G29                                                                  22192888.104                       -1542.099          29.000  
> 2025 10 28 07 05 59.5560000  0 21                     
G03  21823953.062   114685647.300       -1547.332          43.000    21823947.488    89365421.653       -1205.979          36.000  
G16  19918622.852   104673072.977        2041.935          48.000                                                                  
G26  18878610.590    99207768.342        -497.959          48.000    18878601.788    77304719.657        -388.154          46.000  
G28  20450242.171   107466748.488       -1735.037          44.000    20450230.879    83740277.899       -1352.003          41.000  
G31  19266785.317   101247643.975        -505.428          46.000    19266773.338    78894219.036        -393.739          44.000  
C06  35196631.884   183278099.235         -85.608          45.000    35196612.228   141722173.767         -66.279          44.000  
C09  36346782.923   189267238.006         -54.841          42.000    36346766.518   146353368.810         -42.484          45.000  
C13  37966949.912   197703868.017       -2440.663          35.000    37966947.842   152877166.764       -1886.880          41.000  
C16  35631971.657   185545026.663         -98.925          45.000    35631958.394   143475131.944         -76.681          45.000  
C23  21675924.374   112872226.203       -1815.161          41.000                                                                  
C32  22039391.073   114764897.534       -2686.429          46.000                                                                  
G32  22030077.759   115768839.411       -3722.872          44.000    22030074.982    90209474.538       -2901.568          39.000  
G27  23264825.517   122257506.585        3655.674          36.000    23264843.580    95265674.255        2849.858          33.000  
G04  21755547.212                        2786.606          27.000    21755535.144                        2171.347          29.000  
C37  21221684.303   110506879.159         324.654          45.000                                                                  
C08  38857122.520   202339227.928       -2541.754          31.000    38857120.630   156461516.392       -1964.616          44.000  
C20  22298063.907   116111869.969         525.674          48.000                                                                  
C28  24311110.742   126594343.933        2441.858          41.000                                                                  
C07  37668912.290   196151914.452        1052.020          39.000    37668897.974   151677044.886         813.025          42.000  
C10  38649203.457                         912.784          28.000    38649200.235   155624318.269         707.293          42.000  
G29                                                                  22192903.164                       -1541.865          29.000  
> 2025 10 28 07 05 59.5960000  0 21                     
G03  21823964.837   114685709.195       -1547.297          43.000    21823959.287    89365469.888       -1205.860          36.000  
G16  19918607.326   104672991.298        2041.916          48.000                                                                  
G26  18878614.370    99207788.258        -497.924          48.000    18878605.607    77304735.191        -388.391          45.000  
G28  20450255.365   107466817.888       -1735.064          44.000    20450244.089    83740331.983       -1352.087          41.000  
G31  19266789.176   101247664.202        -505.668          46.000    19266777.184    78894234.797        -394.016          44.000  
C06  35196632.539   183278102.665         -85.723          45.000    35196612.848   141722176.433         -66.567          44.000  
C09  36346783.359   189267240.197         -54.797          41.000    36346766.937   146353370.503         -42.382          45.000  
C13  37966968.664   197703965.631       -2440.482          35.000    37966966.582   152877242.259       -1887.242          41.000  
C16  35631972.393   185545030.632         -99.095          45.000    35631959.157   143475135.010         -76.692          45.000  
C23  21675938.326   112872298.798       -1814.968          39.000                                                                  
C32  22039411.712   114765004.990       -2686.362          46.000                                                                  
G32  22030106.108   115768988.344       -3723.213          44.000    22030103.315    90209590.590       -2901.495          39.000  
G27  23264797.677   122257360.347        3655.658          36.000    23264815.716    95265560.267        2849.886          33.000  
G04  21755525.827                        2786.710          27.000    21755513.943                        2170.462          29.000  
C37  21221681.789   110506866.159         324.822          45.000                                                                  
C08  38857142.018   202339329.562       -2541.179          31.000    38857140.130   156461594.975       -1964.593          44.000  
C20  22298059.834   116111848.954         525.379          49.000                                                                  
C28  24311091.974   126594246.272        2441.674          41.000                                                                  
C07  37668904.187   196151872.379        1051.892          40.000    37668889.872   151677012.356         813.165          42.000  
C10  38649196.388                         914.185          28.000    38649193.212   155624289.970         707.420          42.000  
G29                                                                  22192918.219                       -1541.828          28.000  
> 2025 10 28 07 05 59.6360000  0 21                     
G03  21823976.606   114685771.112       -1547.720          43.000    21823971.077    89365518.142       -1206.183          37.000  
G16  19918591.794   104672909.614        2042.008          48.000                                                                  
G26  18878618.181    99207808.184        -498.107          48.000    18878609.396    77304750.713        -388.243          45.000  
G28  20450268.570   107466887.293       -1735.146          44.000    20450257.321    83740386.071       -1352.205          41.000  
G31  19266793.012   101247684.416        -505.519          46.000    19266781.031    78894250.547        -393.954          43.000  
C06  35196633.199   183278106.095         -85.752          45.000    35196613.497   141722179.086         -66.495          44.000  
C09  36346783.773   189267242.376         -54.564          41.000    36346767.343   146353372.193         -42.281          45.000  
C13  37966987.401   197704063.242       -2440.329          35.000    37966985.341   152877317.747       -1887.254          41.000  
C16  35631973.131   185545034.608         -99.342          45.000    35631959.923   143475138.085         -76.840          44.000  
C23  21675952.286   112872371.393       -1814.889          39.000                                                                  
C32  22039432.324   114765112.458       -2686.575          46.000                                                                  
G32  22030134.459   115769137.264       -3723.161          44.000    22030131.647    90209706.629       -2901.208          39.000  
G27  23264769.826   122257214.042        3656.945          36.000    23264787.865    95265446.274        2849.777          33.000  
G04  21755504.549                        2786.864          27.000    21755492.721                        2171.094          29.000  
C37  21221679.314   110506853.158         324.974          45.000                                                                  
C08  38857161.534   202339431.180       -2540.554          35.000    38857159.653   156461673.558       -1964.602          44.000  
C20  22298055.825   116111827.932         525.412          49.000                                                                  
C28  24311073.187   126594148.608        2441.584          41.000                                                                  
C07  37668896.084   196151830.305        1051.831          41.000    37668881.792   151676979.837         813.000          42.000  
C10  38649189.379                         915.051          28.000    38649186.178   155624261.675         707.432          42.000  
G29                                                                  22192933.270                       -1541.932          28.000  
> 2025 10 28 07 05 59.6760000  0 21                     
G03  21823988.391   114685833.022       -1547.798          43.000    21823982.877    89365566.400       -1206.485          37.000  
G16  19918576.251   104672827.922        2042.177          48.000                                                                  
G26  18878621.968    99207828.109        -498.130          48.000    18878613.172    77304766.240        -388.223          45.000  
G28  20450281.777   107466956.701       -1735.239          44.000    20450270.539    83740440.166       -1352.343          41.000  
G31  19266796.859   101247704.625        -505.365          45.000    19266784.863    78894266.301        -393.910          43.000  
C06  35196633.875   183278109.529         -85.854          45.000    35196614.138   141722181.740         -66.445          44.000  
C09  36346784.160   189267244.576         -54.833          41.000    36346767.760   146353373.890         -42.366          44.000  
C13  37967006.136   197704160.857       -2440.328          35.000    37967004.095   152877393.239       -1887.330          40.000  
C16  35631973.872   185545038.579         -99.327          44.000    35631960.691   143475141.152         -76.790          44.000  
C23  21675966.214   112872444.012       -1815.300          39.000                                                                  
C32  22039452.968   114765219.911       -2686.419          46.000                                                                  
G32  22030162.788   115769286.189       -3723.209          44.000    22030159.975    90209822.676       -2901.203          39.000  
G27  23264741.978   122257067.763        3657.216          36.000    23264760.037    95265332.347        2848.555          33.000  
G04  21755483.376                        2787.145          27.000    21755471.495                        2171.727          28.000  
C37  21221676.846   110506840.160         324.971          45.000                                                                  
C08  38857181.025   202339532.778       -2539.908          35.000    38857179.170   156461752.155       -1964.848          44.000  
C20  22298051.797   116111806.902         525.579          49.000                                                                  
C28  24311054.407   126594050.949        2441.445          41.000                                                                  
C07  37668887.996   196151788.234        1051.764          41.000    37668873.710   151676947.299         813.312          42.000  
C10  38649182.303                         915.208          28.000    38649179.156   155624233.378         707.443          42.000  
G29                                                                  22192948.303                       -1542.085          28.000  
> 2025 10 28 07 05 59.7160000  0 21                     
G03  21824000.195   114685894.929       -1547.764          43.000    21823994.651    89365614.652       -1206.499          37.000  
G16  19918560.682   104672746.237        2042.137          48.000                                                                  
G26  18878625.756    99207848.030        -498.099          48.000    18878616.970    77304781.773        -388.310          45.000  
G28  20450295.003   107467026.113       -1735.324          44.000    20450283.740    83740494.260       -1352.387          41.000  
G31  19266800.713   101247724.844        -505.414          45.000    19266788.702    78894282.052        -393.842          43.000  
C06  35196634.535   183278112.961         -85.884          44.000    35196614.771   141722184.390         -66.344          43.000  
C09  36346784.578   189267246.766         -54.807          41.000    36346768.161   146353375.579         -42.278          44.000  
C13  37967024.924   197704258.490       -2440.647          35.000    37967022.839   152877468.723       -1887.211          40.000  
C16  35631974.597   185545042.547         -99.293          44.000    35631961.460   143475144.217         -76.719          44.000  
C23  21675980.149   112872516.614       -1815.267          39.000                                                                  
C32  22039473.606   114765327.371       -2686.456          46.000                                                                  
G32  22030191.132   115769435.114       -3723.177          44.000    22030188.304    90209938.723       -2901.191          39.000  
G27  23264714.128   122256921.470        3657.407          36.000    23264732.207    95265218.401        2848.251          33.000  
G04  21755462.167                        2787.276          27.000    21755450.246                        2171.772          28.000  
C37  21221674.347   110506827.175         324.706          45.000                                                                  
C08  38857200.531   202339634.400       -2540.156          35.000    38857198.692   156461830.744       -1964.836          44.000  
C20  22298047.787   116111785.874         525.653          49.000                                                                  
C28  24311035.665   126593953.308        2441.100          41.000                                                                  
C07  37668879.898   196151746.158        1051.788          41.000    37668865.633   151676914.760         813.489          42.000  
C10  38649175.309                         915.573          32.000    38649172.109   155624205.088         707.303          42.000  
G29                                                                  22192963.364                       -1542.214          28.000  
> 2025 10 28 07 05 59.7560000  0 21                     
G03  21824011.977   114685956.838       -1547.737          43.000    21824006.432    89365662.880       -1206.018          39.000  
G16  19918545.137   104672664.561        2041.976          48.000                                                                  
G26  18878629.529    99207867.951        -498.085          48.000    18878620.759    77304797.304        -388.302          45.000  
G28  20450308.193   107467095.516       -1735.167          44.000    20450296.934    83740548.329       -1351.953          41.000  
G31  19266804.555   101247745.059        -505.408          45.000    19266792.542    78894297.807        -393.892          42.000  
C06  35196635.184   183278116.390         -85.814          44.000    35196615.431   141722187.060         -66.600          43.000  
C09  36346784.992   189267248.954         -54.717          41.000    36346768.576   146353377.281         -42.495          44.000  
C13  37967043.655   197704356.110       -2440.599          35.000    37967041.607   152877544.217       -1887.295          40.000  
C16  35631975.358   185545046.506         -99.096          44.000    35631962.215   143475147.292         -76.856          44.000  
C23  21675994.082   112872589.216       -1815.157          39.000                                                                  
C32  22039494.234   114765434.835       -2686.588          46.000                                                                  
G32  22030219.484   115769584.047       -3723.314          44.000    22030216.658    90210054.791       -2901.602          39.000  
G27  23264686.281   122256775.217        3656.716          36.000    23264704.373    95265104.430        2848.649          33.000  
G04  21755440.702                        2787.834          27.000    21755429.035                        2171.947          28.000  
C37  21221671.836   110506814.197         324.467          44.000                                                                  
C08  38857220.047   202339736.007       -2540.035          35.000    38857218.217   156461909.328       -1964.717          44.000  
C20  22298043.772   116111764.840         525.813          49.000                                                                  
C28  24311016.897   126593855.662        2441.031          41.000                                                                  
C07  37668871.844   196151704.085        1051.746          41.000    37668857.546   151676882.229         813.391          43.000  
C10  38649168.238                         915.468          33.000    38649165.093   155624176.798         707.205          42.000  
G29                                                                  22192978.442    90876540.756       -1542.484          28.000  
> 2025 10 28 07 05 59.7960000  0 21                     
G03  21824023.759   114686018.763       -1548.039          43.000    21824018.236    89365711.122       -1206.003          39.000  
G16  19918529.577   104672582.881        2041.912          48.000                                                                  
G26  18878633.327    99207887.883        -498.274          48.000    18878624.549    77304812.826        -388.151          45.000  
G28  20450321.393   107467164.913       -1735.007          44.000    20450310.131    83740602.417       -1352.114          41.000  
G31  19266808.398   101247765.269        -505.322          45.000    19266796.383    78894313.561        -393.848          42.000  
C06  35196635.829   183278119.814         -85.691          44.000    35196616.070   141722189.716         -66.488          43.000  
C09  36346785.396   189267251.152         -54.882          40.000    36346769.003   146353378.973         -42.384          44.000  
C13  37967062.397   197704453.747       -2440.824          35.000    37967060.354   152877619.677       -1886.727          40.000  
C16  35631976.106   185545050.483         -99.309          44.000    35631962.977   143475150.370         -76.990          43.000  
C23  21676008.036   112872661.830       -1815.307          39.000                                                                  
C32  22039514.872   114765542.304       -2686.755          46.000                                                                  
G32  22030247.830   115769732.970       -3723.175          44.000    22030244.990    90210170.839       -2901.444          39.000  
G27  23264658.450   122256628.969        3656.167          36.000    23264676.555    95264990.468        2848.824          33.000  
G04  21755419.198                        2787.757          27.000    21755407.831                        2171.947          28.000  
C37  21221669.343   110506801.214         324.429          44.000                                                                  
C08  38857239.572   202339837.652       -2540.750          35.000    38857237.738   156461987.909       -1964.589          44.000  
C20  22298039.726   116111743.810         525.794          49.000                                                                  
C28  24310998.131   126593758.011        2441.119          41.000                                                                  
C07  37668863.757   196151662.007        1051.868          41.000    37668849.460   151676849.704         813.165          43.000  
C10  38649161.186                         915.565          33.000    38649158.059   155624148.502         707.316          42.000  
G29                                                                  22192993.533                       -1542.692          28.000  
> 2025 10 28 07 05 59.8360000  0 21                     
G03  21824035.545   114686080.684       -1548.078          43.000    21824030.016    89365759.369       -1206.092          39.000  
G16  19918514.055   104672501.210        2041.751          48.000                                                                  
G26  18878637.130    99207907.811        -498.272          47.000    18878628.338    77304828.362        -388.322          45.000  
G28  20450334.602   107467234.307       -1734.854          44.000    20450323.343    83740656.506       -1352.212          41.000  
G31  19266812.251   101247785.491        -505.508          45.000    19266800.253    78894329.312        -393.817          42.000  
C06  35196636.506   183278123.247         -85.778          44.000    35196616.725   141722192.377         -66.528          43.000  
C09  36346785.814   189267253.359         -55.148          40.000    36346769.438   146353380.666         -42.333          44.000  
C13  37967081.143   197704551.355       -2440.477          37.000    37967079.108   152877695.164       -1886.972          40.000  
C16  35631976.893   185545054.454         -99.305          44.000    35631963.746   143475153.438         -76.841          43.000  
C23  21676022.005   112872734.442       -1815.291          39.000                                                                  
C32  22039535.525   114765649.776       -2686.872          46.000                                                                  
G32  22030276.161   115769881.898       -3723.200          44.000    22030273.342    90210286.875       -2901.171          39.000  
G27  23264630.612   122256482.691        3656.512          36.000    23264648.696    95264876.444        2849.978          33.000  
G04  21755397.561                        2787.948          27.000    21755386.623                        2171.705          28.000  
C37  21221666.849   110506788.229         324.525          44.000                                                                  
C08  38857259.112   202339939.332       -2541.781          35.000    38857257.227   156462066.504       -1964.765          44.000  
C20  22298035.680   116111722.787         525.646          49.000                                                                  
C28  24310979.387   126593660.346        2441.431          41.000                                                                  
C07  37668855.681   196151619.944        1051.654          41.000    37668841.372   151676817.172         813.214          43.000  
C10  38649154.148                         914.883          33.000    38649151.016   155624120.204         707.421          42.000  
G29                                                                  22193008.584                       -1542.943          28.000  
> 2025 10 28 07 05 59.8760000  0 21                     
G03  21824047.310   114686142.605       -1548.075          43.000    21824041.789    89365807.605       -1205.987          39.000  
G16  19918498.520   104672419.538        2041.723          48.000                                                                  
G26  18878640.928    99207927.736        -498.214          47.000    18878632.135    77304843.897        -388.403          44.000  
G28  20450347.828   107467303.721       -1735.140          44.000    20450336.567    83740710.594       -1352.196          41.000  
G31  19266816.109   101247805.718        -505.680          45.000    19266804.108    78894345.066        -393.898          42.000  
C06  35196637.166   183278126.692         -86.055          43.000    35196617.393   141722195.040         -66.586          43.000  
C09  36346786.246   189267255.551         -54.998          40.000    36346769.851   146353382.358         -42.309          43.000  
C13  37967099.913   197704648.952       -2440.077          37.000    37967097.844   152877770.643       -1886.978          41.000  
C16  35631977.655   185545058.423         -99.250          44.000    35631964.514   143475156.511         -76.839          43.000  
C23  21676035.958   112872807.049       -1815.234          39.000                                                                  
C32  22039556.172   114765757.246       -2686.864          46.000                                                                  
G32  22030304.489   115770030.820       -3723.095          44.000    22030301.682    90210402.914       -2901.016          39.000  
G27  23264602.787   122256336.424        3656.542          36.000    23264620.850    95264762.453        2850.027          33.000  
G04  21755376.614                        2787.475          26.000    21755365.435                        2171.917          28.000  
C37  21221664.333   110506775.234         324.764          44.000                                                                  
C08  38857278.643   202340040.979       -2541.710          35.000    38857276.740   156462145.096       -1964.822          44.000  
C20  22298031.617   116111701.763         525.572          49.000                                                                  
C28  24310960.634   126593562.691        2441.447          41.000                                                                  
C07  37668847.604   196151577.881        1051.563          41.000    37668833.287   151676784.647         813.086          43.000  
C10  38649147.103                         914.639          33.000    38649143.985   155624091.913         707.325          42.000  
G29                                                                  22193023.662                       -1543.200          28.000  
> 2025 10 28 07 05 59.9160000  0 21                     
G03  21824059.089   114686204.526       -1548.075          43.000    21824053.590    89365855.842       -1205.950          40.000  
G16  19918482.948   104672337.865        2041.743          48.000                                                                  
G26  18878644.737    99207947.673        -498.351          47.000    18878635.912    77304859.438        -388.533          44.000  
G28  20450361.047   107467373.136       -1735.354          44.000    20450349.755    83740764.673       -1352.029          41.000  
G31  19266819.953   101247825.942        -505.709          45.000    19266807.944    78894360.828        -394.052          42.000  
C06  35196637.842   183278130.139         -86.226          43.000    35196618.074   141722197.690         -66.366          43.000  
C09  36346786.676   189267257.742         -54.824          40.000    36346770.273   146353384.053         -42.355          43.000  
C13  37967118.672   197704746.549       -2439.889          37.000    37967116.575   152877846.127       -1887.064          41.000  
C16  35631978.411   185545062.399         -99.348          43.000    35631965.287   143475159.587         -76.919          42.000  
C23  21676049.902   112872879.652       -1815.090          39.000                                                                  
C32  22039576.798   114765864.726       -2687.037          47.000                                                                  
G32  22030332.830   115770179.746       -3723.101          44.000    22030330.022    90210518.967       -2901.211          39.000  
G27  23264574.978   122256190.151        3656.710          37.000    23264593.017    95264648.471        2849.788          33.000  
G04  21755355.528                        2788.190          26.000    21755344.227                        2171.781          28.000  
C37  21221661.834   110506762.250         324.677          44.000                                                                  
C08  38857298.148   202340142.593       -2540.986          35.000    38857296.277   156462223.697       -1965.014          44.000  
C20  22298027.551   116111680.743         525.493          49.000                                                                  
C28  24310941.883   126593465.032        2441.489          41.000                                                                  
C07  37668839.514   196151535.814        1051.611          41.000    37668825.207   151676752.121         813.049          43.000  
C10  38649140.076                         914.603          33.000    38649136.967   155624063.617         707.357          42.000  
G29                                                                  22193038.712                       -1542.437          28.000  
> 2025 10 28 07 05 59.9560000  0 21                     
G03  21824070.847   114686266.445       -1547.985          43.000    21824065.369    89365904.083       -1205.995          41.000  
G16  19918467.404   104672256.190        2041.799          47.000                                                                  
G26  18878648.553    99207967.612        -498.501          47.000    18878639.702    77304874.972        -388.481          44.000  
G28  20450374.236   107467442.549       -1735.378          44.000    20450362.952    83740818.748       -1351.906          41.000  
G31  19266823.809   101247846.157        -505.518          45.000    19266811.793    78894376.576        -393.804          42.000  
C06  35196638.499   183278133.581         -86.178          43.000    35196618.730   141722200.358         -66.569          42.000  
C09  36346787.101   189267259.933         -54.697          39.000    36346770.692   146353385.744         -42.330          42.000  
C13  37967137.419   197704844.161       -2440.090          37.000    37967135.363   152877921.607       -1887.040          41.000  
C16  35631979.179   185545066.370         -99.319          43.000    35631966.054   143475162.659         -76.844          42.000  
C23  21676063.833   112872952.249       -1814.993          39.000                                                                  
C32  22039597.476   114765972.197       -2686.916          47.000                                                                  
G32  22030361.178   115770328.667       -3723.040          44.000    22030358.363    90210635.023       -2901.372          39.000  
G27  23264547.137   122256043.874        3656.880          38.000    23264565.185    95264534.496        2849.636          33.000  
G04  21755333.988                        2787.565          26.000    21755322.985                        2172.116          28.000  
C37  21221659.340   110506749.273         324.470          44.000                                                                  
C08  38857317.654   202340244.227       -2540.839          35.000    38857315.806   156462302.300       -1965.110          44.000  
C20  22298023.546   116111659.724         525.438          49.000                                                                  
C28  24310923.124   126593367.368        2441.602          41.000                                                                  
C07  37668831.435   196151493.743        1051.715          41.000    37668817.135   151676719.602         812.933          43.000  
C10  38649133.075                         914.803          33.000    38649129.940   155624035.345         706.934          42.000  
G29                                                                  22193053.754                       -1542.290          28.000  
> 2025 10 28 07 05 59.9960000  0 21                     
G03  21824082.629   114686328.355       -1547.771          43.000    21824077.145    89365952.313       -1205.825          41.000  
G16  19918451.856   104672174.518        2041.771          47.000                                                                  
G26  18878652.346    99207987.552        -498.554          47.000    18878643.500    77304890.502        -388.316          44.000  
G28  20450387.420   107467511.961       -1735.373          44.000    20450376.169    83740872.837       -1352.107          41.000  
G31  19266827.656   101247866.373        -505.425          44.000    19266815.639    78894392.326        -393.724          42.000  
C06  35196639.184   183278137.000         -85.684          43.000    35196619.392   141722203.011         -66.399          42.000  
C09  36346787.503   189267262.122         -54.689          39.000    36346771.125   146353387.448         -42.565          42.000  
C13  37967156.172   197704941.776       -2440.292          39.000    37967154.146   152877997.096       -1887.201          41.000  
C16  35631979.947   185545070.327         -99.066          43.000    35631966.822   143475165.720         -76.590          42.000  
C23  21676077.766   112873024.861       -1815.190          39.000                                                                  
C32  22039618.153   114766079.655       -2686.579          47.000                                                                  
G32  22030389.525   115770477.599       -3723.233          44.000    22030386.716    90210751.087       -2901.575          39.000  
G27  23264519.326   122255897.623        3656.427          38.000    23264537.338    95264420.550        2848.888          33.000  
G04  21755312.833                        2786.720          26.000    21755301.708                        2172.147          28.000  
C37  21221656.872   110506736.287         324.557          44.000                                                                  
C08  38857337.208   202340345.829       -2540.247          35.000    38857335.325   156462380.887       -1964.859          44.000  
C20  22298019.534   116111638.702         525.463          48.000                                                                  
C28  24310904.379   126593269.698        2441.764          41.000                                                                  
C07  37668823.372   196151451.673        1051.746          41.000    37668809.065   151676687.082         812.909          43.000  
C10  38649126.011                         915.208          33.000    38649122.951   155624007.059         706.990          42.000  
G29                                                                  22193068.835                       -1542.253          28.000  
> 2025 10 28 07 06 00.0360000  0 21                     
G03  21824094.419   114686390.276       -1547.880          43.000    21824088.933    89366000.558       -1206.009          41.000  
G16  19918436.295   104672092.847        2041.752          47.000                                                                  
G26  18878656.144    99208007.480        -498.332          46.000    18878647.300    77304906.034        -388.299          44.000  
G28  20450400.647   107467581.366       -1735.235          44.000    20450389.373    83740926.932       -1352.341          41.000  
G31  19266831.475   101247886.587        -505.321          44.000    19266819.489    78894408.100        -394.169          41.000  
C06  35196639.833   183278140.424         -85.496          43.000    35196620.048   141722205.662         -66.300          42.000  
C09  36346787.929   189267264.303         -54.500          39.000    36346771.558   146353389.144         -42.531          42.000  
C13  37967174.926   197705039.389       -2440.361          39.000    37967172.881   152878072.571       -1887.039          41.000  
C16  35631980.705   185545074.290         -99.019          43.000    35631967.590   143475168.785         -76.544          42.000  
C23  21676091.685   112873097.465       -1815.177          39.000                                                                  
C32  22039638.827   114766187.109       -2686.351          47.000                                                                  
G32  22030417.888   115770626.531       -3723.319          44.000    22030415.047    90210867.130       -2901.262          39.000  
G27  23264491.516   122255751.333        3656.962          38.000    23264509.503    95264306.569        2849.230          33.000  
G04  21755291.555                        2786.823          26.000    21755280.495                        2172.152          28.000  
C37  21221654.359   110506723.290         324.833          44.000                                                                  
C08  38857356.758   202340447.452       -2540.409          35.000    38857354.850   156462459.472       -1964.687          44.000  
C20  22298015.477   116111617.686         525.383          48.000                                                                  
C28  24310885.607   126593172.035        2441.703          41.000                                                                  
C07  37668815.279   196151409.610        1051.636          41.000    37668800.972   151676654.543         813.287          43.000  
C10  38649118.979                         915.440          34.000    38649115.868   155623978.765         707.219          42.000  
G29                                                                  22193083.900                       -1542.297          28.000  
> 2025 10 28 07 06 00.0760000  0 21                     
G03  21824106.201   114686452.199       -1548.021          43.000    21824100.731    89366048.798       -1206.047          41.000  
G16  19918420.768   104672011.174        2041.779          47.000                                                                  
G26  18878659.905    99208027.410        -498.238          46.000    18878651.084    77304921.557        -388.150          44.000  
G28  20450413.847   107467650.762       -1734.989          44.000    20450402.605    83740981.022       -1352.367          41.000  
G31  19266835.300   101247906.801        -505.328          44.000    19266823.322    78894423.849        -393.896          41.000  
C06  35196640.504   183278143.844         -85.348          41.000    35196620.732   141722208.307         -66.195          42.000  
C09  36346788.355   189267266.514         -54.973          39.000    36346771.968   146353390.850         -42.648          41.000  
C13  37967193.663   197705137.006       -2440.448          39.000    37967191.601   152878148.048       -1886.986          41.000  
C16  35631981.469   185545078.256         -99.069          43.000    35631968.359   143475171.844         -76.487          42.000  
C23  21676105.645   112873170.068       -1815.112          39.000                                                                  
C32  22039659.430   114766294.568       -2686.368          48.000                                                                  
G32  22030446.226   115770775.464       -3723.355          44.000    22030443.387    90210983.177       -2901.201          39.000  
G27  23264463.672   122255605.057        3656.979          38.000    23264481.650    95264192.598        2849.259          34.000  
G04  21755270.125                        2787.181          26.000    21755259.286                        2172.275          28.000  
C37  21221651.860   110506710.302         324.790          44.000                                                                  
C08  38857376.301   202340549.098       -2540.896          35.000    38857374.373   156462538.053       -1964.537          44.000  
C20  22298011.429   116111596.671         525.315          48.000                                                                  
C28  24310866.849   126593074.372        2441.625          41.000                                                                  
C07  37668807.190   196151367.545        1051.611          41.000    37668792.936   151676622.006         813.434          43.000  
C10  38649111.972                         915.347          34.000    38649108.843   155623950.467         707.449          42.000  
G29                                                                  22193098.964                       -1542.518          28.000  
> 2025 10 28 07 06 00.1160000  0 21                     
G03  21824117.959   114686514.102       -1547.743          43.000    21824112.515    89366097.049       -1206.254          41.000  
G16  19918405.238   104671929.507        2041.679          47.000                                                                  
G26  18878663.690    99208047.345        -498.303          46.000    18878654.890    77304937.082        -388.127          44.000  
G28  20450427.076   107467720.162       -1734.964          43.000    20450415.800    83741035.097       -1352.046          41.000  
G31  19266839.151   101247927.027        -505.556          44.000    19266827.188    78894439.601        -393.804          41.000  
C06  35196641.158   183278147.258         -85.195          41.000    35196621.391   141722210.948         -66.050          42.000  
C09  36346788.766   189267268.715         -55.057          39.000    36346772.412   146353392.565         -42.906          41.000  
C13  37967212.412   197705234.616       -2440.341          39.000    37967210.346   152878223.531       -1887.085          41.000  
C16  35631982.248   185545082.204         -98.777          42.000    35631969.121   143475174.913         -76.623          42.000  
C23  21676119.609   112873242.674       -1815.184          39.000                                                                  
C32  22039680.057   114766402.027       -2686.419          48.000                                                                  
G32  22030474.552   115770924.390       -3723.217          44.000    22030471.704    90211099.204       -2900.792          39.000  
G27  23264435.815   122255458.789        3656.835          38.000    23264453.822    95264078.610        2849.504          34.000  
G04  21755249.111                        2787.534          26.000    21755238.064                        2171.989          28.000  
C37  21221649.319   110506697.315         324.724          44.000                                                                  
C08  38857395.812   202340650.730       -2540.929          35.000    38857393.892   156462616.634       -1964.453          44.000  
C20  22298007.407   116111575.655         525.310          47.000                                                                  
C28  24310848.084   126592976.711        2441.542          41.000                                                                  
C07  37668799.108   196151325.476        1051.636          41.000    37668784.840   151676589.476         813.385          43.000  
C10  38649104.947                         915.271          34.000    38649101.814   155623922.173         707.472          42.000  
G29                                                                  22193114.017                       -1542.463          28.000  
> 2025 10 28 07 06 00.1560000  0 21                     
G03  21824129.732   114686576.021       -1547.910          43.000    21824124.292    89366145.287       -1206.118          41.000  
G16  19918389.710   104671847.844        2041.550          47.000                                                                  
G26  18878667.473    99208067.268        -498.167          46.000    18878658.664    77304952.610        -388.186          44.000  
G28  20450440.303   107467789.577       -1735.245          43.000    20450428.988    83741089.176       -1351.968          41.000  
G31  19266843.017   101247947.241        -505.420          44.000    19266831.025    78894455.346        -393.601          41.000  
C06  35196641.831   183278150.696         -85.625          41.000    35196622.050   141722213.602         -66.208          42.000  
C09  36346789.179   189267270.913         -55.009          39.000    36346772.818   146353394.263         -42.705          41.000  
C13  37967231.156   197705332.218       -2440.165          39.000    37967229.096   152878299.016       -1887.170          41.000  
C16  35631982.991   185545086.166         -98.877          42.000    35631969.862   143475177.982         -76.734          42.000  
C23  21676133.540   112873315.260       -1814.877          39.000                                                                  
C32  22039700.713   114766509.487       -2686.488          47.000                                                                  
G32  22030502.883   115771073.307       -3723.000          44.000    22030500.031    90211215.243       -2900.820          39.000  
G27  23264407.989   122255312.529        3656.589          38.000    23264425.986    95263964.638        2849.401          34.000  
G04  21755227.481                        2786.875          26.000    21755216.836                        2171.317          27.000  
C37  21221646.809   110506684.316         324.890          45.000                                                                  
C08  38857415.327   202340752.374       -2541.082          35.000    38857413.422   156462695.215       -1964.458          44.000  
C20  22298003.417   116111554.646         525.193          47.000                                                                  
C28  24310829.330   126592879.057        2441.378          41.000                                                                  
C07  37668791.029   196151283.395        1051.880          41.000    37668776.765   151676556.957         813.110          42.000  
C10  38649097.917                         915.142          34.000    38649094.789   155623893.867         707.614          41.000  
G29                                                                  22193129.083                       -1541.935          28.000  
> 2025 10 28 07 06 00.1960000  0 21                     
G03  21824141.496   114686637.936       -1547.916          43.000    21824136.079    89366193.521       -1205.956          41.000  
G16  19918374.153   104671766.164        2041.801          47.000                                                                  
G26  18878671.280    99208087.201        -498.288          46.000    18878662.456    77304968.143        -388.318          44.000  
G28  20450453.521   107467858.987       -1735.262          43.000    20450442.206    83741143.263       -1352.076          41.000  
G31  19266846.867   101247967.446        -505.167          44.000    19266834.885    78894471.106        -393.812          41.000  
C06  35196642.511   183278154.112         -85.526          42.000    35196622.723   141722216.248         -66.189          42.000  
C09  36346789.605   189267273.105         -54.881          39.000    36346773.213   146353395.948         -42.311          41.000  
C13  37967249.911   197705429.835       -2440.372          40.000    37967247.844   152878374.499       -1887.157          41.000  
C16  35631983.780   185545090.112         -98.733          43.000    35631970.614   143475181.043         -76.668          42.000  
C23  21676147.497   112873387.853       -1814.790          40.000                                                                  
C32  22039721.345   114766616.962       -2686.793          47.000                                                                  
G32  22030531.221   115771222.222       -3722.904          44.000    22030528.366    90211331.288       -2901.034          39.000  
G27  23264380.161   122255166.247        3656.833          38.000    23264398.150    95263850.648        2849.585          34.000  
G04  21755206.332                        2786.571          26.000    21755195.637                        2171.662          27.000  
C37  21221644.321   110506671.317         324.995          45.000                                                                  
C08  38857434.840   202340853.984       -2540.526          36.000    38857432.929   156462773.809       -1964.734          44.000  
C20  22297999.376   116111533.634         525.181          48.000                                                                  
C28  24310810.584   126592781.390        2441.527          42.000                                                                  
C07  37668782.953   196151241.321        1051.862          41.000    37668768.671   151676524.433         813.061          42.000  
C10  38649090.885                         914.379          35.000    38649087.760   155623865.579         707.332          41.000  
G29                                                                  22193144.158                       -1542.648          28.000  
> 2025 10 28 07 06 00.2360000  0 21                     
G03  21824153.267   114686699.854       -1547.946          43.000    21824147.873    89366241.748       -1205.750          41.000  
G16  19918358.603   104671684.498        2041.696          47.000                                                                  
G26  18878675.077    99208107.140        -498.432          46.000    18878666.256    77304983.680        -388.460          45.000  
G28  20450466.729   107467928.393       -1735.174          43.000    20450455.411    83741197.357       -1352.273          41.000  
G31  19266850.712   101247987.666        -505.384          43.000    19266838.741    78894486.857        -393.799          41.000  
C06  35196643.172   183278157.543         -85.725          42.000    35196623.392   141722218.897         -66.251          42.000  
C09  36346790.042   189267275.294         -54.749          39.000    36346773.651   146353397.653         -42.468          41.000  
C13  37967268.674   197705527.430       -2440.057          40.000    37967266.591   152878449.961       -1886.734          41.000  
C16  35631984.546   185545094.069         -98.752          43.000    35631971.372   143475184.117         -76.823          42.000  
C23  21676161.446   112873460.453       -1814.906          40.000                                                                  
C32  22039741.961   114766724.439       -2687.002          47.000                                                                  
G32  22030559.583   115771371.148       -3723.073          44.000    22030556.710    90211447.344       -2901.402          39.000  
G27  23264352.315   122255019.976        3656.826          38.000    23264370.337    95263736.680        2849.388          34.000  
G04  21755185.497                        2786.978          26.000    21755174.404                        2171.545          27.000  
C37  21221641.829   110506658.321         324.953          45.000                                                                  
C08  38857454.359   202340955.631       -2540.862          36.000    38857452.437   156462852.387       -1964.588          44.000  
C20  22297995.339   116111512.620         525.268          47.000                                                                  
C28  24310791.838   126592683.753        2441.104          42.000                                                                  
C07  37668774.861   196151199.248        1051.868          41.000    37668760.598   151676491.895         813.336          42.000  
C10  38649083.837   201255925.616         914.674          35.000    38649080.737   155623837.285         707.287          41.000  
G29                                                                  22193159.220                       -1542.297          28.000  
> 2025 10 28 07 06 00.2760000  0 21                     
G03  21824165.038   114686761.762       -1547.775          43.000    21824159.665    89366289.997       -1206.113          41.000  
G16  19918343.090   104671602.830        2041.635          47.000                                                                  
G26  18878678.860    99208127.070        -498.348          46.000    18878670.056    77304999.209        -388.338          45.000  
G28  20450479.930   107467997.795       -1735.113          43.000    20450468.606    83741251.434       -1352.072          41.000  
G31  19266854.541   101248007.888        -505.507          43.000    19266842.600    78894502.613        -393.879          41.000  
C06  35196643.809   183278160.971         -85.779          42.000    35196624.058   141722221.547         -66.310          42.000  
C09  36346790.453   189267277.482         -54.696          39.000    36346774.059   146353399.341         -42.252          41.000  
C13  37967287.401   197705625.033       -2440.102          40.000    37967285.319   152878525.428       -1886.649          41.000  
C16  35631985.315   185545098.040         -99.146          42.000    35631972.144   143475187.176         -76.601          42.000  
C23  21676175.399   112873533.043       -1814.813          40.000                                                                  
C32  22039762.640   114766831.915       -2687.024          47.000                                                                  
G32  22030587.928   115771520.080       -3723.304          44.000    22030585.071    90211563.399       -2901.504          39.000  
G27  23264324.497   122254873.690        3656.989          38.000    23264342.491    95263622.695        2849.564          34.000  
G04  21755164.451                        2787.420          26.000    21755153.229                        2171.188          27.000  
C37  21221639.341   110506645.331         324.811          45.000                                                                  
C08  38857473.865   202341057.236       -2540.365          36.000    38857471.947   156462930.969       -1964.582          44.000  
C20  22297991.318   116111491.611         525.243          47.000                                                                  
C28  24310773.077   126592586.083        2441.490          42.000                                                                  
C07  37668766.777   196151157.187        1051.593          41.000    37668752.524   151676459.359         813.446          42.000  
C10  38649076.816   201255889.011         914.969          34.000    38649073.684   155623808.992         707.236          41.000  
G29                                                                  22193174.283                       -1542.309          28.000  
> 2025 10 28 07 06 00.3160000  0 21                     
G03  21824176.822   114686823.681       -1547.897          43.000    21824171.453    89366338.244       -1206.242          41.000  
G16  19918327.541   104671521.165        2041.593          46.000                                                                  
G26  18878682.656    99208146.999        -498.292          46.000    18878673.826    77305014.735        -388.199          45.000  
G28  20450493.134   107468067.199       -1735.128          43.000    20450481.804    83741305.520       -1352.120          41.000  
G31  19266858.396   101248028.110        -505.581          43.000    19266846.457    78894518.375        -394.027          41.000  
C06  35196644.475   183278164.380         -85.422          42.000    35196624.720   141722224.188         -66.169          42.000  
C09  36346790.863   189267279.677         -54.786          39.000    36346774.486   146353401.038         -42.379          41.000  
C13  37967306.148   197705722.649       -2440.310          40.000    37967304.058   152878600.911       -1886.944          41.000  
C16  35631986.076   185545101.998         -99.065          42.000    35631972.905   143475190.234         -76.509          42.000  
C23  21676189.344   112873605.646       -1815.009          40.000                                                                  
C32  22039783.304   114766939.386       -2686.929          47.000                                                                  
G32  22030616.252   115771669.011       -3723.370          44.000    22030613.399    90211679.441       -2901.271          39.000  
G27  23264296.662   122254727.407        3657.084          38.000    23264314.655    95263508.730        2849.233          34.000  
G04  21755143.318                        2787.338          26.000    21755131.975                        2172.632          27.000  
C37  21221636.795   110506632.350         324.570          45.000                                                                  
C08  38857493.402   202341158.875       -2540.689          36.000    38857491.456   156463009.553       -1964.577          44.000  
C20  22297987.251   116111470.602         525.219          47.000                                                                  
C28  24310754.320   126592488.406        2441.855          42.000                                                                  
C07  37668758.682   196151115.128        1051.465          41.000    37668744.420   151676426.835         813.257          42.000  
C10  38649069.786   201255852.430         914.718          34.000    38649066.645   155623780.706         707.144          41.000  
G29                                                                  22193189.333                       -1542.401          28.000  
> 2025 10 28 07 06 00.3560000  0 21                     
G03  21824188.575   114686885.605       -1548.053          43.000    21824183.246    89366386.488       -1206.258          40.000  
G16  19918311.983   104671439.494        2041.675          46.000                                                                  
G26  18878686.469    99208166.936        -498.405          46.000    18878677.623    77305030.267        -388.264          45.000  
G28  20450506.342   107468136.608       -1735.215          43.000    20450495.009    83741359.600       -1352.035          41.000  
G31  19266862.236   101248048.320        -505.377          43.000    19266850.298    78894534.129        -393.965          41.000  
C06  35196645.129   183278167.803         -85.503          42.000    35196625.392   141722226.842         -66.316          42.000  
C09  36346791.273   189267281.863         -54.645          39.000    36346774.901   146353402.733         -42.358          41.000  
C13  37967324.923   197705820.269       -2440.494          40.000    37967322.802   152878676.417       -1887.533          41.000  
C16  35631986.818   185545105.967         -99.226          42.000    35631973.663   143475193.280         -76.272          42.000  
C23  21676203.260   112873678.268       -1815.504          40.000                                                                  
C32  22039803.947   114767046.862       -2686.941          46.000                                                                  
G32  22030644.590   115771817.944       -3723.425          44.000    22030641.734    90211795.481       -2901.141          39.000  
G27  23264268.817   122254581.131        3656.980          38.000    23264286.802    95263394.745        2849.346          34.000  
G04  21755121.951                        2787.635          26.000    21755110.730                        2171.802          27.000  
C37  21221634.318   110506619.365         324.509          45.000                                                                  
C08  38857512.919   202341260.497       -2540.647          36.000    38857510.987   156463088.146       -1964.770          44.000  
C20  22297983.211   116111449.590         525.281          47.000                                                                  
C28  24310735.543   126592390.751        2441.575          42.000                                                                  
C07  37668750.616   196151073.066        1051.471          41.000    37668736.350   151676394.309         813.190          42.000  
C10  38649062.712   201255815.854         914.369          34.000    38649059.605   155623752.420         707.105          41.000  
G29                                                                  22193204.383                       -1542.168          27.000  
> 2025 10 28 07 06 00.3960000  0 21                     
G03  21824200.355   114686947.533       -1548.182          43.000    21824195.043    89366434.740       -1206.363          40.000  
G16  19918296.448   104671357.826        2041.663          46.000                                                                  
G26  18878690.256    99208186.866        -498.335          46.000    18878681.407    77305045.790        -388.132          45.000  
G28  20450519.554   107468206.024       -1735.346          43.000    20450508.215    83741413.684       -1352.028          41.000  
G31  19266866.085   101248068.534        -505.353          43.000    19266854.161    78894549.878        -393.773          41.000  
C06  35196645.801   183278171.233         -85.681          42.000    35196626.054   141722229.483         -66.155          43.000  
C09  36346791.697   189267284.054         -54.711          39.000    36346775.348   146353404.424         -42.329          41.000  
C13  37967343.664   197705917.893       -2440.631          40.000    37967341.558   152878751.895       -1887.319          41.000  
C16  35631987.578   185545109.909         -98.824          42.000    35631974.400   143475196.335         -76.294          42.000  
C23  21676217.221   112873750.846       -1814.817          40.000                                                                  
C32  22039824.595   114767154.334       -2686.859          46.000                                                                  
G32  22030672.925   115771966.878       -3723.429          44.000    22030670.069    90211911.533       -2901.279          39.000  
G27  23264240.972   122254434.874        3656.556          38.000    23264258.972    95263280.781        2849.161          34.000  
G04  21755100.798                        2787.528          25.000    21755089.501                        2171.250          26.000  
C37  21221631.847   110506606.373         324.648          45.000                                                                  
C08  38857532.446   202341362.157       -2541.238          36.000    38857530.515   156463166.734       -1964.767          44.000  
C20  22297979.190   116111428.581         525.244          47.000                                                                  
C28  24310716.781   126592293.094        2441.482          42.000                                                                  
C07  37668742.532   196151031.000        1051.575          41.000    37668728.249   151676361.784         813.129          42.000  
C10  38649055.698   201255779.275         914.318          34.000    38649052.596   155623724.119         707.300          41.000  
G29                                                                  22193219.448                       -1542.077          27.000  
> 2025 10 28 07 06 00.4360000  0 21                     
G03  21824212.115   114687009.457       -1548.160          43.000    21824206.832    89366483.005       -1206.681          41.000  
G16  19918280.890   104671276.144        2041.929          46.000                                                                  
G26  18878694.044    99208206.795        -498.273          46.000    18878685.208    77305061.324        -388.253          45.000  
G28  20450532.769   107468275.431       -1735.271          43.000    20450521.425    83741467.776       -1352.213          42.000  
G31  19266869.918   101248088.748        -505.365          43.000    19266858.013    78894565.629        -393.718          42.000  
C06  35196646.462   183278174.659         -85.656          42.000    35196626.719   141722232.134         -66.250          43.000  
C09  36346792.103   189267286.265         -55.059          39.000    36346775.758   146353406.117         -42.329          41.000  
C13  37967362.419   197706015.486       -2440.114          40.000    37967360.312   152878827.381       -1887.270          41.000  
C16  35631988.327   185545113.861         -98.750          42.000    35631975.152   143475199.395         -76.421          42.000  
C23  21676231.164   112873823.448       -1814.960          40.000                                                                  
C32  22039845.269   114767261.797       -2686.648          46.000                                                                  
G32  22030701.264   115772115.808       -3723.347          44.000    22030698.400    90212027.574       -2901.154          40.000  
G27  23264213.161   122254288.617        3656.302          38.000    23264231.139    95263166.817        2849.005          34.000  
G04  21755079.513                        2787.018          25.000    21755068.302                        2170.076          27.000  
C37  21221629.354   110506593.376         324.802          46.000                                                                  
C08  38857551.950   202341463.774       -2540.793          36.000    38857550.042   156463245.321       -1964.739          44.000  
C20  22297975.157   116111407.577         525.120          46.000                                                                  
C28  24310697.999   126592195.445        2441.287          42.000                                                                  
C07  37668734.480   196150988.927        1051.721          41.000    37668720.162   151676329.255         813.196          42.000  
C10  38649048.653   201255742.687         914.523          34.000    38649045.559   155623695.825         707.295          41.000  
G29                                                                  22193234.526                       -1542.390          28.000  
> 2025 10 28 07 06 00.4760000  0 21                     
G03  21824223.900   114687071.393       -1548.374          43.000    21824218.620    89366531.257       -1206.577          41.000  
G16  19918265.362   104671194.476        2041.816          46.000                                                                  
G26  18878697.828    99208226.736        -498.475          46.000    18878689.002    77305076.864        -388.498          45.000  
G28  20450545.998   107468344.848       -1735.387          44.000    20450534.619    83741521.858       -1352.124          42.000  
G31  19266873.769   101248108.972        -505.556          43.000    19266861.861    78894581.384        -393.786          42.000  
C06  35196647.127   183278178.082         -85.615          42.000    35196627.347   141722234.775         -66.108          43.000  
C09  36346792.513   189267288.460         -54.991          39.000    36346776.164   146353407.814         -42.432          41.000  
C13  37967381.145   197706113.113       -2440.473          40.000    37967379.034   152878902.856       -1887.033          41.000  
C16  35631989.088   185545117.829         -99.016          42.000    35631975.897   143475202.468         -76.760          42.000  
C23  21676245.093   112873896.048       -1814.966          40.000                                                                  
C32  22039865.916   114767369.260       -2686.557          47.000                                                                  
G32  22030729.611   115772264.733       -3723.179          44.000    22030726.755    90212143.627       -2901.310          40.000  
G27  23264185.332   122254142.339        3656.621          38.000    23264203.304    95263052.848        2849.005          34.000  
G04  21755058.034                        2786.765          25.000    21755047.077                3       2170.981          27.000  
C37  21221626.852   110506580.386         324.779          46.000                                                                  
C08  38857571.486   202341565.384       -2540.403          36.000    38857569.576   156463323.905       -1964.640          44.000  
C20  22297971.152   116111386.571         525.121          46.000                                                                  
C28  24310679.236   126592097.793        2441.226          42.000                                                                  
C07  37668726.383   196150946.863        1051.648          41.000    37668712.078   151676296.729         813.177          42.000  
C10  38649041.575   201255706.106         914.608          34.000    38649038.559   155623667.532         707.288          41.000  
G29                                                                  22193249.613                       -1542.623          28.000  
> 2025 10 28 07 06 00.5160000  0 21                     
G03  21824235.669   114687133.319       -1548.290          43.000    21824230.411    89366579.510       -1206.493          41.000  
G16  19918249.813   104671112.804        2041.786          46.000                                                                  
G26  18878701.577    99208246.664        -498.316          46.000    18878692.805    77305092.398        -388.457          45.000  
G28  20450559.187   107468414.255       -1735.279          45.000    20450547.830    83741575.928       -1351.865          42.000  
G31  19266877.618   101248129.186        -505.457          43.000    19266865.679    78894597.144        -393.922          42.000  
C06  35196647.786   183278181.511         -85.673          42.000    35196627.991   141722237.422         -66.160          43.000  
C09  36346792.930   189267290.647         -54.794          39.000    36346776.608   146353409.501         -42.310          42.000  
C13  37967399.911   197706210.737       -2440.606          40.000    37967397.797   152878978.327       -1886.813          41.000  
C16  35631989.870   185545121.780         -98.841          42.000    35631976.638   143475205.528         -76.631          42.000  
C23  21676259.023   112873968.647       -1814.966          40.000                                                                  
C32  22039886.549   114767476.728       -2686.653          47.000                                                                  
G32  22030757.947   115772413.665       -3723.287          44.000    22030755.094    90212259.678       -2901.308          40.000  
G27  23264157.472   122253996.052        3657.040          38.000    23264175.457    95262938.850        2849.547          34.000  
G04  21755036.963                        2787.308          25.000    21755025.787                3       2175.813          27.000  
C37  21221624.365   110506567.397         324.747          46.000                                                                  
C08  38857591.004   202341667.008       -2540.429          36.000    38857589.098   156463402.490       -1964.595          44.000  
C20  22297967.118   116111365.565         525.109          45.000                                                                  
C28  24310660.465   126592000.120        2441.597          42.000                                                                  
C07  37668718.302   196150904.802        1051.532          41.000    37668704.006   151676264.193         813.330          42.000  
C10  38649034.516   201255669.559         913.950          34.000    38649031.519   155623639.235         707.361          41.000  
G29                                                                  22193264.728                       -1542.893          28.000  
> 2025 10 28 07 06 00.5560000  0 21                     
G03  21824247.444   114687195.233       -1548.012          43.000    21824242.194    89366627.753       -1206.228          41.000  
G16  19918234.289   104671031.134        2041.744          46.000                                                                  
G26  18878705.359    99208266.580        -498.014          46.000    18878696.580    77305107.931        -388.394          45.000  
G28  20450572.408   107468483.671       -1735.391          45.000    20450561.049    83741630.005       -1351.839          42.000  
G31  19266881.471   101248149.397        -505.334          43.000    19266869.544    78894612.896        -393.885          42.000  
C06  35196648.437   183278184.916         -85.289          42.000    35196628.639   141722240.060         -65.994          43.000  
C09  36346793.326   189267292.812         -54.323          39.000    36346777.032   146353411.182         -42.088          42.000  
C13  37967418.654   197706308.360       -2440.616          40.000    37967416.528   152879053.791       -1886.626          41.000  
C16  35631990.606   185545125.741         -98.976          42.000    35631977.378   143475208.584         -76.444          42.000  
C23  21676272.985   112874041.244       -1814.903          40.000                                                                  
C32  22039907.172   114767584.204       -2686.877          47.000                                                                  
G32  22030786.303   115772562.588       -3723.162          44.000    22030783.431    90212375.734       -2901.389          40.000  
G27  23264129.624   122253849.752        3657.463          38.000    23264147.610    95262824.879        2849.414          34.000  
G04  21755015.534                        2788.015          25.000    21755004.548                3       2175.813          26.000  
C37  21221621.858   110506554.407         324.760          46.000                                                                  
C08  38857610.510   202341768.632       -2540.506          36.000    38857608.623   156463481.067       -1964.463          44.000  
C20  22297963.099   116111344.551         525.269          45.000                                                                  
C28  24310641.698   126591902.443        2441.897          42.000                                                                  
C07  37668710.235   196150862.735        1051.605          41.000    37668695.921   151676231.661         813.318          42.000  
C10  38649027.510   201255632.992         914.013          34.000    38649024.534   155623610.926         707.605          41.000  
G29                                                                  22193279.812                       -1542.155          28.000  
> 2025 10 28 07 06 00.5960000  0 21                     
G03  21824259.220   114687257.149       -1547.896          43.000    21824253.974    89366676.021       -1206.550          41.000  
G16  19918218.741   104670949.470        2041.614          46.000                                                                  
G26  18878709.134    99208286.493        -497.830          46.000    18878700.372    77305123.452        -388.135          44.000  
G28  20450585.640   107468553.090       -1735.487          46.000    20450574.264    83741684.100       -1352.190          42.000  
G31  19266885.302   101248169.607        -505.292          43.000    19266873.411    78894628.630        -393.503          42.000  
C06  35196649.097   183278188.324         -85.179          42.000    35196629.268   141722242.694         -65.896          43.000  
C09  36346793.745   189267294.997         -54.438          39.000    36346777.452   146353412.858         -41.868          42.000  
C13  37967437.392   197706405.964       -2440.257          40.000    37967435.257   152879129.265       -1886.711          41.000  
C16  35631991.369   185545129.677         -98.617          42.000    35631978.127   143475211.639         -76.385          42.000  
C23  21676286.936   112874113.845       -1814.960          40.000                                                                  
C32  22039927.798   114767691.688       -2687.099          48.000                                                                  
G32  22030814.643   115772711.514       -3723.138          43.000    22030811.763    90212491.785       -2901.407          40.000  
G27  23264101.779   122253703.463        3657.565          38.000    23264119.782    95262710.920        2849.113          34.000  
G04  21754994.017                        2787.763          25.000    21754983.556                3       2175.813          15.000  
C37  21221619.364   110506541.400         325.047          46.000                                                                  
C08  38857630.005   202341870.234       -2540.179          36.000    38857628.168   156463559.642       -1964.413          44.000  
C20  22297959.066   116111323.529         525.466          45.000                                                                  
C28  24310622.935   126591804.765        2442.017          42.000                                                                  
C07  37668702.155   196150820.665        1051.642          41.000    37668687.838   151676199.125         813.391          42.000  
C10  38649020.496   201255596.395         914.620          34.000    38649017.504   155623582.620         707.650          41.000  
G29                                                                  22193294.871                       -1541.769          28.000  
> 2025 10 28 07 06 00.6360000  0 21                     
G03  21824271.000   114687319.069       -1547.974          43.000    21824265.753    89366724.286       -1206.719          41.000  
G16  19918203.198   104670867.804        2041.579          46.000                                                                  
G26  18878712.935    99208306.424        -498.105          46.000    18878704.187    77305138.976        -388.031          44.000  
G28  20450598.837   107468622.506       -1735.483          46.000    20450587.456    83741738.183       -1352.165          42.000  
G31  19266889.139   101248189.831        -505.526          43.000    19266877.256    78894644.379        -393.634          42.000  
C06  35196649.749   183278191.748         -85.441          42.000    35196629.926   141722245.334         -65.927          43.000  
C09  36346794.183   189267297.166         -54.264          39.000    36346777.839   146353414.531         -41.735          42.000  
C13  37967456.148   197706503.551       -2439.817          40.000    37967454.019   152879204.745       -1886.878          41.000  
C16  35631992.125   185545133.630         -98.724          42.000    35631978.883   143475214.668         -75.901          42.000  
C23  21676300.897   112874186.473       -1815.533          40.000                                                                  
C32  22039948.461   114767799.170       -2687.159          48.000                                                                  
G32  22030842.996   115772860.440       -3723.157          43.000    22030840.095    90212607.823       -2901.133          40.000  
G27  23264073.943   122253557.187        3657.272          38.000    23264091.929    95262596.919        2849.698          34.000  
G04  21754972.747                3       2786.783          25.000    21754962.402                3       2175.813          15.000  
C37  21221616.849   110506528.407         324.927          46.000                                                                  
C08  38857649.538   202341971.860       -2540.455          36.000    38857647.678   156463638.215       -1964.352          44.000  
C20  22297955.042   116111302.512         525.452          45.000                                                                  
C28  24310604.167   126591707.096        2441.852          42.000                                                                  
C07  37668694.083   196150778.613        1051.404          41.000    37668679.757   151676166.588         813.428          42.000  
C10  38649013.447   201255559.829         914.289          34.000    38649010.498   155623554.324         707.508          41.000  
G29                                                                  22193309.921                       -1542.059          28.000  
> 2025 10 28 07 06 00.6760000  0 21                     
G03  21824282.799   114687381.008       -1548.352          43.000    21824277.547    89366772.571       -1207.098          41.000  
G16  19918187.640   104670786.137        2041.598          46.000                                                                  
G26  18878716.724    99208326.363        -498.438          46.000    18878707.994    77305154.519        -388.385          44.000  
G28  20450612.047   107468691.917       -1735.356          46.000    20450600.668    83741792.275       -1352.334          42.000  
G31  19266892.998   101248210.053        -505.593          43.000    19266881.106    78894660.138        -393.962          42.000  
C06  35196650.373   183278195.167         -85.503          42.000    35196630.585   141722247.987         -66.222          43.000  
C09  36346794.588   189267299.346         -54.409          39.000    36346778.250   146353416.218         -41.982          42.000  
C13  37967474.878   197706601.158       -2439.956          40.000    37967472.794   152879280.232       -1887.081          41.000  
C16  35631992.861   185545137.596         -99.033          42.000    35631979.638   143475217.718         -76.074          42.000  
C23  21676314.842   112874259.079       -1815.323          40.000                                                                  
C32  22039969.112   114767906.650       -2687.126          48.000                                                                  
G32  22030871.365   115773009.384       -3723.525          43.000    22030868.435    90212723.875       -2901.266          40.000  
G27  23264046.092   122253410.923        3656.848          38.000    23264064.076    95262482.932        2849.701          34.000  
G04  21754951.310                3       2786.197          25.000    21754941.323                3       2175.813          15.000  
C37  21221614.330   110506515.419         324.739          46.000                                                                  
C08  38857669.050   202342073.485       -2540.621          36.000    38857667.189   156463716.804       -1964.599          44.000  
C20  22297950.989   116111281.502         525.298          45.000                                                                  
C28  24310585.423   126591609.431        2441.686          41.000                                                                  
C07  37668685.996   196150736.543        1051.581          41.000    37668671.684   151676134.066         813.196          42.000  
C10  38649006.420   201255523.217         914.957          34.000    38649003.457   155623526.022         707.516          41.000  
G29                                                                  22193324.977                       -1541.991          28.000  
> 2025 10 28 07 06 00.7160000  0 21                     
G03  21824294.577   114687442.941       -1548.416          43.000    21824289.340    89366820.830       -1206.765          41.000  
G16  19918172.083   104670704.474        2041.561          46.000                                                                  
G26  18878720.523    99208346.307        -498.653          46.000    18878711.780    77305170.059        -388.515          44.000  
G28  20450625.262   107468761.330       -1735.319          46.000    20450613.878    83741846.379       -1352.594          42.000  
G31  19266896.865   101248230.287        -505.864          43.000    19266884.970    78894675.903        -394.188          42.000  
C06  35196651.030   183278198.594         -85.679          42.000    35196631.232   141722250.631         -66.250          43.000  
C09  36346795.019   189267301.533         -54.592          39.000    36346778.691   146353417.911         -42.216          42.000  
C13  37967493.622   197706698.781       -2440.370          40.000    37967491.546   152879355.728       -1887.368          41.000  
C16  35631993.620   185545141.564         -99.234          42.000    35631980.397   143475220.779         -76.378          42.000  
C23  21676328.778   112874331.675       -1815.034          40.000                                                                  
C32  22039989.770   114768014.124       -2686.963          48.000                                                                  
G32  22030899.697   115773158.317       -3723.479          43.000    22030896.763    90212839.923       -2901.259          40.000  
G27  23264018.277   122253264.675        3656.305          38.000    23264036.241    95262368.985        2849.067          35.000  
G04  21754930.003                3       2789.118          25.000    21754919.925                3       2175.813          15.000  
C37  21221611.803   110506502.432         324.667          46.000                                                                  
C08  38857688.591   202342175.129       -2541.051          37.000    38857686.701   156463795.395       -1964.791          44.000  
C20  22297946.921   116111260.496         525.144          45.000                                                                  
C28  24310566.666   126591511.787        2441.213          41.000                                                                  
C07  37668677.909   196150694.475        1051.672          41.000    37668663.600   151676101.539         813.135          42.000  
C10  38648999.357   201255486.639         914.700          34.000    38648996.407   155623497.744         707.071          41.000  
G29                                                                  22193340.053                       -1542.673          28.000  
> 2025 10 28 07 06 00.7560000  0 21                     
G03  21824306.359   114687504.872       -1548.388          43.000    21824301.123    89366869.087       -1206.551          41.000  
G16  19918156.529   104670622.806        2041.637          46.000                                                                  
G26  18878724.317    99208366.255        -498.786          46.000    18878715.575    77305185.602        -388.664          44.000  
G28  20450638.472   107468830.737       -1735.204          46.000    20450627.079    83741900.456       -1352.233          42.000  
G31  19266900.708   101248250.498        -505.523          43.000    19266888.818    78894691.671        -394.310          42.000  
C06  35196651.689   183278202.015         -85.596          42.000    35196631.913   141722253.280         -66.331          43.000  
C09  36346795.431   189267303.721         -54.690          41.000    36346779.135   146353419.597         -42.252          42.000  
C13  37967512.368   197706796.405       -2440.621          40.000    37967510.304   152879431.192       -1886.923          41.000  
C16  35631994.360   185545145.525         -99.179          42.000    35631981.157   143475223.856         -76.835          42.000  
C23  21676342.717   112874404.272       -1814.872          40.000                                                                  
C32  22040010.443   114768121.598       -2686.882          48.000                                                                  
G32  22030928.009   115773307.248       -3723.422          43.000    22030925.097    90212955.968       -2901.203          40.000  
G27  23263990.435   122253118.393        3656.825          38.000    23264008.417    95262255.031        2848.754          35.000  
G04  21754908.634                3       2785.587          25.000    21754898.585                3       2175.813          14.000  
C37  21221609.314   110506489.445         324.638          46.000                                                                  
C08  38857708.107   202342276.751       -2540.825          37.000    38857706.222   156463873.976       -1964.686          44.000  
C20  22297942.892   116111239.487         525.138          45.000                                                                  
C28  24310547.930   126591414.125        2441.342          41.000                                                                  
C07  37668669.838   196150652.404        1051.807          41.000    37668655.501   151676068.999         813.385          42.000  
C10  38648992.315   201255450.061         914.543          34.000    38648989.378   155623469.454         707.096          41.000  
G29                                                                  22193355.138                       -1542.936          28.000  
> 2025 10 28 07 06 00.7960000  0 21                     
G03  21824318.135   114687566.795       -1548.211          44.000    21824312.912    89366917.333       -1206.214          41.000  
G16  19918140.991   104670541.142        2041.596          46.000                                                                  
G26  18878728.119    99208386.193        -498.617          46.000    18878719.356    77305201.147        -388.717          44.000  
G28  20450651.676   107468900.157       -1735.411          46.000    20450640.295    83741954.549       -1352.342          42.000  
G31  19266904.561   101248270.699        -505.104          43.000    19266892.661    78894707.425        -394.031          42.000  
C06  35196652.333   183278205.439         -85.614          42.000    35196632.539   141722255.933         -66.361          43.000  
C09  36346795.841   189267305.918         -54.896          40.000    36346779.568   146353421.295         -42.458          42.000  
C13  37967531.123   197706894.031       -2440.719          40.000    37967529.057   152879506.655       -1886.620          41.000  
C16  35631995.110   185545149.479         -98.998          42.000    35631981.910   143475226.916         -76.721          42.000  
C23  21676356.645   112874476.866       -1814.794          40.000                                                                  
C32  22040031.080   114768229.067       -2686.734          48.000                                                                  
G32  22030956.361   115773456.167       -3723.085          43.000    22030953.438    90213072.023       -2901.302          40.000  
G27  23263962.572   122252972.100        3657.269          38.000    23263980.591    95262141.016        2849.760          35.000  
G04  21754887.576                3       2785.587          25.000    21754877.328                3       2175.813          14.000  
C37  21221606.817   110506476.454         324.706          46.000                                                                  
C08  38857727.622   202342378.385       -2540.927          37.000    38857725.757   156463952.563       -1964.677          44.000  
C20  22297938.831   116111218.491         524.892          45.000                                                                  
C28  24310529.154   126591316.461        2441.491          41.000                                                                  
C07  37668661.766   196150610.327        1051.947          41.000    37668647.411   151676036.458         813.556          42.000  
C10  38648985.304   201255413.477         914.592          34.000    38648982.339   155623441.171         707.033          41.000  
G29                                                                  22193370.208                       -1542.659          28.000  
> 2025 10 28 07 06 00.8360000  0 21                     
G03  21824329.893   114687628.712       -1548.037          44.000    21824324.690    89366965.579       -1206.127          41.000  
G16  19918125.468   104670459.476        2041.616          46.000                                                                  
G26  18878731.907    99208406.123        -498.372          46.000    18878723.143    77305216.676        -388.419          44.000  
G28  20450664.869   107468969.559       -1735.193          46.000    20450653.517    83742008.633       -1352.175          42.000  
G31  19266908.408   101248290.919        -505.304          43.000    19266896.515    78894723.169        -393.711          42.000  
C06  35196652.978   183278208.854         -85.492          42.000    35196633.198   141722258.576         -66.226          43.000  
C09  36346796.238   189267308.090         -54.536          40.000    36346779.965   146353422.985         -42.390          42.000  
C13  37967549.874   197706991.618       -2440.136          40.000    37967547.795   152879582.130       -1886.721          41.000  
C16  35631995.870   185545153.427         -98.792          42.000    35631982.670   143475229.978         -76.655          42.000  
C23  21676370.563   112874549.462       -1814.855          40.000                                                                  
C32  22040051.723   114768336.532       -2686.636          48.000                                                                  
G32  22030984.692   115773605.090       -3723.006          43.000    22030981.793    90213188.062       -2901.072          40.000  
G27  23263934.743   122252825.805        3657.468          38.000    23263952.747    95262027.046        2849.532          35.000  
G04  21754866.510                3       2785.587          24.000    21754855.890                3       2175.813          14.000  
C37  21221604.336   110506463.463         324.750          46.000                                                                  
C08  38857747.138   202342480.000       -2540.586          37.000    38857745.302   156464031.135       -1964.418          44.000  
C20  22297934.795   116111197.480         525.072          45.000                                                                  
C28  24310510.406   126591218.783        2441.860          41.000                                                                  
C07  37668653.700   196150568.257        1051.831          41.000    37668639.321   151676003.923         813.513          42.000  
C10  38648978.287   201255376.850         915.403          34.000    38648975.296   155623412.863         707.435          41.000  
G29                                                                  22193385.264                       -1542.149          28.000  
> 2025 10 28 07 06 00.8760000  0 21                     
G03  21824341.676   114687690.649       -1548.297          44.000    21824336.484    89367013.835       -1206.262          41.000  
G16  19918109.935   104670377.809        2041.626          46.000                                                                  
G26  18878735.681    99208426.062        -498.406          46.000    18878726.930    77305232.214        -388.402          44.000  
G28  20450678.069   107469038.965       -1735.159          46.000    20450666.713    83742062.706       -1351.897          42.000  
G31  19266912.278   101248311.148        -505.618          43.000    19266900.381    78894738.918        -393.644          42.000  
C06  35196653.642   183278212.266         -85.325          42.000    35196633.857   141722261.215         -66.085          43.000  
C09  36346796.652   189267310.273         -54.512          40.000    36346780.409   146353424.671         -42.248          42.000  
C13  37967568.620   197707089.230       -2440.176          39.000    37967566.525   152879657.606       -1886.878          41.000  
C16  35631996.634   185545157.366         -98.559          42.000    35631983.437   143475233.026         -76.347          42.000  
C23  21676384.495   112874622.074       -1815.151          40.000                                                                  
C32  22040072.352   114768444.006       -2686.750          48.000                                                                  
G32  22031013.020   115773754.019       -3723.094          43.000    22031010.139    90213304.097       -2900.925          40.000  
G27  23263906.889   122252679.508        3657.521          38.000    23263924.929    95261913.084        2849.135          35.000  
G04  21754845.294                3       2785.587          24.000    21754834.719                3       2164.577          13.000  
C37  21221601.881   110506450.466         324.871          46.000                                                                  
C08  38857766.664   202342581.614       -2540.364          37.000    38857764.814   156464109.705       -1964.283          44.000  
C20  22297930.775   116111176.475         525.091          45.000                                                                  
C28  24310491.628   126591121.116        2441.769          41.000                                                                  
C07  37668645.580   196150526.176        1051.923          41.000    37668631.222   151675971.385         813.507          43.000  
C10  38648971.251   201255340.246         915.314          34.000    38648968.258   155623384.544         707.894          41.000  
G29                                                                  22193400.341                       -1542.365          27.000  
> 2025 10 28 07 06 00.9160000  0 21                     
G03  21824353.462   114687752.577       -1548.282          44.000    21824348.286    89367062.095       -1206.465          41.000  
G16  19918094.423   104670296.148        2041.533          46.000                                                                  
G26  18878739.476    99208446.000        -498.431          46.000    18878730.722    77305247.748        -388.385          44.000  
G28  20450691.302   107469108.377       -1735.239          46.000    20450679.941    83742116.786       -1351.879          42.000  
G31  19266916.122   101248331.367        -505.593          43.000    19266904.240    78894754.669        -393.713          42.000  
C06  35196654.299   183278215.682         -85.345          42.000    35196634.487   141722263.853         -65.991          43.000  
C09  36346797.078   189267312.454         -54.476          40.000    36346780.806   146353426.340         -41.875          42.000  
C13  37967587.352   197707186.826       -2439.926          39.000    37967585.299   152879733.086       -1886.987          41.000  
C16  35631997.405   185545161.311         -98.520          42.000    35631984.206   143475236.081         -76.357          42.000  
C23  21676398.450   112874694.679       -1815.192          40.000                                                                  
C32  22040092.996   114768551.485       -2686.943          48.000                                                                  
G32  22031041.381   115773902.960       -3723.413          43.000    22031038.505    90213420.158       -2901.344          40.000  
G27  23263879.041   122252533.267        3656.587          38.000    23263897.078    95261799.074        2849.847          35.000  
G04  21754824.380                3       2785.587          24.000    21754813.710                3       2164.577          13.000  
C37  21221599.372   110506437.478         324.778          46.000                                                                  
C08  38857786.181   202342683.234       -2540.405          37.000    38857784.329   156464188.287       -1964.410          44.000  
C20  22297926.744   116111155.474         524.998          45.000                                                                  
C28  24310472.876   126591023.451        2441.652          41.000                                                                  
C07  37668637.483   196150484.097        1051.971          42.000    37668623.126   151675938.849         813.452          43.000  
C10  38648964.222   201255303.666         914.737          34.000    38648961.237   155623356.246         707.679          41.000  
G29                                                                  22193415.425                       -1542.316          27.000  
