     3.04           OBSERVATION DATA    M: Mixed            RINEX VERSION / TYPE
RTKCONV 2.4.3 b34                       20251028 084332 UTC PGM / RUN BY / DATE 
format: u-blox UBX                                          COMMENT             
log: D:\GPdata\10_28_2\fingure_up_place_phone_10_28_1.ubx   COMMENT             
                                                            MARKER NAME         
                                                            MARKER NUMBER       
                                                            MARKER TYPE         
                                                            OBSERVER / AGENCY   
                                                            REC # / TYPE / VERS 
                                                            ANT # / TYPE        
        0.0000        0.0000        0.0000                  APPROX POSITION XYZ 
        0.0000        0.0000        0.0000                  ANTENNA: DELTA H/E/N
G    8 C1C L1C D1C S1C C2L L2L D2L S2L                      SYS / # / OBS TYPES 
C    8 C2I L2I D2I S2I C7I L7I D7I S7I                      SYS / # / OBS TYPES 
  2025    10    28    08    29   23.4420000     GPS         TIME OF FIRST OBS   
  2025    10    28    08    29   50.0420000     GPS         TIME OF LAST OBS    
G L1C                                                       SYS / PHASE SHIFT   
G L2L  0.00000                                              SYS / PHASE SHIFT   
C L2I                                                       SYS / PHASE SHIFT   
C L7I                                                       SYS / PHASE SHIFT   
  0                                                         GLONASS SLOT / FRQ #
 C1C    0.000 C1P    0.000 C2C    0.000 C2P    0.000        GLONASS COD/PHS/BIS 
                                                            END OF HEADER       
> 2025 10 28 08 29 23.4420000  0 24                     
G04  21663075.220   113840230.4971        266.101          45.000    21663066.472    88706635.9831        207.273          46.000  
G27  21690858.709   113986233.4991       2400.203          46.000    21690850.570    88820413.6851       1870.398          44.000  
G16  20671454.322   108629225.1421       -382.340          47.000                                                                  
G08  23759554.861   124857324.1931       3431.305          38.000    23759554.280    97291435.5571       2673.704          39.000  
G09  23730039.557   124702208.2661       2259.417          38.000    23730034.167    97170521.3301       1760.339          40.000  
G31  22029377.599   115765159.4021      -2126.024          46.000    22029367.042    90206569.7631      -1656.776          44.000  
C06  36734974.328   191288636.8851         34.427          47.000    36734956.925   147916449.8651         26.633          48.000  
C32  26757160.925   139331464.0831      -3566.782          39.000                                                                  
C37  22895355.358   119222125.4981       -591.584          50.000                                                                  
C07  38339453.431   199643595.5001        689.162          42.000    38339436.295   154377029.5791        532.856          45.000  
C13  41833700.325   217839089.7281      -2315.069          34.000    41833733.684   168447142.9791      -1790.168          38.000  
C20  24682702.746   128529311.5891      -2184.312          46.000                                                                  
G18  25333990.238   133131020.7741        873.004          36.000    25333983.432   103738424.4921        680.405          39.000  
G28  24240392.971   127384123.0081      -3014.639          39.000    24240385.856    99260315.1961      -2349.068          42.000  
G03  25756702.438   135352356.4331      -3027.635          32.000    25756718.603   105469339.8001      -2358.809          39.000  
G26  21824536.219   114688711.4911      -2247.536          46.000    21824527.933    89367794.6981      -1751.294          44.000  
C10  39403593.878   205184857.0951        648.187          39.000    39403581.869   158661899.0691        501.172          43.000  
C28  23839963.071   124140947.5721       1345.141          47.000                                                                  
C23  25193921.753   131191367.6881      -2297.220          43.000                                                                  
C16  37174084.921   193575218.4401         33.669          49.000    37174072.920   149684589.6231         25.950          48.000  
C27  25302215.626   131755285.5441       2761.015          40.000                                                                  
C19  25720993.664   133935968.6741        269.463          41.000                                                                  
C09  37801006.619   196839764.2411        198.652          45.000    37800991.418   152208932.2161        153.599          48.000  
C11                                                                  27197962.621   109514923.8661      -2002.445          43.000  
> 2025 10 28 08 29 23.4820000  0 24                     
G04  21663073.202   113840219.837         266.303          45.000    21663064.461    88706627.672         207.520          46.000  
G27  21690840.432   113986137.460        2400.601          46.000    21690832.298    88820338.866        1870.368          44.000  
G16  20671457.225   108629240.425        -382.237          47.000                                                                  
G08  23759528.736   124857186.910        3431.760          38.000    23759528.171    97291328.589        2673.955          39.000  
G09  23730022.356   124702117.897        2259.280          38.000    23730016.944    97170450.913        1760.354          40.000  
G31  22029393.797   115765244.420       -2125.698          46.000    22029383.234    90206636.015       -1656.531          44.000  
C06  36734974.091   191288635.494          34.579          47.000    36734956.647   147916448.786          26.809          48.000  
C32  26757188.340   139331606.717       -3566.124          39.000                                                                  
C37  22895359.922   119222149.154        -591.509          50.000                                                                  
C07  38339448.103   199643567.914         689.516          42.000    38339430.993   154377008.254         532.986          45.000  
C13  41833718.115   217839182.305       -2314.748          34.000    41833751.467   168447214.562       -1789.836          38.000  
C20  24682719.556   128529398.932       -2183.953          46.000                                                                  
G18  25333983.618   133130985.841         873.096          36.000    25333976.768   103738397.270         680.411          39.000  
G28  24240415.900   127384243.578       -3014.416          39.000    24240408.796    99260409.139       -2348.741          42.000  
G03  25756725.502   135352477.525       -3027.375          32.000    25756741.649   105469434.154       -2358.802          39.000  
G26  21824553.331   114688801.379       -2247.402          46.000    21824545.038    89367864.745       -1751.283          44.000  
C10  39403588.896   205184831.156         648.291          39.000    39403576.863   158661878.998         501.544          43.000  
C28  23839952.766   124140893.750        1345.374          47.000                                                                  
C23  25193939.395   131191459.561       -2296.998          43.000                                                                  
C16  37174084.661   193575217.079          33.870          49.000    37174072.688   149684588.568          26.163          48.000  
C27  25302194.415   131755175.075        2761.389          40.000                                                                  
C19  25720991.603   133935957.872         269.754          41.000                                                                  
C09  37801005.092   196839756.269         199.042          45.000    37800989.907   152208926.055         153.847          48.000  
C11                                                                  27197982.494   109515003.951       -2002.302          43.000  
> 2025 10 28 08 29 23.5220000  0 24                     
G04  21663071.167   113840209.165         266.655          45.000    21663062.436    88706619.358         207.738          46.000  
G27  21690822.137   113986041.411        2401.049          46.000    21690814.028    88820264.026        1870.711          44.000  
G16  20671460.126   108629255.698        -381.959          47.000                                                                  
G08  23759502.625   124857049.629        3431.989          38.000    23759502.043    97291221.629        2673.993          39.000  
G09  23730005.145   124702027.514        2259.468          38.000    23729999.745    97170380.475        1760.785          40.000  
G31  22029409.950   115765329.436       -2125.491          46.000    22029399.392    90206702.258       -1656.221          44.000  
C06  36734973.830   191288634.093          34.888          47.000    36734956.378   147916447.705          26.943          48.000  
C32  26757215.731   139331749.352       -3565.797          39.000                                                                  
C37  22895364.480   119222172.801        -591.303          50.000                                                                  
C07  38339442.799   199643540.332         689.582          42.000    38339425.697   154376986.919         533.280          45.000  
C13  41833735.895   217839274.894       -2314.817          34.000    41833769.194   168447286.143       -1789.614          38.000  
C20  24682736.333   128529486.267       -2183.579          46.000                                                                  
G18  25333976.975   133130950.874         873.810          36.000    25333970.112   103738370.013         681.030          39.000  
G28  24240438.863   127384364.152       -3014.354          39.000    24240431.745    99260503.091       -2348.767          42.000  
G03  25756748.517   135352598.631       -3027.546          31.000    25756764.682   105469528.520       -2358.996          39.000  
G26  21824570.458   114688891.259       -2247.173          46.000    21824562.154    89367934.787       -1751.135          44.000  
C10  39403583.926   205184805.188         648.914          39.000    39403571.881   158661858.928         501.727          43.000  
C28  23839942.454   124140839.924        1345.597          47.000                                                                  
C23  25193957.053   131191551.425       -2296.747          43.000                                                                  
C16  37174084.406   193575215.709          34.152          49.000    37174072.456   149684587.516          26.255          48.000  
C27  25302173.204   131755064.591        2761.877          40.000                                                                  
C19  25720989.536   133935947.066         270.044          41.000                                                                  
C09  37801003.542   196839748.298         199.244          45.000    37800988.378   152208919.892         154.011          48.000  
C11                                                                  27198002.354   109515084.027       -2002.012          43.000  
> 2025 10 28 08 29 23.5620000  0 24                     
G04  21663069.125   113840198.499         266.717          45.000    21663060.396    88706611.048         207.779          46.000  
G27  21690803.884   113985945.379        2400.966          46.000    21690795.744    88820189.191        1870.852          44.000  
G16  20671463.056   108629270.969        -381.740          47.000                                                                  
G08  23759476.495   124856912.353        3431.979          38.000    23759475.926    97291114.650        2674.341          39.000  
G09  23729987.960   124701937.132        2259.535          38.000    23729982.557    97170310.041        1760.868          40.000  
G31  22029426.135   115765414.451       -2125.360          46.000    22029415.559    90206768.507       -1656.198          44.000  
C06  36734973.564   191288632.686          35.139          47.000    36734956.105   147916446.622          27.056          48.000  
C32  26757243.145   139331891.985       -3565.715          39.000                                                                  
C37  22895369.045   119222196.443        -591.083          50.000                                                                  
C07  38339437.507   199643512.740         689.775          42.000    38339420.405   154376965.588         533.326          45.000  
C13  41833753.682   217839367.452       -2314.289          34.000    41833786.993   168447357.743       -1789.852          38.000  
C20  24682753.113   128529573.596       -2183.277          46.000                                                                  
G18  25333970.321   133130915.941         873.554          36.000    25333963.472   103738342.787         680.878          39.000  
G28  24240461.803   127384484.725       -3014.287          39.000    24240454.697    99260597.049       -2348.909          42.000  
G03  25756771.557   135352719.703       -3026.919          32.000    25756787.736   105469622.884       -2359.085          39.000  
G26  21824587.553   114688981.141       -2247.087          46.000    21824579.259    89368004.813       -1750.814          44.000  
C10  39403578.948   205184779.223         649.170          39.000    39403566.899   158661838.859         501.758          43.000  
C28  23839932.118   124140786.100        1345.639          47.000                                                                  
C23  25193974.690   131191643.290       -2296.645          43.000                                                                  
C16  37174084.153   193575214.346          34.148          49.000    37174072.200   149684586.457          26.416          48.000  
C27  25302151.972   131754954.119        2761.928          40.000                                                                  
C19  25720987.454   133935936.264         270.076          41.000                                                                  
C09  37801001.997   196839740.329         199.282          45.000    37800986.828   152208913.733         154.006          48.000  
C11                                                                  27198022.276   109515164.097       -2001.760          43.000  
> 2025 10 28 08 29 23.6020000  0 24                     
G04  21663067.081   113840187.847         266.456          45.000    21663058.372    88706602.749         207.567          46.000  
G27  21690785.616   113985849.350        2400.818          46.000    21690777.477    88820114.362        1870.748          44.000  
G16  20671465.962   108629286.251        -381.884          47.000                                                                  
G08  23759450.400   124856775.079        3431.909          38.000    23759449.809    97291007.685        2674.200          38.000  
G09  23729970.767   124701846.743        2259.689          38.000    23729965.365    97170239.617        1760.692          40.000  
G31  22029442.343   115765499.477       -2125.514          46.000    22029431.770    90206834.766       -1656.382          44.000  
C06  36734973.307   191288631.287          35.103          47.000    36734955.848   147916445.538          27.094          48.000  
C32  26757270.518   139332034.646       -3566.305          39.000                                                                  
C37  22895373.532   119222220.095        -591.198          50.000                                                                  
C07  38339432.210   199643485.164         689.553          42.000    38339415.096   154376944.261         533.259          45.000  
C13  41833771.468   217839460.042       -2314.641          34.000    41833804.778   168447429.330       -1789.765          38.000  
C20  24682769.891   128529660.944       -2183.495          46.000                                                                  
G18  25333963.666   133130880.991         873.759          36.000    25333956.824   103738315.560         680.694          39.000  
G28  24240484.743   127384605.308       -3014.491          39.000    24240477.658    99260691.017       -2349.187          42.000  
G03  25756794.593   135352840.798       -3027.079          32.000    25756810.781   105469717.231       -2358.858          39.000  
G26  21824604.631   114689071.016       -2246.926          46.000    21824596.366    89368074.849       -1750.867          44.000  
C10  39403573.981   205184753.272         648.944          39.000    39403561.928   158661818.793         501.678          43.000  
C28  23839921.791   124140732.280        1345.556          47.000                                                                  
C23  25193992.360   131191735.162       -2296.756          43.000                                                                  
C16  37174083.884   193575212.985          34.088          49.000    37174071.967   149684585.408          26.289          48.000  
C27  25302130.768   131754843.654        2761.803          40.000                                                                  
C19  25720985.343   133935925.469         269.956          41.000                                                                  
C09  37801000.478   196839732.363         199.219          45.000    37800985.288   152208907.573         154.005          48.000  
C11                                                                  27198042.150   109515244.183       -2002.003          43.000  
> 2025 10 28 08 29 23.6420000  0 24                     
G04  21663065.062   113840177.205         266.111          45.000    21663056.337    88706594.453         207.433          46.000  
G27  21690767.351   113985753.337        2400.484          46.000    21690759.207    88820039.540        1870.595          44.000  
G16  20671468.863   108629301.549        -382.312          47.000                                                                  
G08  23759424.285   124856637.829        3431.354          38.000    23759423.694    97290900.733        2673.889          38.000  
G09  23729953.596   124701756.386        2259.147          38.000    23729948.192    97170169.214        1760.226          40.000  
G31  22029458.532   115765584.514       -2125.825          46.000    22029447.944    90206901.033       -1656.615          44.000  
C06  36734973.045   191288629.908          34.685          47.000    36734955.594   147916444.467          26.886          48.000  
C32  26757297.892   139332177.312       -3566.657          39.000                                                                  
C37  22895378.065   119222243.763        -591.584          50.000                                                                  
C07  38339426.931   199643457.594         689.287          42.000    38339409.803   154376922.942         533.035          45.000  
C13  41833789.242   217839552.627       -2314.811          34.000    41833822.595   168447500.941       -1790.195          38.000  
C20  24682786.674   128529748.304       -2183.883          46.000                                                                  
G18  25333957.018   133130846.079         873.126          36.000    25333950.167   103738288.339         680.521          39.000  
G28  24240507.663   127384725.896       -3014.688          39.000    24240500.601    99260784.964       -2348.883          42.000  
G03  25756817.635   135352961.924       -3027.775          31.000    25756833.830   105469811.594       -2358.963          39.000  
G26  21824621.750   114689160.910       -2247.179          46.000    21824613.478    89368144.903       -1751.197          44.000  
C10  39403569.017   205184727.347         648.328          39.000    39403556.966   158661798.730         501.581          43.000  
C28  23839911.419   124140678.481        1345.089          47.000                                                                  
C23  25194010.013   131191827.055       -2297.194          43.000                                                                  
C16  37174083.650   193575211.639          33.777          49.000    37174071.742   149684584.365          26.096          48.000  
C27  25302109.576   131754733.208        2761.386          40.000                                                                  
C19  25720983.257   133935914.684         269.697          41.000                                                                  
C09  37800998.956   196839724.412         198.857          45.000    37800983.763   152208901.414         153.991          48.000  
C11                                                                  27198062.047   109515324.270       -2002.163          43.000  
> 2025 10 28 08 29 23.6820000  0 24                     
G04  21663063.063   113840166.592         265.433          45.000    21663054.308    88706586.176         206.969          46.000  
G27  21690749.097   113985657.358        2399.698          46.000    21690740.939    88819964.748        1869.946          44.000  
G16  20671471.776   108629316.880        -383.163          47.000                                                                  
G08  23759398.168   124856500.599        3430.742          38.000    23759397.586    97290793.796        2673.379          38.000  
G09  23729936.390   124701666.059        2258.221          38.000    23729930.993    97170098.824        1759.705          40.000  
G31  22029474.732   115765669.585       -2126.622          46.000    22029464.123    90206967.313       -1656.991          44.000  
C06  36734972.819   191288628.551          34.047          47.000    36734955.343   147916443.418          26.377          48.000  
C32  26757325.304   139332319.996       -3567.201          39.000                                                                  
C37  22895382.601   119222267.452        -592.188          50.000                                                                  
C07  38339421.623   199643430.052         688.599          42.000    38339404.537   154376901.648         532.428          45.000  
C13  41833807.043   217839645.251       -2315.542          34.000    41833840.346   168447572.569       -1790.734          38.000  
C20  24682803.433   128529835.702       -2184.764          46.000                                                                  
G18  25333950.375   133130811.159         872.892          36.000    25333943.550   103738261.151         679.863          39.000  
G28  24240530.597   127384846.515       -3015.421          39.000    24240523.548    99260878.957       -2349.617          42.000  
G03  25756840.679   135353083.009       -3027.513          31.000    25756856.879   105469905.984       -2359.605          39.000  
G26  21824638.870   114689250.839       -2247.999          46.000    21824630.612    89368214.986       -1751.965          44.000  
C10  39403564.043   205184701.442         647.583          39.000    39403551.988   158661778.711         500.641          43.000  
C28  23839901.068   124140624.722        1344.064          47.000                                                                  
C23  25194027.671   131191918.978       -2297.968          43.000                                                                  
C16  37174083.384   193575210.317          33.137          49.000    37174071.507   149684583.343          25.593          48.000  
C27  25302088.356   131754622.793        2760.571          40.000                                                                  
C19  25720981.205   133935903.937         268.882          41.000                                                                  
C09  37800997.439   196839716.489         198.132          45.000    37800982.247   152208895.288         153.335          48.000  
C11                                                                  27198081.937   109515404.391       -2002.927          43.000  
> 2025 10 28 08 29 23.7220000  0 24                     
G04  21663061.034   113840156.038         264.061          45.000    21663052.305    88706577.954         205.765          46.000  
G27  21690730.857   113985561.424        2398.463          46.000    21690722.699    88819890.010        1868.709          44.000  
G16  20671474.698   108629332.263        -384.546          47.000                                                                  
G08  23759372.043   124856363.428        3429.336          38.000    23759371.498    97290686.906        2672.320          38.000  
G09  23729919.221   124701575.789        2256.774          38.000    23729913.809    97170028.488        1758.505          40.000  
G31  22029490.935   115765754.713       -2128.036          46.000    22029480.311    90207033.633       -1657.885          44.000  
C06  36734972.569   191288627.256          32.644          47.000    36734955.114   147916442.417          25.253          48.000  
C32  26757352.743   139332462.743       -3568.493          39.000                                                                  
C37  22895387.175   119222291.209        -593.689          50.000                                                                  
C07  38339416.350   199643402.584         686.963          42.000    38339399.260   154376880.406         531.182          45.000  
C13  41833824.850   217839737.931       -2316.967          34.000    41833858.124   168447644.229       -1791.613          38.000  
C20  24682820.224   128529923.154       -2186.180          46.000                                                                  
G18  25333943.748   133130776.321         871.284          36.000    25333936.917   103738233.996         678.918          39.000  
G28  24240553.586   127384967.182       -3016.657          39.000    24240546.499    99260973.000       -2350.946          42.000  
G03  25756863.754   135353204.208       -3029.330          31.000    25756879.939   105470000.411       -2360.540          39.000  
G26  21824655.979   114689340.829       -2249.497          46.000    21824647.715    89368285.100       -1752.830          44.000  
C10  39403559.083   205184675.595         646.216          39.000    39403547.040   158661758.727         499.585          43.000  
C28  23839890.742   124140570.996        1343.017          47.000                                                                  
C23  25194045.317   131192010.939       -2299.031          43.000                                                                  
C16  37174083.135   193575209.056          31.758          49.000    37174071.272   149684582.365          24.606          48.000  
C27  25302067.160   131754512.430        2759.254          40.000                                                                  
C19  25720979.143   133935893.247         267.422          41.000                                                                  
C09  37800995.908   196839708.629         196.664          45.000    37800980.734   152208889.210         152.124          48.000  
C11                                                                  27198101.870   109515484.555       -2004.051          43.000  
> 2025 10 28 08 29 23.7620000  0 24                     
G04  21663059.029   113840145.512         262.943          45.000    21663050.301    88706569.765         204.643          46.000  
G27  21690712.624   113985465.532        2397.174          46.000    21690704.454    88819815.278        1868.002          44.000  
G16  20671477.628   108629347.670        -385.516          47.000                                                                  
G08  23759345.952   124856226.285        3428.281          38.000    23759345.411    97290580.057        2671.125          38.000  
G09  23729902.053   124701485.542        2255.840          38.000    23729896.642    97169958.159        1757.927          40.000  
G31  22029507.132   115765839.869       -2129.148          46.000    22029496.518    90207099.988       -1658.900          44.000  
C06  36734972.324   191288625.989          31.470          47.000    36734954.861   147916441.437          24.392          48.000  
C32  26757380.133   139332605.513       -3569.493          39.000                                                                  
C37  22895391.709   119222314.988        -594.734          50.000                                                                  
C07  38339411.077   199643375.133         685.911          42.000    38339394.011   154376859.179         530.391          45.000  
C13  41833842.649   217839830.629       -2317.796          34.000    41833875.922   168447715.900       -1792.074          38.000  
C20  24682837.014   128530010.624       -2187.093          46.000                                                                  
G18  25333937.133   133130741.508         870.144          36.000    25333930.276   103738206.878         677.859          39.000  
G28  24240576.537   127385087.878       -3017.648          39.000    24240569.493    99261067.042       -2351.463          42.000  
G03  25756886.820   135353325.449       -3031.000          32.000    25756903.024   105470094.873       -2361.615          39.000  
G26  21824673.091   114689430.847       -2250.677          46.000    21824664.853    89368355.242       -1753.718          44.000  
C10  39403554.107   205184649.760         645.441          39.000    39403542.083   158661738.758         498.926          43.000  
C28  23839880.407   124140517.303        1342.042          47.000                                                                  
C23  25194062.986   131192102.931       -2300.017          43.000                                                                  
C16  37174082.888   193575207.821          30.669          49.000    37174071.040   149684581.416          23.627          48.000  
C27  25302045.959   131754402.096        2758.185          40.000                                                                  
C19  25720977.084   133935882.577         266.447          41.000                                                                  
C09  37800994.419   196839700.791         195.661          45.000    37800979.228   152208883.154         151.201          48.000  
C11                                                                  27198121.806   109515564.735       -2004.784          43.000  
> 2025 10 28 08 29 23.8020000  0 24                     
G04  21663057.028   113840134.974         262.763          45.000    21663048.296    88706561.553         204.619          46.000  
G27  21690694.389   113985369.629        2396.912          46.000    21690686.210    88819740.548        1867.766          44.000  
G16  20671480.581   108629363.069        -385.614          47.000                                                                  
G08  23759319.849   124856089.112        3428.593          38.000    23759319.316    97290473.189        2671.080          38.000  
G09  23729884.879   124701395.267        2256.163          38.000    23729879.467    97169887.813        1758.089          40.000  
G31  22029523.350   115765925.008       -2129.202          46.000    22029512.739    90207166.343       -1659.272          44.000  
C06  36734972.098   191288624.704          31.418          47.000    36734954.598   147916440.450          24.199          48.000  
C32  26757407.565   139332748.261       -3569.371          39.000                                                                  
C37  22895396.250   119222338.750        -594.746          50.000                                                                  
C07  38339405.802   199643347.662         686.025          42.000    38339388.789   154376837.941         530.381          45.000  
C13  41833860.457   217839923.323       -2317.827          34.000    41833893.729   168447787.573       -1792.144          38.000  
C20  24682853.818   128530098.089       -2187.261          46.000                                                                  
G18  25333930.498   133130706.673         870.204          36.000    25333923.662   103738179.732         677.976          39.000  
G28  24240599.513   127385208.572       -3017.880          39.000    24240592.454    99261161.084       -2351.487          42.000  
G03  25756909.880   135353446.637       -3030.650          32.000    25756926.066   105470189.311       -2361.591          39.000  
G26  21824690.223   114689520.858       -2250.919          46.000    21824681.985    89368425.377       -1753.870          44.000  
C10  39403549.174   205184623.924         645.349          39.000    39403537.115   158661718.766         499.219          43.000  
C28  23839870.110   124140463.593        1342.096          47.000                                                                  
C23  25194080.667   131192194.926       -2300.385          43.000                                                                  
C16  37174082.670   193575206.571          30.546          49.000    37174070.830   149684580.454          23.518          48.000  
C27  25302024.736   131754291.738        2758.229          40.000                                                                  
C19  25720975.035   133935871.898         266.297          41.000                                                                  
C09  37800992.917   196839692.940         195.603          45.000    37800977.713   152208877.081         151.212          48.000  
C11                                                                  27198141.716   109515644.903       -2004.765          43.000  
> 2025 10 28 08 29 23.8420000  0 24                     
G04  21663055.032   113840124.380         263.911          45.000    21663046.273    88706553.304         205.478          46.000  
G27  21690676.140   113985273.666        2398.085          46.000    21690667.966    88819665.772        1868.618          44.000  
G16  20671483.491   108629378.415        -384.466          47.000                                                                  
G08  23759293.748   124855951.913        3429.397          38.000    23759293.224    97290366.258        2672.453          38.000  
G09  23729867.690   124701304.954        2257.198          38.000    23729862.296    97169817.435        1758.954          40.000  
G31  22029539.537   115766010.102       -2128.206          46.000    22029528.936    90207232.648       -1658.349          44.000  
C06  36734971.825   191288623.370          32.490          47.000    36734954.332   147916439.422          24.996          48.000  
C32  26757434.962   139332890.960       -3568.167          39.000                                                                  
C37  22895400.777   119222362.457        -593.521          50.000                                                                  
C07  38339400.509   199643320.127         687.526          42.000    38339383.508   154376816.657         531.434          45.000  
C13  41833878.245   217840015.953       -2316.467          34.000    41833911.547   168447859.202       -1791.227          38.000  
C20  24682870.602   128530185.501       -2186.205          46.000                                                                  
G18  25333923.868   133130671.797         871.153          36.000    25333917.032   103738152.550         678.881          39.000  
G28  24240622.489   127385329.213       -3016.777          39.000    24240615.386    99261255.091       -2350.732          42.000  
G03  25756932.930   135353567.792       -3029.658          32.000    25756949.126   105470283.713       -2360.759          39.000  
G26  21824707.350   114689610.803       -2249.668          46.000    21824699.107    89368495.468       -1753.044          44.000  
C10  39403544.182   205184598.031         646.637          39.000    39403532.146   158661698.740         500.165          43.000  
C28  23839859.761   124140409.836        1343.219          47.000                                                                  
C23  25194098.335   131192286.865       -2299.336          43.000                                                                  
C16  37174082.429   193575205.275          31.569          49.000    37174070.613   149684579.447          24.425          48.000  
C27  25302003.517   131754181.335        2759.276          40.000                                                                  
C19  25720972.975   133935861.150         267.690          41.000                                                                  
C09  37800991.376   196839685.029         196.886          45.000    37800976.198   152208870.963         152.247          48.000  
C11                                                                  27198161.597   109515725.038       -2003.923          43.000  
> 2025 10 28 08 29 23.8820000  0 24                     
G04  21663053.015   113840113.765         264.925          45.000    21663044.252    88706545.023         206.537          46.000  
G27  21690657.866   113985177.665        2399.468          46.000    21690649.710    88819590.963        1869.728          44.000  
G16  20671486.416   108629393.738        -383.402          47.000                                                                  
G08  23759267.601   124855814.678        3430.559          38.000    23759267.091    97290259.328        2673.208          38.000  
G09  23729850.497   124701214.623        2258.090          38.000    23729845.092    97169747.050        1759.567          40.000  
G31  22029555.734   115766095.157       -2126.932          46.000    22029545.102    90207298.927       -1657.371          44.000  
C06  36734971.536   191288622.005          33.637          47.000    36734954.036   147916438.368          25.950          48.000  
C32  26757462.347   139333033.639       -3567.201          39.000                                                                  
C37  22895405.321   119222386.144        -592.473          50.000                                                                  
C07  38339395.219   199643292.587         688.442          42.000    38339378.157   154376795.346         532.493          45.000  
C13  41833896.018   217840108.565       -2315.396          34.000    41833929.338   168447930.823       -1790.596          38.000  
C20  24682887.366   128530272.881       -2185.022          46.000                                                                  
G18  25333917.215   133130636.886         872.280          36.000    25333910.363   103738125.344         679.813          39.000  
G28  24240645.428   127385449.832       -3015.736          39.000    24240638.311    99261349.066       -2349.735          42.000  
G03  25756955.975   135353688.935       -3028.868          31.000    25756972.158   105470378.083       -2359.698          39.000  
G26  21824724.460   114689700.711       -2248.254          46.000    21824716.206    89368565.529       -1752.004          44.000  
C10  39403539.202   205184572.117         647.589          39.000    39403527.154   158661678.701         500.873          43.000  
C28  23839849.423   124140356.064        1344.074          47.000                                                                  
C23  25194115.946   131192378.773       -2298.192          43.000                                                                  
C16  37174082.171   193575203.945          32.728          49.000    37174070.358   149684578.417          25.361          48.000  
C27  25301982.300   131754070.915        2760.182          40.000                                                                  
C19  25720970.892   133935850.399         268.517          41.000                                                                  
C09  37800989.856   196839677.092         198.074          45.000    37800974.689   152208864.829         153.111          48.000  
C11                                                                  27198181.514   109515805.154       -2003.098          43.000  
> 2025 10 28 08 29 23.9220000  0 24                     
G04  21663051.027   113840103.186         264.788          45.000    21663042.244    88706536.767         206.591          46.000  
G27  21690639.611   113985081.720        2399.099          46.000    21690631.463    88819516.194        1869.552          44.000  
G16  20671489.321   108629409.099        -383.675          47.000                                                                  
G08  23759241.509   124855677.485        3430.262          38.000    23759240.964    97290152.417        2673.036          39.000  
G09  23729833.325   124701124.327        2257.801          38.000    23729827.911    97169676.704        1759.019          40.000  
G31  22029571.933   115766180.262       -2127.217          46.000    22029561.295    90207365.232       -1657.377          44.000  
C06  36734971.298   191288620.682          33.443          47.000    36734953.764   147916437.336          25.997          48.000  
C32  26757489.763   139333176.378       -3567.934          39.000                                                                  
C37  22895409.854   119222409.873        -592.806          50.000                                                                  
C07  38339389.926   199643265.084         688.005          42.000    38339372.889   154376774.080         532.124          45.000  
C13  41833913.809   217840201.230       -2316.004          34.000    41833947.135   168448002.470       -1790.878          38.000  
C20  24682904.188   128530360.302       -2185.200          46.000                                                                  
G18  25333910.560   133130602.014         872.086          36.000    25333903.718   103738098.172         679.633          39.000  
G28  24240668.392   127385570.482       -3015.889          39.000    24240661.262    99261443.094       -2350.243          42.000  
G03  25756979.028   135353810.088       -3028.688          32.000    25756995.213   105470472.514       -2360.313          39.000  
G26  21824741.572   114689790.668       -2248.417          46.000    21824733.338    89368635.637       -1752.319          44.000  
C10  39403534.240   205184546.266         646.826          39.000    39403522.210   158661658.705         500.311          43.000  
C28  23839839.101   124140302.330        1343.717          47.000                                                                  
C23  25194133.592   131192470.718       -2298.342          43.000                                                                  
C16  37174081.938   193575202.656          32.572          49.000    37174070.109   149684577.417          25.270          48.000  
C27  25301961.090   131753960.524        2760.068          40.000                                                                  
C19  25720968.826   133935839.693         268.088          41.000                                                                  
C09  37800988.329   196839669.203         197.706          45.000    37800973.180   152208858.721         152.999          48.000  
C11                                                                  27198201.412   109515885.299       -2003.330          43.000  
> 2025 10 28 08 29 23.9620000  0 24                     
G04  21663049.023   113840092.656         263.772          45.000    21663040.232    88706528.568         205.559          46.000  
G27  21690621.358   113984985.817        2398.122          46.000    21690613.214    88819441.479        1868.434          44.000  
G16  20671492.257   108629424.511        -384.829          47.000                                                                  
G08  23759215.396   124855540.340        3429.134          38.000    23759214.881    97290045.568        2671.725          39.000  
G09  23729816.147   124701034.078        2256.646          38.000    23729810.739    97169606.361        1758.614          40.000  
G31  22029588.133   115766265.408       -2128.158          46.000    22029577.500    90207431.585       -1658.325          44.000  
C06  36734971.092   191288619.403          32.475          47.000    36734953.504   147916436.343          25.236          48.000  
C32  26757517.186   139333319.141       -3568.804          39.000                                                                  
C37  22895414.405   119222433.648        -593.910          50.000                                                                  
C07  38339384.647   199643237.631         686.847          42.000    38339367.616   154376752.846         531.222          45.000  
C13  41833931.630   217840293.919       -2316.866          34.000    41833964.942   168448074.153       -1791.802          38.000  
C20  24682920.996   128530447.778       -2186.341          46.000                                                                  
G18  25333903.931   133130567.196         870.941          36.000    25333897.095   103738071.044         678.669          39.000  
G28  24240691.371   127385691.180       -3016.926          39.000    24240684.216    99261537.145       -2351.027          42.000  
G03  25757002.091   135353931.265       -3029.049          32.000    25757018.296   105470566.973       -2361.212          39.000  
G26  21824758.708   114689880.681       -2249.645          46.000    21824750.461    89368705.770       -1752.986          44.000  
C10  39403529.271   205184520.438         645.953          39.000    39403517.255   158661638.733         499.506          43.000  
C28  23839828.771   124140248.630        1342.837          47.000                                                                  
C23  25194151.261   131192562.711       -2299.340          43.000                                                                  
C16  37174081.722   193575201.417          31.488          49.000    37174069.878   149684576.454          24.504          48.000  
C27  25301939.933   131753850.179        2759.060          40.000                                                                  
C19  25720966.781   133935829.029         267.051          41.000                                                                  
C09  37800986.841   196839661.364         196.500          45.000    37800971.648   152208852.657         152.048          48.000  
C11                                                                  27198221.306   109515965.468       -2003.972          43.000  
> 2025 10 28 08 29 24.0020000  0 24                     
G04  21663047.044   113840082.149         262.799          45.000    21663038.230    88706520.393         204.571          46.000  
G27  21690603.133   113984889.942        2397.090          46.000    21690594.974    88819366.777        1867.606          44.000  
G16  20671495.207   108629439.940        -385.724          47.000                                                                  
G08  23759189.299   124855403.213        3428.232          38.000    23759188.780    97289938.705        2671.392          39.000  
G09  23729798.998   124700943.857        2255.583          38.000    23729793.569    97169536.069        1757.454          40.000  
G31  22029604.362   115766350.588       -2129.269          46.000    22029593.710    90207497.962       -1659.288          44.000  
C06  36734970.846   191288618.153          31.453          47.000    36734953.250   147916435.381          24.279          48.000  
C32  26757544.605   139333461.927       -3569.682          39.000                                                                  
C37  22895418.991   119222457.450        -594.936          50.000                                                                  
C07  38339379.377   199643210.196         685.943          42.000    38339362.331   154376731.637         530.314          45.000  
C13  41833949.455   217840386.658       -2318.191          34.000    41833982.799   168448145.863       -1792.716          38.000  
C20  24682937.818   128530535.277       -2187.375          46.000                                                                  
G18  25333897.319   133130532.401         869.987          36.000    25333890.474   103738043.940         677.736          39.000  
G28  24240714.353   127385811.893       -3017.761          39.000    24240707.212    99261631.212       -2351.659          42.000  
G03  25757025.143   135354052.526       -3030.801          32.000    25757041.350   105470661.430       -2361.641          39.000  
G26  21824775.823   114689970.723       -2250.844          46.000    21824767.597    89368775.918       -1753.657          44.000  
C10  39403524.308   205184494.614         645.490          39.000    39403512.312   158661618.788         498.621          43.000  
C28  23839818.488   124140194.958        1341.860          47.000                                                                  
C23  25194168.914   131192654.714       -2300.045          43.000                                                                  
C16  37174081.511   193575200.199          30.527          49.000    37174069.649   149684575.513          23.667          48.000  
C27  25301918.776   131753739.863        2758.092          40.000                                                                  
C19  25720964.732   133935818.378         266.268          41.000                                                                  
C09  37800985.333   196839653.541         195.608          45.000    37800970.175   152208846.610         151.269          48.000  
C11                                                                  27198241.185   109516045.669       -2004.914          43.000  
> 2025 10 28 08 29 24.0420000  0 24                     
G04  21663045.050   113840071.661         262.036          45.000    21663036.225    88706512.214         204.186          46.000  
G27  21690584.912   113984794.079        2396.385          46.000    21690576.735    88819292.077        1867.238          44.000  
G16  20671498.149   108629455.388        -386.391          47.000                                                                  
G08  23759163.219   124855266.082        3427.988          38.000    23759162.685    97289831.865        2670.826          39.000  
G09  23729781.839   124700853.631        2255.273          38.000    23729776.406    97169465.761        1757.284          40.000  
G31  22029620.593   115766435.780       -2129.988          46.000    22029609.928    90207564.336       -1659.608          44.000  
C06  36734970.641   191288616.908          30.867          47.000    36734952.964   147916434.420          23.809          48.000  
C32  26757572.037   139333604.712       -3569.900          39.000                                                                  
C37  22895423.575   119222481.255        -595.451          50.000                                                                  
C07  38339374.102   199643182.758         685.622          42.000    38339357.072   154376710.430         529.935          45.000  
C13  41833967.286   217840479.384       -2318.590          34.000    41834000.603   168448217.556       -1792.736          38.000  
C20  24682954.621   128530622.787       -2187.980          46.000                                                                  
G18  25333890.737   133130497.629         869.166          36.000    25333883.882   103738016.838         677.315          39.000  
G28  24240737.330   127385932.622       -3018.379          39.000    24240730.189    99261725.290       -2352.135          42.000  
G03  25757048.201   135354173.778       -3031.587          32.000    25757064.431   105470755.888       -2361.788          39.000  
G26  21824792.964   114690060.768       -2251.446          46.000    21824784.741    89368846.084       -1754.270          44.000  
C10  39403519.350   205184468.800         645.209          39.000    39403507.361   158661598.829         498.596          43.000  
C28  23839808.203   124140141.289        1341.436          47.000                                                                  
C23  25194186.580   131192746.741       -2300.830          43.000                                                                  
C16  37174081.280   193575198.987          29.989          49.000    37174069.423   149684574.583          23.094          48.000  
C27  25301897.591   131753629.549        2757.594          40.000                                                                  
C19  25720962.685   133935807.725         266.008          41.000                                                                  
C09  37800983.846   196839645.724         195.163          45.000    37800968.682   152208840.573         150.739          48.000  
C11                                                                  27198261.126   109516125.871       -2005.278          43.000  
> 2025 10 28 08 29 24.0820000  0 24                     
G04  21663043.046   113840061.129         262.620          45.000    21663034.221    88706504.004         204.702          46.000  
G27  21690566.662   113984698.164        2397.120          46.000    21690558.493    88819217.335        1867.948          44.000  
G16  20671501.079   108629470.771        -385.355          47.000                                                                  
G08  23759137.114   124855128.916        3428.720          38.000    23759136.592    97289724.978        2671.594          39.000  
G09  23729764.672   124700763.364        2256.093          38.000    23729759.226    97169395.426        1757.884          40.000  
G31  22029636.791   115766520.916       -2129.193          46.000    22029626.147    90207630.677       -1659.060          44.000  
C06  36734970.396   191288615.619          31.524          47.000    36734952.683   147916433.422          24.355          48.000  
C32  26757599.465   139333747.455       -3569.062          39.000                                                                  
C37  22895428.107   119222505.008        -594.537          50.000                                                                  
C07  38339368.824   199643155.281         686.339          42.000    38339351.800   154376689.174         530.785          45.000  
C13  41833985.075   217840572.036       -2317.229          34.000    41834018.418   168448289.220       -1792.038          38.000  
C20  24682971.410   128530710.245       -2187.213          46.000                                                                  
G18  25333884.121   133130462.785         870.225          36.000    25333877.251   103737989.694         678.009          39.000  
G28  24240760.301   127386053.312       -3017.806          39.000    24240753.141    99261819.312       -2351.120          42.000  
G03  25757071.268   135354294.976       -3030.808          32.000    25757087.499   105470850.314       -2361.147          39.000  
G26  21824810.095   114690150.763       -2250.678          46.000    21824801.876    89368916.214       -1753.822          44.000  
C10  39403514.411   205184442.951         645.905          39.000    39403502.415   158661578.843         499.286          43.000  
C28  23839797.904   124140087.584        1342.068          47.000                                                                  
C23  25194204.244   131192838.730       -2300.344          43.000                                                                  
C16  37174081.057   193575197.730          30.707          49.000    37174069.236   149684573.615          23.616          48.000  
C27  25301876.437   131753519.199        2758.153          40.000                                                                  
C19  25720960.632   133935797.053         266.413          41.000                                                                  
C09  37800982.339   196839637.851         196.105          45.000    37800967.178   152208834.487         151.532          48.000  
C11                                                                  27198281.031   109516206.044       -2004.781          43.000  
> 2025 10 28 08 29 24.1220000  0 24                     
G04  21663041.033   113840050.485         265.057          45.000    21663032.194    88706495.718         206.419          46.000  
G27  21690548.407   113984602.154        2399.352          46.000    21690540.225    88819142.514        1869.867          44.000  
G16  20671503.990   108629486.064        -383.025          47.000                                                                  
G08  23759110.991   124854991.675        3430.523          38.000    23759110.476    97289618.018        2673.475          39.000  
G09  23729747.458   124700672.965        2259.149          38.000    23729742.046    97169325.009        1759.782          40.000  
G31  22029652.995   115766605.945       -2126.710          46.000    22029642.341    90207696.943       -1657.307          44.000  
C06  36734970.099   191288614.231          33.775          47.000    36734952.369   147916432.353          25.998          48.000  
C32  26757626.855   139333890.095       -3566.625          39.000                                                                  
C37  22895432.622   119222528.665        -592.186          50.000                                                                  
C07  38339363.514   199643127.713         688.516          42.000    38339346.494   154376667.855         532.496          45.000  
C13  41834002.860   217840664.601       -2314.813          34.000    41834036.198   168448360.790       -1789.810          38.000  
C20  24682988.140   128530797.601       -2184.803          46.000                                                                  
G18  25333877.501   133130427.854         872.569          36.000    25333870.607   103737962.486         679.659          39.000  
G28  24240783.260   127386173.879       -3015.044          39.000    24240776.083    99261913.281       -2349.556          42.000  
G03  25757094.331   135354416.084       -3028.650          32.000    25757110.538   105470944.697       -2359.953          38.000  
G26  21824827.219   114690240.660       -2248.388          46.000    21824818.980    89368986.268       -1752.101          44.000  
C10  39403509.424   205184417.015         648.004          39.000    39403497.419   158661558.789         500.964          43.000  
C28  23839787.535   124140033.774        1344.459          47.000                                                                  
C23  25194221.881   131192930.614       -2298.016          43.000                                                                  
C16  37174080.793   193575196.374          32.979          49.000    37174068.982   149684572.568          25.425          48.000  
C27  25301855.237   131753408.739        2760.542          40.000                                                                  
C19  25720958.538   133935786.290         268.384          41.000                                                                  
C09  37800980.794   196839629.889         198.337          45.000    37800965.655   152208828.328         153.370          48.000  
C11                                                                  27198300.914   109516286.135       -2002.894          43.000  
> 2025 10 28 08 29 24.1620000  0 24                     
G04  21663039.019   113840039.801         266.996          45.000    21663030.143    88706487.384         208.124          46.000  
G27  21690530.128   113984506.093        2401.351          46.000    21690521.935    88819067.662        1871.316          44.000  
G16  20671506.876   108629501.318        -381.250          47.000                                                                  
G08  23759084.856   124854854.377        3432.355          38.000    23759084.357    97289511.040        2674.590          39.000  
G09  23729730.248   124700582.567        2260.379          38.000    23729724.854    97169254.564        1761.211          40.000  
G31  22029669.151   115766690.933       -2124.762          46.000    22029658.501    90207763.164       -1655.687          44.000  
C06  36734969.811   191288612.785          35.895          47.000    36734952.060   147916431.236          27.700          48.000  
C32  26757654.236   139334032.722       -3565.270          39.000                                                                  
C37  22895437.139   119222552.276        -590.247          50.000                                                                  
C07  38339358.214   199643100.102         690.322          42.000    38339341.183   154376646.501         533.934          45.000  
C13  41834020.626   217840757.152       -2313.451          34.000    41834053.957   168448432.357       -1788.796          38.000  
C20  24683004.891   128530884.898       -2182.625          46.000                                                                  
G18  25333870.815   133130392.854         874.872          37.000    25333863.940   103737935.217         681.393          39.000  
G28  24240806.194   127386294.433       -3013.513          39.000    24240798.998    99262007.220       -2348.324          42.000  
G03  25757117.351   135354537.101       -3025.987          32.000    25757133.575   105471039.027       -2358.473          39.000  
G26  21824844.316   114690330.498       -2246.189          46.000    21824836.086    89369056.270       -1750.289          44.000  
C10  39403504.410   205184391.037         649.670          39.000    39403492.406   158661538.695         502.460          43.000  
C28  23839777.190   124139979.933        1346.127          47.000                                                                  
C23  25194239.497   131193022.446       -2295.940          43.000                                                                  
C16  37174080.509   193575194.975          34.868          49.000    37174068.708   149684571.477          27.090          48.000  
C27  25301834.002   131753298.223        2762.697          40.000                                                                  
C19  25720956.433   133935775.452         270.646          41.000                                                                  
C09  37800979.253   196839621.881         200.213          45.000    37800964.081   152208822.127         154.952          48.000  
C11                                                                  27198320.766   109516366.190       -2001.324          43.000  
> 2025 10 28 08 29 24.2020000  0 24                     
G04  21663036.980   113840029.117         267.789          45.000    21663028.118    88706479.055         208.767          46.000  
G27  21690511.854   113984410.032        2402.185          46.000    21690503.649    88818992.803        1871.967          44.000  
G16  20671509.804   108629516.572        -380.597          47.000                                                                  
G08  23759058.699   124854717.064        3433.353          38.000    23759058.222    97289404.034        2675.506          38.000  
G09  23729713.029   124700492.181        2260.542          38.000    23729707.642    97169184.114        1761.852          40.000  
G31  22029685.325   115766775.929       -2124.139          46.000    22029674.678    90207829.392       -1655.107          44.000  
C06  36734969.531   191288611.348          36.658          47.000    36734951.755   147916430.113          28.544          48.000  
C32  26757681.613   139334175.338       -3564.695          39.000                                                                  
C37  22895441.671   119222575.893        -589.614          50.000                                                                  
C07  38339352.896   199643072.486         691.052          42.000    38339335.889   154376625.148         534.427          45.000  
C13  41834038.400   217840849.697       -2312.870          34.000    41834071.699   168448503.937       -1788.759          38.000  
C20  24683021.672   128530972.219       -2182.135          46.000                                                                  
G18  25333864.155   133130357.888         875.267          36.000    25333857.270   103737907.948         682.197          39.000  
G28  24240829.147   127386414.986       -3013.039          39.000    24240821.933    99262101.142       -2347.625          42.000  
G03  25757140.368   135354658.151       -3025.353          32.000    25757156.613   105471133.355       -2357.780          39.000  
G26  21824861.423   114690420.342       -2245.384          46.000    21824853.164    89369126.275       -1749.549          44.000  
C10  39403499.420   205184365.056         650.269          39.000    39403487.452   158661518.600         502.972          43.000  
C28  23839766.841   124139926.091        1346.750          47.000                                                                  
C23  25194257.113   131193114.273       -2295.045          43.000                                                                  
C16  37174080.244   193575193.570          35.734          49.000    37174068.475   149684570.381          27.900          48.000  
C27  25301812.794   131753187.722        2763.301          40.000                                                                  
C19  25720954.360   133935764.630         271.340          41.000                                                                  
C09  37800977.713   196839613.877         200.841          45.000    37800962.540   152208815.938         155.408          48.000  
C11                                                                  27198340.632   109516446.248       -2000.829          43.000  
> 2025 10 28 08 29 24.2420000  0 24                     
G04  21663034.939   113840018.451         267.593          45.000    21663026.095    88706470.751         208.425          46.000  
G27  21690493.580   113984313.997        2401.862          46.000    21690485.374    88818917.972        1871.612          44.000  
G16  20671512.711   108629531.847        -381.018          47.000                                                                  
G08  23759032.567   124854579.785        3432.946          38.000    23759032.100    97289297.051        2675.251          38.000  
G09  23729695.833   124700401.827        2259.679          38.000    23729690.425    97169113.684        1761.442          40.000  
G31  22029701.493   115766860.939       -2124.366          46.000    22029690.871    90207895.633       -1655.316          44.000  
C06  36734969.292   191288609.932          36.376          47.000    36734951.448   147916429.018          28.243          48.000  
C32  26757708.993   139334317.955       -3564.764          39.000                                                                  
C37  22895446.230   119222599.535        -590.096          50.000                                                                  
C07  38339347.595   199643044.885         690.839          42.000    38339330.563   154376603.805         534.236          45.000  
C13  41834056.156   217840942.270       -2313.468          34.000    41834089.479   168448575.513       -1788.978          38.000  
C20  24683038.460   128531059.566       -2182.667          46.000                                                                  
G18  25333857.495   133130322.940         874.839          36.000    25333850.611   103737880.722         681.625          39.000  
G28  24240852.070   127386535.543       -3013.289          39.000    24240844.884    99262195.092       -2348.058          42.000  
G03  25757163.399   135354779.220       -3025.743          32.000    25757179.657   105471227.679       -2357.623          38.000  
G26  21824878.497   114690510.215       -2245.785          46.000    21824870.275    89369196.308       -1749.910          44.000  
C10  39403494.445   205184339.102         649.707          39.000    39403482.465   158661498.528         502.429          43.000  
C28  23839756.505   124139872.275        1346.220          47.000                                                                  
C23  25194274.735   131193206.122       -2295.248          43.000                                                                  
C16  37174080.025   193575192.192          35.396          49.000    37174068.212   149684569.318          27.477          48.000  
C27  25301791.569   131753077.243        2762.936          40.000                                                                  
C19  25720952.289   133935753.818         271.190          41.000                                                                  
C09  37800976.202   196839605.897         200.380          45.000    37800961.006   152208809.766         155.073          48.000  
C11                                                                  27198360.495   109516526.337       -2001.503          43.000  
> 2025 10 28 08 29 24.2820000  0 24                     
G04  21663032.919   113840007.851         266.082          45.000    21663024.065    88706462.487         207.399          46.000  
G27  21690475.299   113984218.022        2400.426          46.000    21690467.101    88818843.180        1870.562          44.000  
G16  20671515.621   108629547.177        -382.496          47.000                                                                  
G08  23759006.450   124854442.542        3431.823          38.000    23759005.996    97289190.140        2673.588          38.000  
G09  23729678.642   124700311.471        2259.193          38.000    23729673.231    97169043.297        1760.290          40.000  
G31  22029717.662   115766946.005       -2125.720          46.000    22029707.058    90207961.916       -1656.285          44.000  
C06  36734969.046   191288608.567          35.095          47.000    36734951.148   147916427.968          27.077          48.000  
C32  26757736.421   139334460.645       -3566.305          39.000                                                                  
C37  22895450.797   119222623.225        -591.430          50.000                                                                  
C07  38339342.304   199643017.337         689.603          42.000    38339325.276   154376582.507         533.116          45.000  
C13  41834073.949   217841034.856       -2314.196          34.000    41834107.301   168448647.107       -1789.512          38.000  
C20  24683055.276   128531146.959       -2183.967          46.000                                                                  
G18  25333850.847   133130288.047         873.434          36.000    25333843.984   103737853.549         680.145          39.000  
G28  24240875.032   127386656.163       -3014.755          39.000    24240867.848    99262289.073       -2349.010          42.000  
G03  25757186.443                       -3027.388          32.000    25757202.722   105471322.043       -2358.431          38.000  
G26  21824895.601   114690600.136       -2247.068          46.000    21824887.382    89369266.370       -1750.827          44.000  
C10  39403489.488   205184313.199         648.285          39.000    39403477.462   158661478.481         501.581          43.000  
C28  23839746.218   124139818.497        1345.081          47.000                                                                  
C23  25194292.375   131193298.042       -2296.964          43.000                                                                  
C16  37174079.805   193575190.857          34.233          49.000    37174067.979   149684568.290          26.409          48.000  
C27  25301770.373   131752966.810        2761.677          40.000                                                                  
C19  25720950.239   133935743.078         269.579          41.000                                                                  
C09  37800974.658   196839597.967         199.066          45.000    37800959.527   152208803.638         153.883          48.000  
C11                                                                  27198380.400   109516606.449       -2002.386          43.000  
> 2025 10 28 08 29 24.3220000  0 24                     
G04  21663030.892   113839997.242         265.340          45.000    21663022.046    88706454.219         206.825          46.000  
G27  21690457.051   113984122.030        2399.872          46.000    21690448.842    88818768.389        1869.888          44.000  
G16  20671518.514   108629562.495        -383.098          47.000                                                                  
G08  23758980.332   124854305.284        3431.407          38.000    23758979.906    97289083.204        2673.204          38.000  
G09  23729661.453   124700221.137        2258.491          38.000    23729656.029    97168972.902        1759.739          40.000  
G31  22029733.834   115767031.069       -2126.450          47.000    22029723.260    90208028.206       -1657.043          44.000  
C06  36734968.781   191288607.198          34.396          47.000    36734950.879   147916426.917          26.427          48.000  
C32  26757763.807   139334603.306       -3566.699          39.000                                                                  
C37  22895455.346   119222646.907        -592.021          50.000                                                                  
C07  38339336.990   199642989.786         688.851          42.000    38339319.975   154376561.203         532.596          45.000  
C13  41834091.732   217841127.455       -2314.949          34.000    41834125.088   168448718.707       -1789.871          38.000  
C20  24683072.058   128531234.352       -2184.683          46.000                                                                  
G18  25333844.204   133130253.140         872.716          36.000    25333837.358   103737826.356         679.671          39.000  
G28  24240897.991   127386776.759       -3015.078          39.000    24240890.788    99262383.052       -2349.502          42.000  
G03  25757209.499   135355021.459       -3027.690          32.000    25757225.783   105471416.414       -2359.092          38.000  
G26  21824912.704   114690690.062       -2247.925          46.000    21824904.490    89369336.443       -1751.564          44.000  
C10  39403484.512   205184287.293         647.626          39.000    39403472.476   158661458.450         500.812          43.000  
C28  23839735.865   124139764.720        1344.419          47.000                                                                  
C23  25194310.046   131193389.954       -2297.781          43.000                                                                  
C16  37174079.575   193575189.525          33.472          49.000    37174067.744   149684567.261          25.828          48.000  
C27  25301749.140   131752856.388        2760.853          40.000                                                                  
C19  25720948.163   133935732.344         268.541          41.000                                                                  
C09  37800973.143   196839590.024         198.552          45.000    37800957.969   152208797.500         153.393          48.000  
C11                                                                  27198400.287   109516686.558       -2002.828          43.000  
> 2025 10 28 08 29 24.3620000  0 24                     
G04  21663028.897   113839986.673         264.283          45.000    21663020.038    88706445.992         205.755          46.000  
G27  21690438.792   113984026.083        2398.781          46.000    21690430.575    88818693.629        1869.016          44.000  
G16  20671521.440   108629577.866        -384.284          47.000                                                                  
G08  23758954.226   124854168.109        3429.612          38.000    23758953.811    97288976.304        2672.370          38.000  
G09  23729644.260   124700130.841        2257.465          38.000    23729638.842    97168902.548        1758.756          40.000  
G31  22029750.017   115767116.176       -2127.607          46.000    22029739.456    90208094.518       -1657.802          44.000  
C06  36734968.533   191288605.876          33.192          47.000    36734950.618   147916425.893          25.609          48.000  
C32  26757791.218   139334746.022       -3567.832          39.000                                                                  
C37  22895459.901   119222670.634        -593.144          50.000                                                                  
C07  38339331.692   199642962.284         687.643          42.000    38339314.688   154376539.944         531.543          45.000  
C13  41834109.522   217841220.117       -2316.423          34.000    41834142.886   168448790.353       -1790.976          38.000  
C20  24683088.843   128531321.774       -2185.589          46.000                                                                  
G18  25333837.592   133130218.298         871.212          36.000    25333830.712   103737799.180         679.152          39.000  
G28  24240920.955   127386897.405       -3016.092          39.000    24240913.761    99262477.063       -2350.319          42.000  
G03  25757232.536   135355142.627       -3028.969          32.000    25757248.837   105471510.842       -2360.414          39.000  
G26  21824929.844   114690780.024       -2248.987          46.000    21824921.603    89369406.542       -1752.424          44.000  
C10  39403479.542   205184261.404         647.046          39.000    39403467.500   158661438.442         500.043          43.000  
C28  23839725.530   124139710.979        1343.449          47.000                                                                  
C23  25194327.667   131193481.892       -2298.625          43.000                                                                  
C16  37174079.328   193575188.236          32.327          49.000    37174067.487   149684566.265          24.928          48.000  
C27  25301727.949   131752745.998        2759.803          40.000                                                                  
C19  25720946.104   133935721.637         267.515          41.000                                                                  
C09  37800971.611   196839582.128         197.445          45.000    37800956.479   152208791.402         152.460          48.000  
C11                                                                  27198420.213   109516766.703       -2003.658          43.000  
> 2025 10 28 08 29 24.4020000  0 24                     
G04  21663026.889   113839976.127         263.453          45.000    21663018.054    88706437.779         205.091          46.000  
G27  21690420.543   113983930.158        2397.969          46.000    21690412.336    88818618.891        1868.283          44.000  
G16  20671524.351   108629593.240        -384.719          47.000                                                                  
G08  23758928.127   124854030.924        3429.139          38.000    23758927.739    97288869.404        2672.139          38.000  
G09  23729627.080   124700040.559        2256.792          38.000    23729621.687    97168832.203        1758.309          40.000  
G31  22029766.213   115767201.299       -2128.329          46.000    22029755.670    90208160.852       -1658.470          44.000  
C06  36734968.299   191288604.572          32.378          47.000    36734950.367   147916424.879          25.142          48.000  
C32  26757818.634   139334888.744       -3568.378          39.000                                                                  
C37  22895464.446   119222694.375        -593.775          50.000                                                                  
C07  38339326.432   199642934.791         687.018          42.000    38339309.420   154376518.680         531.219          45.000  
C13  41834127.337   217841312.799       -2317.345          34.000    41834160.662   168448862.013       -1791.675          38.000  
C20  24683105.667   128531409.227       -2186.464          46.000                                                                  
G18  25333830.975   133130183.455         870.638          36.000    25333824.100   103737772.021         678.736          39.000  
G28  24240943.908   127387018.070       -3016.807          39.000    24240936.723    99262571.086       -2350.800          42.000  
G03  25757255.613                       -3029.901          32.000    25757271.880   105471605.263       -2360.891          39.000  
G26  21824946.969   114690870.008       -2249.803          46.000    21824938.728    89369476.664       -1753.146          44.000  
C10  39403474.596   205184235.523         646.796          39.000    39403462.544   158661418.442         499.731          43.000  
C28  23839715.227   124139657.245        1343.034          47.000                                                                  
C23  25194345.307   131193573.856       -2299.397          43.000                                                                  
C16  37174079.109   193575186.961          31.631          49.000    37174067.270   149684565.283          24.338          48.000  
C27  25301706.756   131752635.633        2758.988          40.000                                                                  
C19  25720944.056   133935710.937         267.056          41.000                                                                  
C09  37800970.103   196839574.246         196.788          45.000    37800954.994   152208785.306         152.067          48.000  
C11                                                                  27198440.119   109516846.846       -2003.930          43.000  
> 2025 10 28 08 29 24.4420000  0 24                     
G04  21663024.858   113839965.507         264.499          45.000    21663016.038    88706429.506         205.935          46.000  
G27  21690402.303   113983834.169        2398.819          46.000    21690394.064    88818544.098        1869.052          44.000  
G16  20671527.287   108629608.544        -383.483          47.000                                                                  
G08  23758901.980   124853893.680        3430.186          38.000    23758901.622    97288762.434        2673.479          38.000  
G09  23729609.899   124699950.190        2258.292          38.000    23729604.517    97168761.805        1759.261          40.000  
G31  22029782.412   115767286.355       -2127.333          47.000    22029771.850    90208227.128       -1657.643          44.000  
C06  36734968.027   191288603.190          33.535          47.000    36734950.057   147916423.811          25.983          48.000  
C32  26757846.013   139335031.394       -3567.147          39.000                                                                  
C37  22895468.954   119222718.048        -592.699          50.000                                                                  
C07  38339321.143   199642907.231         688.058          42.000    38339304.149   154376497.365         532.178          45.000  
C13  41834145.107                       -2315.297          34.000    41834178.441   168448933.618       -1790.816          38.000  
C20  24683122.448   128531496.604       -2185.384          46.000                                                                  
G18  25333824.316   133130148.554         871.520          36.000    25333817.468   103737744.821         679.429          39.000  
G28  24240966.860   127387138.666       -3015.678          39.000    24240959.662    99262665.065       -2350.074          41.000  
G03  25757278.663                       -3028.195          32.000    25757294.923   105471699.634       -2360.063          39.000  
G26  21824964.091   114690959.914       -2248.649          46.000    21824955.853    89369546.725       -1752.357          44.000  
C10  39403469.617   205184209.576         648.010          39.000    39403457.537   158661398.396         500.604          43.000  
C28  23839704.902   124139603.466        1343.828          47.000                                                                  
C23  25194362.980   131193665.742       -2298.146          43.000                                                                  
C16  37174078.873   193575185.612          32.750          49.000    37174067.015   149684564.240          25.245          48.000  
C27  25301685.521   131752525.164        2760.583          40.000                                                                  
C19  25720941.963   133935700.164         268.361          41.000                                                                  
C09  37800968.557   196839566.289         197.979          45.000    37800953.495   152208779.155         153.026          48.000  
C11                                                                  27198459.985   109516926.954       -2003.254          43.000  
> 2025 10 28 08 29 24.4820000  0 24                     
G04  21663022.837   113839954.891         265.036          45.000    21663013.995    88706421.231         206.481          46.000  
G27  21690384.034   113983738.174        2399.441          46.000    21690375.779    88818469.291        1869.751          44.000  
G16  20671530.220   108629623.870        -383.211          47.000                                                                  
G08  23758875.840   124853756.421        3431.068          38.000    23758875.520    97288655.489        2673.622          38.000  
G09  23729592.693   124699859.870        2258.156          38.000    23729587.326    97168691.428        1759.365          40.000  
G31  22029798.602   115767371.416       -2126.846          47.000    22029788.025    90208293.409       -1657.283          44.000  
C06  36734967.760   191288601.808          34.202          47.000    36734949.766   147916422.745          26.399          48.000  
C32  26757873.419   139335174.079       -3567.144          39.000                                                                  
C37  22895473.518   119222741.728        -592.250          50.000                                                                  
C07  38339315.849   199642879.676         688.667          42.000    38339298.844   154376476.060         532.509          45.000  
C13  41834162.881   217841497.939       -2314.749          34.000    41834196.195   168449005.219       -1790.281          38.000  
C20  24683139.228   128531583.988       -2184.889          46.000                                                                  
G18  25333817.661   133130113.633         872.379          36.000    25333810.833   103737717.617         679.877          39.000  
G28  24240989.818   127387259.287       -3015.556          39.000    24240982.610    99262759.043       -2349.680          42.000  
G03  25757301.688                       -3027.958          32.000    25757317.966   105471793.995       -2359.328          39.000  
G26  21824981.180   114691049.825       -2248.082          46.000    21824972.955    89369616.788       -1751.875          44.000  
C10  39403464.648   205184183.677         647.656          39.000    39403452.532   158661378.337         501.263          43.000  
C28  23839694.580   124139549.686        1344.326          47.000                                                                  
C23  25194380.613   131193757.640       -2297.676          43.000                                                                  
C16  37174078.615   193575184.275          33.167          49.000    37174066.786   149684563.206          25.653          48.000  
C27  25301664.298   131752414.731        2760.863          40.000                                                                  
C19  25720939.898   133935689.413         268.669          41.000                                                                  
C09  37800967.013   196839558.334         198.627          45.000    37800951.972   152208773.004         153.559          48.000  
C11                                                                  27198479.870   109517007.074       -2003.112          43.000  
> 2025 10 28 08 29 24.5220000  0 24                     
G04  21663020.832   113839944.296         264.974          45.000    21663011.957    88706412.959         206.777          46.000  
G27  21690365.784   113983642.200        2399.426          46.000    21690357.510    88818394.500        1869.884          44.000  
G16  20671533.144   108629639.203        -383.228          47.000                                                                  
G08  23758849.724   124853619.181        3431.238          38.000    23758849.403    97288548.562        2673.312          38.000  
G09  23729575.503   124699769.541        2258.262          38.000    23729570.139    97168621.024        1759.930          40.000  
G31  22029814.783   115767456.483       -2126.666          46.000    22029804.226    90208359.693       -1657.079          44.000  
C06  36734967.519   191288600.448          34.166          47.000    36734949.518   147916421.683          26.567          48.000  
C32  26757900.833   139335316.761       -3567.026          39.000                                                                  
C37  22895478.103   119222765.414        -592.098          50.000                                                                  
C07  38339310.525   199642852.121         688.878          42.000    38339293.582   154376454.760         532.559          45.000  
C13  41834180.668                       -2315.372          34.000    41834213.955   168449076.819       -1789.980          38.000  
C20  24683155.974   128531671.382       -2184.797          46.000                                                                  
G18  25333811.027   133130078.733         872.541          36.000    25333804.185   103737690.410         680.157          39.000  
G28  24241012.787   127387379.909       -3015.520          39.000    24241005.567    99262853.032       -2349.657          41.000  
G03  25757324.765   135355627.154       -3027.895          32.000    25757341.005   105471888.370       -2359.275          39.000  
G26  21824998.273   114691139.753       -2248.059          46.000    21824990.083    89369686.857       -1751.714          44.000  
C10  39403459.676   205184157.770         647.607          39.000    39403447.566   158661358.302         501.123          43.000  
C28  23839684.275   124139495.913        1344.396          47.000                                                                  
C23  25194398.251   131193849.541       -2297.482          43.000                                                                  
C16  37174078.397   193575182.945          33.313          49.000    37174066.550   149684562.171          25.892          48.000  
C27  25301643.067   131752304.298        2760.972          40.000                                                                  
C19  25720937.835   133935678.668         268.730          41.000                                                                  
C09  37800965.455   196839550.400         198.574          45.000    37800950.451   152208766.867         153.586          48.000  
C11                                                                  27198499.740   109517087.190       -2002.940          43.000  
> 2025 10 28 08 29 24.5620000  0 24                     
G04  21663018.845   113839933.714         264.653          45.000    21663009.952    88706404.715         206.364          46.000  
G27  21690347.532   113983546.246        2398.975          46.000    21690339.241    88818319.730        1869.450          44.000  
G16  20671536.075   108629654.564        -383.843          47.000                                                                  
G08  23758823.589   124853481.993        3430.142          38.000    23758823.302    97288441.672        2672.390          38.000  
G09  23729558.326   124699679.249        2257.480          38.000    23729552.958    97168550.664        1759.219          40.000  
G31  22029830.983   115767541.571       -2127.067          46.000    22029820.419    90208426.000       -1657.477          44.000  
C06  36734967.267   191288599.104          33.751          47.000    36734949.249   147916420.649          26.089          48.000  
C32  26757928.237   139335459.457       -3567.391          39.000                                                                  
C37  22895482.640   119222789.132        -592.711          50.000                                                                  
C07  38339305.234   199642824.611         688.048          42.000    38339288.301   154376433.485         532.084          45.000  
C13  41834198.483                       -2316.466          34.000    41834231.763   168449148.460       -1790.714          38.000  
C20  24683172.762   128531758.793       -2185.133          46.000                                                                  
G18  25333804.400   133130043.867         871.927          36.000    25333797.549   103737663.241         679.520          39.000  
G28  24241035.760   127387500.563       -3016.200          39.000    24241028.517    99262947.043       -2350.145          41.000  
G03  25757347.835                       -3028.589          32.000    25757364.054   105471982.780       -2359.940          39.000  
G26  21825015.402   114691229.696       -2248.422          46.000    21825007.193    89369756.946       -1752.027          44.000  
C10  39403454.716   205184131.888         647.083          39.000    39403442.578   158661338.293         500.433          43.000  
C28  23839673.934   124139442.180        1343.564          47.000                                                                  
C23  25194415.903   131193941.470       -2297.982          43.000                                                                  
C16  37174078.162   193575181.638          32.861          49.000    37174066.274   149684561.162          25.431          48.000  
C27  25301621.864   131752193.903        2760.197          40.000                                                                  
C19  25720935.740   133935667.941         268.352          41.000                                                                  
C09  37800963.963   196839542.503         197.732          45.000    37800948.936   152208760.755         153.026          48.000  
C11                                                                  27198519.644   109517167.333       -2003.453          43.000  
> 2025 10 28 08 29 24.6020000  0 24                     
G04  21663016.869   113839923.353         260.359          45.000    21663007.990    88706396.638         203.013          46.000  
G27  21690329.314   113983450.510        2394.729          46.000    21690321.016    88818245.133        1865.972          44.000  
G16  20671539.029   108629670.130        -388.100          47.000                                                                  
G08  23758797.553   124853345.020        3425.543          38.000    23758797.212    97288334.910        2669.592          38.000  
G09  23729541.162   124699589.156        2253.194          38.000    23729535.804    97168480.443        1756.183          40.000  
G31  22029847.227   115767626.884       -2131.422          46.000    22029836.631    90208492.470       -1660.718          44.000  
C06  36734967.054   191288597.977          29.512          47.000    36734949.025   147916419.770          22.917          48.000  
C32  26757955.703   139335602.367       -3571.722          39.000                                                                  
C37  22895487.182   119222813.068        -597.173          50.000                                                                  
C07  38339299.985   199642797.319         683.420          42.000    38339283.045   154376412.367         528.799          45.000  
C13  41834216.330                       -2320.162          34.000    41834249.575   168449220.267       -1794.398          38.000  
C20  24683189.583   128531846.429       -2189.516          46.000                                                                  
G18  25333797.800   133130009.207         867.675          36.000    25333790.972   103737636.263         675.613          39.000  
G28  24241058.738   127387621.415       -3020.445          39.000    24241051.517    99263041.239       -2354.034          41.000  
G03  25757370.910                       -3032.892          32.000    25757387.153   105472077.359       -2363.526          38.000  
G26  21825032.560   114691319.856       -2252.613          46.000    21825024.332    89369827.183       -1754.988          44.000  
C10  39403449.767   205184106.222         642.542          39.000    39403437.652   158661318.434         497.144          43.000  
C28  23839663.646   124139388.648        1339.261          47.000                                                                  
C23  25194433.594   131194033.627       -2302.510          43.000                                                                  
C16  37174077.956   193575180.537          28.760          49.000    37174066.073   149684560.312          22.200          48.000  
C27  25301600.707   131752083.719        2755.816          40.000                                                                  
C19  25720933.684   133935657.447         263.794          41.000                                                                  
C09  37800962.507   196839534.806         193.472          45.000    37800947.456   152208754.791         149.889          48.000  
C11                                                                  27198539.581   109517247.623       -2006.571          43.000  
> 2025 10 28 08 29 24.6420000  0 24                     
G04  21663014.936   113839913.085         256.795          45.000    21663006.049    88706388.641         200.024          46.000  
G27  21690311.122   113983354.857        2391.305          46.000    21690302.821    88818170.589        1863.398          44.000  
G16  20671542.001   108629685.760        -391.207          47.000                                                                  
G08  23758771.518   124853208.083        3422.763          38.000    23758771.166    97288228.222        2667.069          38.000  
G09  23729524.054   124699499.167        2249.487          38.000    23729518.679    97168410.325        1753.000          40.000  
G31  22029863.510   115767712.267       -2134.727          46.000    22029852.913    90208559.014       -1663.607          44.000  
C06  36734966.869   191288596.934          26.066          47.000    36734948.817   147916418.966          20.130          48.000  
C32  26757983.173   139335745.349       -3574.909          39.000                                                                  
C37  22895491.770   119222837.070        -600.402          50.000                                                                  
C07  38339294.756   199642770.078         680.482          42.000    38339277.810   154376391.304         526.285          45.000  
C13  41834234.191                       -2322.919          34.000    41834267.436   168449292.112       -1796.574          38.000  
C20  24683206.443   128531934.148       -2192.975          46.000                                                                  
G18  25333791.228   133129974.631         864.223          36.000    25333784.392   103737609.304         673.412          39.000  
G28  24241081.798   127387742.333       -3023.458          39.000    24241074.553    99263135.451       -2356.008          41.000  
G03  25757394.009                       -3035.683          32.000    25757410.266   105472171.976       -2365.840          38.000  
G26  21825049.743   114691410.110       -2256.220          46.000    21825041.533    89369897.508       -1757.901          44.000  
C10  39403444.858   205184080.605         639.703          39.000    39403432.756   158661298.628         494.781          43.000  
C28  23839653.401   124139335.179        1336.244          47.000                                                                  
C23  25194451.330   131194125.860       -2305.978          43.000                                                                  
C16  37174077.803   193575179.526          25.288          49.000    37174065.911   149684559.529          19.507          48.000  
C27  25301579.591   131751973.598        2752.732          40.000                                                                  
C19  25720931.698   133935647.013         260.540          41.000                                                                  
C09  37800961.047   196839527.186         190.211          45.000    37800946.003   152208748.907         147.076          48.000  
C11                                                                  27198559.573   109517327.985       -2009.269          43.000  
> 2025 10 28 08 29 24.6820000  0 24                     
G04  21663012.970   113839902.824         255.157          45.000    21663004.128    88706380.664         198.436          46.000  
G27  21690292.909   113983259.226        2389.521          46.000    21690284.628    88818096.074        1861.928          44.000  
G16  20671544.990   108629701.432        -392.977          47.000                                                                  
G08  23758745.476   124853071.176        3421.377          38.000    23758745.111    97288121.544        2665.979          38.000  
G09  23729506.951   124699409.135        2249.099          38.000    23729501.573    97168340.202        1751.807          40.000  
G31  22029879.761   115767797.679       -2136.519          46.000    22029869.195    90208625.575       -1665.050          44.000  
C06  36734966.689   191288595.908          24.330          47.000    36734948.596   147916418.183          18.635          48.000  
C32  26758010.638   139335888.355       -3576.487          39.000                                                                  
C37  22895496.424   119222861.086        -601.789          50.000                                                                  
C07  38339289.537   199642742.850         679.274          42.000    38339272.573   154376370.267         524.949          46.000  
C13  41834252.032                       -2323.743          34.000    41834285.260   168449363.964       -1797.377          38.000  
C20  24683223.294   128532021.882       -2194.645          46.000                                                                  
G18  25333784.673   133129940.082         862.383          36.000    25333777.829   103737582.384         672.000          39.000  
G28  24241104.825   127387863.276       -3024.853          39.000    24241097.560    99263229.688       -2356.995          41.000  
G03  25757417.124                       -3037.428          32.000    25757433.393   105472266.621       -2367.149          38.000  
G26  21825066.925   114691500.375       -2257.917          46.000    21825058.737    89369967.858       -1759.615          44.000  
C10  39403439.953   205184055.016         638.379          39.000    39403427.838   158661278.853         493.445          43.000  
C28  23839643.132   124139281.734        1334.854          47.000                                                                  
C23  25194469.027   131194218.098       -2307.389          43.000                                                                  
C16  37174077.645   193575178.539          23.451          49.000    37174065.724   149684558.771          18.011          48.000  
C27  25301558.439   131751863.504        2751.067          40.000                                                                  
C19  25720929.703   133935636.607         258.873          41.000                                                                  
C09  37800959.576   196839519.578         188.831          45.000    37800944.565   152208743.038         145.718          48.000  
C11                                                                  27198579.524   109517408.366       -2010.563          43.000  
> 2025 10 28 08 29 24.7220000  0 24                     
G04  21663010.981   113839892.428         257.407          45.000    21663002.146    88706372.550         200.647          46.000  
G27  21690274.694   113983163.457        2391.756          46.000    21690266.393    88818021.461        1863.502          44.000  
G16  20671547.956   108629716.953        -390.316          47.000                                                                  
G08  23758719.420                        3423.840          38.000    23758719.008    97288014.765        2667.890          38.000  
G09  23729489.752                        2252.015          38.000    23729484.412    97168269.943        1754.482          40.000  
G31  22029895.993   115767882.960       -2134.432          47.000    22029885.426    90208692.022       -1663.165          44.000  
C06  36734966.459   191288594.743          26.615          47.000    36734948.370   147916417.283          20.447          48.000  
C32  26758038.093                       -3573.829          39.000                                                                  
C37  22895501.022   119222884.964        -599.264          50.000                                                                  
C07  38339284.274                         681.705          42.000    38339267.343   154376349.117         526.966          46.000  
C13  41834269.837                       -2321.972          34.000    41834303.114   168449435.710       -1795.206          38.000  
C20  24683240.089   128532109.473       -2192.309          46.000                                                                  
G18  25333778.062                         864.753          36.000    25333771.228   103737555.352         673.837          39.000  
G28  24241127.810   127387984.080       -3022.238          39.000    24241120.559    99263323.809       -2354.742          41.000  
G03  25757440.192                       -3035.578          32.000    25757456.481   105472361.153       -2365.143          39.000  
G26  21825084.098   114691590.512       -2255.823          46.000    21825075.880    89370038.103       -1758.079          44.000  
C10  39403435.033                         641.553          39.000    39403422.894   158661258.947         495.874          43.000  
C28  23839632.843   124139228.149        1337.483          47.000                                                                  
C23  25194486.733                       -2305.005          43.000                                                                  
C16  37174077.461   193575177.404          25.861          49.000    37174065.503   149684557.894          19.933          48.000  
C27  25301537.269                        2753.434          40.000                                                                  
C19  25720927.668                         261.138          41.000                                                                  
C09  37800958.075                         191.569          45.000    37800943.059   152208737.042         147.922          48.000  
C11                                                                  27198599.480   109517488.622       -2008.229          43.000  
> 2025 10 28 08 29 24.7620000  0 24                     
G04  21663008.928                         262.419          45.000    21663000.110    88706364.308         204.337          46.000  
G27  21690256.412                        2396.951          46.000    21690248.126    88817946.671        1867.706          44.000  
G16  20671550.861                        -385.590          47.000                                                                  
G08  23758693.287                        3428.914          38.000    23758692.852                        2672.037          38.000  
G09  23729472.553                        2255.361          38.000    23729467.204                        1757.823          40.000  
G31  22029912.166                       -2129.282          47.000    22029901.598    90208758.308       -1658.977          44.000  
C06  36734966.188                          31.592          47.000    36734948.116   147916416.233          24.357          48.000  
C32  26758065.514                       -3568.941          39.000                                                                  
C37  22895505.547                        -594.368          50.000                                                                  
C07  38339278.998                         686.655          42.000    38339262.043   154376327.832         530.721          45.000  
C13  41834287.630                       -2317.436          34.000    41834320.876                       -1792.396          38.000  
C20  24683256.880                       -2187.390          46.000                                                                  
G18  25333771.420                         870.106          36.000    25333764.560   103737528.176         677.624          39.000  
G28  24241150.755                       -3017.312          39.000    24241143.502    99263417.828       -2351.433          41.000  
G03  25757463.209                       -3030.325          32.000    25757479.523                       -2361.267          38.000  
G26  21825101.179                       -2250.715          46.000    21825092.993    89370108.187       -1754.050          44.000  
C10  39403430.039                         645.953          39.000    39403417.900   158661238.926         499.512          43.000  
C28  23839622.505                        1342.227          47.000                                                                  
C23  25194504.382                       -2300.074          43.000                                                                  
C16  37174077.226                          30.857          49.000    37174065.257   149684556.872          23.779          48.000  
C27  25301516.064                        2758.460          40.000                                                                  
C19  25720925.619                         266.266          41.000                                                                  
C09  37800956.574                         196.106          45.000    37800941.514   152208730.916         151.654          48.000  
C11                                                                  27198619.392   109517568.750       -2004.414          43.000  
> 2025 10 28 08 29 24.8020000  0 24                     
G04  21663006.871                         266.633          45.000    21662998.091                         207.681          46.000  
G27  21690238.104                        2401.243          46.000    21690229.857                        1870.731          44.000  
G16  20671553.746                        -381.296          47.000                                                                  
G08  23758667.164                        3432.871          38.000    23758666.713                        2674.883          38.000  
G09  23729455.339                        2260.087          38.000    23729449.989                        1760.939          40.000  
G31  22029928.326                       -2124.871          47.000    22029917.765                       -1655.493          44.000  
C06  36734965.900                          36.007          47.000    36734947.821   147916415.109          27.745          48.000  
C32  26758092.892                       -3564.218          39.000                                                                  
C37  22895510.051                        -590.320          50.000                                                                  
C07  38339273.664                         690.403          42.000    38339256.741   154376306.475         533.936          45.000  
C13  41834305.363                       -2313.265          34.000    41834338.616                       -1788.752          38.000  
C20  24683273.621                       -2183.258          46.000                                                                  
G18  25333764.726                         874.583          37.000    25333757.888                         681.057          39.000  
G28  24241173.682                       -3013.559          39.000    24241166.431    99263511.754       -2348.210          41.000  
G03  25757486.257                       -3025.996          32.000    25757502.531                       -2358.139          39.000  
G26  21825118.261                       -2246.348          46.000    21825110.081                       -1750.082          44.000  
C10  39403425.039                         650.262          39.000    39403412.924                         502.802          43.000  
C28  23839612.119                        1346.187          47.000                                                                  
C23  25194522.000                       -2295.715          43.000                                                                  
C16  37174076.955                          35.028          49.000    37174064.975   149684555.782          27.028          48.000  
C27  25301494.811                        2762.480          40.000                                                                  
C19  25720923.513                         270.340          41.000                                                                  
C09  37800954.996                         200.019          45.000    37800939.956   152208724.717         154.927          48.000  
C11                                                                  27198639.236                       -2001.538          43.000  
> 2025 10 28 08 29 24.8420000  0 24                     
G04  21663004.812                         269.483          45.000    21662996.041    88706347.602         210.313          46.000  
G27  21690219.816                        2404.088          46.000    21690211.533    88817796.914        1873.525          44.000  
G16  20671556.606                        -378.757          47.000                                                                  
G08  23758641.025                        3435.537          38.000    23758640.544                        2676.838          38.000  
G09  23729438.106                        2263.052          38.000    23729432.750                        1763.307          40.000  
G31  22029944.493                       -2122.024          47.000    22029933.916    90208890.695       -1653.351          44.000  
C06  36734965.596                          38.911          47.000    36734947.519   147916413.930          30.192          48.000  
C32  26758120.252                       -3562.035          39.000                                                                  
C37  22895514.572                        -587.606          50.000                                                                  
C07  38339268.333                         693.275          42.000    38339251.400   154376285.056         536.309          45.000  
C13  41834323.099                       -2310.534          34.000    41834356.382                       -1786.448          38.000  
C20  24683290.359                       -2180.281          46.000                                                                  
G18  25333758.044                         876.755          37.000    25333751.199                         683.837          39.000  
G28  24241196.590                       -3010.793          39.000    24241189.335    99263605.629       -2346.050          41.000  
G03  25757509.261                       -3023.953          32.000    25757525.552                       -2355.763          38.000  
G26  21825135.347                       -2243.276          46.000    21825127.156    89370248.120       -1747.932          44.000  
C10  39403420.024                         652.277          39.000    39403407.915   158661198.681         504.596          43.000  
C28  23839601.762                        1348.867          47.000                                                                  
C23  25194539.584                       -2293.004          43.000                                                                  
C16  37174076.668                          38.025          49.000    37174064.643   149684554.629          29.489          48.000  
C27  25301473.546                        2765.305          40.000                                                                  
C19  25720921.442                         273.123          41.000                                                                  
C09  37800953.442                         203.091          45.000    37800938.404   152208718.463         157.187          48.000  
C11                                                                  27198659.094   109517728.833       -1999.407          43.000  
> 2025 10 28 08 29 24.8820000  0 24                     
G04  21663002.781                         270.375          45.000    21662993.957    88706339.220         211.069          46.000  
G27  21690201.528                        2404.940          46.000    21690193.240    88817722.007        1874.240          44.000  
G16  20671559.467                        -377.723          47.000                                                                  
G08  23758614.885                        3436.181          38.000    23758614.388                        2677.306          38.000  
G09  23729420.872                        2263.644          38.000    23729415.537                        1763.974          40.000  
G31  22029960.644                       -2121.321          47.000    22029950.053    90208956.871       -1652.804          44.000  
C06  36734965.322                          39.896          47.000    36734947.239   147916412.756          30.874          48.000  
C32  26758147.638                       -3562.032          39.000                                                                  
C37  22895519.107                        -586.969          50.000                                                                  
C07  38339263.014                         694.304          42.000    38339246.066   154376263.638         536.932          45.000  
C13  41834340.841                       -2309.810          34.000    41834374.147                       -1785.638          38.000  
C20  24683307.126                       -2179.257          46.000                                                                  
G18  25333751.375                         877.747          37.000    25333744.497                         684.372          39.000  
G28  24241219.507                       -3010.128          39.000    24241212.244    99263699.508       -2345.627          41.000  
G03  25757532.269                       -3022.169          32.000    25757548.556                       -2354.981          38.000  
G26  21825152.400                       -2242.371          46.000    21825144.210    89370318.073       -1747.276          44.000  
C10  39403415.004                         653.003          39.000    39403402.957                         504.944          43.000  
C28  23839591.446                        1349.354          47.000                                                                  
C23  25194557.210                       -2292.157          43.000                                                                  
C16  37174076.435                          38.894          49.000    37174064.344   149684553.478          30.225          48.000  
C27  25301452.312                        2766.309          40.000                                                                  
C19  25720919.342                         274.134          41.000                                                                  
C09  37800951.915                         203.864          45.000    37800936.825   152208712.211         157.739          48.000  
C11                                                                  27198678.955   109517808.840       -1998.842          43.000  
> 2025 10 28 08 29 24.9220000  0 24                     
G04  21663000.720                         269.661          45.000    21662991.914                         209.792          46.000  
G27  21690183.237                        2403.759          46.000    21690174.953                        1873.264          44.000  
G16  20671562.343                        -379.194          47.000                                                                  
G08  23758588.764                        3435.093          38.000    23758588.242                        2676.619          38.000  
G09  23729403.706                        2261.579          38.000    23729398.327                        1762.966          40.000  
G31  22029976.805                       -2122.325          47.000    22029966.213                       -1653.705          44.000  
C06  36734965.070                          38.674          47.000    36734946.973   147916411.615          30.140          48.000  
C32  26758175.027                       -3562.766          39.000                                                                  
C37  22895523.669                        -587.969          50.000                                                                  
C07  38339257.674                         693.135          42.000    38339240.753                         535.983          45.000  
C13  41834358.628                       -2311.224          34.000    41834391.929                       -1786.522          38.000  
C20  24683323.918                       -2180.465          46.000                                                                  
G18  25333744.704                         877.067          37.000    25333737.840                         683.271          39.000  
G28  24241242.424                       -3011.010          39.000    24241235.166                       -2346.139          41.000  
G03  25757555.302                       -3023.659          32.000    25757571.577                       -2355.839          38.000  
G26  21825169.464                       -2243.453          46.000    21825161.273                       -1748.211          44.000  
C10  39403410.027                         651.733          39.000    39403397.939                         504.108          43.000  
C28  23839581.150                        1348.299          47.000                                                                  
C23  25194574.851                       -2293.474          43.000                                                                  
C16  37174076.200                          37.810          49.000    37174064.061                          29.321          48.000  
C27  25301431.111                        2765.305          40.000                                                                  
C19  25720917.289                         272.788          41.000                                                                  
C09  37800950.384                         202.752          45.000    37800935.288                         156.859          48.000  
C11                                                                  27198698.854                       -1999.527          43.000  
> 2025 10 28 08 29 24.9620000  0 24                     
G04  21662998.688                         268.254          45.000    21662989.890                         208.891          46.000  
G27  21690164.954                        2402.674          46.000    21690156.672                        1872.074          44.000  
G16  20671565.242                        -380.312          47.000                                                                  
G08  23758562.635                        3433.846          38.000    23758562.087                        2675.544          38.000  
G09  23729386.503                        2261.483          38.000    23729381.145                        1761.935          40.000  
G31  22029992.969                       -2123.344          47.000    22029982.377                       -1654.557          44.000  
C06  36734964.815                          37.484          47.000    36734946.707                          29.079          48.000  
C32  26758202.418                       -3563.414          39.000                                                                  
C37  22895528.203                        -589.018          50.000                                                                  
C07  38339252.380                         691.661          42.000    38339235.453                         534.799          45.000  
C13  41834376.381                       -2311.743          34.000    41834409.685                       -1787.661          38.000  
C20  24683340.715                       -2181.573          46.000                                                                  
G18  25333738.034                         875.902          37.000    25333731.160                         682.119          39.000  
G28  24241265.373                       -3012.195          39.000    24241258.091                       -2347.156          41.000  
G03  25757578.320                       -3024.953          32.000    25757594.616                       -2356.959          38.000  
G26  21825186.541                       -2244.919          46.000    21825178.377                       -1749.393          44.000  
C10  39403405.048                         650.964          39.000    39403392.955                         503.271          43.000  
C28  23839570.821                        1347.296          47.000                                                                  
C23  25194592.494                       -2294.483          43.000                                                                  
C16  37174075.948                          36.564          49.000    37174063.775                          28.383          48.000  
C27  25301409.906                        2763.833          40.000                                                                  
C19  25720915.237                         271.940          41.000                                                                  
C09  37800948.886                         201.506          45.000    37800933.742                         155.843          48.000  
C11                                                                  27198718.707                       -2000.415          43.000  
> 2025 10 28 08 29 25.0020000  0 24                     
G04  21662996.651                         267.102          45.000    21662987.860                         207.978          46.000  
G27  21690146.665                        2401.666          46.000    21690138.395                        1871.402          44.000  
G16  20671568.144                        -380.890          47.000                                                                  
G08  23758536.508                        3432.964          38.000    23758535.960                        2675.059          38.000  
G09  23729369.301                        2260.757          38.000    23729363.955                        1761.377          40.000  
G31  22030009.123                       -2124.312          47.000    22029998.566                       -1655.563          44.000  
C06  36734964.588                          36.556          47.000    36734946.439                          28.049          48.000  
C32  26758229.787                       -3564.363          39.000                                                                  
C37  22895532.802                        -589.739          50.000                                                                  
C07  38339247.091                         690.838          42.000    38339230.129                         534.105          45.000  
C13  41834394.150                       -2312.457          34.000    41834427.457                       -1788.967          38.000  
C20  24683357.483                       -2182.460          46.000                                                                  
G18  25333731.372                         874.844          37.000    25333724.502                         681.726          39.000  
G28  24241288.329                       -3013.169          39.000    24241281.037                       -2347.816          41.000  
G03  25757601.372                       -3025.894          32.000    25757617.669                       -2357.769          38.000  
G26  21825203.638                       -2245.912          46.000    21825195.486                       -1749.987          44.000  
C10  39403400.058                         650.635          39.000    39403387.976                         502.710          43.000  
C28  23839560.486                        1346.512          47.000                                                                  
C23  25194610.120                       -2294.998          43.000                                                                  
C16  37174075.735                          35.748          49.000    37174063.538   149684550.192          27.501          48.000  
C27  25301388.704                        2762.874          40.000                                                                  
C19  25720913.151                         270.835          41.000                                                                  
C09  37800947.343                         200.845          45.000    37800932.224                         155.183          48.000  
C11                                                                  27198738.626                       -2001.383          43.000  
> 2025 10 28 08 29 25.0420000  0 24                     
G04  21662994.635                         266.613          45.000    21662985.830    88706305.965         207.688          46.000  
G27  21690128.386                        2401.267          46.000    21690120.111    88817422.619        1871.007          44.000  
G16  20671571.069                        -381.379          47.000                                                                  
G08  23758510.391                        3432.499          38.000    23758509.840                        2675.096          38.000  
G09  23729352.094                        2260.113          38.000    23729346.743                        1760.877          40.000  
G31  22030025.295                       -2124.810          47.000    22030014.741    90209221.776       -1655.950          44.000  
C06  36734964.296                          36.168          47.000    36734946.205   147916408.278          27.714          48.000  
C32  26758257.154                       -3564.812          39.000                                                                  
C37  22895537.320                        -590.312          50.000                                                                  
C07  38339241.807                         690.597          42.000    38339224.806   154376178.176         534.014          45.000  
C13  41834411.899                       -2312.608          34.000    41834445.253                       -1788.963          38.000  
C20  24683374.253                       -2183.050          46.000                                                                  
G18  25333724.700                         874.195          36.000    25333717.851                         681.421          39.000  
G28  24241311.286                       -3013.572          39.000    24241303.970    99264075.176       -2348.368          41.000  
G03  25757624.416                       -3025.847          32.000    25757640.716                       -2358.047          38.000  
G26  21825220.732                       -2246.368          46.000    21825212.584    89370598.104       -1750.364          44.000  
C10  39403395.077                         649.939          39.000    39403382.978   158661098.107         502.429          43.000  
C28  23839550.131                        1346.088          47.000                                                                  
C23  25194627.733                       -2295.525          43.000                                                                  
C16  37174075.429                          35.189          49.000    37174063.277   149684549.102          27.134          48.000  
C27  25301367.507                        2762.503          40.000                                                                  
C19  25720911.073                         270.127          41.000                                                                  
C09  37800945.769                         200.448          45.000    37800930.661   152208687.401         154.806          48.000  
C11                                                                  27198758.517   109518129.053       -2001.811          43.000  
> 2025 10 28 08 29 25.0820000  0 24                     
G04  21662992.583                         266.356          45.000    21662983.778    88706297.655         207.505          46.000  
G27  21690110.084                        2400.838          46.000    21690101.831    88817347.786        1870.670          44.000  
G16  20671573.958                        -381.627          47.000                                                                  
G08  23758484.265                        3432.245          38.000    23758483.715    97287051.768        2674.664          38.000  
G09  23729334.908                        2259.524          38.000    23729329.561                        1760.622          40.000  
G31  22030041.479                       -2125.231          47.000    22030030.916    90209288.008       -1656.101          44.000  
C06  36734964.013                          35.777          47.000    36734945.896   147916407.159          27.670          48.000  
C32  26758284.555                       -3565.434          39.000                                                                  
C37  22895541.825                        -590.621          50.000                                                                  
C07  38339236.517                         690.472          42.000    38339219.535   154376156.826         533.668          45.000  
C13  41834429.672                       -2313.893          34.000    41834463.036                       -1789.125          38.000  
C20  24683391.016                       -2183.586          46.000                                                                  
G18  25333718.050                         873.901          36.000    25333711.192                         680.789          39.000  
G28  24241334.256                       -3013.864          39.000    24241326.921    99264169.111       -2348.649          41.000  
G03  25757647.433                       -3026.181          32.000    25757663.771   105473209.938       -2358.254          38.000  
G26  21825237.810                       -2246.593          46.000    21825229.695    89370668.123       -1750.617          44.000  
C10  39403390.076                         649.683          39.000    39403377.982   158661078.002         502.386          43.000  
C28  23839539.796                        1345.672          47.000                                                                  
C23  25194645.378                       -2296.027          43.000                                                                  
C16  37174075.190                          34.915          49.000    37174062.981   149684548.013          27.004          48.000  
C27  25301346.301                        2762.493          40.000                                                                  
C19  25720909.005                         269.749          41.000                                                                  
C09  37800944.243                         200.355          45.000    37800929.146   152208681.199         154.769          48.000  
C11                                                                  27198778.377   109518209.118       -2001.893          43.000  
> 2025 10 28 08 29 25.1220000  0 24                     
G04  21662990.538                         266.242          45.000    21662981.756    88706289.341         207.577          46.000  
G27  21690091.802                        2400.704          46.000    21690083.535    88817272.945        1870.692          44.000  
G16  20671576.835                        -381.776          47.000                                                                  
G08  23758458.123                        3432.550          38.000    23758457.581    97286944.784        2674.501          38.000  
G09  23729317.712                        2259.589          38.000    23729312.355    97167565.485        1760.808          40.000  
G31  22030057.621                       -2125.406          47.000    22030047.093    90209354.244       -1656.160          44.000  
C06  36734963.744                          35.644          47.000    36734945.640   147916406.040          27.750          48.000  
C32  26758311.949                       -3565.315          39.000                                                                  
C37  22895546.375                        -590.758          50.000                                                                  
C07  38339231.225                         690.291          42.000    38339214.251   154376135.471         533.628          45.000  
C13  41834447.437                       -2313.812          34.000    41834480.762                       -1788.753          38.000  
C20  24683407.796                       -2183.496          46.000                                                                  
G18  25333711.414                         873.612          36.000    25333704.547   103737282.795         680.736          39.000  
G28  24241357.212                       -3013.953          39.000    24241349.862    99264263.050       -2348.712          41.000  
G03  25757670.491                       -3026.969          32.000    25757686.814   105473304.253       -2358.139          38.000  
G26  21825254.909                       -2246.537          46.000    21825246.779    89370738.140       -1750.660          44.000  
C10  39403385.089                         649.402          39.000    39403373.040   158661057.911         502.179          43.000  
C28  23839529.455                        1345.553          47.000                                                                  
C23  25194662.987                       -2296.291          43.000                                                                  
C16  37174074.937                          34.893          49.000    37174062.698   149684546.930          26.898          48.000  
C27  25301325.048                        2762.377          40.000                                                                  
C19  25720906.934                         269.771          41.000                                                                  
C09  37800942.696                         200.077          45.000    37800927.601   152208675.004         154.716          48.000  
C11                                                                  27198798.262   109518289.176       -2001.693          43.000  
> 2025 10 28 08 29 25.1620000  0 24                     
G04  21662988.507   113839774.997         265.984          45.000    21662979.706    88706281.042         207.402          46.000  
G27  21690073.510   113982106.835        2400.599          46.000    21690065.271    88817198.118        1870.549          44.000  
G16  20671579.729   108629884.727        -382.000          47.000                                                                  
G08  23758431.999                        3432.664          38.000    23758431.439    97286837.800        2674.462          38.000  
G09  23729300.492                        2259.555          38.000    23729295.142    97167495.063        1760.537          40.000  
G31  22030073.762   115768817.815       -2125.449          47.000    22030063.281    90209420.480       -1656.125          44.000  
C06  36734963.468                          35.655          47.000    36734945.365   147916404.936          27.560          48.000  
C32  26758339.338                       -3565.385          39.000                                                                  
C37  22895550.948   119223144.650        -590.911          50.000                                                                  
C07  38339225.912                         689.950          42.000    38339208.928   154376114.112         533.762          45.000  
C13  41834465.214                       -2313.064          34.000    41834498.526   168450222.718       -1788.971          38.000  
C20  24683424.566                       -2183.626          46.000                                                                  
G18  25333704.746                         873.358          36.000    25333697.899   103737255.565         680.595          39.000  
G28  24241380.148                       -3013.963          39.000    24241372.793    99264356.973       -2348.384          41.000  
G03  25757693.519                       -3026.191          32.000    25757709.867   105473398.600       -2358.624          38.000  
G26  21825271.990   114692578.757       -2246.602          46.000    21825263.885    89370808.161       -1750.715          44.000  
C10  39403380.078                         649.243          39.000    39403368.037   158661037.831         501.868          43.000  
C28  23839519.090   124138635.837        1345.441          47.000                                                                  
C23  25194680.611                       -2296.364          43.000                                                                  
C16  37174074.679   193575161.826          34.739          49.000    37174062.424   149684545.849          26.863          48.000  
C27  25301303.841                        2762.412          40.000                                                                  
C19  25720904.888                         269.794          41.000                                                                  
C09  37800941.157                         199.724          45.000    37800926.071   152208668.815         154.594          48.000  
C11                                                                  27198818.126   109518369.245       -2001.754          43.000  
> 2025 10 28 08 29 25.2020000  0 24                     
G04  21662986.476   113839764.343         266.067          45.000    21662977.683    88706272.745         207.294          46.000  
G27  21690055.237   113982010.809        2400.508          46.000    21690046.997    88817123.295        1870.425          44.000  
G16  20671582.616   108629900.011        -382.246          47.000                                                                  
G08  23758405.894                        3432.123          38.000    23758405.313    97286730.834        2674.166          38.000  
G09  23729283.299                        2259.267          38.000    23729277.960    97167424.639        1760.421          40.000  
G31  22030089.919   115768902.830       -2125.546          47.000    22030079.435    90209486.711       -1655.986          44.000  
C06  36734963.170   191288577.352          35.542          47.000    36734945.120   147916403.834          27.451          48.000  
C32  26758366.739                       -3565.431          39.000                                                                  
C37  22895555.504   119223168.280        -590.952          50.000                                                                  
C07  38339220.623                         689.966          42.000    38339203.612   154376092.770         533.569          45.000  
C13  41834482.991                       -2313.472          34.000    41834516.297   168450294.281       -1789.087          38.000  
C20  24683441.358   128533157.278       -2183.757          46.000                                                                  
G18  25333698.105                         873.382          36.000    25333691.248   103737228.327         680.713          39.000  
G28  24241403.072   127389430.524       -3014.011          39.000    24241395.747    99264450.917       -2348.599          41.000  
G03  25757716.546                       -3026.645          32.000    25757732.906   105473492.924       -2358.428          38.000  
G26  21825289.068   114692668.625       -2246.811          46.000    21825281.003    89370878.182       -1750.689          44.000  
C10  39403375.103   205183717.340         649.103          39.000    39403363.046   158661017.734         502.100          43.000  
C28  23839508.761   124138582.011        1345.452          47.000                                                                  
C23  25194698.239                       -2296.346          43.000                                                                  
C16  37174074.407   193575160.436          34.613          49.000    37174062.124   149684544.768          26.885          48.000  
C27  25301282.633                        2762.123          40.000                                                                  
C19  25720902.806                         269.578          41.000                                                                  
C09  37800939.619   196839415.615         199.643          45.000    37800924.517   152208662.629         154.517          48.000  
C11                                                                  27198838.030   109518449.330       -2002.067          43.000  
> 2025 10 28 08 29 25.2420000  0 24                     
G04  21662984.434   113839753.707         265.845          45.000    21662975.657    88706264.462         207.027          46.000  
G27  21690036.973   113981914.792        2400.351          46.000    21690028.728    88817048.474        1870.357          44.000  
G16  20671585.509   108629915.293        -382.258          47.000                                                                  
G08  23758379.760                        3431.674          38.000    23758379.212    97286623.855        2674.263          38.000  
G09  23729266.086                        2259.308          38.000    23729260.768    97167354.214        1760.443          40.000  
G31  22030106.093   115768987.854       -2125.709          46.000    22030095.638    90209552.960       -1656.216          44.000  
C06  36734962.910   191288575.938          35.273          47.000    36734944.864   147916402.737          27.314          48.000  
C32  26758394.123   139337884.942       -3565.397          39.000                                                                  
C37  22895560.051   119223191.918        -591.060          50.000                                                                  
C07  38339215.288   199642356.392         689.860          42.000    38339198.272   154376071.433         533.383          45.000  
C13  41834500.774                       -2313.818          34.000    41834534.060   168450365.856       -1789.415          38.000  
C20  24683458.151   128533244.630       -2183.912          46.000                                                                  
G18  25333691.456                         873.534          36.000    25333684.598   103737201.081         681.016          39.000  
G28  24241426.023   127389551.087       -3014.170          39.000    24241418.691    99264544.864       -2348.746          41.000  
G03  25757739.563                       -3026.601          32.000    25757755.938   105473587.251       -2358.298          38.000  
G26  21825306.167   114692758.503       -2247.018          46.000    21825298.094    89370948.217       -1750.909          44.000  
C10  39403370.088   205183691.360         649.286          39.000    39403358.041   158660997.650         502.032          43.000  
C28  23839498.430   124138528.197        1345.292          47.000                                                                  
C23  25194715.896   131195503.960       -2296.514          43.000                                                                  
C16  37174074.148   193575159.049          34.563          49.000    37174061.849   149684543.695          26.774          48.000  
C27  25301261.413   131750316.653        2761.948          40.000                                                                  
C19  25720900.744   133935485.469         269.542          41.000                                                                  
C09  37800938.099   196839407.622         199.653          45.000    37800922.973   152208656.452         154.362          48.000  
C11                                                                  27198857.915   109518529.416       -2002.257          43.000  
> 2025 10 28 08 29 25.2820000  0 24                     
G04  21662982.411   113839743.074         265.713          45.000    21662973.626    88706256.176         206.970          46.000  
G27  21690018.722   113981818.784        2400.133          46.000    21690010.470    88816973.660        1870.235          44.000  
G16  20671588.436   108629930.591        -382.511          47.000                                                                  
G08  23758353.645   124851011.847        3431.785          38.000    23758353.079    97286516.872        2674.356          38.000  
G09  23729248.886   124698053.416        2259.366          38.000    23729243.572    97167283.804        1760.297          40.000  
G31  22030122.248   115769072.883       -2125.834          47.000    22030111.838    90209619.235       -1656.808          44.000  
C06  36734962.647   191288574.517          35.338          47.000    36734944.579   147916401.647          27.145          48.000  
C32  26758421.520   139338027.560       -3565.477          39.000                                                                  
C37  22895564.577   119223215.566        -591.264          50.000                                                                  
C07  38339209.987   199642328.805         689.603          42.000    38339192.976   154376050.094         533.350          45.000  
C13  41834518.540                       -2314.497          34.000    41834551.865   168450437.413       -1789.149          38.000  
C20  24683474.910   128533331.989       -2184.089          46.000                                                                  
G18  25333684.805                         873.517          36.000    25333677.925   103737173.862         680.665          39.000  
G28  24241448.961   127389671.669       -3014.576          39.000    24241441.634    99264638.814       -2348.856          41.000  
G03  25757762.605                       -3027.344          32.000    25757778.950   105473681.592       -2358.445          38.000  
G26  21825323.252   114692848.379       -2247.083          46.000    21825315.199    89371018.260       -1751.143          44.000  
C10  39403365.108   205183665.397         649.097          39.000    39403353.097   158660977.581         501.752          43.000  
C28  23839488.086   124138474.391        1345.077          47.000                                                                  
C23  25194733.528   131195595.820       -2296.594          43.000                                                                  
C16  37174073.864   193575157.669          34.440          49.000    37174061.572   149684542.633          26.556          48.000  
C27  25301240.202   131750206.179        2761.794          40.000                                                                  
C19  25720898.677   133935474.700         269.204          41.000                                                                  
C09  37800936.584   196839399.631         199.644          45.000    37800921.452   152208650.280         154.202          48.000  
C11                                                                  27198877.775   109518609.510       -2002.440          43.000  
> 2025 10 28 08 29 25.3220000  0 24                     
G04  21662980.402   113839732.453         265.476          45.000    21662971.601    88706247.903         206.770          46.000  
G27  21690000.440   113981722.769        2400.181          46.000    21689992.183    88816898.846        1870.219          44.000  
G16  20671591.340   108629945.889        -382.599          47.000                                                                  
G08  23758327.507   124850874.576        3431.631          38.000    23758326.963    97286409.909        2674.133          38.000  
G09  23729231.681   124697963.072        2258.776          38.000    23729226.375    97167213.395        1760.130          40.000  
G31  22030138.445   115769157.920       -2125.990          47.000    22030128.042    90209685.506       -1656.974          44.000  
C06  36734962.345   191288573.111          35.142          47.000    36734944.321   147916400.558          27.106          48.000  
C32  26758448.892   139338170.210       -3566.110          39.000                                                                  
C37  22895569.132   119223239.220        -591.442          50.000                                                                  
C07  38339204.695   199642301.215         689.592          42.000    38339187.676   154376028.767         533.178          45.000  
C13  41834536.305                       -2314.522          34.000    41834569.684   168450508.980       -1789.123          38.000  
C20  24683491.720   128533419.353       -2184.233          46.000                                                                  
G18  25333678.159   133129380.891         873.170          36.000    25333671.301   103737146.674         679.873          39.000  
G28  24241471.915   127389792.242       -3014.611          39.000    24241464.588    99264732.774       -2349.046          41.000  
G03  25757785.654                       -3027.879          31.000    25757801.964   105473775.931       -2358.458          38.000  
G26  21825340.375   114692938.270       -2247.322          46.000    21825332.287    89371088.298       -1751.141          44.000  
C10  39403360.141   205183639.436         648.975          39.000    39403348.130   158660957.513         501.569          43.000  
C28  23839477.760   124138420.594        1344.870          47.000                                                                  
C23  25194751.187   131195687.684       -2296.683          43.000                                                                  
C16  37174073.578   193575156.301          34.165          49.000    37174061.314   149684541.572          26.429          48.000  
C27  25301218.999   131750095.702        2761.805          40.000                                                                  
C19  25720896.630   133935463.926         269.164          41.000                                                                  
C09  37800935.045   196839391.663         199.233          45.000    37800919.882   152208644.112         154.088          48.000  
C11                                                                  27198897.660   109518689.599       -2002.352          43.000  
> 2025 10 28 08 29 25.3620000  0 24                     
G04  21662978.391   113839721.831         265.400          45.000    21662969.558    88706239.620         206.864          46.000  
G27  21689982.173   113981626.763        2400.055          46.000    21689973.911    88816824.032        1870.219          44.000  
G16  20671594.222   108629961.186        -382.537          47.000                                                                  
G08  23758301.388   124850737.308        3431.560          38.000    23758300.831    97286302.941        2674.098          38.000  
G09  23729214.492   124697872.709        2258.919          38.000    23729209.168    97167142.978        1760.251          40.000  
G31  22030154.642   115769242.958       -2126.042          46.000    22030144.228    90209751.767       -1656.838          44.000  
C06  36734962.046   191288571.706          35.048          47.000    36734944.030   147916399.466          27.150          48.000  
C32  26758476.278   139338312.843       -3566.061          39.000                                                                  
C37  22895573.716   119223262.870        -591.408          50.000                                                                  
C07  38339199.408   199642273.621         689.731          42.000    38339182.378   154376007.432         533.259          45.000  
C13  41834554.067                       -2314.282          34.000    41834587.495   168450580.564       -1789.490          38.000  
C20  24683508.500   128533506.713       -2184.171          46.000                                                                  
G18  25333671.508   133129345.969         872.984          36.000    25333664.652   103737119.451         680.117          39.000  
G28  24241494.872   127389912.818       -3014.554          39.000    24241487.539    99264826.740       -2349.217          41.000  
G03  25757808.718                       -3027.301          32.000    25757825.008   105473870.281       -2358.697          38.000  
G26  21825357.479   114693028.157       -2247.340          46.000    21825349.397    89371158.347       -1751.298          44.000  
C10  39403355.146   205183613.481         648.810          39.000    39403343.147   158660937.440         501.654          43.000  
C28  23839467.475   124138366.793        1344.880          47.000                                                                  
C23  25194768.838   131195779.560       -2296.953          43.000                                                                  
C16  37174073.342   193575154.927          34.172          48.000    37174061.023   149684540.511          26.400          48.000  
C27  25301197.796   131749985.231        2761.760          40.000                                                                  
C19  25720894.537   133935453.160         269.014          41.000                                                                  
C09  37800933.504   196839383.677         199.409          45.000    37800918.328   152208637.944         154.082          48.000  
C11                                                                  27198917.556   109518769.679       -2002.123          43.000  
> 2025 10 28 08 29 25.4020000  0 24                     
G04  21662976.359   113839711.199         265.592          45.000    21662967.536    88706231.334         207.011          46.000  
G27  21689963.914   113981530.745        2400.251          46.000    21689955.648    88816749.222        1870.150          44.000  
G16  20671597.104   108629976.472        -382.278          47.000                                                                  
G08  23758275.268   124850600.035        3431.687          38.000    23758274.727    97286195.985        2673.875          38.000  
G09  23729197.306   124697782.344        2259.052          38.000    23729191.967    97167072.558        1760.395          40.000  
G31  22030170.822   115769327.979       -2125.724          47.000    22030160.395    90209818.007       -1656.317          44.000  
C06  36734961.760   191288570.288          35.250          47.000    36734943.817   147916398.366          27.361          48.000  
C32  26758503.661   139338455.454       -3565.541          39.000                                                                  
C37  22895578.232   119223286.505        -591.084          50.000                                                                  
C07  38339194.099   199642246.025         689.820          42.000    38339177.059   154375986.097         533.324          45.000  
C13  41834571.858                       -2313.721          34.000    41834605.265   168450652.145       -1789.581          38.000  
C20  24683525.265   128533594.064       -2183.953          46.000                                                                  
G18  25333664.867   133129311.039         872.983          36.000    25333657.992   103737092.222         680.439          39.000  
G28  24241517.794   127390033.393       -3014.484          39.000    24241510.473    99264920.686       -2348.858          41.000  
G03  25757831.736                       -3026.589          32.000    25757848.063   105473964.627       -2358.737          38.000  
G26  21825374.544   114693118.032       -2247.089          46.000    21825366.499    89371228.378       -1751.042          44.000  
C10  39403350.145   205183587.529         648.761          39.000    39403338.210   158660917.358         501.898          43.000  
C28  23839457.156   124138312.977        1345.211          47.000                                                                  
C23  25194786.491   131195871.397       -2296.369          43.000                                                                  
C16  37174073.055   193575153.539          34.478          48.000    37174060.765   149684539.438          26.639          48.000  
C27  25301176.584   131749874.750        2761.951          40.000                                                                  
C19  25720892.483   133935442.383         269.165          41.000                                                                  
C09  37800932.005   196839375.682         199.721          45.000    37800916.815   152208631.765         154.318          48.000  
C11                                                                  27198937.437   109518849.764       -2002.099          43.000  
> 2025 10 28 08 29 25.4420000  0 24                     
G04  21662974.327   113839700.562         265.778          45.000    21662965.506    88706223.043         207.183          46.000  
G27  21689945.665   113981434.732        2400.269          46.000    21689937.356    88816674.400        1870.339          44.000  
G16  20671600.016   108629991.762        -382.275          47.000                                                                  
G08  23758249.131   124850462.738        3432.211          38.000    23758248.600    97286089.006        2674.283          38.000  
G09  23729180.104   124697691.960        2259.423          38.000    23729174.770    97167002.131        1760.574          40.000  
G31  22030187.010   115769413.002       -2125.598          46.000    22030176.582    90209884.257       -1656.249          44.000  
C06  36734961.487   191288568.862          35.500          47.000    36734943.557   147916397.260          27.576          48.000  
C32  26758531.066   139338598.066       -3565.313          39.000                                                                  
C37  22895582.803   119223310.140        -590.914          50.000                                                                  
C07  38339188.826   199642218.425         689.899          42.000    38339171.728   154375964.752         533.506          45.000  
C13  41834589.605                       -2313.630          34.000    41834623.051   168450723.689       -1788.812          38.000  
C20  24683542.022   128533681.416       -2183.851          46.000                                                                  
G18  25333658.223   133129276.109         873.085          36.000    25333651.325   103737064.992         680.657          39.000  
G28  24241540.722   127390153.960       -3014.213          39.000    24241533.419    99265014.640       -2348.815          41.000  
G03  25757854.723                       -3026.042          31.000    25757871.098   105474058.954       -2358.396          38.000  
G26  21825391.631   114693207.907       -2246.916          46.000    21825383.579    89371298.397       -1750.658          44.000  
C10  39403345.164   205183561.564         648.907          39.000    39403333.236   158660897.276         502.039          43.000  
C28  23839446.826   124138259.157        1345.446          47.000                                                                  
C23  25194804.107   131195963.248       -2296.280          43.000                                                                  
C16  37174072.784   193575152.144          34.762          48.000    37174060.489   149684538.362          26.833          48.000  
C27  25301155.346   131749764.265        2762.069          40.000                                                                  
C19  25720890.400   133935431.598         269.434          41.000                                                                  
C09  37800930.475   196839367.683         199.940          45.000    37800915.305   152208625.575         154.648          48.000  
C11                                                                  27198957.307   109518929.861       -2002.346          43.000  
> 2025 10 28 08 29 25.4820000  0 24                     
G04  21662972.318   113839689.939         265.632          45.000    21662963.475    88706214.772         206.896          46.000  
G27  21689927.411   113981338.729        2400.094          46.000    21689919.115    88816599.596        1870.130          44.000  
G16  20671602.957   108630007.067        -382.559          47.000                                                                  
G08  23758223.019   124850325.462        3432.076          38.000    23758222.476    97285982.050        2674.026          38.000  
G09  23729162.875   124697601.633        2258.486          38.000    23729157.586    97166931.746        1759.857          40.000  
G31  22030203.189   115769498.039       -2125.831          46.000    22030192.760    90209950.521       -1656.503          44.000  
C06  36734961.188   191288567.453          35.347          47.000    36734943.309   147916396.176          27.266          48.000  
C32  26758558.447   139338740.679       -3565.292          39.000                                                                  
C37  22895587.341   119223333.792        -591.183          50.000                                                                  
C07  38339183.507   199642190.846         689.594          42.000    38339166.425   154375943.426         533.256          45.000  
C13  41834607.373                       -2313.658          34.000    41834640.817   168450795.270       -1789.216          38.000  
C20  24683558.774   128533768.782       -2184.076          46.000                                                                  
G18  25333651.563   133129241.185         873.012          36.000    25333644.684   103737037.784         680.364          39.000  
G28  24241563.657   127390274.544       -3014.504          39.000    24241556.376    99265108.589       -2348.760          41.000  
G03  25757877.784                       -3026.559          32.000    25757894.139   105474153.290       -2358.363          38.000  
G26  21825408.741   114693297.795       -2247.104          46.000    21825400.693    89371368.437       -1750.865          44.000  
C10  39403340.174   205183535.614         648.712          39.000    39403328.239   158660877.210         501.782          43.000  
C28  23839436.504   124138205.363        1345.020          47.000                                                                  
C23  25194821.744   131196055.129       -2296.822          42.000                                                                  
C16  37174072.471   193575150.770          34.507          48.000    37174060.200   149684537.298          26.680          48.000  
C27  25301134.114   131749653.815        2761.490          40.000                                                                  
C19  25720888.343   133935420.816         269.504          41.000                                                                  
C09  37800928.948   196839359.710         199.515          45.000    37800913.760   152208619.405         154.423          48.000  
C11                                                                  27198977.207   109519009.960       -2002.506          43.000  
> 2025 10 28 08 29 25.5220000  0 24                     
G04  21662970.262   113839679.347         265.004          45.000    21662961.484    88706206.516         206.490          46.000  
G27  21689909.148   113981242.754        2399.489          46.000    21689900.852    88816524.810        1869.727          44.000  
G16  20671605.901   108630022.392        -383.066          47.000                                                                  
G08  23758196.903   124850188.221        3431.360          38.000    23758196.337    97285875.112        2673.548          38.000  
G09  23729145.695   124697511.307        2258.031          38.000    23729140.384    97166861.360        1759.512          40.000  
G31  22030219.393   115769583.100       -2126.388          46.000    22030208.953    90210016.801       -1656.941          44.000  
C06  36734960.883   191288566.067          34.814          47.000    36734943.071   147916395.108          26.770          48.000  
C32  26758585.850   139338883.351       -3566.376          39.000                                                                  
C37  22895591.882   119223357.472        -591.854          50.000                                                                  
C07  38339178.211   199642163.294         688.938          42.000    38339161.130   154375922.117         532.775          45.000  
C13  41834625.128                       -2314.437          34.000    41834658.603   168450866.860       -1789.645          38.000  
C20  24683575.549   128533856.179       -2184.713          46.000                                                                  
G18  25333644.917   133129206.266         872.906          36.000    25333638.033   103737010.591         679.911          39.000  
G28  24241586.618   127390395.149       -3015.046          39.000    24241579.343    99265202.568       -2349.328          41.000  
G03  25757900.830                       -3027.131          32.000    25757917.185   105474247.665       -2359.071          38.000  
G26  21825425.862   114693387.711       -2247.702          46.000    21825417.818    89371438.513       -1751.614          44.000  
C10  39403335.185   205183509.670         648.553          39.000    39403323.263   158660857.151         501.556          43.000  
C28  23839426.168   124138151.588        1344.474          47.000                                                                  
C23  25194839.382   131196147.023       -2297.354          43.000                                                                  
C16  37174072.190   193575149.424          33.857          48.000    37174059.920   149684536.256          26.190          48.000  
C27  25301112.885   131749543.374        2761.018          40.000                                                                  
C19  25720886.280   133935410.082         268.647          41.000                                                                  
C09  37800927.440   196839351.757         198.918          45.000    37800912.228   152208613.261         153.787          48.000  
C11                                                                  27198997.108   109519090.067       -2002.739          43.000  
> 2025 10 28 08 29 25.5620000  0 24                     
G04  21662968.237   113839668.749         264.801          45.000    21662959.476    88706198.254         206.423          46.000  
G27  21689890.899   113981146.765        2399.508          46.000    21689882.564    88816450.016        1869.671          44.000  
G16  20671608.841   108630037.712        -383.189          47.000                                                                  
G08  23758170.800   124850050.982        3430.948          38.000    23758170.220    97285768.147        2673.838          38.000  
G09  23729128.485   124697420.956        2258.394          38.000    23729123.204    97166790.964        1759.611          40.000  
G31  22030235.568   115769668.159       -2126.592          46.000    22030225.160    90210083.084       -1657.155          44.000  
C06  36734960.602   191288564.675          34.667          47.000    36734942.821   147916394.037          26.624          48.000  
C32  26758613.253   139339026.002       -3566.550          39.000                                                                  
C37  22895596.429   119223381.144        -591.966          50.000                                                                  
C07  38339172.915   199642135.732         688.877          42.000    38339155.825   154375900.796         532.823          45.000  
C13  41834642.897                       -2314.505          34.000    41834676.391   168450938.452       -1789.802          38.000  
C20  24683592.334   128533943.560       -2184.771          46.000                                                                  
G18  25333638.279   133129171.354         872.740          36.000    25333631.394   103736983.379         680.070          39.000  
G28  24241609.548   127390515.748       -3015.167          39.000    24241602.303    99265296.545       -2349.442          41.000  
G03  25757923.870                       -3028.047          32.000    25757940.229   105474342.022       -2359.094          38.000  
G26  21825442.963   114693477.615       -2247.793          46.000    21825434.932    89371508.569       -1751.624          44.000  
C10  39403330.213   205183483.713         648.779          39.000    39403318.292   158660837.095         501.367          43.000  
C28  23839415.837   124138097.809        1344.337          47.000                                                                  
C23  25194857.039   131196238.914       -2297.480          43.000                                                                  
C16  37174071.936   193575148.065          33.785          48.000    37174059.644   149684535.207          26.088          48.000  
C27  25301091.665   131749432.912        2761.180          40.000                                                                  
C19  25720884.232   133935399.329         268.615          41.000                                                                  
C09  37800925.934   196839343.788         198.978          45.000    37800910.700   152208607.101         153.793          48.000  
C11                                                                  27199017.010   109519170.173       -2002.762          43.000  
> 2025 10 28 08 29 25.6020000  0 24                     
G04  21662966.231   113839658.137         265.015          45.000    21662957.456    88706189.993         206.408          46.000  
G27  21689872.625   113981050.775        2399.549          46.000    21689864.291    88816375.210        1869.910          44.000  
G16  20671611.746   108630053.014        -382.857          47.000                                                                  
G08  23758144.668   124849913.712        3431.345          38.000    23758144.091    97285661.195        2673.725          38.000  
G09  23729111.274   124697330.597        2258.749          38.000    23729106.015    97166720.559        1759.900          40.000  
G31  22030251.741   115769753.202       -2126.362          46.000    22030241.334    90210149.354       -1657.014          44.000  
C06  36734960.316   191288563.269          34.895          47.000    36734942.567   147916392.950          26.903          48.000  
C32  26758640.627   139339168.650       -3566.489          39.000                                                                  
C37  22895600.979   119223404.799        -591.694          50.000                                                                  
C07  38339167.602   199642108.133         689.556          42.000    38339150.512   154375879.467         533.023          45.000  
C13  41834660.664                       -2314.284          34.000    41834694.169   168451010.040       -1789.894          38.000  
C20  24683609.098   128534030.931       -2184.555          46.000                                                                  
G18  25333631.626   133129136.450         872.553          36.000    25333624.761   103736956.186         679.852          39.000  
G28  24241632.479   127390636.330       -3014.851          39.000    24241625.234    99265390.505       -2349.201          41.000  
G03  25757946.945                       -3027.779          32.000    25757963.264   105474436.364       -2358.774          38.000  
G26  21825460.057   114693567.511       -2247.630          46.000    21825452.013    89371578.615       -1751.424          44.000  
C10  39403325.233   205183457.766         648.694          39.000    39403313.340   158660817.034         501.404          43.000  
C28  23839405.511   124138044.020        1344.478          47.000                                                                  
C23  25194874.680   131196330.782       -2297.094          43.000                                                                  
C16  37174071.659   193575146.691          34.041          48.000    37174059.366   149684534.146          26.290          48.000  
C27  25301070.449   131749322.446        2761.395          40.000                                                                  
C19  25720882.172   133935388.569         268.742          41.000                                                                  
C09  37800924.409   196839335.801         199.376          45.000    37800909.210   152208600.933         153.973          48.000  
C11                                                                  27199036.900   109519250.280       -2002.823          43.000  
> 2025 10 28 08 29 25.6420000  0 24                     
G04  21662964.233   113839647.629         263.096          45.000    21662955.450    88706181.787         205.323          46.000  
G27  21689854.335   113980954.884        2397.648          46.000    21689846.027    88816300.486        1868.508          44.000  
G16  20671614.685   108630068.455        -385.458          47.000                                                                  
G08  23758118.548   124849776.585        3428.633          38.000    23758117.994    97285554.339        2671.764          38.000  
G09  23729094.068   124697240.380        2256.030          38.000    23729088.833    97166650.252        1758.105          40.000  
G31  22030267.934   115769838.351       -2128.274          47.000    22030257.537    90210215.692       -1658.235          44.000  
C06  36734960.083   191288561.964          33.047          47.000    36734942.324   147916391.929          25.755          48.000  
C32  26758668.053   139339311.385       -3568.181          39.000                                                                  
C37  22895605.571   119223428.570        -593.829          50.000                                                                  
C07  38339162.301   199642080.672         687.151          42.000    38339145.213   154375858.232         531.235          45.000  
C13  41834678.458                       -2317.200          34.000    41834711.959   168451081.702       -1791.357          38.000  
C20  24683625.898   128534118.399       -2186.301          46.000                                                                  
G18  25333625.017   133129101.654         870.270          36.000    25333618.143   103736929.058         678.415          39.000  
G28  24241655.450   127390757.040       -3017.262          39.000    24241648.185    99265484.550       -2350.873          41.000  
G03  25757969.974                       -3029.428          32.000    25757986.340   105474530.803       -2360.482          38.000  
G26  21825477.159   114693657.505       -2249.471          46.000    21825469.122    89371648.736       -1752.741          44.000  
C10  39403320.284   205183431.963         645.691          39.000    39403308.359   158660797.058         499.640          43.000  
C28  23839395.178   124137990.360        1341.942          47.000                                                                  
C23  25194892.325   131196422.756       -2298.905          43.000                                                                  
C16  37174071.394   193575145.428          32.061          48.000    37174059.106   149684533.165          24.868          48.000  
C27  25301049.235   131749212.090        2759.310          40.000                                                                  
C19  25720880.129   133935377.925         266.522          41.000                                                                  
C09  37800922.891   196839327.947         196.956          45.000    37800907.704   152208594.843         152.526          48.000  
C11                                                                  27199056.836   109519330.484       -2004.765          43.000  
> 2025 10 28 08 29 25.6820000  0 24                     
G04  21662962.289   113839637.342         258.367          45.000    21662953.496    88706173.777         201.340          46.000  
G27  21689836.140   113980859.216        2392.882          46.000    21689827.826    88816225.930        1864.828          44.000  
G16  20671617.650   108630084.065        -389.658          47.000                                                                  
G08  23758092.500   124849639.625        3424.508          38.000    23758091.947    97285447.611        2668.603          38.000  
G09  23729076.959   124697150.339        2251.616          38.000    23729071.696    97166580.089        1754.584          40.000  
G31  22030284.210   115769923.712       -2132.866          46.000    22030273.768    90210282.209       -1661.993          44.000  
C06  36734959.880   191288560.897          28.015          47.000    36734942.129   147916391.090          22.016          48.000  
C32  26758695.511   139339454.325       -3572.682          39.000                                                                  
C37  22895610.183   119223452.541        -598.404          50.000                                                                  
C07  38339157.059   199642053.401         682.642          42.000    38339140.006   154375837.133         527.993          45.000  
C13  41834696.297                       -2320.861          34.000    41834729.825   168451153.512       -1794.747          38.000  
C20  24683642.736   128534206.107       -2191.342          46.000                                                                  
G18  25333618.429   133129067.042         865.990          36.000    25333611.573   103736902.091         674.983          39.000  
G28  24241678.482   127390877.928       -3021.590          39.000    24241671.210    99265578.774       -2354.946          41.000  
G03  25757993.078                       -3033.617          32.000    25758009.457   105474625.401       -2364.130          38.000  
G26  21825494.356   114693747.723       -2254.177          46.000    21825486.274    89371719.035       -1756.475          44.000  
C10  39403315.359   205183406.317         641.516          39.000    39403303.430   158660777.226         496.259          43.000  
C28  23839384.927   124137936.857        1337.995          47.000                                                                  
C23  25194910.050   131196514.940       -2303.552          42.000                                                                  
C16  37174071.180   193575144.376          27.400          48.000    37174058.883   149684532.345          21.355          48.000  
C27  25301028.086   131749101.945        2754.616          40.000                                                                  
C19  25720878.123   133935367.471         262.183          41.000                                                                  
C09  37800921.438   196839320.286         192.464          45.000    37800906.236   152208588.919         148.843          48.000  
C11                                                                  27199076.810   109519410.801       -2007.752          43.000  
> 2025 10 28 08 29 25.7220000  0 24                     
G04  21662960.363   113839627.072         255.844          45.000    21662951.556    88706165.780         199.241          47.000  
G27  21689817.921   113980763.549        2390.635          46.000    21689809.614    88816151.406        1862.556          44.000  
G16  20671620.646   108630099.694        -391.777          47.000                                                                  
G08  23758066.433   124849502.685        3422.394          38.000    23758065.909    97285340.916        2666.677          38.000  
G09  23729059.846   124697060.303        2249.722          38.000    23729054.583    97166509.943        1752.772          40.000  
G31  22030300.463   115770009.093       -2135.356          46.000    22030290.015    90210348.744       -1664.016          44.000  
C06  36734959.677   191288559.820          25.810          47.000    36734941.922   147916390.266          19.992          48.000  
C32  26758722.960   139339597.269       -3574.627          39.000                                                                  
C37  22895614.817   119223476.526        -600.679          50.000                                                                  
C07  38339151.840   199642026.148         680.349          42.000    38339134.781   154375816.057         526.157          45.000  
C13  41834714.155                       -2323.232          34.000    41834747.656   168451225.348       -1796.615          38.000  
C20  24683659.603   128534293.811       -2193.674          46.000                                                                  
G18  25333611.889   133129032.477         863.251          36.000    25333604.998   103736875.137         673.122          39.000  
G28  24241701.501   127390998.829       -3023.663          39.000    24241694.227    99265672.986       -2356.405          41.000  
G03  25758016.184                       -3035.992          32.000    25758032.575   105474719.995       -2365.664          38.000  
G26  21825511.530   114693837.950       -2256.600          46.000    21825503.457    89371789.344       -1758.472          44.000  
C10  39403310.431   205183380.676         639.795          39.000    39403298.555   158660757.407         494.611          43.000  
C28  23839374.662   124137883.388        1335.743          47.000                                                                  
C23  25194927.802   131196607.157       -2306.177          42.000                                                                  
C16  37174070.994   193575143.342          24.911          48.000    37174058.675   149684531.548          19.280          48.000  
C27  25301006.954   131748991.801        2752.439          40.000                                                                  
C19  25720876.125   133935357.043         259.776          41.000                                                                  
C09  37800919.990   196839312.629         190.394          45.000    37800904.796   152208583.018         146.794          48.000  
C11                                                                  27199096.776   109519491.143       -2009.399          43.000  
> 2025 10 28 08 29 25.7620000  0 24                     
G04  21662958.385   113839616.691         257.189          45.000    21662949.595    88706157.697         200.253          47.000  
G27  21689799.704   113980667.784        2391.885          46.000    21689791.406    88816076.800        1863.304          44.000  
G16  20671623.604   108630115.211        -390.023          47.000                                                                  
G08  23758040.350                        3424.569          38.000    23758039.836    97285234.129        2667.965          38.000  
G09  23729042.679                        2251.673          38.000    23729037.444    97166439.696        1754.486          40.000  
G31  22030316.708   115770094.359       -2133.918          46.000    22030306.274    90210415.195       -1663.009          44.000  
C06  36734959.450   191288558.627          27.427          47.000    36734941.724   147916389.367          20.793          48.000  
C32  26758750.394                       -3572.722          39.000                                                                  
C37  22895619.391   119223500.379        -598.669          50.000                                                                  
C07  38339146.582                         682.187          42.000    38339129.578   154375794.901         527.310          45.000  
C13  41834731.997                       -2321.900          34.000    41834765.507   168451297.086       -1795.102          38.000  
C20  24683676.442   128534381.406       -2192.188          46.000                                                                  
G18  25333605.296                         865.139          36.000    25333598.412   103736848.116         673.951          39.000  
G28  24241724.496   127391119.610       -3021.643          39.000    24241717.204    99265767.085       -2354.333          41.000  
G03  25758039.323                       -3035.609          32.000    25758055.683   105474814.546       -2365.150          38.000  
G26  21825528.708   114693928.076       -2255.380          46.000    21825520.617    89371859.595       -1757.928          44.000  
C10  39403305.480                         642.365          39.000    39403293.646   158660737.495         496.191          43.000  
C28  23839364.410   124137829.799        1337.644          47.000                                                                  
C23  25194945.491                       -2304.153          42.000                                                                  
C16  37174070.782   193575142.186          26.501          48.000    37174058.451   149684530.676          20.077          48.000  
C27  25300985.785   131748881.558        2753.795          40.000                                                                  
C19  25720874.096                         261.405          41.000                                                                  
C09  37800918.517                         192.052          45.000    37800903.308   152208577.012         148.277          48.000  
C11                                                                  27199116.759   109519571.403       -2008.012          43.000  
> 2025 10 28 08 29 25.8020000  0 24                     
G04  21662956.332                         262.471          45.000    21662947.549    88706149.417         204.600          47.000  
G27  21689781.416                        2397.239          46.000    21689773.119    88816001.966        1868.213          44.000  
G16  20671626.494                        -384.839          47.000                                                                  
G08  23758014.210                        3429.550          38.000    23758013.709                        2672.631          38.000  
G09  23729025.471                        2256.667          38.000    23729020.257                        1758.470          40.000  
G31  22030332.908                       -2128.646          46.000    22030322.436    90210481.456       -1658.723          44.000  
C06  36734959.184                          32.552          47.000    36734941.469   147916388.265          25.143          48.000  
C32  26758777.761                       -3567.591          39.000                                                                  
C37  22895623.921                        -593.574          50.000                                                                  
C07  38339141.273                         687.275          42.000    38339124.248   154375773.566         531.493          45.000  
C13  41834749.776                       -2315.759          34.000    41834783.271                       -1790.843          38.000  
C20  24683693.221                       -2186.874          46.000                                                                  
G18  25333598.640                         870.405          36.000    25333591.751                         678.219          39.000  
G28  24241747.423                       -3016.898          39.000    24241740.141                       -2350.640          41.000  
G03  25758062.374                       -3029.180          32.000    25758078.697                       -2360.490          38.000  
G26  21825545.807                       -2250.146          46.000    21825537.710    89371929.621       -1753.311          44.000  
C10  39403300.484                         647.284          39.000    39403288.605   158660717.422         500.378          43.000  
C28  23839354.071                        1342.771          47.000                                                                  
C23  25194963.139                       -2299.034          42.000                                                                  
C16  37174070.474                          31.683          48.000    37174058.152   149684529.598          24.545          48.000  
C27  25300964.556                        2759.193          40.000                                                                  
C19  25720872.016                         266.609          41.000                                                                  
C09  37800916.992                         197.362          45.000    37800901.747   152208570.829         152.653          48.000  
C11                                                                  27199136.668   109519651.509       -2004.150          43.000  
> 2025 10 28 08 29 25.8420000  0 24                     
G04  21662954.289                         266.760          45.000    21662945.479    88706141.092         207.752          47.000  
G27  21689763.120                        2401.143          46.000    21689754.796                        1871.198          44.000  
G16  20671629.401                        -381.271          47.000                                                                  
G08  23757988.075                        3433.226          38.000    23757987.555                        2675.445          38.000  
G09  23729008.246                        2260.026          38.000    23729003.077                        1761.027          40.000  
G31  22030349.041                       -2124.661          46.000    22030338.596                       -1655.516          44.000  
C06  36734958.877                          36.454          47.000    36734941.186   147916387.118          28.289          48.000  
C32  26758805.138                       -3564.571          39.000                                                                  
C37  22895628.450                        -589.822          50.000                                                                  
C07  38339135.946                         691.237          42.000    38339118.902   154375752.197         534.253          45.000  
C13  41834767.543                       -2312.609          34.000    41834801.026                       -1788.232          38.000  
C20  24683709.953                       -2182.847          46.000                                                                  
G18  25333591.955                         874.485          36.000    25333585.076                         680.952          39.000  
G28  24241770.346                       -3013.335          39.000    24241763.078                       -2347.972          41.000  
G03  25758085.396                       -3024.961          32.000    25758101.724                       -2357.804          38.000  
G26  21825562.890                       -2245.817          46.000    21825554.778                       -1749.975          44.000  
C10  39403295.461                         650.281          39.000    39403283.593   158660697.320         502.893          43.000  
C28  23839343.684                        1346.215          47.000                                                                  
C23  25194980.759                       -2295.163          42.000                                                                  
C16  37174070.156                          35.612          48.000    37174057.841   149684528.484          27.555          48.000  
C27  25300943.285                        2763.395          40.000                                                                  
C19  25720869.929                         270.195          41.000                                                                  
C09  37800915.406                         201.132          45.000    37800900.190                         155.547          48.000  
C11                                                                  27199156.517   109519731.569       -2001.470          43.000  
> 2025 10 28 08 29 25.8820000  0 24                     
G04  21662952.245                         268.717          45.000    21662943.420    88706132.747         209.475          47.000  
G27  21689744.844                        2403.337          46.000    21689736.488    88815852.236        1872.765          44.000  
G16  20671632.284                        -379.381          47.000                                                                  
G08  23757961.902                        3435.056          38.000    23757961.409                        2676.725          38.000  
G09  23728991.019                        2261.747          38.000    23728985.848                        1762.440          40.000  
G31  22030365.185                       -2122.722          46.000    22030354.736    90210613.855       -1653.929          44.000  
C06  36734958.555                          38.593          47.000    36734940.921   147916385.953          29.978          48.000  
C32  26758832.509                       -3562.655          39.000                                                                  
C37  22895632.961                        -588.097          50.000                                                                  
C07  38339130.626                         692.959          42.000    38339113.562   154375730.799         535.836          45.000  
C13  41834785.296                       -2311.115          34.000    41834818.766                       -1786.752          38.000  
C20  24683726.687                       -2180.905          46.000                                                                  
G18  25333585.262                         877.128          36.000    25333578.397                         682.833          39.000  
G28  24241793.230                       -3011.404          39.000    24241785.997                       -2346.646          41.000  
G03  25758108.404                       -3023.436          32.000    25758124.734                       -2356.092          38.000  
G26  21825579.966                       -2243.840          46.000    21825571.844    89372069.565       -1748.260          44.000  
C10  39403290.463                         651.941          39.000    39403278.596   158660677.186         504.315          43.000  
C28  23839333.330                        1347.941          47.000                                                                  
C23  25194998.386                       -2293.256          42.000                                                                  
C16  37174069.832                          37.634          48.000    37174057.537   149684527.346          29.269          48.000  
C27  25300922.030                        2765.356          40.000                                                                  
C19  25720867.834                         272.290          41.000                                                                  
C09  37800913.833                         202.861          45.000    37800898.646   152208558.365         156.983          48.000  
C11                                                                  27199176.395   109519811.598       -1999.904          43.000  
> 2025 10 28 08 29 25.9220000  0 24                     
G04  21662950.185                         268.338          45.000    21662941.379    88706124.452         209.042          47.000  
G27  21689726.558                        2402.731          46.000    21689718.203                        1872.418          44.000  
G16  20671635.152                        -380.038          47.000                                                                  
G08  23757935.768                        3433.703          38.000    23757935.268                        2675.720          38.000  
G09  23728973.824                        2261.342          38.000    23728968.636                        1762.457          41.000  
G31  22030381.353                       -2123.051          46.000    22030370.895                       -1653.915          44.000  
C06  36734958.261                          38.401          47.000    36734940.651   147916384.819          29.850          48.000  
C32  26758859.895                       -3563.221          39.000                                                                  
C37  22895637.518                        -588.728          50.000                                                                  
C07  38339125.330                         692.218          42.000    38339108.268   154375709.437         535.448          45.000  
C13  41834803.061                       -2311.369          34.000    41834836.511                       -1787.134          38.000  
C20  24683743.465                       -2181.330          46.000                                                                  
G18  25333578.611                         875.434          36.000    25333571.737                         682.973          39.000  
G28  24241816.158                       -3012.202          39.000    24241808.954                       -2346.878          41.000  
G03  25758131.443                       -3024.510          32.000    25758147.749                       -2356.019          38.000  
G26  21825597.043                       -2244.380          46.000    21825588.930                       -1748.710          44.000  
C10  39403285.497                         651.373          39.000    39403273.599                         503.839          43.000  
C28  23839323.024                        1347.432          47.000                                                                  
C23  25195016.067                       -2294.271          42.000                                                                  
C16  37174069.541                          37.383          48.000    37174057.249   149684526.253          28.889          48.000  
C27  25300900.826                        2764.176          40.000                                                                  
C19  25720865.784                         272.055          41.000                                                                  
C09  37800912.338                         202.229          45.000    37800897.102                         156.504          48.000  
C11                                                                  27199196.270   109519891.673       -2000.488          43.000  
> 2025 10 28 08 29 25.9620000  0 24                     
G04  21662948.169                         266.444          45.000    21662939.357                         207.725          47.000  
G27  21689708.289                        2401.283          46.000    21689699.954                        1870.892          44.000  
G16  20671638.052                        -381.684          47.000                                                                  
G08  23757909.640                        3432.835          38.000    23757909.162                        2674.611          38.000  
G09  23728956.648                        2260.029          38.000    23728951.450                        1760.974          41.000  
G31  22030397.512                       -2124.884          46.000    22030387.073                       -1655.715          44.000  
C06  36734957.975                          36.514          47.000    36734940.410                          28.252          48.000  
C32  26758887.297                       -3564.715          39.000                                                                  
C37  22895642.097                        -590.214          50.000                                                                  
C07  38339120.055                         690.804          42.000    38339102.959                         534.214          45.000  
C13  41834820.843                       -2313.046          34.000    41834854.275                       -1788.404          38.000  
C20  24683760.286                       -2183.076          46.000                                                                  
G18  25333571.966                         874.210          36.000    25333565.090                         681.209          39.000  
G28  24241839.104                       -3013.728          39.000    24241831.884                       -2348.150          41.000  
G03  25758154.490                       -3025.859          32.000    25758170.791                       -2358.006          38.000  
G26  21825614.134                       -2246.056          46.000    21825606.023                       -1750.200          44.000  
C10  39403280.548                         649.658          39.000    39403268.627                         502.594          43.000  
C28  23839312.726                        1345.657          47.000                                                                  
C23  25195033.738                       -2295.594          42.000                                                                  
C16  37174069.303                          35.626          48.000    37174056.966   149684525.194          27.708          48.000  
C27  25300879.611                        2763.154          40.000                                                                  
C19  25720863.733                         270.371          41.000                                                                  
C09  37800910.839                         200.609          45.000    37800895.567                         155.254          48.000  
C11                                                                  27199216.170                       -2001.704          43.000  
> 2025 10 28 08 29 26.0020000  0 24                     
G04  21662946.150                         264.033          45.000    21662937.339                         205.894          47.000  
G27  21689690.027                        2398.896          46.000    21689681.714                        1869.221          44.000  
G16  20671640.945                        -384.188          47.000                                                                  
G08  23757883.536                        3430.122          38.000    23757883.072                        2672.626          39.000  
G09  23728939.465                        2257.282          38.000    23728934.282                        1758.608          41.000  
G31  22030413.718                       -2127.013          46.000    22030403.276                       -1657.626          44.000  
C06  36734957.732                          34.210          47.000    36734940.171                          26.443          48.000  
C32  26758914.753                       -3567.088          39.000                                                                  
C37  22895646.713                        -592.630          50.000                                                                  
C07  38339114.791                         688.184          42.000    38339097.651                         532.441          45.000  
C13  41834838.637                       -2315.357          34.000    41834872.068                       -1790.822          38.000  
C20  24683777.079                       -2185.401          46.000                                                                  
G18  25333565.332                         872.059          36.000    25333558.473                         679.365          39.000  
G28  24241862.062                       -3016.163          39.000    24241854.853                       -2350.531          41.000  
G03  25758177.559                       -3027.862          32.000    25758193.845                       -2359.833          38.000  
G26  21825631.256                       -2248.106          46.000    21825623.131                       -1751.715          44.000  
C10  39403275.569                         646.844          39.000    39403263.662                         500.433          43.000  
C28  23839302.413                        1343.297          47.000                                                                  
C23  25195051.413                       -2297.454          43.000                                                                  
C16  37174069.071                          33.397          48.000    37174056.756                          25.874          48.000  
C27  25300858.427                        2760.658          40.000                                                                  
C19  25720861.706                         267.967          41.000                                                                  
C09  37800909.307                         198.405          45.000    37800894.083                         153.186          48.000  
C11                                                                  27199236.094                       -2003.683          43.000  
> 2025 10 28 08 29 26.0420000  0 24                     
G04  21662944.177                         260.956          45.000    21662935.357                         203.327          47.000  
G27  21689671.823                        2395.683          46.000    21689663.469                        1866.670          44.000  
G16  20671643.902                        -386.935          47.000                                                                  
G08  23757857.465                        3427.107          38.000    23757856.988                        2670.913          39.000  
G09  23728922.306                        2254.602          38.000    23728917.144                        1756.748          41.000  
G31  22030429.929                       -2130.131          46.000    22030419.504                       -1659.956          44.000  
C06  36734957.525                          31.325          47.000    36734939.942                          23.908          48.000  
C32  26758942.196                       -3569.545          39.000                                                                  
C37  22895651.326                        -595.542          50.000                                                                  
C07  38339109.547                         685.434          42.000    38339092.419                         530.110          45.000  
C13  41834856.433                       -2317.603          34.000    41834889.898                       -1792.657          38.000  
C20  24683793.920                       -2188.437          46.000                                                                  
G18  25333558.729                         868.895          36.000    25333551.871                         676.855          39.000  
G28  24241885.040                       -3018.742          39.000    24241877.835                       -2352.296          41.000  
G03  25758200.628                       -3030.413          32.000    25758216.916                       -2361.763          38.000  
G26  21825648.394                       -2251.356          46.000    21825640.286                       -1754.385          44.000  
C10  39403270.634                         644.873          39.000    39403258.751                         498.407          43.000  
C28  23839292.159                        1340.679          46.000                                                                  
C23  25195069.084                       -2300.815          43.000                                                                  
C16  37174068.869                          30.511          48.000    37174056.542                          23.521          48.000  
C27  25300837.276                        2757.445          40.000                                                                  
C19  25720859.702                         264.917          41.000                                                                  
C09  37800907.852                         195.421          45.000    37800892.568                         151.042          48.000  
C11                                                                  27199256.009                       -2005.659          43.000  
> 2025 10 28 08 29 26.0820000  0 24                     
G04  21662942.198                         259.776          45.000    21662933.381                         202.349          47.000  
G27  21689653.594                        2394.422          46.000    21689645.237                        1865.747          44.000  
G16  20671646.866                        -387.890          47.000                                                                  
G08  23757831.401                        3426.365          38.000    23757830.894                        2670.152          39.000  
G09  23728905.159                        2253.687          38.000    23728899.979                        1756.026          41.000  
G31  22030446.151                       -2131.450          46.000    22030435.736                       -1660.997          44.000  
C06  36734957.281                          30.009          47.000    36734939.721                          22.977          48.000  
C32  26758969.623                       -3570.779          39.000                                                                  
C37  22895655.887                        -596.568          50.000                                                                  
C07  38339104.263                         684.592          42.000    38339087.164                         529.037          45.000  
C13  41834874.233                       -2318.905          34.000    41834907.731                       -1793.427          38.000  
C20  24683810.711                       -2189.709          46.000                                                                  
G18  25333552.145                         867.409          36.000    25333545.279                         675.746          39.000  
G28  24241908.028                       -3019.484          39.000    24241900.825                       -2352.930          41.000  
G03  25758223.674                       -3031.976          31.000    25758239.979                       -2362.791          38.000  
G26  21825665.551                       -2252.653          46.000    21825657.436                       -1755.505          44.000  
C10  39403265.689                         644.318          39.000    39403253.773                         497.717          43.000  
C28  23839281.852                        1339.665          46.000                                                                  
C23  25195086.781                       -2301.924          43.000                                                                  
C16  37174068.635                          29.072          48.000    37174056.305                          22.415          48.000  
C27  25300816.102                        2756.401          40.000                                                                  
C19  25720857.692                         263.731          41.000                                                                  
C09  37800906.373                         194.427          45.000    37800891.055                         150.133          48.000  
C11                                                                  27199275.939                       -2006.510          43.000  
> 2025 10 28 08 29 26.1220000  0 24                     
G04  21662940.223                         260.459          45.000    21662931.396                         202.746          47.000  
G27  21689635.370                        2395.106          46.000    21689627.021                        1866.371          44.000  
G16  20671649.812                        -386.936          47.000                                                                  
G08  23757805.308                        3428.119          38.000    23757804.779                        2671.071          39.000  
G09  23728887.990                        2254.407          38.000    23728882.817                        1756.646          41.000  
G31  22030462.371                       -2130.720          46.000    22030451.927                       -1660.341          44.000  
C06  36734957.018                          30.588          47.000    36734939.496                          23.571          48.000  
C32  26758997.060                       -3569.479          39.000                                                                  
C37  22895660.433                        -595.617          50.000                                                                  
C07  38339098.996                         685.637          42.000    38339081.860                         529.810          45.000  
C13  41834892.063                       -2318.604          34.000    41834925.549                       -1792.458          38.000  
C20  24683827.476                       -2188.797          46.000                                                                  
G18  25333545.536                         867.942          36.000    25333538.672                         676.896          39.000  
G28  24241930.989                       -3018.737          39.000    24241923.805                       -2352.408          41.000  
G03  25758246.748                       -3031.730          31.000    25758263.050                       -2362.307          38.000  
G26  21825682.698                       -2252.037          46.000    21825674.580                       -1754.877          44.000  
C10  39403260.716                         645.221          39.000    39403248.796                         498.712          43.000  
C28  23839271.509                        1340.845          46.000                                                                  
C23  25195104.450                       -2301.073          43.000                                                                  
C16  37174068.365                          29.838          48.000    37174056.078                          22.781          48.000  
C27  25300794.893                        2757.169          40.000                                                                  
C19  25720855.661                         264.260          41.000                                                                  
C09  37800904.869                         195.461          45.000    37800889.559                         150.796          48.000  
C11                                                                  27199295.860                       -2005.727          43.000  
> 2025 10 28 08 29 26.1620000  0 24                     
G04  21662938.194                         263.377          45.000    21662929.398                         205.160          47.000  
G27  21689617.062                        2398.237          46.000    21689608.775                        1868.572          44.000  
G16  20671652.738                        -384.234          47.000                                                                  
G08  23757779.176                        3430.235          38.000    23757778.658                        2672.542          38.000  
G09  23728870.789                        2257.133          38.000    23728865.625                        1758.957          41.000  
G31  22030478.542                       -2127.755          46.000    22030468.114                       -1658.137          44.000  
C06  36734956.723                          33.437          47.000    36734939.253                          25.858          48.000  
C32  26759024.420                       -3567.141          39.000                                                                  
C37  22895665.015                        -592.785          50.000                                                                  
C07  38339093.681                         688.201          42.000    38339076.554                         532.128          45.000  
C13  41834909.821                       -2315.075          34.000    41834943.322                       -1790.611          38.000  
C20  24683844.263                       -2185.850          46.000                                                                  
G18  25333538.879                         871.092          36.000    25333532.021                         678.948          39.000  
G28  24241953.940                       -3015.898          39.000    24241946.759                       -2350.069          42.000  
G03  25758269.790                       -3028.414          32.000    25758286.068                       -2359.797          38.000  
G26  21825699.791                       -2249.143          46.000    21825691.711                       -1752.544          44.000  
C10  39403255.732                         647.583          39.000    39403243.816                         500.665          43.000  
C28  23839261.125                        1343.373          46.000                                                                  
C23  25195122.116                       -2298.347          43.000                                                                  
C16  37174068.101                          32.772          48.000    37174055.826                          25.060          48.000  
C27  25300773.686                        2760.423          40.000                                                                  
C19  25720853.592                         267.806          41.000                                                                  
C09  37800903.342                         198.073          45.000    37800888.034                         153.197          48.000  
C11                                                                  27199315.742                       -2003.635          43.000  
> 2025 10 28 08 29 26.2020000  0 24                     
G04  21662936.143                         265.414          45.000    21662927.390                         206.931          47.000  
G27  21689598.793                        2400.056          46.000    21689590.503                        1870.007          44.000  
G16  20671655.643                        -382.512          47.000                                                                  
G08  23757753.031                        3432.130          38.000    23757752.535                        2674.351          38.000  
G09  23728853.593                        2259.041          38.000    23728848.435                        1760.336          41.000  
G31  22030494.725                       -2125.703          46.000    22030484.280                       -1656.523          44.000  
C06  36734956.415                          35.605          47.000    36734938.982                          27.686          48.000  
C32  26759051.798                       -3565.419          39.000                                                                  
C37  22895669.538                        -590.962          50.000                                                                  
C07  38339088.367                         690.100          42.000    38339071.212                         533.682          45.000  
C13  41834927.604                       -2313.099          34.000    41834961.079                       -1788.555          38.000  
C20  24683861.004                       -2184.021          46.000                                                                  
G18  25333532.205                         873.274          36.000    25333525.363                         680.316          39.000  
G28  24241976.875                       -3014.187          39.000    24241969.689                       -2348.591          42.000  
G03  25758292.846                       -3026.672          32.000    25758309.085                       -2358.070          38.000  
G26  21825716.912                       -2247.000          46.000    21825708.807                       -1750.730          44.000  
C10  39403250.723                         649.127          39.000    39403238.823                         502.142          43.000  
C28  23839250.774                        1345.088          46.000                                                                  
C23  25195139.751                       -2296.475          43.000                                                                  
C16  37174067.812                          34.639          48.000    37174055.549                          26.987          48.000  
C27  25300752.449                        2762.310          40.000                                                                  
C19  25720851.490                         269.463          41.000                                                                  
C09  37800901.789                         199.984          45.000    37800886.447                         154.842          48.000  
C11                                                                  27199335.631                       -2002.291          43.000  
> 2025 10 28 08 29 26.2420000  0 24                     
G04  21662934.132                         266.214          45.000    21662925.364                         207.409          47.000  
G27  21689580.510                        2400.683          46.000    21689572.222                        1870.747          44.000  
G16  20671658.552                        -381.741          47.000                                                                  
G08  23757726.899                        3432.673          38.000    23757726.404                        2674.966          38.000  
G09  23728836.392                        2259.516          38.000    23728831.247                        1760.716          41.000  
G31  22030510.900                       -2125.042          46.000    22030500.443                       -1655.808          44.000  
C06  36734956.125                          36.386          47.000    36734938.716                          28.256          48.000  
C32  26759079.181                       -3564.764          39.000                                                                  
C37  22895674.034                        -590.373          50.000                                                                  
C07  38339083.061                         690.527          42.000    38339065.884                         534.169          45.000  
C13  41834945.385                       -2313.328          34.000    41834978.828                       -1788.173          38.000  
C20  24683877.774                       -2183.398          46.000                                                                  
G18  25333525.559                         873.711          36.000    25333518.712                         681.161          39.000  
G28  24241999.824                       -3013.958          39.000    24241992.624                       -2348.262          42.000  
G03  25758315.853                       -3026.103          32.000    25758332.109                       -2357.724          38.000  
G26  21825734.030                       -2246.202          46.000    21825725.907                       -1750.227          44.000  
C10  39403245.705                         649.847          39.000    39403233.785                         502.466          43.000  
C28  23839240.434                        1345.525          46.000                                                                  
C23  25195157.392                       -2295.487          43.000                                                                  
C16  37174067.559                          35.465          48.000    37174055.259                          27.662          48.000  
C27  25300731.227                        2762.655          40.000                                                                  
C19  25720849.440                         269.706          41.000                                                                  
C09  37800900.244                         200.675          45.000    37800884.913                         155.289          48.000  
C11                                                                  27199355.521                       -2001.647          43.000  
> 2025 10 28 08 29 26.2820000  0 24                     
G04  21662932.107                         265.982          45.000    21662923.344                         207.133          47.000  
G27  21689562.242                        2400.487          46.000    21689553.970                        1870.716          44.000  
G16  20671661.463                        -382.154          47.000                                                                  
G08  23757700.777                        3432.201          38.000    23757700.291                        2674.184          38.000  
G09  23728819.200                        2259.124          38.000    23728814.063                        1760.435          41.000  
G31  22030527.088                       -2125.402          46.000    22030516.632                       -1656.098          44.000  
C06  36734955.842                          36.195          47.000    36734938.471                          27.882          48.000  
C32  26759106.564                       -3564.750          39.000                                                                  
C37  22895678.573                        -590.804          50.000                                                                  
C07  38339077.783                         690.189          42.000    38339060.581                         533.751          45.000  
C13  41834963.196                       -2313.622          34.000    41834996.612                       -1788.812          38.000  
C20  24683894.555                       -2183.781          46.000                                                                  
G18  25333518.948                         873.148          36.000    25333512.090                         680.750          39.000  
G28  24242022.763                       -3013.948          39.000    24242015.568                       -2348.565          42.000  
G03  25758338.897                       -3026.442          32.000    25758355.156                       -2357.954          38.000  
G26  21825751.131                       -2246.399          46.000    21825743.002                       -1750.381          44.000  
C10  39403240.725                         649.579          39.000    39403228.792                         502.051          43.000  
C28  23839230.095                        1345.278          46.000                                                                  
C23  25195175.070                       -2295.735          42.000                                                                  
C16  37174067.271                          35.148          48.000    37174054.979                          27.375          48.000  
C27  25300710.017                        2762.409          40.000                                                                  
C19  25720847.357                         268.890          41.000                                                                  
C09  37800898.730                         200.391          45.000    37800883.410                         155.125          48.000  
C11                                                                  27199375.410                       -2001.834          43.000  
> 2025 10 28 08 29 26.3220000  0 24                     
G04  21662930.090                         265.323          45.000    21662921.332                         206.774          47.000  
G27  21689543.988                        2400.130          46.000    21689535.722                        1870.370          44.000  
G16  20671664.394                        -382.524          47.000                                                                  
G08  23757674.661                        3432.015          38.000    23757674.169                        2674.000          38.000  
G09  23728802.003                        2258.838          38.000    23728796.867                        1760.110          41.000  
G31  22030543.269                       -2125.782          46.000    22030532.809                       -1656.422          44.000  
C06  36734955.583                          35.756          47.000    36734938.194                          27.562          48.000  
C32  26759133.957                       -3565.383          39.000                                                                  
C37  22895683.133                        -591.028          50.000                                                                  
C07  38339072.483                         690.065          42.000    38339055.284                         533.517          45.000  
C13  41834980.967                       -2313.221          34.000    41835014.396                       -1789.248          38.000  
C20  24683911.353                       -2184.239          46.000                                                                  
G18  25333512.301                         873.415          36.000    25333505.461                         680.496          39.000  
G28  24242045.693                       -3014.365          39.000    24242038.514                       -2348.888          42.000  
G03  25758361.899                       -3026.053          32.000    25758378.200                       -2358.656          38.000  
G26  21825768.227                       -2246.808          46.000    21825760.104                       -1751.019          44.000  
C10  39403235.767                         649.084          39.000    39403223.807                         502.069          43.000  
C28  23839219.779                        1345.157          46.000                                                                  
C23  25195192.700                       -2296.197          42.000                                                                  
C16  37174066.994                          34.851          48.000    37174054.690                          26.875          48.000  
C27  25300688.822                        2761.855          40.000                                                                  
C19  25720845.296                         268.850          41.000                                                                  
C09  37800897.191                         200.110          45.000    37800881.863                         154.687          48.000  
C11                                                                  27199395.314   109520693.085       -2002.269          43.000  
> 2025 10 28 08 29 26.3620000  0 24                     
G04  21662928.111                         265.430          45.000    21662919.311    88706033.991         206.903          47.000  
G27  21689525.725                        2400.354          46.000    21689517.463    88814955.040        1870.429          44.000  
G16  20671667.294                        -382.252          47.000                                                                  
G08  23757648.513                        3432.342          38.000    23757648.057                        2674.622          38.000  
G09  23728784.811                        2259.427          38.000    23728779.680                        1760.359          41.000  
G31  22030559.446                       -2125.604          46.000    22030548.966                       -1656.121          44.000  
C06  36734955.292                          35.857          47.000    36734937.911   147916373.246          27.772          48.000  
C32  26759161.391                       -3564.793          39.000                                                                  
C37  22895687.661                        -590.695          50.000                                                                  
C07  38339067.164                         690.463          42.000    38339049.978   154375475.193         533.824          45.000  
C13  41834998.742                       -2313.029          34.000    41835032.153                       -1788.693          38.000  
C20  24683928.128                       -2183.795          46.000                                                                  
G18  25333505.652                         873.841          36.000    25333498.817                         680.776          39.000  
G28  24242068.640                       -3013.904          39.000    24242061.466                       -2348.765          41.000  
G03  25758384.954                       -3026.342          32.000    25758401.249                       -2358.491          38.000  
G26  21825785.360                       -2246.598          46.000    21825777.193                       -1750.669          44.000  
C10  39403230.775                         649.493          39.000    39403218.863   158660436.710         502.283          43.000  
C28  23839209.443                        1345.396          46.000                                                                  
C23  25195210.330                       -2296.286          42.000                                                                  
C16  37174066.711                          34.916          48.000    37174054.468   149684514.953          27.046          48.000  
C27  25300667.594                        2762.122          40.000                                                                  
C19  25720843.216                         269.439          41.000                                                                  
C09  37800895.656                         200.211          45.000    37800880.318   152208484.665         154.714          48.000  
C11                                                                  27199415.238   109520773.167       -2002.017          43.000  
> 2025 10 28 08 29 26.4020000  0 24                     
G04  21662926.083                         265.946          45.000    21662917.297    88706025.691         207.402          47.000  
G27  21689507.440                        2400.814          46.000    21689499.183    88814880.219        1870.578          44.000  
G16  20671670.181                        -381.906          47.000                                                                  
G08  23757622.359                        3432.642          38.000    23757621.921                        2675.084          39.000  
G09  23728767.600                        2259.662          38.000    23728762.457    97165313.554        1760.921          40.000  
G31  22030575.607                       -2125.157          47.000    22030565.133    90211475.692       -1655.955          44.000  
C06  36734954.999                          36.326          46.000    36734937.634   147916372.118          28.156          48.000  
C32  26759188.785                       -3564.363          39.000                                                                  
C37  22895692.201                        -590.253          49.000                                                                  
C07  38339061.854                         690.837          41.000    38339044.669   154375453.831         534.083          45.000  
C13  41835016.487                       -2312.930          33.000    41835049.925                       -1788.523          38.000  
C20  24683944.913                       -2183.372          45.000                                                                  
G18  25333498.998                         873.880          36.000    25333492.156   103736413.032         680.695          39.000  
G28  24242091.571                       -3013.635          39.000    24242084.385    99267270.728       -2348.119          41.000  
G03  25758407.983                       -3025.708          32.000    25758424.266                       -2357.728          38.000  
G26  21825802.443                       -2246.278          46.000    21825794.269    89372980.519       -1750.348          44.000  
C10  39403225.770                         649.963          39.000    39403213.886   158660416.610         502.545          43.000  
C28  23839199.123                        1345.653          46.000                                                                  
C23  25195227.973                       -2295.820          42.000                                                                  
C16  37174066.414                          35.488          48.000    37174054.214   149684513.860          27.327          48.000  
C27  25300646.366                        2762.702          39.000                                                                  
C19  25720841.140                         270.117          40.000                                                                  
C09  37800894.117                         200.623          44.000    37800878.777   152208478.454         155.190          48.000  
C11                                                                  27199435.115   109520853.252       -2002.024          43.000  
> 2025 10 28 08 29 26.4420000  0 24                     
G04  21662924.061                         266.250          45.000    21662915.272    88706017.405         207.358          47.000  
G27  21689489.164                        2400.947          46.000    21689480.899    88814805.390        1870.779          44.000  
G16  20671673.103                        -381.743          47.000                                                                  
G08  23757596.224                        3432.649          38.000    23757595.792    97283416.021        2674.635          38.000  
G09  23728750.392                        2259.771          38.000    23728745.254    97165243.123        1760.927          41.000  
G31  22030591.759                       -2124.896          47.000    22030581.318    90211541.938       -1655.968          44.000  
C06  36734954.732                          36.571          46.000    36734937.348   147916370.994          28.247          48.000  
C32  26759216.194                       -3564.614          39.000                                                                  
C37  22895696.724                        -590.173          49.000                                                                  
C07  38339056.553                         690.550          41.000    38339039.345   154375432.475         534.061          45.000  
C13  41835034.234                       -2312.837          33.000    41835067.692                       -1788.253          38.000  
C20  24683961.672                       -2183.229          45.000                                                                  
G18  25333492.349                         873.735          36.000    25333485.485   103736385.786         681.018          39.000  
G28  24242114.517                       -3013.534          39.000    24242107.308    99267364.667       -2348.240          41.000  
G03  25758431.022                       -3025.240          32.000    25758447.307   105476418.580       -2357.739          38.000  
G26  21825819.544                       -2246.083          46.000    21825811.362    89373050.531       -1750.179          44.000  
C10  39403220.787                         649.963          39.000    39403208.926   158660396.511         502.606          43.000  
C28  23839188.785                        1345.754          46.000                                                                  
C23  25195245.623                       -2295.550          42.000                                                                  
C16  37174066.149                          35.719          48.000    37174053.950   149684512.761          27.537          48.000  
C27  25300625.123                        2762.954          39.000                                                                  
C19  25720839.082                         270.198          40.000                                                                  
C09  37800892.623                         200.980          44.000    37800877.227   152208472.249         155.261          48.000  
C11                                                                  27199454.988   109520933.327       -2001.878          43.000  
> 2025 10 28 08 29 26.4820000  0 24                     
G04  21662922.052                         265.900          45.000    21662913.272    88706009.128         207.127          47.000  
G27  21689470.917   113978940.156        2400.548          46.000    21689462.631    88814730.579        1870.491          44.000  
G16  20671675.994   108630391.054        -382.044          47.000                                                                  
G08  23757570.085                        3432.477          38.000    23757569.674    97283309.051        2674.310          39.000  
G09  23728733.215                        2259.298          38.000    23728728.060    97165172.708        1760.562          41.000  
G31  22030607.919   115771625.376       -2125.254          47.000    22030597.497    90211608.193       -1656.207          44.000  
C06  36734954.446                          36.293          46.000    36734937.080   147916369.887          27.923          48.000  
C32  26759243.579                       -3565.008          39.000                                                                  
C37  22895701.243                        -590.531          49.000                                                                  
C07  38339051.224                         690.287          41.000    38339034.054   154375411.126         533.866          45.000  
C13  41835052.002                       -2313.071          33.000    41835085.466   168452585.556       -1788.693          38.000  
C20  24683978.456                       -2183.530          45.000                                                                  
G18  25333485.691                         873.503          36.000    25333478.824   103736358.578         680.504          39.000  
G28  24242137.469                       -3013.788          39.000    24242130.250    99267458.613       -2348.500          41.000  
G03  25758454.032                       -3026.008          32.000    25758470.354   105476512.902       -2357.886          38.000  
G26  21825836.627   114695546.334       -2246.357          46.000    21825828.470    89373120.559       -1750.458          44.000  
C10  39403215.811                         649.469          39.000    39403203.925   158660376.421         502.411          43.000  
C28  23839178.425   124136861.834        1345.507          46.000                                                                  
C23  25195263.261                       -2295.613          42.000                                                                  
C16  37174065.836                          35.448          48.000    37174053.689   149684511.678          27.299          48.000  
C27  25300603.889                        2762.954          39.000                                                                  
C19  25720837.015                         269.629          40.000                                                                  
C09  37800891.051                         200.518          44.000    37800875.680   152208466.050         155.150          48.000  
C11                                                                  27199474.871   109521013.403       -2001.830          43.000  
> 2025 10 28 08 29 26.5220000  0 24                     
G04  21662920.036   113839415.425         265.261          45.000    21662911.251    88706000.861         206.772          47.000  
G27  21689452.665   113978844.155        2400.161          46.000    21689444.387    88814655.771        1870.265          44.000  
G16  20671678.959   108630406.351        -382.334          47.000                                                                  
G08  23757543.958                        3432.116          38.000    23757543.528    97283202.069        2674.393          38.000  
G09  23728716.002                        2259.198          38.000    23728710.883    97165102.306        1760.076          41.000  
G31  22030624.130   115771710.413       -2125.740          47.000    22030613.705    90211674.442       -1656.233          44.000  
C06  36734954.154   191288532.019          35.856          46.000    36734936.794   147916368.786          27.604          48.000  
C32  26759270.957                       -3565.080          39.000                                                                  
C37  22895705.758   119223950.035        -590.973          49.000                                                                  
C07  38339045.894                         690.264          41.000    38339028.750   154375389.785         533.567          45.000  
C13  41835069.765                       -2313.323          33.000    41835103.216   168452657.128       -1789.222          38.000  
C20  24683995.224   128536041.729       -2183.953          45.000                                                                  
G18  25333479.047                         873.366          36.000    25333472.179   103736331.371         680.198          39.000  
G28  24242160.417   127393410.961       -3014.047          39.000    24242153.197    99267552.570       -2348.919          41.000  
G03  25758477.051                       -3026.084          32.000    25758493.397   105476607.204       -2357.708          38.000  
G26  21825853.737   114695636.224       -2246.988          46.000    21825845.571    89373190.597       -1750.795          44.000  
C10  39403210.826                         649.432          39.000    39403198.959   158660356.339         502.118          43.000  
C28  23839168.080   124136808.039        1344.996          46.000                                                                  
C23  25195280.905                       -2296.266          42.000                                                                  
C16  37174065.571   193575116.242          34.961          48.000    37174053.425   149684510.596          27.123          48.000  
C27  25300582.650                        2762.334          39.000                                                                  
C19  25720834.933                         269.091          40.000                                                                  
C09  37800889.490                         200.043          44.000    37800874.122   152208459.866         154.742          48.000  
C11                                                                  27199494.752   109521093.496       -2002.163          43.000  
> 2025 10 28 08 29 26.5620000  0 24                     
G04  21662918.026   113839404.823         264.954          45.000    21662909.237    88705992.604         206.419          47.000  
G27  21689434.400   113978748.166        2399.709          46.000    21689426.116    88814580.975        1869.903          44.000  
G16  20671681.901   108630421.663        -382.771          47.000                                                                  
G08  23757517.859                        3431.577          38.000    23757517.405    97283095.104        2674.125          39.000  
G09  23728698.838                        2258.229          38.000    23728693.684    97165031.906        1759.819          41.000  
G31  22030640.315   115771795.459       -2126.180          47.000    22030629.898    90211740.709       -1656.602          44.000  
C06  36734953.876   191288530.608          35.351          46.000    36734936.541   147916367.694          27.297          48.000  
C32  26759298.326                       -3565.247          39.000                                                                  
C37  22895710.258   119223973.691        -591.432          49.000                                                                  
C07  38339040.576   199641447.275         689.777          41.000    38339023.464   154375368.448         533.375          45.000  
C13  41835087.547                       -2314.135          33.000    41835120.992   168452728.697       -1789.430          38.000  
C20  24684011.982   128536129.107       -2184.421          45.000                                                                  
G18  25333472.400                         872.709          36.000    25333465.533   103736304.146         680.337          39.000  
G28  24242183.351   127393531.550       -3014.582          39.000    24242176.127    99267646.527       -2349.071          41.000  
G03  25758500.094                       -3026.895          32.000    25758516.451   105476701.547       -2358.347          38.000  
G26  21825870.857   114695726.113       -2247.322          46.000    21825862.687    89373260.640       -1751.065          44.000  
C10  39403205.827   205182836.030         649.139          39.000    39403193.970   158660336.266         501.807          43.000  
C28  23839157.744   124136754.254        1344.583          46.000                                                                  
C23  25195298.568   131198536.784       -2296.710          42.000                                                                  
C16  37174065.304   193575114.869          34.377          48.000    37174053.171   149684509.527          26.791          48.000  
C27  25300561.420                        2761.804          39.000                                                                  
C19  25720832.871                         268.698          40.000                                                                  
C09  37800887.952   196839145.398         199.721          44.000    37800872.617   152208453.691         154.377          48.000  
C11                                                                  27199514.625   109521173.587       -2002.323          43.000  
> 2025 10 28 08 29 26.6020000  0 24                     
G04  21662916.006   113839394.234         264.619          45.000    21662907.220    88705984.358         206.092          47.000  
G27  21689416.141   113978652.191        2399.317          46.000    21689407.883    88814506.193        1869.460          44.000  
G16  20671684.828   108630436.986        -383.172          47.000                                                                  
G08  23757491.736   124846483.274        3431.359          38.000    23757491.280    97282988.148        2673.879          39.000  
G09  23728681.675                        2257.810          38.000    23728676.475    97164961.520        1759.525          41.000  
G31  22030656.498   115771880.514       -2126.489          47.000    22030646.080    90211806.991       -1657.039          44.000  
C06  36734953.582   191288529.203          34.999          46.000    36734936.295   147916366.594          27.300          48.000  
C32  26759325.705   139342735.464       -3565.543          39.000                                                                  
C37  22895714.813   119223997.346        -591.572          49.000                                                                  
C07  38339035.250   199641419.698         689.321          41.000    38339018.173   154375347.119         533.160          45.000  
C13  41835105.303                       -2314.866          33.000    41835138.787   168452800.250       -1789.158          38.000  
C20  24684028.750   128536216.502       -2184.914          45.000                                                                  
G18  25333465.763                         872.194          36.000    25333458.896   103736276.946         680.014          39.000  
G28  24242206.296   127393652.146       -3014.974          39.000    24242199.073    99267740.493       -2349.242          41.000  
G03  25758523.141                       -3027.782          32.000    25758539.510   105476795.918       -2359.107          38.000  
G26  21825887.974   114695816.019       -2247.708          46.000    21825879.809    89373330.697       -1751.428          44.000  
C10  39403200.806   205182810.081         648.694          39.000    39403188.998   158660316.202         501.526          43.000  
C28  23839147.429   124136700.478        1344.252          46.000                                                                  
C23  25195316.235   131198628.652       -2296.892          42.000                                                                  
C16  37174065.035   193575113.495          34.137          48.000    37174052.939   149684508.467          26.475          48.000  
C27  25300540.184                        2761.347          39.000                                                                  
C19  25720830.827   133935120.903         268.021          40.000                                                                  
C09  37800886.434   196839137.418         199.425          45.000    37800871.098   152208447.526         154.028          48.000  
C11                                                                  27199534.521   109521253.690       -2002.593          43.000  
> 2025 10 28 08 29 26.6420000  0 24                     
G04  21662913.973   113839383.644         264.518          45.000    21662905.202    88705976.099         206.165          47.000  
G27  21689397.865   113978556.207        2399.311          46.000    21689389.615    88814431.404        1869.445          44.000  
G16  20671687.755   108630452.311        -383.326          47.000                                                                  
G08  23757465.629   124846346.008        3431.395          38.000    23757465.164    97282881.187        2673.870          39.000  
G09  23728664.473   124694982.834        2258.285          38.000    23728659.281    97164891.122        1759.655          41.000  
G31  22030672.679   115771965.566       -2126.552          47.000    22030662.260    90211873.269       -1657.169          44.000  
C06  36734953.314   191288527.789          35.073          46.000    36734936.033   147916365.503          27.219          48.000  
C32  26759353.080   139342878.092       -3565.744          39.000                                                                  
C37  22895719.383   119224021.002        -591.599          49.000                                                                  
C07  38339029.974   199641392.119         689.259          41.000    38339012.882   154375325.786         533.146          45.000  
C13  41835123.048                       -2314.469          33.000    41835156.552   168452871.804       -1788.964          38.000  
C20  24684045.533   128536303.889       -2184.979          45.000                                                                  
G18  25333459.119   133128229.870         872.434          36.000    25333452.278   103736249.759         679.697          39.000  
G28  24242229.220   127393772.726       -3014.817          39.000    24242222.004    99267834.447       -2349.074          41.000  
G03  25758546.165                       -3026.851          32.000    25758562.559   105476890.248       -2358.714          38.000  
G26  21825905.077   114695905.917       -2247.721          46.000    21825896.905    89373400.744       -1751.438          44.000  
C10  39403195.852   205182784.128         648.590          39.000    39403184.040   158660296.122         501.746          43.000  
C28  23839137.119   124136646.688        1344.446          46.000                                                                  
C23  25195333.884   131198720.517       -2296.860          42.000                                                                  
C16  37174064.761   193575112.118          34.139          48.000    37174052.683   149684507.402          26.472          48.000  
C27  25300518.955   131746451.424        2761.403          39.000                                                                  
C19  25720828.773   133935110.163         268.093          41.000                                                                  
C09  37800884.941   196839129.425         199.564          45.000    37800869.571   152208441.352         154.067          48.000  
C11                                                                  27199554.435   109521333.800       -2002.832          43.000  
> 2025 10 28 08 29 26.6820000  0 24                     
G04  21662911.956   113839373.061         264.396          45.000    21662903.179    88705967.849         206.096          47.000  
G27  21689379.594   113978460.236        2399.141          46.000    21689371.334    88814356.613        1869.514          44.000  
G16  20671690.651   108630467.635        -383.320          47.000                                                                  
G08  23757439.501   124846208.745        3431.447          38.000    23757439.049    97282774.244        2673.523          39.000  
G09  23728647.280   124694892.486        2258.496          38.000    23728642.094    97164820.740        1759.451          40.000  
G31  22030688.868   115772050.616       -2126.469          47.000    22030678.443    90211939.538       -1656.996          44.000  
C06  36734953.085   191288526.378          35.101          46.000    36734935.735   147916364.415          27.086          48.000  
C32  26759380.480   139343020.724       -3565.935          39.000                                                                  
C37  22895723.935   119224044.661        -591.624          49.000                                                                  
C07  38339024.689   199641364.546         689.172          41.000    38339007.600   154375304.462         533.011          45.000  
C13  41835140.833                       -2313.875          33.000    41835174.367   168452943.387       -1789.501          38.000  
C20  24684062.324   128536391.265       -2184.724          45.000                                                                  
G18  25333452.490   133128194.971         872.291          36.000    25333445.631   103736222.563         679.684          39.000  
G28  24242252.134   127393893.317       -3014.858          39.000    24242244.953    99267928.417       -2349.228          41.000  
G03  25758569.177                       -3026.755          32.000    25758585.589   105476984.581       -2358.516          38.000  
G26  21825922.186   114695995.812       -2247.641          46.000    21825914.012    89373470.794       -1751.431          44.000  
C10  39403190.868   205182758.169         648.730          39.000    39403179.074   158660276.059         501.544          43.000  
C28  23839126.774   124136592.907        1344.404          46.000                                                                  
C23  25195351.530   131198812.387       -2296.911          42.000                                                                  
C16  37174064.538   193575110.742          34.185          48.000    37174052.439   149684506.340          26.415          48.000  
C27  25300497.761   131746340.957        2761.472          39.000                                                                  
C19  25720826.711   133935099.407         268.521          41.000                                                                  
C09  37800883.405   196839121.446         199.441          45.000    37800868.019   152208435.178         154.151          48.000  
C11                                                                  27199574.328   109521413.908       -2002.854          43.000  
> 2025 10 28 08 29 26.7220000  0 24                     
G04  21662909.943   113839362.485         264.244          45.000    21662901.157    88705959.611         205.902          47.000  
G27  21689361.307   113978364.266        2399.058          46.000    21689353.081    88814281.835        1869.391          44.000  
G16  20671693.547   108630482.958        -383.246          47.000                                                                  
G08  23757413.385   124846071.496        3431.250          38.000    23757412.918    97282667.299        2673.434          39.000  
G09  23728630.082   124694802.161        2258.235          38.000    23728624.900    97164750.350        1759.592          41.000  
G31  22030705.048   115772135.673       -2126.514          47.000    22030694.630    90212005.821       -1657.129          44.000  
C06  36734952.834   191288524.982          34.882          46.000    36734935.487   147916363.334          26.958          48.000  
C32  26759407.875   139343163.360       -3566.037          39.000                                                                  
C37  22895728.458   119224068.330        -591.785          49.000                                                                  
C07  38339019.374   199641336.967         689.288          41.000    38339002.287   154375283.148         532.794          45.000  
C13  41835158.579                       -2313.715          33.000    41835192.150   168453014.971       -1789.779          38.000  
C20  24684079.141   128536478.650       -2184.703          45.000                                                                  
G18  25333445.874   133128160.078         872.207          36.000    25333439.005   103736195.384         679.454          39.000  
G28  24242275.085   127394013.924       -3015.191          39.000    24242267.899    99268022.398       -2349.510          41.000  
G03  25758592.211                       -3026.867          32.000    25758608.629   105477078.950       -2359.100          38.000  
G26  21825939.279   114696085.715       -2247.678          46.000    21825931.124    89373540.849       -1751.455          44.000  
C10  39403185.870   205182732.236         648.334          39.000    39403174.102   158660255.999         501.416          43.000  
C28  23839116.433   124136539.138        1344.175          46.000                                                                  
C23  25195369.179   131198904.267       -2297.073          42.000                                                                  
C16  37174064.292   193575109.373          34.105          48.000    37174052.217   149684505.290          26.206          48.000  
C27  25300476.541   131746230.502        2761.328          39.000                                                                  
C19  25720824.660   133935088.675         268.305          41.000                                                                  
C09  37800881.881   196839113.473         199.274          45.000    37800866.490   152208429.010         154.121          48.000  
C11                                                                  27199594.206   109521494.015       -2002.804          43.000  
> 2025 10 28 08 29 26.7620000  0 24                     
G04  21662907.935   113839351.925         263.961          45.000    21662899.187    88705951.388         205.533          47.000  
G27  21689343.068   113978268.319        2398.650          46.000    21689334.813    88814207.066        1869.160          44.000  
G16  20671696.488   108630498.312        -383.811          47.000                                                                  
G08  23757387.278   124845934.269        3430.735          38.000    23757386.794    97282560.387        2672.846          39.000  
G09  23728612.904   124694711.868        2257.395          38.000    23728607.705    97164679.997        1758.982          40.000  
G31  22030721.258   115772220.756       -2126.969          47.000    22030710.812    90212072.110       -1657.273          44.000  
C06  36734952.599   191288523.598          34.547          46.000    36734935.209   147916362.269          26.608          48.000  
C32  26759435.261   139343306.015       -3566.395          39.000                                                                  
C37  22895732.951   119224092.023        -592.312          49.000                                                                  
C07  38339014.084   199641309.409         688.964          41.000    38338996.989   154375261.844         532.548          45.000  
C13  41835176.362                       -2313.730          33.000    41835209.945   168453086.581       -1790.353          38.000  
C20  24684095.918   128536566.067       -2185.289          45.000                                                                  
G18  25333439.242   133128125.194         872.035          36.000    25333432.367   103736168.201         679.385          39.000  
G28  24242298.046   127394134.548       -3015.658          39.000    24242290.871    99268116.392       -2349.940          41.000  
G03  25758615.242                       -3027.836          32.000    25758631.668   105477173.300       -2359.005          38.000  
G26  21825956.411   114696175.635       -2247.992          46.000    21825948.230    89373610.915       -1751.697          44.000  
C10  39403180.889   205182706.311         647.980          39.000    39403169.120   158660235.960         500.934          43.000  
C28  23839106.105   124136485.396        1343.573          46.000                                                                  
C23  25195386.833   131198996.188       -2297.894          42.000                                                                  
C16  37174064.012   193575108.028          33.650          48.000    37174051.951   149684504.244          26.033          48.000  
C27  25300455.296   131746120.066        2760.899          39.000                                                                  
C19  25720822.621   133935077.961         267.835          41.000                                                                  
C09  37800880.312   196839105.521         198.819          45.000    37800864.980   152208422.857         153.816          48.000  
C11                                                                  27199614.129   109521574.155       -2003.445          43.000  
> 2025 10 28 08 29 26.8020000  0 24                     
G04  21662905.971   113839341.418         262.856          45.000    21662897.205    88705943.199         204.739          47.000  
G27  21689324.824   113978172.417        2397.662          46.000    21689316.564    88814132.338        1868.313          44.000  
G16  20671699.404   108630513.715        -384.986          47.000                                                                  
G08  23757361.169   124845797.089        3429.602          38.000    23757360.696    97282453.473        2672.597          39.000  
G09  23728595.751   124694621.620        2256.169          38.000    23728590.544    97164609.659        1758.390          40.000  
G31  22030737.456   115772305.890       -2128.138          47.000    22030726.998    90212138.451       -1658.322          44.000  
C06  36734952.356   191288522.266          33.496          46.000    36734934.943   147916361.239          25.827          48.000  
C32  26759462.684   139343448.717       -3567.410          39.000                                                                  
C37  22895737.506   119224115.763        -593.399          49.000                                                                  
C07  38339008.821   199641281.887         688.125          41.000    38338991.726   154375240.572         531.837          45.000  
C13  41835194.150                       -2315.698          33.000    41835227.747   168453158.206       -1790.793          38.000  
C20  24684112.707   128536653.534       -2186.478          45.000                                                                  
G18  25333432.620   133128090.367         870.957          36.000    25333425.720   103736141.054         678.684          39.000  
G28  24242321.004   127394255.215       -3016.666          39.000    24242313.830    99268210.428       -2350.906          41.000  
G03  25758638.295                       -3028.773          31.000    25758654.735   105477267.728       -2360.350          38.000  
G26  21825973.535   114696265.618       -2249.275          46.000    21825965.365    89373681.038       -1752.844          44.000  
C10  39403175.921   205182680.425         647.150          39.000    39403164.129   158660215.947         500.214          43.000  
C28  23839095.788   124136431.698        1342.466          46.000                                                                  
C23  25195404.492   131199088.122       -2298.543          42.000                                                                  
C16  37174063.787   193575106.731          32.568          48.000    37174051.701   149684503.241          25.214          48.000  
C27  25300434.099   131746009.677        2759.864          39.000                                                                  
C19  25720820.563   133935067.296         266.739          40.000                                                                  
C09  37800878.797   196839097.618         197.716          45.000    37800863.462   152208416.744         152.939          48.000  
C11                                                                  27199634.018   109521654.327       -2004.280          43.000  
> 2025 10 28 08 29 26.8420000  0 24                     
G04  21662904.004   113839330.944         261.812          45.000    21662895.213    88705935.029         204.083          47.000  
G27  21689306.603   113978076.556        2396.542          46.000    21689298.315    88814057.637        1867.463          44.000  
G16  20671702.351   108630529.138        -385.801          47.000                                                                  
G08  23757335.068   124845659.929        3428.836          38.000    23757334.589    97282346.587        2672.125          39.000  
G09  23728578.567   124694531.369        2255.798          38.000    23728573.380    97164539.349        1757.689          40.000  
G31  22030753.653   115772391.053       -2129.150          47.000    22030743.213    90212204.808       -1659.080          44.000  
C06  36734952.126   191288520.968          32.452          46.000    36734934.693   147916360.230          25.117          48.000  
C32  26759490.087   139343591.444       -3568.296          39.000                                                                  
C37  22895742.058   119224139.521        -594.176          49.000                                                                  
C07  38339003.545   199641254.422         686.781          41.000    38338986.460   154375219.323         531.136          45.000  
C13  41835211.945                       -2316.967          34.000    41835245.542   168453229.845       -1791.164          38.000  
C20  24684129.502   128536741.030       -2187.527          45.000                                                                  
G18  25333426.009   133128055.572         869.896          36.000    25333419.107   103736113.932         677.987          39.000  
G28  24242343.984   127394375.902       -3017.436          39.000    24242336.789    99268304.461       -2351.184          41.000  
G03  25758661.380                       -3030.335          32.000    25758677.786   105477362.150       -2360.905          38.000  
G26  21825990.675   114696355.618       -2250.172          46.000    21825982.473    89373751.170       -1753.545          44.000  
C10  39403170.927   205182654.564         646.387          39.000    39403159.164   158660195.943         499.835          43.000  
C28  23839085.503   124136378.025        1341.608          46.000                                                                  
C23  25195422.172   131199180.096       -2299.439          42.000                                                                  
C16  37174063.536   193575105.465          31.569          48.000    37174051.469   149684502.257          24.510          48.000  
C27  25300412.898   131745899.310        2759.084          39.000                                                                  
C19  25720818.513   133935056.665         265.674          41.000                                                                  
C09  37800877.292   196839089.738         196.830          45.000    37800861.934   152208410.651         152.226          48.000  
C11                                                                  27199653.957   109521734.508       -2004.749          43.000  
> 2025 10 28 08 29 26.8820000  0 24                     
G04  21662902.020   113839320.418         262.388          45.000    21662893.216    88705926.830         204.426          47.000  
G27  21689288.356   113977980.632        2397.257          46.000    21689280.049    88813982.897        1867.869          44.000  
G16  20671705.289   108630544.519        -385.214          47.000                                                                  
G08  23757308.959   124845522.719        3429.516          38.000    23757308.478    97282239.664        2672.649          39.000  
G09  23728561.386   124694441.108        2256.010          38.000    23728556.213    97164469.002        1758.192          40.000  
G31  22030769.847   115772476.168       -2128.643          47.000    22030759.388    90212271.141       -1658.879          44.000  
C06  36734951.864   191288519.613          33.077          46.000    36734934.406   147916359.187          25.505          48.000  
C32  26759517.480   139343734.123       -3567.621          39.000                                                                  
C37  22895746.590   119224163.231        -593.475          49.000                                                                  
C07  38338998.254   199641226.896         687.352          41.000    38338981.173   154375198.037         531.608          45.000  
C13  41835229.739                       -2315.289          34.000    41835263.327   168453301.436       -1790.290          38.000  
C20  24684146.322   128536828.480       -2187.063          45.000                                                                  
G18  25333419.386   133128020.726         870.398          36.000    25333412.468   103736086.791         678.117          39.000  
G28  24242366.970   127394496.559       -3017.010          39.000    24242359.741    99268398.465       -2350.631          41.000  
G03  25758684.470                       -3029.000          31.000    25758700.839   105477456.545       -2360.451          38.000  
G26  21826007.798   114696445.583       -2249.808          46.000    21825999.581    89373821.270       -1753.112          44.000  
C10  39403165.939   205182628.663         646.991          39.000    39403154.224   158660175.914         500.281          43.000  
C28  23839075.169   124136324.301        1342.326          46.000                                                                  
C23  25195439.826   131199272.027       -2298.995          42.000                                                                  
C16  37174063.295   193575104.151          32.103          48.000    37174051.227   149684501.239          24.889          48.000  
C27  25300391.697   131745788.908        2759.428          39.000                                                                  
C19  25720816.466   133935045.981         266.256          41.000                                                                  
C09  37800875.781   196839081.803         197.578          45.000    37800860.438   152208404.521         152.678          48.000  
C11                                                                  27199673.894   109521814.659       -2004.238          43.000  
> 2025 10 28 08 29 26.9220000  0 24                     
G04  21662899.997   113839309.831         263.867          45.000    21662891.218    88705918.592         205.374          47.000  
G27  21689270.110   113977884.665        2398.459          46.000    21689261.773    88813908.118        1868.843          44.000  
G16  20671708.218   108630559.857        -384.034          47.000                                                                  
G08  23757282.838   124845385.491        3430.333          38.000    23757282.378    97282132.730        2673.140          39.000  
G09  23728544.197   124694350.790        2257.322          38.000    23728539.028    97164398.610        1759.332          40.000  
G31  22030786.041   115772561.238       -2127.432          47.000    22030775.566    90212337.421       -1657.700          44.000  
C06  36734951.594   191288518.205          34.468          46.000    36734934.138   147916358.099          26.563          48.000  
C32  26759544.842   139343876.768       -3566.529          39.000                                                                  
C37  22895751.108   119224186.906        -592.387          49.000                                                                  
C07  38338992.959   199641199.333         688.444          41.000    38338975.900   154375176.713         532.615          45.000  
C13  41835247.506                       -2314.545          34.000    41835281.098   168453373.022       -1789.688          38.000  
C20  24684163.090   128536915.872       -2185.657          45.000                                                                  
G18  25333412.750   133127985.827         871.757          36.000    25333405.834   103736059.611         678.941          39.000  
G28  24242389.925   127394617.157       -3015.547          39.000    24242382.680    99268492.451       -2349.965          41.000  
G03  25758707.482                       -3027.437          31.000    25758723.884   105477550.881       -2359.081          38.000  
G26  21826024.921   114696535.486       -2248.406          46.000    21826016.691    89373891.329       -1752.108          44.000  
C10  39403160.934   205182602.731         647.943          39.000    39403149.269   158660155.864         500.970          43.000  
C28  23839064.829   124136270.528        1343.741          46.000                                                                  
C23  25195457.459   131199363.910       -2297.737          42.000                                                                  
C16  37174063.005   193575102.780          33.490          48.000    37174050.982   149684500.184          25.864          48.000  
C27  25300370.463   131745678.439        2760.904          39.000                                                                  
C19  25720814.410   133935035.253         267.497          41.000                                                                  
C09  37800874.233   196839073.832         198.708          45.000    37800858.896   152208398.351         153.768          48.000  
C11                                                                  27199693.763   109521894.776       -2003.288          43.000  
> 2025 10 28 08 29 26.9620000  0 24                     
G04  21662897.989   113839299.269         264.178          45.000    21662889.192    88705910.366         205.648          47.000  
G27  21689251.841   113977788.717        2398.760          46.000    21689243.507    88813833.342        1869.332          44.000  
G16  20671711.120   108630575.213        -383.814          47.000                                                                  
G08  23757256.715   124845248.266        3430.651          38.000    23757256.244    97282025.820        2672.899          39.000  
G09  23728527.032   124694260.475        2257.919          38.000    23728521.859    97164328.255        1759.149          40.000  
G31  22030802.236   115772646.309       -2126.858          47.000    22030791.761    90212403.711       -1657.245          44.000  
C06  36734951.351   191288516.810          34.935          46.000    36734933.875   147916357.022          26.933          48.000  
C32  26759572.222   139344019.417       -3566.184          39.000                                                                  
C37  22895755.666   119224210.588        -592.015          49.000                                                                  
C07  38338987.675   199641171.780         688.787          41.000    38338970.618   154375155.410         532.715          45.000  
C13  41835265.267                       -2315.127          34.000    41835298.879   168453444.634       -1789.981          38.000  
C20  24684179.869   128537003.277       -2185.145          45.000                                                                  
G18  25333406.108   133127950.966         871.741          37.000    25333399.185   103736032.444         679.087          39.000  
G28  24242412.873   127394737.776       -3015.287          39.000    24242405.611    99268586.430       -2349.580          41.000  
G03  25758730.479                       -3026.955          31.000    25758746.912   105477645.239       -2358.763          38.000  
G26  21826042.021   114696625.399       -2247.849          46.000    21826033.808    89373961.381       -1751.455          44.000  
C10  39403155.944   205182576.808         648.181          39.000    39403144.318   158660135.823         501.074          43.000  
C28  23839054.472   124136216.784        1343.824          46.000                                                                  
C23  25195475.085   131199455.792       -2297.106          42.000                                                                  
C16  37174062.737   193575101.422          33.998          48.000    37174050.744   149684499.134          26.262          48.000  
C27  25300349.276   131745567.989        2761.365          39.000                                                                  
C19  25720812.347   133935024.547         267.736          41.000                                                                  
C09  37800872.694   196839065.866         199.156          45.000    37800857.359   152208392.194         154.045          48.000  
C11                                                                  27199713.673   109521974.911       -2003.255          43.000  
> 2025 10 28 08 29 27.0020000  0 24                     
G04  21662895.958   113839288.769         263.178          45.000    21662887.182    88705902.173         205.168          47.000  
G27  21689233.601   113977692.822        2397.922          46.000    21689225.244    88813758.617        1868.656          44.000  
G16  20671714.039   108630590.602        -384.356          47.000                                                                  
G08  23757230.591   124845111.072        3430.122          38.000    23757230.137    97281918.918        2672.594          39.000  
G09  23728509.850   124694170.225        2256.959          38.000    23728504.682    97164257.944        1758.233          40.000  
G31  22030818.440   115772731.438       -2127.646          47.000    22030807.948    90212470.055       -1658.055          44.000  
C06  36734951.131   191288515.480          33.955          46.000    36734933.611   147916355.987          26.314          48.000  
C32  26759599.644   139344162.121       -3567.099          39.000                                                                  
C37  22895760.229   119224234.324        -592.864          49.000                                                                  
C07  38338982.389   199641144.261         688.327          41.000    38338965.367   154375134.144         531.995          45.000  
C13  41835283.064                       -2315.699          34.000    41835316.664   168453516.274       -1790.698          38.000  
C20  24684196.681   128537090.751       -2186.161          45.000                                                                  
G18  25333399.443   133127916.138         871.054          37.000    25333392.553   103736005.300         678.744          39.000  
G28  24242435.828   127394858.452       -3016.338          39.000    24242428.577    99268680.465       -2350.433          41.000  
G03  25758753.518                       -3028.183          31.000    25758769.959   105477739.639       -2359.496          38.000  
G26  21826059.156   114696715.371       -2248.704          46.000    21826050.920    89374031.492       -1752.193          44.000  
C10  39403150.995   205182550.932         647.357          39.000    39403139.326   158660115.815         500.470          43.000  
C28  23839044.156   124136163.087        1342.928          46.000                                                                  
C23  25195492.789   131199547.734       -2297.995          42.000                                                                  
C16  37174062.504   193575100.123          33.096          48.000    37174050.520   149684498.128          25.607          48.000  
C27  25300328.084   131745457.613        2760.147          39.000                                                                  
C19  25720810.288   133935013.893         266.895          41.000                                                                  
C09  37800871.174   196839057.961         198.216          45.000    37800855.870   152208386.078         153.338          48.000  
C11                                                                  27199733.574   109522055.083       -2004.010          43.000  
> 2025 10 28 08 29 27.0420000  0 24                     
G04  21662893.957   113839278.270         262.595          45.000    21662885.196    88705893.992         204.702          47.000  
G27  21689215.355   113977596.921        2397.570          46.000    21689206.985    88813683.897        1868.163          44.000  
G16  20671716.985   108630605.997        -384.743          47.000                                                                  
G08  23757204.494   124844973.876        3429.919          38.000    23757204.033    97281812.005        2672.677          39.000  
G09  23728492.693   124694079.964        2256.664          38.000    23728487.524    97164187.605        1758.262          40.000  
G31  22030834.644   115772816.567       -2128.108          47.000    22030824.160    90212536.379       -1658.167          44.000  
C06  36734950.878   191288514.146          33.484          46.000    36734933.355   147916354.952          25.954          48.000  
C32  26759627.009   139344304.815       -3567.375          39.000                                                                  
C37  22895764.785   119224258.053        -593.196          49.000                                                                  
C07  38338977.105   199641116.741         688.080          41.000    38338960.096   154375112.868         531.836          45.000  
C13  41835300.872                       -2315.489          34.000    41835334.496   168453587.888       -1790.525          38.000  
C20  24684213.457   128537178.208       -2186.405          45.000                                                                  
G18  25333392.833   133127881.314         870.661          37.000    25333385.943   103735978.148         678.722          39.000  
G28  24242458.804   127394979.118       -3016.657          39.000    24242451.532    99268774.476       -2350.462          41.000  
G03  25758776.566                       -3029.114          31.000    25758793.000   105477834.040       -2359.897          38.000  
G26  21826076.289   114696805.353       -2249.344          46.000    21826068.054    89374101.606       -1752.693          44.000  
C10  39403146.021   205182525.045         647.156          39.000    39403134.360   158660095.796         500.415          43.000  
C28  23839033.820   124136109.378        1342.671          46.000                                                                  
C23  25195510.464   131199639.681       -2298.533          42.000                                                                  
C16  37174062.268   193575098.816          32.750          48.000    37174050.256   149684497.120          25.286          48.000  
C27  25300306.907   131745347.216        2759.870          40.000                                                                  
C19  25720808.251   133935003.218         266.795          41.000                                                                  
C09  37800869.677   196839050.049         197.855          45.000    37800854.336   152208379.962         152.979          48.000  
C11                                                                  27199753.445   109522135.242       -2004.118          43.000  
> 2025 10 28 08 29 27.0820000  0 24                     
G04  21662891.946   113839267.729         263.103          45.000    21662883.196    88705885.772         205.159          47.000  
G27  21689197.102   113977500.987        2398.016          46.000    21689188.727    88813609.145        1868.524          44.000  
G16  20671719.894   108630621.356        -384.286          47.000                                                                  
G08  23757178.374   124844836.636        3430.674          38.000    23757177.908    97281705.073        2673.197          38.000  
G09  23728475.508   124693989.672        2257.065          38.000    23728470.334    97164117.244        1758.770          40.000  
G31  22030850.807   115772901.657       -2127.610          47.000    22030840.352    90212602.683       -1657.816          44.000  
C06  36734950.602   191288512.775          33.941          46.000    36734933.068   147916353.894          26.188          48.000  
C32  26759654.395   139344447.464       -3566.555          39.000                                                                  
C37  22895769.299   119224281.751        -592.745          49.000                                                                  
C07  38338971.828   199641089.199         688.364          41.000    38338954.783   154375091.569         532.192          45.000  
C13  41835318.646                       -2314.765          34.000    41835352.248   168453659.473       -1789.965          38.000  
C20  24684230.218   128537265.635       -2185.969          45.000                                                                  
G18  25333386.175   133127846.427         871.622          37.000    25333379.314   103735950.986         678.950          39.000  
G28  24242481.762   127395099.728       -3015.723          39.000    24242474.501    99268868.483       -2350.300          41.000  
G03  25758799.611                       -3029.117          31.000    25758816.032   105477928.419       -2359.747          38.000  
G26  21826093.398   114696895.285       -2248.741          46.000    21826085.162    89374171.679       -1752.188          44.000  
C10  39403141.029   205182499.111         647.949          39.000    39403129.366   158660075.753         500.842          43.000  
C28  23839023.526   124136055.640        1343.154          46.000                                                                  
C23  25195528.105   131199731.583       -2297.952          42.000                                                                  
C16  37174062.013   193575097.475          33.213          48.000    37174050.049   149684496.088          25.560          48.000  
C27  25300285.694   131745236.773        2760.596          39.000                                                                  
C19  25720806.184   133934992.508         267.436          41.000                                                                  
C09  37800868.152   196839042.093         198.505          45.000    37800852.835   152208373.817         153.365          48.000  
C11                                                                  27199773.346   109522215.373       -2003.556          43.000  
