     3.04           OBSERVATION DATA    M: Mixed            RINEX VERSION / TYPE
RTKCONV 2.4.3 b34                       20251028 084253 UTC PGM / RUN BY / DATE 
format: u-blox UBX                                          COMMENT             
log: D:\GPdata\10_28_2\fingure_up_place_2_10_28_2.ubx       COMMENT             
                                                            MARKER NAME         
                                                            MARKER NUMBER       
                                                            MARKER TYPE         
                                                            OBSERVER / AGENCY   
                                                            REC # / TYPE / VERS 
                                                            ANT # / TYPE        
        0.0000        0.0000        0.0000                  APPROX POSITION XYZ 
        0.0000        0.0000        0.0000                  ANTENNA: DELTA H/E/N
G    8 C1C L1C D1C S1C C2L L2L D2L S2L                      SYS / # / OBS TYPES 
C    8 C2I L2I D2I S2I C7I L7I D7I S7I                      SYS / # / OBS TYPES 
  2025    10    28    08    26   41.3220000     GPS         TIME OF FIRST OBS   
  2025    10    28    08    27   05.8420000     GPS         TIME OF LAST OBS    
G L1C                                                       SYS / PHASE SHIFT   
G L2L  0.00000                                              SYS / PHASE SHIFT   
C L2I                                                       SYS / PHASE SHIFT   
C L7I                                                       SYS / PHASE SHIFT   
  0                                                         GLONASS SLOT / FRQ #
 C1C    0.000 C1P    0.000 C2C    0.000 C2P    0.000        GLONASS COD/PHS/BIS 
                                                            END OF HEADER       
> 2025 10 28 08 26 41.3220000  0 24                     
G04  21673056.380   113892681.1951        377.625          45.000    21673047.496    88747506.5321        294.144          46.000  
G27  21766273.237   114382538.7631       2485.010          46.000    21766265.239    89129222.4001       1936.323          44.000  
G16  20660830.715   108573396.7931       -309.453          47.000                                                                  
G08  23865996.508   125416658.9661       3465.406          37.000    23865995.528    97727277.6171       2699.906          39.000  
G09  23800950.006   125074839.7051       2334.413          37.000    23800943.026    97460887.5881       1818.696          36.000  
G31  21964716.730   115425366.5671      -2069.211          46.000    21964706.411    89941796.2221      -1612.330          44.000  
C06  36736122.614   191294612.2931         35.949          47.000    36736104.578   147921070.2641         27.849          49.000  
C32  26646070.714   138753025.1731      -3572.156          39.000                                                                  
C37  22877448.321   119128876.6411       -561.949          50.000                                                                  
C07  38361226.695   199756974.5821        706.232          41.000    38361210.032   154464701.0001        546.074          45.000  
C13  41761490.817   217463044.5051      -2327.156          36.000    41761522.529   168156355.0491      -1799.294          39.000  
C20  24615859.736   128181240.7761      -2112.738          46.000                                                                  
G18  25362096.569   133278718.8501        945.386          38.000    25362090.042   103853513.3091        736.646          39.000  
G28  24148072.989   126898978.3121      -2973.691          41.000    24148065.519    98882280.8201      -2316.957          42.000  
G03  25663400.087   134862078.7961      -3023.440          33.000    25663414.400   105087312.5751      -2355.985          39.000  
G26  21755822.267   114327618.6881      -2210.198          46.000    21755814.399    89086423.7431      -1722.104          45.000  
C10  39424055.339   205291401.3931        663.019          38.000    39424043.605   158744285.1661        512.408          43.000  
C28  23883004.168   124365068.9311       1416.339          47.000                                                                  
C23  25122706.303   130820530.1081      -2281.058          44.000                                                                  
C16  37175209.184   193581069.5941         35.170          49.000    37175196.839   149689113.9301         27.235          48.000  
C27  25388457.519   132204359.1971       2775.257          41.000                                                                  
C19  25730855.287   133987320.9891        360.614          40.000                                                                  
C09  37807171.612   196871864.9721        193.960          45.000    37807156.088   152233754.2811        150.092          48.000  
C11                                                                  27118368.779   109194431.5421      -1953.725          43.000  
> 2025 10 28 08 26 41.3620000  0 24                     
G04  21673053.509   113892666.120         377.053          45.000    21673044.620    88747494.787         293.721          46.000  
G27  21766254.342   114382439.397        2484.363          46.000    21766246.322    89129144.962        1935.983          44.000  
G16  20660833.077   108573409.194        -309.949          47.000                                                                  
G08  23865970.129   125416520.392        3464.545          37.000    23865969.169    97727169.641        2699.379          39.000  
G09  23800932.248   125074746.350        2333.988          37.000    23800925.255    97460814.855        1818.220          36.000  
G31  21964732.489   115425449.350       -2069.565          46.000    21964722.159    89941860.733       -1612.678          44.000  
C06  36736122.333   191294610.881          35.429          47.000    36736104.317   147921069.180          27.278          49.000  
C32  26646098.170   138753168.083       -3572.641          39.000                                                                  
C37  22877452.645   119128899.142        -562.444          50.000                                                                  
C07  38361221.265   199756946.357         705.669          41.000    38361204.616   154464679.166         545.828          45.000  
C13  41761508.687   217463137.623       -2327.700          36.000    41761540.401   168156427.069       -1800.218          39.000  
C20  24615875.954   128181325.325       -2113.504          46.000                                                                  
G18  25362089.402   133278681.071         944.757          38.000    25362082.863   103853483.881         735.929          39.000  
G28  24148095.631   126899097.280       -2974.189          41.000    24148088.163    98882373.516       -2317.382          42.000  
G03  25663423.098   134862199.753       -3023.693          33.000    25663437.435   105087406.831       -2356.365          39.000  
G26  21755839.098   114327707.120       -2210.687          46.000    21755831.229    89086492.652       -1722.583          45.000  
C10  39424050.260   205291374.907         662.305          38.000    39424038.524   158744264.687         511.963          43.000  
C28  23882993.300   124365012.309        1415.716          47.000                                                                  
C23  25122723.824   130820621.368       -2281.504          44.000                                                                  
C16  37175208.893   193581068.202          34.817          49.000    37175196.580   149689112.853          26.940          48.000  
C27  25388436.204   132204248.221        2774.606          41.000                                                                  
C19  25730852.530   133987306.594         359.980          40.000                                                                  
C09  37807170.124   196871857.233         193.514          45.000    37807154.633   152233748.303         149.541          48.000  
C11                                                                  27118388.213   109194509.709       -1954.106          43.000  
> 2025 10 28 08 26 41.4020000  0 24                     
G04  21673050.636   113892651.082         376.129          45.000    21673041.771    88747483.065         293.091          46.000  
G27  21766235.424   114382340.051        2483.660          46.000    21766227.434    89129067.562        1935.175          44.000  
G16  20660835.468   108573421.632        -310.860          47.000                                                                  
G08  23865943.769   125416381.859        3463.394          37.000    23865942.833    97727061.686        2698.750          39.000  
G09  23800914.492   125074653.037        2332.963          37.000    23800907.522    97460742.148        1817.592          36.000  
G31  21964748.269   115425532.183       -2070.591          46.000    21964737.928    89941925.272       -1613.337          44.000  
C06  36736122.056   191294609.497          34.674          47.000    36736104.078   147921068.117          26.618          49.000  
C32  26646125.621   138753311.049       -3573.898          39.000                                                                  
C37  22877456.968   119128921.684        -563.426          50.000                                                                  
C07  38361215.849   199756918.165         704.871          41.000    38361199.190   154464657.363         545.167          45.000  
C13  41761526.580   217463230.773       -2328.638          36.000    41761558.288   168156499.116       -1801.133          39.000  
C20  24615892.197   128181409.897       -2114.284          46.000                                                                  
G18  25362082.213   133278643.319         943.985          38.000    25362075.696   103853454.477         735.181          39.000  
G28  24148118.281   126899216.267       -2974.754          41.000    24148110.805    98882466.245       -2318.200          42.000  
G03  25663446.107   134862320.752       -3024.772          33.000    25663460.473   105087501.091       -2356.581          39.000  
G26  21755855.946   114327795.596       -2211.708          46.000    21755848.072    89086561.588       -1723.321          45.000  
C10  39424045.154   205291348.442         661.597          38.000    39424033.440   158744244.232         511.322          43.000  
C28  23882982.447   124364955.722        1414.775          47.000                                                                  
C23  25122741.374   130820712.668       -2282.465          44.000                                                                  
C16  37175208.597   193581066.854          33.856          49.000    37175196.321   149689111.808          26.229          48.000  
C27  25388414.909   132204137.284        2773.571          41.000                                                                  
C19  25730849.772   133987292.229         359.144          40.000                                                                  
C09  37807168.623   196871849.532         192.647          45.000    37807153.185   152233742.355         148.751          48.000  
C11                                                                  27118407.663   109194587.903       -1954.814          43.000  
> 2025 10 28 08 26 41.4420000  0 24                     
G04  21673047.762   113892636.096         374.756          45.000    21673038.913    88747471.377         292.176          46.000  
G27  21766216.542   114382240.755        2482.460          46.000    21766208.554    89128990.201        1934.064          44.000  
G16  20660837.836   108573434.114        -312.090          47.000                                                                  
G08  23865917.416   125416243.346        3462.523          37.000    23865916.476    97726953.757        2698.094          39.000  
G09  23800896.744   125074559.778        2331.530          37.000    23800889.760    97460669.462        1816.952          36.000  
G31  21964764.017   115425615.057       -2071.858          46.000    21964753.700    89941989.846       -1614.330          44.000  
C06  36736121.813   191294608.163          33.448          47.000    36736103.802   147921067.085          25.760          49.000  
C32  26646153.089   138753454.030       -3574.767          39.000                                                                  
C37  22877461.270   119128944.269        -564.651          50.000                                                                  
C07  38361210.429   199756890.011         703.785          41.000    38361193.819   154464635.597         544.178          45.000  
C13  41761544.481   217463323.972       -2329.992          36.000    41761576.187   168156571.171       -1801.721          39.000  
C20  24615908.439   128181494.514       -2115.439          46.000                                                                  
G18  25362075.066   133278605.615         942.789          38.000    25362068.514   103853425.090         734.526          39.000  
G28  24148140.935   126899335.312       -2976.107          41.000    24148133.465    98882559.009       -2319.195          42.000  
G03  25663469.141   134862441.787       -3025.876          33.000    25663483.514   105087595.403       -2357.637          39.000  
G26  21755872.795   114327884.103       -2212.761          47.000    21755864.924    89086630.567       -1724.416          45.000  
C10  39424040.107   205291322.029         660.327          38.000    39424028.367   158744223.813         510.425          43.000  
C28  23882971.580   124364899.181        1413.497          47.000                                                                  
C23  25122758.893   130820803.996       -2283.367          44.000                                                                  
C16  37175208.358   193581065.548          32.641          49.000    37175196.099   149689110.800          25.242          48.000  
C27  25388393.600   132204026.375        2772.603          41.000                                                                  
C19  25730847.022   133987277.906         358.002          40.000                                                                  
C09  37807167.139   196871841.870         191.508          45.000    37807151.723   152233736.434         147.889          48.000  
C11                                                                  27118427.086   109194666.131       -1955.740          43.000  
> 2025 10 28 08 26 41.4820000  0 24                     
G04  21673044.941   113892621.095         374.487          45.000    21673036.060    88747459.699         291.694          46.000  
G27  21766197.636   114382141.454        2482.111          46.000    21766189.665    89128912.815        1934.086          44.000  
G16  20660840.215   108573446.583        -312.215          47.000                                                                  
G08  23865891.059   125416104.818        3462.638          37.000    23865890.116    97726845.813        2698.160          39.000  
G09  23800879.027   125074466.495        2331.556          37.000    23800872.011    97460596.777        1816.872          36.000  
G31  21964779.803   115425697.920       -2072.065          46.000    21964769.472    89942054.412       -1614.550          44.000  
C06  36736121.550   191294606.826          33.053          47.000    36736103.557   147921066.049          25.520          49.000  
C32  26646180.550   138753596.999       -3574.731          39.000                                                                  
C37  22877465.605   119128966.840        -564.807          50.000                                                                  
C07  38361205.017   199756861.844         703.708          41.000    38361188.406   154464613.820         544.045          45.000  
C13  41761562.399   217463417.144       -2329.950          36.000    41761594.083   168156643.224       -1801.708          39.000  
C20  24615924.676   128181579.128       -2115.765          46.000                                                                  
G18  25362067.894   133278567.912         942.321          38.000    25362061.343   103853395.699         734.415          39.000  
G28  24148163.567   126899454.329       -2976.000          41.000    24148156.137    98882651.754       -2319.070          42.000  
G03  25663492.184   134862562.807       -3026.014          33.000    25663506.562   105087689.726       -2358.291          39.000  
G26  21755889.639   114327972.613       -2213.160          47.000    21755881.761    89086699.535       -1724.626          45.000  
C10  39424035.051   205291295.620         659.918          38.000    39424023.325   158744203.372         510.559          43.000  
C28  23882960.732   124364842.616        1413.570          47.000                                                                  
C23  25122776.408   130820895.316       -2283.473          44.000                                                                  
C16  37175208.090   193581064.236          32.359          49.000    37175195.850   149689109.787          24.986          48.000  
C27  25388372.272   132203915.455        2772.534          41.000                                                                  
C19  25730844.257   133987263.573         357.796          40.000                                                                  
C09  37807165.687   196871834.206         191.190          45.000    37807150.247   152233730.497         147.927          48.000  
C11                                                                  27118446.506   109194744.338       -1955.598          43.000  
> 2025 10 28 08 26 41.5220000  0 24                     
G04  21673042.096   113892605.983         376.574          45.000    21673033.195    88747447.937         293.070          46.000  
G27  21766178.740   114382042.059        2483.802          46.000    21766170.769    89128835.360        1935.492          44.000  
G16  20660842.594   108573458.951        -310.220          47.000                                                                  
G08  23865864.688   125415966.227        3464.066          37.000    23865863.751    97726737.802        2699.603          39.000  
G09  23800861.283   125074373.124        2333.339          37.000    23800854.252    97460524.020        1818.203          36.000  
G31  21964795.585   115425780.668       -2069.924          46.000    21964785.235    89942118.913       -1613.335          44.000  
C06  36736121.232   191294605.380          34.957          47.000    36736103.292   147921064.939          26.843          49.000  
C32  26646207.981   138753739.893       -3573.168          39.000                                                                  
C37  22877469.869   119128989.303        -562.692          50.000                                                                  
C07  38361199.570   199756833.571         705.807          41.000    38361182.928   154464591.968         545.521          45.000  
C13  41761580.236   217463510.237       -2328.147          36.000    41761611.957   168156715.205       -1800.226          39.000  
C20  24615940.889   128181663.642       -2113.993          46.000                                                                  
G18  25362060.708   133278530.118         943.792          38.000    25362054.155   103853366.222         736.130          39.000  
G28  24148186.229   126899573.270       -2974.369          41.000    24148178.757    98882744.430       -2317.594          42.000  
G03  25663515.209   134862683.778       -3025.013          33.000    25663529.592   105087783.948       -2356.566          39.000  
G26  21755906.486   114328061.007       -2211.122          47.000    21755898.567    89086768.406       -1722.818          45.000  
C10  39424029.953   205291269.097         662.085          38.000    39424018.232   158744182.864         512.067          43.000  
C28  23882949.836   124364785.955        1415.615          47.000                                                                  
C23  25122793.922   130820986.546       -2281.726          44.000                                                                  
C16  37175207.805   193581062.806          34.533          49.000    37175195.615   149689108.690          26.500          48.000  
C27  25388350.938   132203804.419        2774.754          41.000                                                                  
C19  25730841.488   133987249.137         359.749          40.000                                                                  
C09  37807164.190   196871826.429         193.240          45.000    37807148.736   152233724.483         149.541          48.000  
C11                                                                  27118465.895   109194822.481       -1954.177          43.000  
> 2025 10 28 08 26 41.5620000  0 24                     
G04  21673039.232   113892590.841         378.221          45.000    21673030.332    88747436.128         294.665          46.000  
G27  21766159.814   114381942.609        2485.670          46.000    21766151.837    89128757.871        1936.825          44.000  
G16  20660844.958   108573471.289        -308.665          47.000                                                                  
G08  23865838.290   125415827.551        3466.278          37.000    23865837.345    97726629.746        2701.151          39.000  
G09  23800843.522   125074279.716        2334.973          37.000    23800836.483    97460451.245        1819.305          36.000  
G31  21964811.321   115425863.391       -2068.373          46.000    21964800.951    89942183.372       -1611.923          44.000  
C06  36736120.927   191294603.891          36.726          47.000    36736103.008   147921063.779          28.468          49.000  
C32  26646235.403   138753882.720       -3571.171          39.000                                                                  
C37  22877474.165   119129011.738        -561.131          50.000                                                                  
C07  38361194.151   199756805.292         706.971          41.000    38361177.507   154464570.094         546.674          45.000  
C13  41761598.107   217463603.289       -2326.551          36.000    41761629.822   168156787.174       -1799.276          39.000  
C20  24615957.097   128181748.107       -2112.185          46.000                                                                  
G18  25362053.510   133278492.248         945.958          38.000    25362046.926   103853336.742         737.037          39.000  
G28  24148208.849   126899692.169       -2972.758          41.000    24148201.374    98882837.075       -2316.310          42.000  
G03  25663538.201   134862804.630       -3022.296          33.000    25663552.580   105087878.154       -2355.412          39.000  
G26  21755923.328   114328149.372       -2209.514          47.000    21755915.386    89086837.258       -1721.519          45.000  
C10  39424024.846   205291242.552         663.507          38.000    39424013.112   158744162.333         513.232          43.000  
C28  23882938.929   124364729.280        1416.835          47.000                                                                  
C23  25122811.409   130821077.749       -2280.352          44.000                                                                  
C16  37175207.487   193581061.345          36.177          49.000    37175195.315   149689107.564          27.846          48.000  
C27  25388329.615   132203693.373        2776.089          41.000                                                                  
C19  25730838.711   133987234.666         361.429          40.000                                                                  
C09  37807162.669   196871818.630         194.727          45.000    37807147.216   152233718.442         150.838          48.000  
C11                                                                  27118485.254   109194900.606       -1953.165          43.000  
> 2025 10 28 08 26 41.6020000  0 24                     
G04  21673036.342   113892575.730         378.381          45.000    21673027.463    88747424.349         294.908          46.000  
G27  21766140.893   114381843.207        2485.705          46.000    21766132.923    89128680.410        1936.979          44.000  
G16  20660847.292   108573483.669        -308.805          47.000                                                                  
G08  23865811.910   125415688.944        3466.053          37.000    23865810.983    97726521.743        2700.811          39.000  
G09  23800825.729   125074186.343        2334.955          37.000    23800818.705    97460378.478        1819.528          36.000  
G31  21964827.072   115425946.146       -2068.250          46.000    21964816.676    89942247.849       -1611.614          44.000  
C06  36736120.626   191294602.441          36.862          47.000    36736102.733   147921062.656          28.582          49.000  
C32  26646262.836   138754025.597       -3571.219          39.000                                                                  
C37  22877478.447   119129034.207        -561.086          50.000                                                                  
C07  38361188.716   199756777.029         707.112          41.000    38361172.079   154464548.233         546.940          45.000  
C13  41761615.986   217463696.372       -2326.508          36.000    41761647.695   168156859.142       -1798.915          39.000  
C20  24615973.315   128181832.607       -2111.950          46.000                                                                  
G18  25362046.307   133278454.430         946.119          38.000    25362039.735   103853307.269         737.283          39.000  
G28  24148231.479   126899811.104       -2972.773          41.000    24148223.994    98882929.747       -2316.311          42.000  
G03  25663561.215   134862925.568       -3022.555          33.000    25663575.589   105087972.376       -2355.218          39.000  
G26  21755940.130   114328237.762       -2209.218          47.000    21755932.205    89086906.138       -1721.438          45.000  
C10  39424019.733   205291216.036         663.470          38.000    39424008.017   158744141.832         513.055          43.000  
C28  23882928.043   124364672.628        1416.869          47.000                                                                  
C23  25122828.914   130821168.971       -2280.112          44.000                                                                  
C16  37175207.211   193581059.921          36.217          49.000    37175195.066   149689106.461          28.021          48.000  
C27  25388308.270   132203582.361        2775.968          41.000                                                                  
C19  25730835.942   133987220.241         361.317          40.000                                                                  
C09  37807161.160   196871810.849         195.039          45.000    37807145.719   152233712.439         150.693          48.000  
C11                                                                  27118504.641   109194978.756       -1953.270          43.000  
> 2025 10 28 08 26 41.6420000  0 24                     
G04  21673033.468   113892560.648         377.792          45.000    21673024.590    88747412.591         294.481          46.000  
G27  21766121.995   114381743.822        2485.229          46.000    21766114.025    89128602.964        1936.589          44.000  
G16  20660849.656   108573496.065        -309.398          47.000                                                                  
G08  23865785.557   125415550.368        3465.154          37.000    23865784.606    97726413.766        2699.982          39.000  
G09  23800807.966   125074092.985        2334.484          37.000    23800800.935    97460305.735        1818.976          36.000  
G31  21964842.832   115426028.932       -2068.934          46.000    21964832.432    89942312.347       -1611.930          44.000  
C06  36736120.325   191294601.014          36.358          47.000    36736102.496   147921061.552          28.160          49.000  
C32  26646290.285   138754168.513       -3572.224          39.000                                                                  
C37  22877482.780   119129056.695        -561.608          50.000                                                                  
C07  38361183.274   199756748.785         706.666          41.000    38361166.662   154464526.393         546.521          45.000  
C13  41761633.865   217463789.456       -2326.661          36.000    41761665.567   168156931.125       -1799.155          39.000  
C20  24615989.560   128181917.129       -2112.375          46.000                                                                  
G18  25362039.108   133278416.642         945.440          38.000    25362032.552   103853277.821         736.738          39.000  
G28  24148254.125   126899930.044       -2973.030          41.000    24148246.618    98883022.434       -2316.759          42.000  
G03  25663584.241   134863046.480       -3022.371          33.000    25663598.613   105088066.619       -2355.601          39.000  
G26  21755956.924   114328326.180       -2209.732          47.000    21755949.044    89086975.045       -1722.065          45.000  
C10  39424014.634   205291189.525         663.165          38.000    39424002.950   158744121.336         512.701          43.000  
C28  23882917.180   124364615.992        1416.386          47.000                                                                  
C23  25122846.430   130821260.209       -2280.419          44.000                                                                  
C16  37175206.954   193581058.535          35.390          49.000    37175194.846   149689105.374          27.659          48.000  
C27  25388286.944   132203471.380        2775.179          41.000                                                                  
C19  25730833.222   133987205.847         360.507          40.000                                                                  
C09  37807159.675   196871803.091         194.564          45.000    37807144.239   152233706.449         150.206          48.000  
C11                                                                  27118524.070   109195056.909       -1953.520          43.000  
> 2025 10 28 08 26 41.6820000  0 24                     
G04  21673030.592   113892545.589         376.954          45.000    21673021.730    88747400.866         293.582          46.000  
G27  21766103.111   114381644.456        2484.521          46.000    21766095.139    89128525.536        1936.050          44.000  
G16  20660852.019   108573508.469        -309.939          47.000                                                                  
G08  23865759.191   125415411.804        3464.339          37.000    23865758.213    97726305.779        2699.628          39.000  
G09  23800790.199   125073999.657        2333.529          37.000    23800783.190    97460232.999        1818.527          36.000  
G31  21964858.575   115426111.733       -2069.674          46.000    21964848.191    89942376.873       -1612.729          44.000  
C06  36736120.058   191294599.606          35.617          47.000    36736102.284   147921060.464          27.534          49.000  
C32  26646317.743   138754311.422       -3572.629          39.000                                                                  
C37  22877487.123   119129079.208        -562.453          50.000                                                                  
C07  38361177.845   199756720.563         705.951          41.000    38361161.280   154464504.570         545.875          45.000  
C13  41761651.749   217463882.582       -2327.656          36.000    41761683.428   168157003.148       -1800.238          39.000  
C20  24616005.819   128182001.700       -2113.611          46.000                                                                  
G18  25362031.925   133278378.871         944.601          38.000    25362025.369   103853248.398         735.928          39.000  
G28  24148276.765   126900049.011       -2973.790          41.000    24148269.269    98883115.137       -2317.358          42.000  
G03  25663607.245   134863167.434       -3023.182          33.000    25663621.647   105088160.873       -2356.113          39.000  
G26  21755973.745   114328414.620       -2210.535          47.000    21755965.866    89087043.956       -1722.522          45.000  
C10  39424009.570   205291163.055         662.128          38.000    39423997.902   158744100.855         512.170          43.000  
C28  23882906.305   124364559.383        1415.556          47.000                                                                  
C23  25122863.940   130821351.473       -2281.152          44.000                                                                  
C16  37175206.677   193581057.153          34.781          49.000    37175194.597   149689104.306          27.044          48.000  
C27  25388265.639   132203360.395        2774.776          41.000                                                                  
C19  25730830.449   133987191.433         360.404          40.000                                                                  
C09  37807158.217   196871795.374         193.433          45.000    37807142.769   152233700.469         149.717          48.000  
C11                                                                  27118543.484   109195135.079       -1954.020          43.000  
> 2025 10 28 08 26 41.7220000  0 24                     
G04  21673027.733   113892530.523         376.607          45.000    21673018.877    88747389.126         293.365          46.000  
G27  21766084.210   114381545.096        2484.069          46.000    21766076.235    89128448.102        1935.871          44.000  
G16  20660854.382   108573520.875        -310.223          47.000                                                                  
G08  23865732.820   125415273.228        3464.151          37.000    23865731.828    97726197.801        2699.308          39.000  
G09  23800772.436   125073906.318        2333.317          37.000    23800765.422    97460160.261        1818.331          36.000  
G31  21964874.354   115426194.530       -2069.972          46.000    21964863.956    89942441.392       -1613.045          44.000  
C06  36736119.762   191294598.194          35.287          47.000    36736102.069   147921059.376          27.188          49.000  
C32  26646345.194   138754454.342       -3573.032          39.000                                                                  
C37  22877491.460   119129101.713        -562.702          50.000                                                                  
C07  38361172.441   199756692.337         705.648          41.000    38361155.874   154464482.743         545.647          45.000  
C13  41761669.642   217463975.698       -2328.025          36.000    41761701.300   168157075.162       -1800.529          39.000  
C20  24616022.076   128182086.252       -2113.949          46.000                                                                  
G18  25362024.747   133278341.081         944.560          38.000    25362018.195   103853218.963         735.765          39.000  
G28  24148299.417   126900167.984       -2974.306          41.000    24148291.907    98883207.839       -2317.670          42.000  
G03  25663630.262   134863288.424       -3024.321          33.000    25663644.657   105088255.133       -2356.453          39.000  
G26  21755990.588   114328503.063       -2211.043          47.000    21755982.683    89087112.864       -1722.723          45.000  
C10  39424004.483   205291136.559         662.103          38.000    39423992.821   158744080.377         511.926          43.000  
C28  23882895.433   124364502.759        1415.431          47.000                                                                  
C23  25122881.458   130821442.734       -2281.503          44.000                                                                  
C16  37175206.420   193581055.761          34.680          49.000    37175194.333   149689103.232          26.817          48.000  
C27  25388244.333   132203249.412        2774.595          41.000                                                                  
C19  25730827.698   133987177.044         359.926          40.000                                                                  
C09  37807156.734   196871787.640         193.187          45.000    37807141.271   152233694.482         149.583          48.000  
C11                                                                  27118562.870   109195213.252       -1954.345          43.000  
> 2025 10 28 08 26 41.7620000  0 24                     
G04  21673024.852   113892515.445         376.703          45.000    21673016.014    88747377.372         293.558          46.000  
G27  21766065.299   114381445.720        2484.132          46.000    21766057.315    89128370.679        1935.561          44.000  
G16  20660856.718   108573533.274        -310.205          47.000                                                                  
G08  23865706.446   125415134.620        3464.766          37.000    23865705.437    97726089.806        2699.550          39.000  
G09  23800754.654   125073812.969        2333.459          37.000    23800747.667    97460087.526        1818.267          36.000  
G31  21964890.112   115426277.312       -2069.835          46.000    21964879.714    89942505.893       -1612.850          44.000  
C06  36736119.501   191294596.769          35.349          47.000    36736101.817   147921058.275          27.272          49.000  
C32  26646372.646   138754597.241       -3572.773          39.000                                                                  
C37  22877495.786   119129124.208        -562.614          50.000                                                                  
C07  38361167.030   199756664.092         705.886          41.000    38361150.432   154464460.907         545.704          45.000  
C13  41761687.543   217464068.804       -2327.874          36.000    41761719.182   168157147.145       -1800.006          39.000  
C20  24616038.341   128182170.779       -2113.631          46.000                                                                  
G18  25362017.551   133278303.300         944.423          38.000    25362011.003   103853189.505         736.139          39.000  
G28  24148322.048   126900286.936       -2974.094          41.000    24148314.557    98883300.536       -2317.618          42.000  
G03  25663653.278   134863409.415       -3024.923          33.000    25663667.676   105088349.373       -2356.260          39.000  
G26  21756007.402   114328591.488       -2210.923          47.000    21755999.531    89087181.776       -1722.890          45.000  
C10  39423999.406   205291110.052         662.354          38.000    39423987.740   158744059.890         512.018          43.000  
C28  23882884.547   124364446.132        1415.459          47.000                                                                  
C23  25122898.977   130821533.983       -2281.460          44.000                                                                  
C16  37175206.196   193581054.361          34.810          49.000    37175194.084   149689102.148          26.927          48.000  
C27  25388223.020   132203138.404        2774.958          41.000                                                                  
C19  25730824.909   133987162.639         359.962          40.000                                                                  
C09  37807155.242   196871779.886         193.463          45.000    37807139.780   152233688.490         149.654          48.000  
C11                                                                  27118582.314   109195291.415       -1954.282          43.000  
> 2025 10 28 08 26 41.8020000  0 24                     
G04  21673021.970   113892500.362         376.879          45.000    21673013.130    88747365.619         293.706          46.000  
G27  21766046.393   114381346.325        2484.564          46.000    21766038.423    89128293.236        1935.812          44.000  
G16  20660859.039   108573545.662        -309.937          47.000                                                                  
G08  23865680.045   125414996.008        3465.156          37.000    23865679.057    97725981.798        2699.974          39.000  
G09  23800736.900   125073719.600        2333.997          37.000    23800729.898    97460014.769        1818.699          36.000  
G31  21964905.867   115426360.087       -2069.564          46.000    21964895.467    89942570.395       -1612.684          44.000  
C06  36736119.265   191294595.340          35.505          47.000    36736101.529   147921057.168          27.460          49.000  
C32  26646400.090   138754740.128       -3572.395          39.000                                                                  
C37  22877500.089   119129146.697        -562.383          50.000                                                                  
C07  38361161.609   199756635.848         706.006          41.000    38361145.010   154464439.066         545.873          45.000  
C13  41761705.407   217464161.906       -2327.654          36.000    41761737.080   168157219.127       -1799.652          38.000  
C20  24616054.568   128182255.298       -2113.216          46.000                                                                  
G18  25362010.374   133278265.515         944.416          38.000    25362003.803   103853160.063         736.094          39.000  
G28  24148344.679   126900405.879       -2973.809          41.000    24148337.199    98883393.223       -2317.371          42.000  
G03  25663676.289   134863530.312       -3023.389          33.000    25663690.684   105088443.619       -2356.218          39.000  
G26  21756024.225   114328679.906       -2210.685          47.000    21756016.364    89087250.674       -1722.692          45.000  
C10  39423994.320   205291083.555         662.366          38.000    39423982.635   158744039.381         512.500          43.000  
C28  23882873.682   124364389.493        1415.754          47.000                                                                  
C23  25122916.523   130821625.228       -2281.285          44.000                                                                  
C16  37175205.925   193581052.948          35.137          49.000    37175193.821   149689101.068          26.904          48.000  
C27  25388201.716   132203027.397        2775.129          41.000                                                                  
C19  25730822.129   133987148.210         360.439          40.000                                                                  
C09  37807153.733   196871772.122         193.863          45.000    37807138.307   152233682.486         149.940          48.000  
C11                                                                  27118601.729   109195369.584       -1954.318          43.000  
> 2025 10 28 08 26 41.8420000  0 24                     
G04  21673019.093   113892485.281         376.946          45.000    21673010.257    88747353.862         293.842          46.000  
G27  21766027.476   114381246.931        2484.810          46.000    21766019.513    89128215.790        1935.977          44.000  
G16  20660861.376   108573558.045        -309.687          47.000                                                                  
G08  23865653.678   125414857.413        3465.048          37.000    23865652.684    97725873.788        2700.195          39.000  
G09  23800719.124   125073626.213        2334.636          37.000    23800712.135    97459942.037        1818.443          36.000  
G31  21964921.615   115426442.862       -2069.436          46.000    21964911.207    89942634.890       -1612.476          44.000  
C06  36736119.001   191294593.901          35.770          47.000    36736101.227   147921056.055          27.677          49.000  
C32  26646427.524   138754883.012       -3572.166          39.000                                                                  
C37  22877504.415   119129169.175        -562.071          50.000                                                                  
C07  38361156.199   199756607.601         706.145          41.000    38361139.589   154464417.217         546.133          45.000  
C13  41761723.279   217464255.000       -2327.431          36.000    41761754.949   168157291.102       -1799.438          39.000  
C20  24616070.801   128182339.813       -2112.940          46.000                                                                  
G18  25362003.151   133278227.716         944.745          38.000    25361996.603   103853130.605         736.341          39.000  
G28  24148367.311   126900524.827       -2973.724          41.000    24148359.828    98883485.896       -2316.977          42.000  
G03  25663699.298   134863651.256       -3023.365          33.000    25663713.691   105088537.839       -2355.692          39.000  
G26  21756041.036   114328768.317       -2210.413          47.000    21756033.158    89087319.572       -1722.549          45.000  
C10  39423989.238   205291057.047         662.585          38.000    39423977.550   158744018.885         512.506          43.000  
C28  23882862.819   124364332.853        1415.933          47.000                                                                  
C23  25122934.058   130821716.464       -2281.022          44.000                                                                  
C16  37175205.695   193581051.543          35.177          49.000    37175193.554   149689099.979          27.083          48.000  
C27  25388180.405   132202916.402        2774.991          41.000                                                                  
C19  25730819.353   133987133.810         360.186          40.000                                                                  
C09  37807152.253   196871764.354         194.146          45.000    37807136.842   152233676.482         150.091          48.000  
C11                                                                  27118621.135   109195447.743       -1954.157          43.000  
> 2025 10 28 08 26 41.8820000  0 24                     
G04  21673016.215   113892470.198         377.044          45.000    21673007.389    88747342.104         293.930          46.000  
G27  21766008.552   114381147.539        2484.886          46.000    21766000.597    89128138.336        1936.237          44.000  
G16  20660863.699   108573570.431        -309.589          47.000                                                                  
G08  23865627.299   125414718.816        3464.933          37.000    23865626.331    97725765.782        2700.217          39.000  
G09  23800701.352   125073532.861        2334.168          37.000    23800694.377    97459869.288        1818.655          36.000  
G31  21964937.346   115426525.630       -2069.237          46.000    21964926.969    89942699.384       -1612.316          44.000  
C06  36736118.727   191294592.455          36.069          47.000    36736100.968   147921054.936          27.916          49.000  
C32  26646454.962   138755025.901       -3572.158          39.000                                                                  
C37  22877508.742   119129191.653        -561.930          50.000                                                                  
C07  38361150.795   199756579.352         706.250          41.000    38361134.133   154464395.375         546.141          45.000  
C13  41761741.162   217464348.075       -2326.973          36.000    41761772.810   168157363.094       -1799.641          38.000  
C20  24616087.013   128182424.335       -2112.920          46.000                                                                  
G18  25361995.950   133278189.905         945.096          38.000    25361989.400   103853101.153         736.332          39.000  
G28  24148389.947   126900643.767       -2973.527          41.000    24148382.456    98883578.574       -2316.874          42.000  
G03  25663722.349   134863772.208       -3023.685          33.000    25663736.702   105088632.075       -2355.731          39.000  
G26  21756057.849   114328856.727       -2210.258          47.000    21756049.979    89087388.455       -1722.193          45.000  
C10  39423984.153   205291030.530         662.885          38.000    39423972.455   158743998.391         512.433          43.000  
C28  23882851.954   124364276.208        1416.131          47.000                                                                  
C23  25122951.599   130821807.701       -2280.896          44.000                                                                  
C16  37175205.448   193581050.131          35.316          49.000    37175193.331   149689098.885          27.284          48.000  
C27  25388159.074   132202805.391        2775.195          41.000                                                                  
C19  25730816.592   133987119.400         360.180          40.000                                                                  
C09  37807150.772   196871756.590         194.188          45.000    37807135.372   152233670.482         150.072          48.000  
C11                                                                  27118640.565   109195525.881       -1953.652          43.000  
> 2025 10 28 08 26 41.9220000  0 24                     
G04  21673013.315   113892455.106         377.226          45.000    21673004.529    88747330.355         293.784          46.000  
G27  21765989.645   114381048.156        2484.715          46.000    21765981.693    89128060.893        1936.154          44.000  
G16  20660866.093   108573582.821        -309.661          47.000                                                                  
G08  23865600.919   125414580.221        3464.859          37.000    23865599.962    97725657.801        2699.724          39.000  
G09  23800683.634   125073439.511        2333.875          37.000    23800676.616    97459796.528        1819.010          36.000  
G31  21964953.105   115426608.407       -2069.320          46.000    21964942.726    89942763.893       -1612.593          44.000  
C06  36736118.437   191294591.026          35.883          47.000    36736100.690   147921053.823          27.895          49.000  
C32  26646482.403   138755168.791       -3572.210          39.000                                                                  
C37  22877513.013   119129214.140        -562.040          50.000                                                                  
C07  38361145.379   199756551.098         706.321          41.000    38361128.676   154464373.530         546.138          45.000  
C13  41761759.030   217464441.176       -2327.238          36.000    41761790.704   168157435.098       -1800.008          38.000  
C20  24616103.236   128182508.870       -2113.231          46.000                                                                  
G18  25361988.752   133278152.105         945.177          38.000    25361982.194   103853071.714         736.024          39.000  
G28  24148412.575   126900762.719       -2973.670          41.000    24148405.091    98883671.256       -2316.924          42.000  
G03  25663745.354   134863893.132       -3023.267          33.000    25663759.716   105088726.298       -2355.541          39.000  
G26  21756074.697   114328945.141       -2210.261          47.000    21756066.811    89087457.347       -1722.193          45.000  
C10  39423979.055   205291004.038         662.531          38.000    39423967.385   158743977.895         512.390          43.000  
C28  23882841.055   124364219.578        1415.905          47.000                                                                  
C23  25122969.137   130821898.947       -2281.058          44.000                                                                  
C16  37175205.164   193581048.725          35.238          49.000    37175193.038   149689097.794          27.308          48.000  
C27  25388137.744   132202694.387        2775.142          41.000                                                                  
C19  25730813.842   133987104.979         360.374          40.000                                                                  
C09  37807149.259   196871748.836         194.018          45.000    37807133.870   152233664.486         149.980          48.000  
C11                                                                  27118660.000   109195604.037       -1953.715          43.000  
> 2025 10 28 08 26 41.9620000  0 24                     
G04  21673010.467   113892440.026         377.140          45.000    21673001.673    88747318.615         293.562          46.000  
G27  21765970.732   114380948.785        2484.401          46.000    21765962.784    89127983.458        1935.959          44.000  
G16  20660868.465   108573595.218        -309.856          47.000                                                                  
G08  23865574.554   125414441.608        3465.177          37.000    23865573.601    97725549.821        2699.459          39.000  
G09  23800665.857   125073346.167        2333.565          37.000    23800658.844    97459723.784        1818.768          36.000  
G31  21964968.873   115426691.196       -2069.634          46.000    21964958.478    89942828.406       -1612.814          44.000  
C06  36736118.148   191294589.596          35.787          47.000    36736100.447   147921052.726          27.573          49.000  
C32  26646509.850   138755311.689       -3572.419          38.000                                                                  
C37  22877517.307   119129236.633        -562.233          50.000                                                                  
C07  38361139.931   199756522.851         706.210          41.000    38361123.249   154464351.688         546.073          45.000  
C13  41761776.901   217464534.279       -2327.413          36.000    41761808.574   168157507.076       -1799.694          38.000  
C20  24616119.471   128182593.413       -2113.526          46.000                                                                  
G18  25361981.563   133278114.315         944.917          38.000    25361975.027   103853042.271         736.044          39.000  
G28  24148435.215   126900881.666       -2973.664          41.000    24148427.703    98883763.959       -2317.399          42.000  
G03  25663768.376   134864014.074       -3023.453          33.000    25663782.733   105088820.562       -2356.242          39.000  
G26  21756091.538   114329033.571       -2210.557          47.000    21756083.637    89087526.246       -1722.349          45.000  
C10  39423973.970   205290977.536         662.543          38.000    39423962.330   158743957.411         512.146          43.000  
C28  23882830.157   124364162.950        1415.743          47.000                                                                  
C23  25122986.647   130821990.197       -2281.217          44.000                                                                  
C16  37175204.893   193581047.333          34.927          49.000    37175192.791   149689096.712          27.148          48.000  
C27  25388116.421   132202583.390        2774.976          41.000                                                                  
C19  25730811.061   133987090.576         360.192          40.000                                                                  
C09  37807147.771   196871741.093         193.704          45.000    37807132.350   152233658.495         149.833          48.000  
C11                                                                  27118679.384   109195682.193       -1953.840          43.000  
> 2025 10 28 08 26 42.0020000  0 24                     
G04  21673007.638   113892424.951         376.959          45.000    21672998.815    88747306.862         293.732          46.000  
G27  21765951.818   114380849.410        2484.284          46.000    21765943.852    89127906.016        1935.969          44.000  
G16  20660870.843   108573607.615        -309.943          47.000                                                                  
G08  23865548.181   125414303.034        3464.596          37.000    23865547.228    97725441.834        2699.550          39.000  
G09  23800648.103   125073252.824        2333.419          37.000    23800641.082    97459651.038        1818.713          37.000  
G31  21964984.631   115426773.974       -2069.565          46.000    21964974.219    89942892.906       -1612.687          44.000  
C06  36736117.871   191294588.162          35.796          47.000    36736100.186   147921051.622          27.541          49.000  
C32  26646537.279   138755454.587       -3572.441          38.000                                                                  
C37  22877521.611   119129259.124        -562.295          50.000                                                                  
C07  38361134.506   199756494.604         706.166          41.000    38361117.793   154464329.849         545.978          45.000  
C13  41761794.771   217464627.370       -2327.306          36.000    41761826.462   168157579.044       -1799.315          38.000  
C20  24616135.713   128182677.941       -2113.387          46.000                                                                  
G18  25361974.358   133278076.547         944.395          38.000    25361967.827   103853012.831         735.960          39.000  
G28  24148457.858   126901000.613       -2973.713          41.000    24148450.343    98883856.651       -2317.429          42.000  
G03  25663791.390   134864135.013       -3023.507          33.000    25663805.762   105088914.806       -2356.292          39.000  
G26  21756108.381   114329121.990       -2210.552          47.000    21756100.479    89087595.134       -1722.263          45.000  
C10  39423968.871   205290951.018         662.872          38.000    39423957.215   158743936.925         512.097          43.000  
C28  23882819.279   124364106.320        1415.707          47.000                                                                  
C23  25123004.167   130822081.437       -2281.113          44.000                                                                  
C16  37175204.633   193581045.922          35.091          49.000    37175192.514   149689095.627          27.110          48.000  
C27  25388095.122   132202472.388        2775.020          41.000                                                                  
C19  25730808.295   133987076.171         360.130          40.000                                                                  
C09  37807146.285   196871733.336         193.799          45.000    37807130.845   152233652.503         149.758          48.000  
C11                                                                  27118698.785   109195760.363       -1954.166          43.000  
> 2025 10 28 08 26 42.0420000  0 24                     
G04  21673004.780   113892409.882         376.762          45.000    21672995.927    88747295.109         293.797          46.000  
G27  21765932.886   114380750.036        2484.261          46.000    21765924.958    89127828.580        1935.878          44.000  
G16  20660873.223   108573620.018        -310.111          47.000                                                                  
G08  23865521.797   125414164.429        3464.829          37.000    23865520.856    97725333.828        2699.937          39.000  
G09  23800630.342   125073159.468        2333.659          37.000    23800623.338    97459578.310        1818.339          36.000  
G31  21965000.379   115426856.757       -2069.590          46.000    21964989.963    89942957.404       -1612.545          44.000  
C06  36736117.608   191294586.738          35.623          47.000    36736099.926   147921050.513          27.617          49.000  
C32  26646564.737   138755597.478       -3572.358          38.000                                                                  
C37  22877525.963   119129281.614        -562.325          50.000                                                                  
C07  38361129.093   199756466.362         706.021          41.000    38361112.349   154464308.011         545.909          45.000  
C13  41761812.646   217464720.459       -2327.258          36.000    41761844.323   168157651.038       -1799.617          38.000  
C20  24616151.946   128182762.467       -2113.278          46.000                                                                  
G18  25361967.175   133278038.754         944.573          38.000    25361960.638   103852983.381         736.141          39.000  
G28  24148480.518   126901119.585       -2974.194          41.000    24148472.987    98883949.350       -2317.551          42.000  
G03  25663814.397   134864255.974       -3023.912          33.000    25663828.770   105089009.035       -2355.985          39.000  
G26  21756125.237   114329210.412       -2210.596          47.000    21756117.302    89087664.043       -1722.591          45.000  
C10  39423963.769   205290924.514         662.726          38.000    39423952.117   158743916.433         512.189          43.000  
C28  23882808.407   124364049.696        1415.590          47.000                                                                  
C23  25123021.678   130822172.684       -2281.173          44.000                                                                  
C16  37175204.375   193581044.519          35.045          49.000    37175192.258   149689094.545          27.047          48.000  
C27  25388073.790   132202361.382        2775.092          41.000                                                                  
C19  25730805.500   133987061.770         360.029          40.000                                                                  
C09  37807144.825   196871725.584         193.775          45.000    37807129.365   152233646.508         149.813          48.000  
C11                                                                  27118718.196   109195838.518       -1954.079          43.000  
> 2025 10 28 08 26 42.0820000  0 24                     
G04  21673001.918   113892394.817         376.578          45.000    21672993.054    88747283.367         293.647          46.000  
G27  21765913.968   114380650.654        2484.394          46.000    21765906.064    89127751.151        1935.731          44.000  
G16  20660875.565   108573632.414        -310.032          47.000                                                                  
G08  23865495.425   125414025.851        3464.449          37.000    23865494.477    97725225.826        2700.041          39.000  
G09  23800612.581   125073066.113        2333.771          37.000    23800605.571    97459505.574        1818.292          37.000  
G31  21965016.145   115426939.544       -2069.707          46.000    21965005.730    89943021.910       -1612.593          44.000  
C06  36736117.323   191294585.318          35.454          47.000    36736099.669   147921049.413          27.533          49.000  
C32  26646592.190   138755740.365       -3572.181          38.000                                                                  
C37  22877530.302   119129304.106        -562.363          50.000                                                                  
C07  38361123.671   199756438.133         705.751          41.000    38361106.929   154464286.170         545.950          45.000  
C13  41761830.536   217464813.567       -2327.619          36.000    41761862.222   168157723.039       -1799.922          38.000  
C20  24616168.185   128182847.004       -2113.406          46.000                                                                  
G18  25361959.980   133278000.988         944.169          38.000    25361953.439   103852953.931         736.239          39.000  
G28  24148503.159   126901238.539       -2974.031          41.000    24148495.592    98884042.034       -2317.235          42.000  
G03  25663837.444   134864376.929       -3023.875          33.000    25663851.814   105089103.274       -2355.982          39.000  
G26  21756142.076   114329298.839       -2210.693          47.000    21756134.130    89087732.956       -1722.837          45.000  
C10  39423958.675   205290898.020         662.421          38.000    39423947.002   158743895.931         512.445          43.000  
C28  23882797.550   124363993.067        1415.616          47.000                                                                  
C23  25123039.227   130822263.927       -2281.168          44.000                                                                  
C16  37175204.098   193581043.121          34.954          49.000    37175192.012   149689093.465          26.978          48.000  
C27  25388052.450   132202250.400        2774.698          41.000                                                                  
C19  25730802.750   133987047.362         360.076          40.000                                                                  
C09  37807143.337   196871717.815         194.051          45.000    37807127.851   152233640.507         149.934          48.000  
C11                                                                  27118737.602   109195916.690       -1954.294          43.000  
> 2025 10 28 08 26 42.1220000  0 24                     
G04  21672999.036   113892379.753         376.518          45.000    21672990.181    88747271.626         293.510          46.000  
G27  21765895.073   114380551.278        2484.396          45.000    21765887.150    89127673.722        1935.688          44.000  
G16  20660877.914   108573644.816        -310.082          47.000                                                                  
G08  23865469.045   125413887.259        3464.590          37.000    23865468.095    97725117.829        2700.001          39.000  
G09  23800594.847   125072972.771        2333.571          37.000    23800587.814    97459432.839        1818.282          37.000  
G31  21965031.906   115427022.331       -2069.769          46.000    21965021.482    89943086.417       -1612.660          44.000  
C06  36736117.068   191294583.887          35.591          47.000    36736099.378   147921048.307          27.569          49.000  
C32  26646619.592   138755883.270       -3572.492          38.000                                                                  
C37  22877534.637   119129326.599        -562.399          50.000                                                                  
C07  38361118.258   199756409.894         705.795          41.000    38361101.513   154464264.337         545.836          45.000  
C13  41761848.420   217464906.667       -2327.656          36.000    41761880.097   168157795.049       -1800.224          38.000  
C20  24616184.435   128182931.548       -2113.567          46.000                                                                  
G18  25361952.783   133277963.193         944.556          38.000    25361946.224   103852924.485         736.221          39.000  
G28  24148525.770   126901357.483       -2973.760          41.000    24148518.205    98884134.723       -2317.199          42.000  
G03  25663860.453   134864497.859       -3023.501          33.000    25663874.835   105089197.522       -2356.097          39.000  
G26  21756158.893   114329387.263       -2210.674          46.000    21756150.969    89087801.868       -1722.929          45.000  
C10  39423953.588   205290871.526         662.274          38.000    39423941.896   158743875.439         512.366          43.000  
C28  23882786.685   124363936.443        1415.573          47.000                                                                  
C23  25123056.737   130822355.172       -2281.208          44.000                                                                  
C16  37175203.865   193581041.716          35.030          49.000    37175191.740   149689092.378          27.067          48.000  
C27  25388031.121   132202139.400        2774.847          41.000                                                                  
C19  25730799.970   133987032.961         359.987          40.000                                                                  
C09  37807141.843   196871710.065         193.867          45.000    37807126.331   152233634.514         149.856          48.000  
C11                                                                  27118757.005   109195994.853       -1954.213          43.000  
> 2025 10 28 08 26 42.1620000  0 24                     
G04  21672996.168   113892364.687         376.517          45.000    21672987.334    88747259.890         293.362          46.000  
G27  21765876.191   114380451.914        2484.155          45.000    21765868.247    89127596.297        1935.584          44.000  
G16  20660880.250   108573657.221        -310.143          47.000                                                                  
G08  23865442.668   125413748.677        3464.529          37.000    23865441.718    97725009.844        2699.714          39.000  
G09  23800577.074   125072879.418        2333.741          37.000    23800570.061    97459360.112        1818.121          36.000  
G31  21965047.674   115427105.122       -2069.843          46.000    21965037.267    89943150.944       -1613.052          44.000  
C06  36736116.818   191294582.457          35.645          47.000    36736099.122   147921047.206          27.508          49.000  
C32  26646647.047   138756026.177       -3572.671          38.000                                                                  
C37  22877538.921   119129349.098        -562.532          50.000                                                                  
C07  38361112.822   199756381.659         705.778          41.000    38361096.106   154464242.503         545.774          45.000  
C13  41761866.294   217464999.773       -2327.696          36.000    41761897.982   168157867.050       -1800.183          38.000  
C20  24616200.664   128183016.092       -2113.680          46.000                                                                  
G18  25361945.593   133277925.397         944.810          38.000    25361939.036   103852895.049         736.018          39.000  
G28  24148548.401   126901476.451       -2974.062          41.000    24148540.842    98884227.406       -2317.095          42.000  
G03  25663883.481   134864618.829       -3023.851          33.000    25663897.867   105089291.764       -2356.049          39.000  
G26  21756175.718   114329475.690       -2210.727          46.000    21756167.779    89087870.769       -1722.787          45.000  
C10  39423948.505   205290845.027         662.372          38.000    39423936.774   158743854.954         512.170          43.000  
C28  23882775.825   124363879.822        1415.468          47.000                                                                  
C23  25123074.234   130822446.437       -2281.563          44.000                                                                  
C16  37175203.614   193581040.324          34.854          49.000    37175191.492   149689091.297          27.027          48.000  
C27  25388009.805   132202028.400        2774.919          41.000                                                                  
C19  25730797.234   133987018.564         359.872          40.000                                                                  
C09  37807140.328   196871702.323         193.565          45.000    37807124.807   152233628.527         149.709          48.000  
C11                                                                  27118776.396   109196073.022       -1954.262          43.000  
> 2025 10 28 08 26 42.2020000  0 24                     
G04  21672993.273   113892349.620         376.564          45.000    21672984.475    88747248.156         293.284          46.000  
G27  21765857.287   114380352.542        2484.168          46.000    21765849.310    89127518.863        1935.705          44.000  
G16  20660882.592   108573669.626        -310.166          47.000                                                                  
G08  23865416.304   125413610.079        3464.823          37.000    23865415.337    97724901.860        2699.636          39.000  
G09  23800559.292   125072786.082        2333.555          37.000    23800552.296    97459287.382        1818.155          37.000  
G31  21965063.433   115427187.921       -2069.995          46.000    21965053.040    89943215.463       -1613.120          44.000  
C06  36736116.533   191294581.033          35.612          47.000    36736098.844   147921046.103          27.527          49.000  
C32  26646674.497   138756169.101       -3573.077          38.000                                                                  
C37  22877543.256   119129371.598        -562.546          50.000                                                                  
C07  38361107.384   199756353.416         705.978          41.000    38361090.684   154464220.662         545.942          45.000  
C13  41761884.147   217465092.890       -2327.912          36.000    41761915.850   168157939.019       -1799.547          38.000  
C20  24616216.911   128183100.631       -2113.606          46.000                                                                  
G18  25361938.401   133277887.610         944.770          38.000    25361931.861   103852865.611         735.909          39.000  
G28  24148571.049   126901595.406       -2973.963          41.000    24148563.482    98884320.100       -2317.299          42.000  
G03  25663906.487   134864739.743       -3023.119          33.000    25663920.892   105089386.004       -2356.024          39.000  
G26  21756192.563   114329564.121       -2210.788          46.000    21756184.602    89087939.666       -1722.572          45.000  
C10  39423943.404   205290818.538         662.213          38.000    39423931.699   158743834.457         512.347          43.000  
C28  23882764.946   124363823.200        1415.469          47.000                                                                  
C23  25123091.782   130822537.692       -2281.555          44.000                                                                  
C16  37175203.351   193581038.931          34.774          49.000    37175191.264   149689090.221          26.929          48.000  
C27  25387988.495   132201917.415        2774.691          41.000                                                                  
C19  25730794.474   133987004.186         359.454          40.000                                                                  
C09  37807138.819   196871694.576         193.553          45.000    37807123.310   152233622.532         149.776          48.000  
C11                                                                  27118795.799   109196151.196       -1954.354          43.000  
> 2025 10 28 08 26 42.2420000  0 24                     
G04  21672990.405   113892334.544         376.757          45.000    21672981.585    88747236.414         293.385          46.000  
G27  21765838.350   114380253.171        2484.193          45.000    21765830.378    89127441.419        1935.936          44.000  
G16  20660884.940   108573682.027        -310.058          47.000                                                                  
G08  23865389.937   125413471.506        3464.459          37.000    23865388.967    97724793.867        2699.718          39.000  
G09  23800541.512   125072692.739        2333.581          37.000    23800534.516    97459214.640        1818.423          37.000  
G31  21965079.197   115427270.705       -2069.783          46.000    21965068.780    89943279.965       -1612.800          44.000  
C06  36736116.281   191294579.604          35.666          47.000    36736098.588   147921045.002          27.521          49.000  
C32  26646701.948   138756311.992       -3572.645          38.000                                                                  
C37  22877547.593   119129394.089        -562.389          49.000                                                                  
C07  38361101.950   199756325.174         706.080          41.000    38361085.280   154464198.828         545.871          45.000  
C13  41761902.033   217465185.962       -2327.100          36.000    41761933.726   168158011.007       -1799.594          38.000  
C20  24616233.163   128183185.170       -2113.563          46.000                                                                  
G18  25361931.205   133277849.839         944.426          38.000    25361924.684   103852836.194         735.502          39.000  
G28  24148593.672   126901714.363       -2973.938          41.000    24148586.131    98884412.806       -2317.607          42.000  
G03  25663929.489   134864860.691       -3023.435          33.000    25663943.918   105089480.248       -2356.078          39.000  
G26  21756209.372   114329652.540       -2210.619          46.000    21756201.456    89088008.568       -1722.550          45.000  
C10  39423938.317   205290792.026         662.610          38.000    39423926.609   158743813.973         512.183          43.000  
C28  23882754.096   124363766.574        1415.563          47.000                                                                  
C23  25123109.317   130822628.933       -2281.250          44.000                                                                  
C16  37175203.100   193581037.527          34.941          49.000    37175191.016   149689089.136          27.030          48.000  
C27  25387967.194   132201806.418        2774.792          41.000                                                                  
C19  25730791.728   133986989.781         359.783          40.000                                                                  
C09  37807137.340   196871686.832         193.532          45.000    37807121.840   152233616.538         149.809          48.000  
C11                                                                  27118815.196   109196229.353       -1954.101          43.000  
> 2025 10 28 08 26 42.2820000  0 24                     
G04  21672987.552   113892319.482         376.591          45.000    21672978.710    88747224.674         293.418          46.000  
G27  21765819.430   114380153.800        2484.194          45.000    21765811.482    89127363.987        1935.861          44.000  
G16  20660887.333   108573694.434        -310.127          47.000                                                                  
G08  23865363.554   125413332.889        3465.102          37.000    23865362.579    97724685.878        2699.674          39.000  
G09  23800523.731   125072599.397        2333.575          37.000    23800516.775    97459141.908        1818.366          37.000  
G31  21965094.956   115427353.485       -2069.601          46.000    21965084.524    89943344.469       -1612.633          44.000  
C06  36736116.027   191294578.176          35.671          47.000    36736098.327   147921043.901          27.488          49.000  
C32  26646729.404   138756454.878       -3572.294          38.000                                                                  
C37  22877551.895   119129416.583        -562.351          49.000                                                                  
C07  38361096.534   199756296.934         706.024          41.000    38361079.851   154464176.994         545.827          45.000  
C13  41761919.908   217465279.060       -2327.248          36.000    41761951.602   168158083.004       -1799.826          38.000  
C20  24616249.415   128183269.711       -2113.584          46.000                                                                  
G18  25361924.022   133277812.060         944.344          38.000    25361917.479   103852806.740         735.951          39.000  
G28  24148616.299   126901833.322       -2974.037          41.000    24148608.791    98884505.514       -2317.759          42.000  
G03  25663952.505   134864981.685       -3024.412          33.000    25663966.914   105089574.501       -2356.317          39.000  
G26  21756226.199   114329740.971       -2210.741          46.000    21756218.259    89088077.470       -1722.560          45.000  
C10  39423933.236   205290765.533         662.445          38.000    39423921.505   158743793.484         512.170          43.000  
C28  23882743.217   124363709.953        1415.519          47.000                                                                  
C23  25123126.859   130822720.178       -2281.136          44.000                                                                  
C16  37175202.856   193581036.125          35.006          49.000    37175190.768   149689088.055          27.010          48.000  
C27  25387945.887   132201695.426        2774.766          41.000                                                                  
C19  25730788.955   133986975.385         359.843          40.000                                                                  
C09  37807135.870   196871679.071         193.829          45.000    37807120.367   152233610.542         149.866          48.000  
C11                                                                  27118834.589   109196307.522       -1954.225          43.000  
> 2025 10 28 08 26 42.3220000  0 24                     
G04  21672984.695   113892304.433         376.282          45.000    21672975.849    88747212.953         293.094          46.000  
G27  21765800.525   114380054.448        2483.863          45.000    21765792.604    89127286.575        1935.443          44.000  
G16  20660889.726   108573706.853        -310.391          47.000                                                                  
G08  23865337.173   125413194.322        3464.501          37.000    23865336.223    97724577.903        2699.407          39.000  
G09  23800505.960   125072506.057        2333.551          37.000    23800499.032    97459069.178        1818.227          37.000  
G31  21965110.736   115427436.290       -2069.969          46.000    21965100.290    89943408.991       -1612.910          44.000  
C06  36736115.749   191294576.770          35.249          47.000    36736098.041   147921042.806          27.376          49.000  
C32  26646756.845   138756597.798       -3572.790          38.000                                                                  
C37  22877556.198   119129439.094        -562.681          49.000                                                                  
C07  38361091.101   199756268.700         705.831          41.000    38361074.420   154464155.168         545.676          45.000  
C13  41761937.785   217465372.189       -2327.973          36.000    41761969.464   168158155.010       -1800.175          38.000  
C20  24616265.669   128183354.272       -2113.942          46.000                                                                  
G18  25361916.853   133277774.309         943.898          38.000    25361910.292   103852777.294         736.107          39.000  
G28  24148638.932   126901952.294       -2974.290          41.000    24148631.419    98884598.222       -2317.844          42.000  
G03  25663975.503   134865102.664       -3024.760          33.000    25663989.928   105089668.758       -2356.431          39.000  
G26  21756243.045   114329829.412       -2211.001          46.000    21756235.083    89088146.394       -1722.976          45.000  
C10  39423928.148   205290739.049         662.152          38.000    39423916.409   158743773.007         511.951          43.000  
C28  23882732.327   124363653.348        1415.158          47.000                                                                  
C23  25123144.372   130822811.448       -2281.594          44.000                                                                  
C16  37175202.603   193581034.735          34.826          49.000    37175190.528   149689086.981          26.852          48.000  
C27  25387924.567   132201584.455        2774.341          41.000                                                                  
C19  25730786.185   133986961.008         359.540          40.000                                                                  
C09  37807134.373   196871671.325         193.703          45.000    37807118.854   152233604.558         149.646          48.000  
C11                                                                  27118853.989   109196385.699       -1954.435          43.000  
> 2025 10 28 08 26 42.3620000  0 24                     
G04  21672981.845   113892289.405         375.778          45.000    21672973.007    88747201.235         292.892          46.000  
G27  21765781.650   114379955.117        2483.351          45.000    21765773.696    89127209.167        1935.186          44.000  
G16  20660892.106   108573719.283        -310.727          47.000                                                                  
G08  23865310.809   125413055.774        3463.800          37.000    23865309.863    97724469.916        2699.553          39.000  
G09  23800488.196   125072412.757        2332.823          37.000    23800481.286    97458996.455        1818.156          37.000  
G31  21965126.494   115427519.113       -2070.482          46.000    21965116.059    89943473.532       -1613.428          44.000  
C06  36736115.471   191294575.373          34.892          47.000    36736097.757   147921041.728          27.008          49.000  
C32  26646784.326   138756740.693       -3572.611          38.000                                                                  
C37  22877560.509   119129461.623        -563.169          49.000                                                                  
C07  38361085.703   199756240.495         705.238          41.000    38361069.017   154464133.355         545.374          45.000  
C13  41761955.669   217465465.323       -2328.410          36.000    41761987.393   168158227.041       -1800.801          38.000  
C20  24616281.897   128183438.849       -2114.357          46.000                                                                  
G18  25361909.671   133277736.554         943.709          38.000    25361903.100   103852747.870         735.762          39.000  
G28  24148661.575   126902071.279       -2974.596          41.000    24148654.046    98884690.922       -2317.677          42.000  
G03  25663998.505   134865223.607       -3024.108          33.000    25664012.941   105089763.023       -2356.694          39.000  
G26  21756259.880   114329917.873       -2211.467          46.000    21756251.952    89088215.323       -1723.282          45.000  
C10  39423923.026   205290712.571         661.920          38.000    39423911.351   158743752.539         511.713          43.000  
C28  23882721.448   124363596.754        1414.806          47.000                                                                  
C23  25123161.914   130822902.722       -2281.907          44.000                                                                  
C16  37175202.375   193581033.359          34.459          49.000    37175190.295   149689085.923          26.484          48.000  
C27  25387903.250   132201473.492        2774.034          41.000                                                                  
C19  25730783.411   133986946.627         359.429          40.000                                                                  
C09  37807132.873   196871663.611         193.071          45.000    37807117.381   152233598.593         149.189          48.000  
C11                                                                  27118873.408   109196463.894       -1954.840          43.000  
> 2025 10 28 08 26 42.4020000  0 24                     
G04  21672978.956   113892274.364         375.783          45.000    21672970.133    88747189.517         292.832          46.000  
G27  21765762.737   114379855.772        2483.341          46.000    21765754.818    89127131.759        1935.112          44.000  
G16  20660894.446   108573731.711        -310.816          47.000                                                                  
G08  23865284.453   125412917.214        3463.656          37.000    23865283.501    97724361.951        2699.192          39.000  
G09  23800470.451   125072319.436        2332.829          37.000    23800463.517    97458923.735        1818.058          37.000  
G31  21965142.254   115427601.927       -2070.562          46.000    21965131.795    89943538.066       -1613.558          44.000  
C06  36736115.216   191294573.959          35.073          47.000    36736097.488   147921040.636          27.111          49.000  
C32  26646811.799   138756883.619       -3573.011          38.000                                                                  
C37  22877564.852   119129484.138        -563.104          49.000                                                                  
C07  38361080.292   199756212.286         705.007          41.000    38361063.627   154464111.530         545.470          45.000  
C13  41761973.552   217465558.447       -2328.341          36.000    41762005.290   168158299.050       -1800.632          38.000  
C20  24616298.145   128183523.420       -2114.442          46.000                                                                  
G18  25361902.496   133277698.779         944.044          38.000    25361895.931   103852718.455         735.421          39.000  
G28  24148684.211   126902190.255       -2974.545          41.000    24148676.674    98884783.630       -2317.695          42.000  
G03  25664021.515   134865344.538       -3023.415          33.000    25664035.958   105089857.282       -2356.678          39.000  
G26  21756276.692   114330006.320       -2211.431          46.000    21756268.809    89088284.240       -1723.105          45.000  
C10  39423917.947   205290686.108         661.578          38.000    39423906.287   158743732.058         511.896          43.000  
C28  23882710.588   124363540.154        1414.805          47.000                                                                  
C23  25123179.452   130822994.002       -2282.104          44.000                                                                  
C16  37175202.111   193581031.987          34.255          49.000    37175190.035   149689084.859          26.445          48.000  
C27  25387881.949   132201362.505        2774.366          41.000                                                                  
C19  25730780.619   133986932.265         359.073          40.000                                                                  
C09  37807131.387   196871655.886         192.982          45.000    37807115.894   152233592.615         149.258          48.000  
C11                                                                  27118892.791   109196542.079       -1954.807          43.000  
> 2025 10 28 08 26 42.4420000  0 24                     
G04  21672976.074   113892259.302         376.223          45.000    21672967.262    88747177.780         293.165          46.000  
G27  21765743.842   114379756.392        2484.047          46.000    21765735.921    89127054.318        1935.698          44.000  
G16  20660896.773   108573744.117        -310.435          47.000                                                                  
G08  23865258.063   125412778.615        3464.414          37.000    23865257.120    97724253.969        2699.389          39.000  
G09  23800452.703   125072226.093        2333.292          37.000    23800445.729    97458850.996        1818.363          37.000  
G31  21965158.015   115427684.714       -2070.066          46.000    21965147.530    89943602.573       -1613.054          44.000  
C06  36736114.961   191294572.536          35.387          47.000    36736097.244   147921039.529          27.456          49.000  
C32  26646839.241   138757026.526       -3572.863          38.000                                                                  
C37  22877569.169   119129506.627        -562.540          49.000                                                                  
C07  38361074.877   199756184.047         705.590          41.000    38361058.215   154464089.693         545.778          45.000  
C13  41761991.445   217465651.540       -2327.602          36.000    41762023.148   168158371.030       -1799.895          38.000  
C20  24616314.364   128183607.947       -2113.656          46.000                                                                  
G18  25361895.302   133277661.004         944.300          38.000    25361888.726   103852689.026         735.504          39.000  
G28  24148706.847   126902309.212       -2974.100          41.000    24148699.303    98884876.331       -2317.596          42.000  
G03  25664044.532   134865465.482       -3023.546          33.000    25664059.001   105089951.508       -2356.000          39.000  
G26  21756293.529   114330094.746       -2210.959          46.000    21756285.629    89088353.141       -1722.726          45.000  
C10  39423912.838   205290659.614         662.067          38.000    39423901.186   158743711.568         512.122          43.000  
C28  23882699.723   124363483.531        1415.300          47.000                                                                  
C23  25123196.952   130823085.243       -2281.436          43.000                                                                  
C16  37175201.860   193581030.589          34.661          48.000    37175189.773   149689083.771          26.917          48.000  
C27  25387860.626   132201251.505        2774.810          41.000                                                                  
C19  25730777.846   133986917.873         359.452          40.000                                                                  
C09  37807129.888   196871648.130         193.547          45.000    37807114.422   152233586.613         149.770          48.000  
C11                                                                  27118912.189   109196620.246       -1954.368          43.000  
> 2025 10 28 08 26 42.4820000  0 24                     
G04  21672973.225   113892244.240         376.455          45.000    21672964.362    88747166.035         293.490          46.000  
G27  21765724.921   114379657.026        2484.189          45.000    21765717.004    89126976.890        1935.784          44.000  
G16  20660899.132   108573756.520        -310.154          47.000                                                                  
G08  23865231.689   125412640.020        3464.842          37.000    23865230.739    97724145.988        2699.476          39.000  
G09  23800434.968   125072132.758        2333.389          37.000    23800427.975    97458778.276        1818.176          37.000  
G31  21965173.753   115427767.501       -2069.755          46.000    21965163.282    89943667.081       -1612.770          44.000  
C06  36736114.681   191294571.098          35.819          47.000    36736096.940   147921038.420          27.687          49.000  
C32  26646866.659   138757169.422       -3572.625          38.000                                                                  
C37  22877573.473   119129529.122        -562.349          49.000                                                                  
C07  38361069.446   199756155.807         705.949          41.000    38361052.814   154464067.858         545.894          45.000  
C13  41762009.319   217465744.612       -2326.885          36.000    41762041.024   168158443.013       -1799.581          38.000  
C20  24616330.592   128183692.478       -2113.294          46.000                                                                  
G18  25361888.111   133277623.208         944.721          38.000    25361881.549   103852659.606         735.423          39.000  
G28  24148729.447   126902428.173       -2973.978          41.000    24148721.918    98884969.018       -2317.264          42.000  
G03  25664067.525   134865586.450       -3023.969          33.000    25664082.016   105090045.754       -2356.003          39.000  
G26  21756310.361   114330183.173       -2210.701          46.000    21756302.456    89088422.042       -1722.546          45.000  
C10  39423907.732   205290633.112         662.439          38.000    39423896.121   158743691.081         512.195          43.000  
C28  23882688.824   124363426.910        1415.509          47.000                                                                  
C23  25123214.505   130823176.488       -2281.150          43.000                                                                  
C16  37175201.612   193581029.180          35.074          49.000    37175189.460   149689082.676          27.275          48.000  
C27  25387839.319   132201140.502        2775.051          41.000                                                                  
C19  25730775.052   133986903.464         359.945          40.000                                                                  
C09  37807128.369   196871640.369         193.951          45.000    37807112.960   152233580.611         150.051          48.000  
C11                                                                  27118931.595   109196698.414       -1954.190          43.000  
> 2025 10 28 08 26 42.5220000  0 24                     
G04  21672970.369   113892229.182         376.485          45.000    21672961.498    88747154.306         293.371          46.000  
G27  21765706.045   114379557.665        2484.136          46.000    21765698.110    89126899.469        1935.666          44.000  
G16  20660901.487   108573768.938        -310.315          47.000                                                                  
G08  23865205.321   125412501.440        3464.745          37.000    23865204.371    97724037.997        2699.661          39.000  
G09  23800417.225   125072039.422        2333.399          37.000    23800410.199    97458705.565        1817.909          37.000  
G31  21965189.508   115427850.300       -2069.840          46.000    21965179.037    89943731.596       -1612.808          44.000  
C06  36736114.411   191294569.674          35.760          47.000    36736096.644   147921037.325          27.536          49.000  
C32  26646894.084   138757312.331       -3572.727          38.000                                                                  
C37  22877577.752   119129551.626        -562.473          49.000                                                                  
C07  38361064.009   199756127.562         706.124          41.000    38361047.414   154464046.029         545.795          45.000  
C13  41762027.197   217465837.712       -2327.117          36.000    41762058.899   168158514.992       -1799.380          38.000  
C20  24616346.818   128183777.032       -2113.596          46.000                                                                  
G18  25361880.931   133277585.442         944.400          38.000    25361874.377   103852630.166         735.789          39.000  
G28  24148752.089   126902547.140       -2974.053          41.000    24148744.572    98885061.729       -2317.567          42.000  
G03  25664090.551   134865707.431       -3024.467          33.000    25664105.030   105090140.013       -2356.301          39.000  
G26  21756327.169   114330271.599       -2210.624          46.000    21756319.279    89088490.949       -1722.608          45.000  
C10  39423902.655   205290606.608         662.579          38.000    39423891.021   158743670.599         512.054          43.000  
C28  23882677.923   124363370.294        1415.481          47.000                                                                  
C23  25123232.044   130823267.728       -2280.950          43.000                                                                  
C16  37175201.339   193581027.790          34.931          49.000    37175189.223   149689081.602          27.031          48.000  
C27  25387817.991   132201029.529        2774.594          41.000                                                                  
C19  25730772.284   133986889.083         359.722          40.000                                                                  
C09  37807126.885   196871632.622         193.856          45.000    37807111.457   152233574.619         149.931          48.000  
C11                                                                  27118951.028   109196776.591       -1954.315          43.000  
> 2025 10 28 08 26 42.5620000  0 24                     
G04  21672967.507   113892214.159         375.844          45.000    21672958.632    88747142.605         292.767          46.000  
G27  21765687.150   114379458.337        2483.455          46.000    21765679.213    89126822.073        1935.097          44.000  
G16  20660903.869   108573781.387        -311.033          47.000                                                                  
G08  23865178.940   125412362.892        3464.002          37.000    23865177.999    97723930.036        2699.142          39.000  
G09  23800399.482   125071946.107        2332.968          37.000    23800392.434    97458632.842        1818.024          37.000  
G31  21965205.278   115427933.134       -2070.558          46.000    21965194.804    89943796.144       -1613.427          44.000  
C06  36736114.168   191294568.287          34.990          47.000    36736096.379   147921036.250          27.053          49.000  
C32  26646921.543   138757455.268       -3573.325          38.000                                                                  
C37  22877582.075   119129574.163        -563.207          49.000                                                                  
C07  38361058.589   199756099.358         705.472          41.000    38361042.002   154464024.230         545.191          45.000  
C13  41762045.121   217465930.864       -2328.251          36.000    41762076.776   168158587.012       -1800.118          38.000  
C20  24616363.057   128183861.626       -2114.474          46.000                                                                  
G18  25361873.767   133277547.717         943.467          38.000    25361867.188   103852600.745         735.675          39.000  
G28  24148774.732   126902666.143       -2974.880          41.000    24148767.228    98885154.458       -2318.141          42.000  
G03  25664113.587   134865828.450       -3025.363          33.000    25664128.061   105090234.294       -2356.904          39.000  
G26  21756343.989   114330360.065       -2211.305          46.000    21756336.121    89088559.887       -1723.213          45.000  
C10  39423897.575   205290580.142         661.884          38.000    39423885.939   158743650.131         511.725          43.000  
C28  23882667.050   124363313.714        1414.758          47.000                                                                  
C23  25123249.570   130823359.017       -2281.787          43.000                                                                  
C16  37175201.100   193581026.421          34.403          49.000    37175188.934   149689080.547          26.533          48.000  
C27  25387796.678   132200918.574        2774.013          41.000                                                                  
C19  25730769.507   133986874.729         359.034          40.000                                                                  
C09  37807125.379   196871624.908         193.088          45.000    37807109.978   152233568.657         149.289          48.000  
C11                                                                  27118970.467   109196854.789       -1954.814          43.000  
> 2025 10 28 08 26 42.6020000  0 24                     
G04  21672964.639   113892199.152         375.230          45.000    21672955.785    88747130.914         292.281          46.000  
G27  21765668.243   114379359.022        2482.926          46.000    21765660.307    89126744.682        1934.749          44.000  
G16  20660906.242   108573793.840        -311.388          47.000                                                                  
G08  23865152.557   125412224.346        3463.563          37.000    23865151.624    97723822.085        2698.715          39.000  
G09  23800381.749   125071852.821        2332.262          37.000    23800374.679    97458560.153        1817.509          37.000  
G31  21965221.063   115428015.979       -2071.118          46.000    21965210.577    89943860.697       -1613.817          44.000  
C06  36736113.910   191294566.910          34.455          47.000    36736096.121   147921035.183          26.668          49.000  
C32  26646948.981   138757598.220       -3573.844          38.000                                                                  
C37  22877586.402   119129596.713        -563.763          49.000                                                                  
C07  38361053.173   199756071.183         704.616          41.000    38361036.603   154464002.427         544.965          45.000  
C13  41762063.009   217466024.013       -2328.792          36.000    41762094.655   168158659.064       -1801.175          38.000  
C20  24616379.283   128183946.219       -2114.925          46.000                                                                  
G18  25361866.582   133277509.994         942.990          38.000    25361860.004   103852571.349         735.162          39.000  
G28  24148797.399   126902785.149       -2975.253          41.000    24148789.886    98885247.185       -2318.323          42.000  
G03  25664136.638   134865949.422       -3024.915          33.000    25664151.099   105090328.581       -2357.233          39.000  
G26  21756360.821   114330448.548       -2211.958          46.000    21756352.964    89088628.831       -1723.624          45.000  
C10  39423892.478   205290553.688         661.304          38.000    39423880.843   158743629.671         511.456          43.000  
C28  23882656.148   124363257.149        1414.121          47.000                                                                  
C23  25123267.122   130823450.329       -2282.588          43.000                                                                  
C16  37175200.835   193581025.074          33.776          48.000    37175188.648   149689079.509          26.005          48.000  
C27  25387775.393   132200807.614        2773.828          41.000                                                                  
C19  25730766.734   133986860.391         358.443          40.000                                                                  
C09  37807123.891   196871617.201         192.639          45.000    37807108.483   152233562.701         148.890          48.000  
C11                                                                  27118989.863   109196932.997       -1955.232          43.000  
> 2025 10 28 08 26 42.6420000  0 24                     
G04  21672961.762   113892184.131         375.242          45.000    21672952.903    88747119.207         292.360          46.000  
G27  21765649.327   114379259.683        2483.123          46.000    21765641.394    89126667.279        1934.824          44.000  
G16  20660908.620   108573806.274        -311.158          47.000                                                                  
G08  23865126.170   125412085.796        3463.469          37.000    23865125.254    97723714.109        2699.070          39.000  
G09  23800363.985   125071759.507        2332.507          37.000    23800356.916    97458487.423        1817.947          37.000  
G31  21965236.819   115428098.801       -2070.938          46.000    21965226.317    89943925.227       -1613.551          44.000  
C06  36736113.664   191294565.510          34.648          47.000    36736095.867   147921034.099          26.832          49.000  
C32  26646976.436   138757741.128       -3573.218          38.000                                                                  
C37  22877590.723   119129619.233        -563.437          49.000                                                                  
C07  38361047.730   199756042.961         705.096          41.000    38361031.185   154463980.606         545.268          45.000  
C13  41762080.875   217466117.135       -2328.531          36.000    41762112.550   168158731.087       -1800.995          38.000  
C20  24616395.540   128184030.803       -2114.871          46.000                                                                  
G18  25361859.398   133277472.231         943.518          38.000    25361852.824   103852541.938         735.176          39.000  
G28  24148820.016   126902904.135       -2974.954          41.000    24148812.534    98885339.903       -2318.179          42.000  
G03  25664159.631   134866070.362       -3023.886          33.000    25664174.118   105090422.826       -2356.576          39.000  
G26  21756377.642   114330537.005       -2211.786          46.000    21756369.827    89088697.763       -1723.545          45.000  
C10  39423887.415   205290527.231         661.145          38.000    39423875.763   158743609.204         511.499          43.000  
C28  23882645.298   124363200.563        1414.316          47.000                                                                  
C23  25123284.659   130823541.611       -2282.438          43.000                                                                  
C16  37175200.598   193581023.701          33.964          48.000    37175188.376   149689078.444          26.303          48.000  
C27  25387754.123   132200696.647        2773.942          41.000                                                                  
C19  25730763.974   133986846.034         358.549          40.000                                                                  
C09  37807122.429   196871609.480         192.701          45.000    37807106.993   152233556.727         149.056          48.000  
C11                                                                  27119009.292   109197011.186       -1955.013          43.000  
> 2025 10 28 08 26 42.6820000  0 24                     
G04  21672958.894   113892169.082         375.807          45.000    21672950.018    88747107.482         292.765          46.000  
G27  21765630.423   114379160.331        2483.533          45.000    21765622.480    89126589.870        1935.021          44.000  
G16  20660910.957   108573818.692        -310.679          47.000                                                                  
G08  23865099.807   125411947.219        3464.073          37.000    23865098.858    97723606.128        2699.344          39.000  
G09  23800346.194   125071666.169        2333.074          37.000    23800339.186    97458414.716        1817.765          37.000  
G31  21965252.603   115428181.592       -2070.210          46.000    21965242.066    89943989.753       -1613.289          44.000  
C06  36736113.402   191294564.087          35.232          47.000    36736095.576   147921033.003          27.172          49.000  
C32  26647003.892   138757884.035       -3572.823          38.000                                                                  
C37  22877595.028   119129641.737        -562.901          49.000                                                                  
C07  38361042.312   199756014.737         705.441          41.000    38361025.749   154463958.778         545.558          45.000  
C13  41762098.758   217466210.251       -2328.148          36.000    41762130.440   168158803.061       -1799.914          38.000  
C20  24616411.758   128184115.350       -2114.166          46.000                                                                  
G18  25361852.223   133277434.467         943.858          38.000    25361845.613   103852512.493         735.779          39.000  
G28  24148842.653   126903023.101       -2974.373          41.000    24148835.179    98885432.603       -2317.709          42.000  
G03  25664182.639   134866191.292       -3023.214          33.000    25664197.135   105090517.051       -2355.837          39.000  
G26  21756394.472   114330625.438       -2211.224          46.000    21756386.636    89088766.671       -1723.049          45.000  
C10  39423882.325   205290500.737         661.871          38.000    39423870.689   158743588.725         511.786          43.000  
C28  23882634.424   124363143.949        1414.992          47.000                                                                  
C23  25123302.180   130823632.868       -2281.844          43.000                                                                  
C16  37175200.344   193581022.303          34.620          48.000    37175188.086   149689077.359          26.823          48.000  
C27  25387732.808   132200585.667        2774.262          41.000                                                                  
C19  25730761.205   133986831.649         359.221          40.000                                                                  
C09  37807120.949   196871601.734         193.252          45.000    37807105.506   152233550.736         149.489          48.000  
C11                                                                  27119028.679   109197089.370       -1954.717          43.000  
> 2025 10 28 08 26 42.7220000  0 24                     
G04  21672956.005   113892154.020         376.363          45.000    21672947.156    88747095.746         293.240          46.000  
G27  21765611.512   114379060.974        2483.814          45.000    21765603.545    89126512.437        1935.544          44.000  
G16  20660913.302   108573831.108        -310.420          47.000                                                                  
G08  23865073.426   125411808.634        3464.486          37.000    23865072.509    97723498.137        2699.722          39.000  
G09  23800328.448   125071572.847        2333.108          37.000    23800321.429    97458341.995        1817.940          37.000  
G31  21965268.359   115428264.386       -2069.874          46.000    21965257.810    89944054.256       -1612.762          44.000  
C06  36736113.141   191294562.665          35.544          47.000    36736095.252   147921031.905          27.383          49.000  
C32  26647031.342   138758026.911       -3572.094          38.000                                                                  
C37  22877599.371   119129664.232        -562.448          49.000                                                                  
C07  38361036.893   199755986.499         705.795          41.000    38361020.333   154463936.940         545.878          45.000  
C13  41762116.628   217466303.340       -2327.452          36.000    41762148.328   168158875.040       -1799.422          38.000  
C20  24616428.029   128184199.891       -2113.647          46.000                                                                  
G18  25361845.017   133277396.699         944.099          38.000    25361838.427   103852483.072         735.635          39.000  
G28  24148865.271   126903142.063       -2974.086          41.000    24148857.830    98885525.304       -2317.514          42.000  
G03  25664205.662   134866312.234       -3023.147          33.000    25664220.174   105090611.315       -2356.206          39.000  
G26  21756411.308   114330713.865       -2210.790          46.000    21756403.469    89088835.577       -1722.711          45.000  
C10  39423877.241   205290474.238         662.347          38.000    39423865.608   158743568.228         512.274          43.000  
C28  23882623.557   124363087.340        1415.256          47.000                                                                  
C23  25123319.711   130823724.116       -2281.354          44.000                                                                  
C16  37175200.090   193581020.903          34.968          48.000    37175187.815   149689076.277          27.060          48.000  
C27  25387711.515   132200474.672        2774.673          41.000                                                                  
C19  25730758.446   133986817.253         359.761          40.000                                                                  
C09  37807119.466   196871593.986         193.578          45.000    37807104.013   152233544.737         149.862          48.000  
C11                                                                  27119048.052   109197167.539       -1954.335          43.000  
> 2025 10 28 08 26 42.7620000  0 24                     
G04  21672953.137   113892138.976         376.305          45.000    21672944.322    88747084.025         293.189          46.000  
G27  21765592.617   114378961.621        2483.860          45.000    21765584.644    89126435.025        1935.424          44.000  
G16  20660915.642   108573843.531        -310.475          47.000                                                                  
G08  23865047.044   125411670.048        3464.783          37.000    23865046.138    97723390.162        2699.576          39.000  
G09  23800310.705   125071479.547        2332.703          37.000    23800303.679    97458269.277        1817.982          37.000  
G31  21965284.118   115428347.193       -2069.978          46.000    21965273.581    89944118.789       -1613.045          44.000  
C06  36736112.886   191294561.239          35.681          47.000    36736094.957   147921030.807          27.479          49.000  
C32  26647058.773   138758169.814       -3572.216          38.000                                                                  
C37  22877603.686   119129686.742        -562.550          49.000                                                                  
C07  38361031.472   199755958.269         705.825          41.000    38361014.887   154463915.120         545.719          45.000  
C13  41762134.520   217466396.450       -2327.603          36.000    41762166.203   168158947.043       -1799.715          38.000  
C20  24616444.270   128184284.446       -2113.657          46.000                                                                  
G18  25361837.822   133277358.938         944.087          38.000    25361831.248   103852453.655         735.503          39.000  
G28  24148887.914   126903261.036       -2974.162          41.000    24148880.465    98885618.008       -2317.534          42.000  
G03  25664228.677   134866433.245       -3024.552          33.000    25664243.208   105090705.581       -2356.549          39.000  
G26  21756428.161   114330802.312       -2210.969          46.000    21756420.304    89088904.489       -1722.667          45.000  
C10  39423872.139   205290447.741         662.506          38.000    39423860.513   158743547.750         512.152          43.000  
C28  23882612.669   124363030.732        1415.295          47.000                                                                  
C23  25123337.214   130823815.381       -2281.448          44.000                                                                  
C16  37175199.829   193581019.507          35.021          48.000    37175187.541   149689075.206          26.949          48.000  
C27  25387690.184   132200363.689        2774.672          41.000                                                                  
C19  25730755.701   133986802.881         359.576          40.000                                                                  
C09  37807117.970   196871586.242         193.672          45.000    37807102.514   152233538.758         149.674          48.000  
C11                                                                  27119067.416   109197245.721       -1954.399          43.000  
> 2025 10 28 08 26 42.8020000  0 24                     
G04  21672950.288   113892123.953         375.821          45.000    21672941.447    88747072.320         292.827          46.000  
G27  21765573.734   114378862.283        2483.591          45.000    21765565.739    89126357.629        1935.060          44.000  
G16  20660918.024   108573855.970        -310.798          47.000                                                                  
G08  23865020.665   125411531.484        3464.461          37.000    23865019.756    97723282.203        2699.062          39.000  
G09  23800292.962   125071386.223        2332.859          37.000    23800285.933    97458196.565        1817.889          37.000  
G31  21965299.859   115428430.013       -2070.310          46.000    21965289.327    89944183.326       -1613.306          44.000  
C06  36736112.612   191294559.842          35.208          47.000    36736094.705   147921029.721          27.262          49.000  
C32  26647086.214   138758312.744       -3572.914          38.000                                                                  
C37  22877607.987   119129709.266        -562.907          49.000                                                                  
C07  38361026.082   199755930.056         705.517          41.000    38361009.472   154463893.308         545.438          45.000  
C13  41762152.410   217466489.577       -2328.016          36.000    41762184.079   168159019.064       -1800.259          38.000  
C20  24616460.493   128184369.017       -2114.005          46.000                                                                  
G18  25361830.652   133277321.195         943.744          38.000    25361824.054   103852424.242         735.361          39.000  
G28  24148910.551   126903380.020       -2974.459          41.000    24148903.104    98885710.726       -2317.813          42.000  
G03  25664251.699   134866554.224       -3024.761          33.000    25664266.247   105090799.846       -2356.713          39.000  
G26  21756445.018   114330890.770       -2211.259          46.000    21756437.142    89088973.413       -1722.914          45.000  
C10  39423867.060   205290421.274         661.993          38.000    39423855.440   158743527.285         511.780          43.000  
C28  23882601.783   124362974.147        1414.844          47.000                                                                  
C23  25123354.741   130823906.649       -2281.588          44.000                                                                  
C16  37175199.571   193581018.138          34.506          48.000    37175187.293   149689074.145          26.643          48.000  
C27  25387668.846   132200252.707        2774.620          41.000                                                                  
C19  25730752.955   133986788.525         359.152          40.000                                                                  
C09  37807116.470   196871578.515         193.378          45.000    37807101.013   152233532.782         149.492          48.000  
C11                                                                  27119086.837   109197323.916       -1954.708          43.000  
> 2025 10 28 08 26 42.8420000  0 24                     
G04  21672947.475   113892108.929         375.592          45.000    21672938.590    88747060.614         292.647          46.000  
G27  21765554.846   114378762.953        2483.318          45.000    21765546.825    89126280.219        1935.103          44.000  
G16  20660920.384   108573868.405        -310.902          47.000                                                                  
G08  23864994.310   125411392.925        3464.105          37.000    23864993.412    97723174.228        2699.222          39.000  
G09  23800275.211   125071292.898        2333.104          37.000    23800268.186    97458123.871        1817.503          37.000  
G31  21965315.641   115428512.829       -2070.431          46.000    21965305.090    89944247.858       -1613.357          44.000  
C06  36736112.337   191294558.437          35.104          47.000    36736094.409   147921028.629          27.256          49.000  
C32  26647113.653   138758455.677       -3573.356          38.000                                                                  
C37  22877612.284   119129731.787        -563.017          49.000                                                                  
C07  38361020.666   199755901.845         705.277          41.000    38361004.055   154463871.487         545.441          45.000  
C13  41762170.304   217466582.690       -2327.881          36.000    41762201.977   168159091.071       -1800.255          38.000  
C20  24616476.722   128184453.603       -2114.516          46.000                                                                  
G18  25361823.457   133277283.449         943.592          38.000    25361816.873   103852394.836         735.128          39.000  
G28  24148933.178   126903499.004       -2974.587          41.000    24148925.751    98885803.435       -2317.756          42.000  
G03  25664274.719   134866675.205       -3024.816          33.000    25664289.267   105090894.103       -2356.587          39.000  
G26  21756461.860   114330979.222       -2211.326          46.000    21756453.961    89089042.340       -1723.118          45.000  
C10  39423861.963   205290394.799         661.835          38.000    39423850.355   158743506.802         511.957          43.000  
C28  23882590.921   124362917.547        1414.895          47.000                                                                  
C23  25123372.256   130823997.923       -2281.764          44.000                                                                  
C16  37175199.322   193581016.761          34.385          48.000    37175187.031   149689073.080          26.591          48.000  
C27  25387647.550   132200141.747        2774.179          41.000                                                                  
C19  25730750.178   133986774.164         359.038          40.000                                                                  
C09  37807114.982   196871570.780         193.334          45.000    37807099.542   152233526.800         149.501          48.000  
C11                                                                  27119106.264   109197402.103       -1954.713          43.000  
> 2025 10 28 08 26 42.8820000  0 24                     
G04  21672944.606   113892093.891         375.746          45.000    21672935.724    88747048.884         293.039          46.000  
G27  21765535.949   114378663.597        2483.634          45.000    21765527.903    89126202.796        1935.372          44.000  
G16  20660922.777   108573880.826        -310.660          47.000                                                                  
G08  23864967.940   125411254.347        3464.268          37.000    23864967.017    97723066.251        2699.347          39.000  
G09  23800257.448   125071199.561        2333.438          37.000    23800250.428    97458051.127        1818.240          37.000  
G31  21965331.389   115428595.637       -2070.305          46.000    21965320.848    89944312.376       -1613.130          44.000  
C06  36736112.085   191294557.016          35.365          47.000    36736094.110   147921027.528          27.410          49.000  
C32  26647141.108   138758598.588       -3573.091          38.000                                                                  
C37  22877616.627   119129754.286        -562.675          49.000                                                                  
C07  38361015.240   199755873.607         705.747          41.000    38360998.629   154463849.656         545.638          45.000  
C13  41762188.185   217466675.792       -2327.620          36.000    41762219.867   168159163.058       -1799.848          38.000  
C20  24616492.958   128184538.161       -2114.266          46.000                                                                  
G18  25361816.268   133277245.683         943.942          38.000    25361809.687   103852365.406         735.443          39.000  
G28  24148955.821   126903617.981       -2974.556          41.000    24148948.401    98885896.146       -2317.787          42.000  
G03  25664297.713   134866796.136       -3023.834          33.000    25664312.288   105090988.333       -2355.948          39.000  
G26  21756478.681   114331067.656       -2211.000          46.000    21756470.786    89089111.258       -1723.037          45.000  
C10  39423856.880   205290368.313         662.024          38.000    39423845.261   158743486.323         511.981          43.000  
C28  23882580.070   124362860.940        1415.070          47.000                                                                  
C23  25123389.769   130824089.186       -2281.632          44.000                                                                  
C16  37175199.054   193581015.376          34.504          48.000    37175186.748   149689072.004          26.779          48.000  
C27  25387626.273   132200030.761        2774.439          40.000                                                                  
C19  25730747.431   133986759.784         359.346          40.000                                                                  
C09  37807113.485   196871563.030         193.597          45.000    37807098.063   152233520.813         149.598          48.000  
C11                                                                  27119125.711   109197480.281       -1954.590          43.000  
> 2025 10 28 08 26 42.9220000  0 24                     
G04  21672941.713   113892078.844         376.021          45.000    21672932.860    88747037.160         293.102          46.000  
G27  21765517.024   114378564.236        2483.928          45.000    21765508.992    89126125.374        1935.555          44.000  
G16  20660925.143   108573893.231        -310.234          47.000                                                                  
G08  23864941.594   125411115.775        3464.269          37.000    23864940.644    97722958.254        2699.750          39.000  
G09  23800239.712   125071106.237        2333.317          37.000    23800232.660    97457978.400        1818.330          37.000  
G31  21965347.118   115428678.428       -2069.937          46.000    21965336.595    89944376.891       -1612.952          44.000  
C06  36736111.828   191294555.579          35.790          47.000    36736093.809   147921026.425          27.566          49.000  
C32  26647168.551   138758741.483       -3572.617          38.000                                                                  
C37  22877620.985   119129776.781        -562.416          49.000                                                                  
C07  38361009.826   199755845.382         705.698          41.000    38360993.206   154463827.820         545.832          45.000  
C13  41762206.044   217466768.898       -2327.584          36.000    41762237.758   168159235.050       -1799.758          38.000  
C20  24616509.202   128184622.711       -2113.930          46.000                                                                  
G18  25361809.087   133277207.910         944.244          38.000    25361802.494   103852335.970         735.747          39.000  
G28  24148978.451   126903736.952       -2974.383          41.000    24148971.051    98885988.856       -2317.793          42.000  
G03  25664320.740   134866917.075       -3023.440          33.000    25664335.302   105091082.584       -2356.129          39.000  
G26  21756495.480   114331156.081       -2210.719          46.000    21756487.600    89089180.157       -1722.686          45.000  
C10  39423851.803   205290341.806         662.488          38.000    39423840.158   158743465.841         512.042          43.000  
C28  23882569.220   124362804.332        1415.150          47.000                                                                  
C23  25123407.269   130824180.431       -2281.267          44.000                                                                  
C16  37175198.788   193581013.965          35.047          48.000    37175186.456   149689070.913          27.141          48.000  
C27  25387604.968   132199919.761        2774.833          41.000                                                                  
C19  25730744.644   133986745.414         359.346          40.000                                                                  
C09  37807112.008   196871555.275         193.831          45.000    37807096.543   152233514.821         149.750          48.000  
C11                                                                  27119145.108   109197558.456       -1954.417          43.000  
> 2025 10 28 08 26 42.9620000  0 24                     
G04  21672938.830   113892063.790         376.283          45.000    21672929.990    88747025.429         293.254          46.000  
G27  21765498.121   114378464.887        2483.845          45.000    21765490.097    89126047.953        1935.579          44.000  
G16  20660927.503   108573905.646        -310.240          47.000                                                                  
G08  23864915.229   125410977.190        3464.537          37.000    23864914.278    97722850.263        2699.853          39.000  
G09  23800221.954   125071012.918        2333.059          37.000    23800214.919    97457905.692        1817.922          37.000  
G31  21965362.857   115428761.222       -2069.830          46.000    21965352.381    89944441.413       -1612.985          44.000  
C06  36736111.574   191294554.143          35.959          47.000    36736093.489   147921025.318          27.655          49.000  
C32  26647196.005   138758884.373       -3572.282          38.000                                                                  
C37  22877625.278   119129799.282        -562.405          49.000                                                                  
C07  38361004.398   199755817.148         705.802          41.000    38360987.775   154463805.983         545.942          45.000  
C13  41762223.887   217466861.979       -2327.120          36.000    41762255.659   168159307.033       -1799.523          38.000  
C20  24616525.445   128184707.254       -2113.691          46.000                                                                  
G18  25361801.897   133277170.112         944.853          38.000    25361795.296   103852306.521         736.143          39.000  
G28  24149001.081   126903855.909       -2974.032          41.000    24148993.667    98886081.540       -2317.287          42.000  
G03  25664343.743   134867037.982       -3022.625          33.000    25664358.320   105091176.806       -2355.722          39.000  
G26  21756512.305   114331244.512       -2210.703          46.000    21756504.435    89089249.067       -1722.697          45.000  
C10  39423846.725   205290315.310         662.463          38.000    39423835.105   158743445.350         512.231          43.000  
C28  23882558.354   124362747.721        1415.267          47.000                                                                  
C23  25123424.800   130824271.682       -2281.187          44.000                                                                  
C16  37175198.504   193581012.556          35.280          48.000    37175186.175   149689069.829          27.196          48.000  
C27  25387583.676   132199808.769        2774.882          41.000                                                                  
C19  25730741.892   133986731.016         359.792          40.000                                                                  
C09  37807110.508   196871547.525         193.857          45.000    37807095.025   152233508.824         149.886          48.000  
C11                                                                  27119164.524   109197636.641       -1954.573          43.000  
> 2025 10 28 08 26 43.0020000  0 24                     
G04  21672935.974   113892048.748         376.179          45.000    21672927.141    88747013.710         293.078          46.000  
G27  21765479.208   114378365.534        2483.826          45.000    21765471.210    89125970.536        1935.525          44.000  
G16  20660929.891   108573918.068        -310.420          47.000                                                                  
G08  23864888.869   125410838.593        3464.852          37.000    23864887.913    97722742.291        2699.483          39.000  
G09  23800204.190   125070919.601        2332.910          37.000    23800197.157    97457832.951        1818.270          37.000  
G31  21965378.615   115428844.021       -2069.894          46.000    21965368.136    89944505.927       -1612.889          44.000  
C06  36736111.327   191294552.719          35.762          47.000    36736093.185   147921024.215          27.641          49.000  
C32  26647223.447   138759027.257       -3572.102          38.000                                                                  
C37  22877629.552   119129821.790        -562.569          49.000                                                                  
C07  38360998.988   199755788.912         705.901          41.000    38360982.339   154463784.160         545.696          45.000  
C13  41762241.767   217466955.071       -2327.175          36.000    41762273.508   168159379.018       -1799.507          38.000  
C20  24616541.662   128184791.818       -2113.922          46.000                                                                  
G18  25361794.679   133277132.343         944.569          38.000    25361788.110   103852277.089         735.996          39.000  
G28  24149023.737   126903974.871       -2974.004          41.000    24149016.296    98886174.235       -2317.289          42.000  
G03  25664366.756   134867158.939       -3023.194          33.000    25664381.335   105091271.071       -2356.279          39.000  
G26  21756529.130   114331332.953       -2210.903          46.000    21756521.262    89089317.983       -1722.823          45.000  
C10  39423841.631   205290288.811         662.494          38.000    39423829.989   158743424.860         512.268          43.000  
C28  23882547.456   124362691.116        1415.160          47.000                                                                  
C23  25123442.322   130824362.936       -2281.235          44.000                                                                  
C16  37175198.215   193581011.162          35.069          48.000    37175185.871   149689068.748          27.117          48.000  
C27  25387562.357   132199697.772        2774.979          41.000                                                                  
C19  25730739.138   133986716.640         359.633          40.000                                                                  
C09  37807109.055   196871539.770         193.929          45.000    37807093.539   152233502.826         149.952          48.000  
C11                                                                  27119183.919   109197714.814       -1954.406          43.000  
> 2025 10 28 08 26 43.0420000  0 24                     
G04  21672933.128   113892033.710         376.049          45.000    21672924.299    88747001.988         292.996          46.000  
G27  21765460.314   114378266.183        2483.783          45.000    21765452.288    89125893.136        1935.152          44.000  
G16  20660932.260   108573930.500        -310.715          47.000                                                                  
G08  23864862.510   125410700.038        3464.137          37.000    23864861.532    97722634.305        2699.546          39.000  
G09  23800186.403   125070826.267        2333.161          37.000    23800179.393    97457760.228        1818.151          37.000  
G31  21965394.368   115428926.826       -2070.048          46.000    21965383.914    89944570.449       -1612.987          44.000  
C06  36736111.055   191294551.307          35.440          47.000    36736092.894   147921023.125          27.371          49.000  
C32  26647250.910   138759170.163       -3572.473          38.000                                                                  
C37  22877633.831   119129844.301        -562.722          49.000                                                                  
C07  38360993.551   199755760.670         705.998          41.000    38360976.925   154463762.333         545.582          45.000  
C13  41762259.654   217467048.184       -2327.676          36.000    41762291.420   168159451.028       -1800.013          38.000  
C20  24616557.872   128184876.376       -2113.960          46.000                                                                  
G18  25361787.490   133277094.595         944.009          38.000    25361780.942   103852247.691         735.267          39.000  
G28  24149046.374   126904093.843       -2974.196          41.000    24149038.922    98886266.940       -2317.500          42.000  
G03  25664389.755   134867279.931       -3024.225          33.000    25664404.364   105091365.315       -2356.229          39.000  
G26  21756545.975   114331421.407       -2211.268          46.000    21756538.076    89089386.896       -1722.848          45.000  
C10  39423836.518   205290262.320         662.341          38.000    39423824.895   158743404.378         512.128          43.000  
C28  23882536.585   124362634.518        1414.979          47.000                                                                  
C23  25123459.850   130824454.195       -2281.421          43.000                                                                  
C16  37175197.942   193581009.772          34.837          48.000    37175185.570   149689067.673          26.936          48.000  
C27  25387541.048   132199586.800        2774.520          41.000                                                                  
C19  25730736.388   133986702.269         359.341          40.000                                                                  
C09  37807107.580   196871532.027         193.728          45.000    37807092.058   152233496.834         149.871          48.000  
C11                                                                  27119203.312   109197792.997       -1954.518          43.000  
> 2025 10 28 08 26 43.0820000  0 24                     
G04  21672930.292   113892018.679         375.839          45.000    21672921.442    88746990.286         292.642          46.000  
G27  21765441.399   114378166.840        2483.612          45.000    21765433.392    89125815.725        1935.169          44.000  
G16  20660934.628   108573942.932        -310.851          47.000                                                                  
G08  23864836.125   125410561.459        3464.252          37.000    23864835.165    97722526.322        2699.566          39.000  
G09  23800168.627   125070732.947        2333.048          37.000    23800161.657    97457687.519        1817.840          37.000  
G31  21965410.131   115429009.635       -2070.194          46.000    21965399.661    89944634.984       -1613.304          44.000  
C06  36736110.768   191294549.900          35.186          47.000    36736092.601   147921022.029          27.339          49.000  
C32  26647278.347   138759313.080       -3572.880          38.000                                                                  
C37  22877638.134   119129866.815        -562.867          49.000                                                                  
C07  38360988.125   199755732.446         705.702          41.000    38360971.517   154463740.504         545.657          45.000  
C13  41762277.549   217467141.286       -2327.742          36.000    41762309.304   168159523.032       -1800.147          38.000  
C20  24616574.095   128184960.946       -2114.171          46.000                                                                  
G18  25361780.320   133277056.852         943.645          38.000    25361773.760   103852218.264         735.413          39.000  
G28  24149069.039   126904212.823       -2974.479          41.000    24149061.568    98886359.662       -2317.981          42.000  
G03  25664412.789   134867400.914       -3024.532          33.000    25664427.395   105091459.572       -2356.414          39.000  
G26  21756562.801   114331509.857       -2211.370          46.000    21756554.914    89089455.822       -1723.076          45.000  
C10  39423831.408   205290235.836         662.097          38.000    39423819.817   158743383.893         512.115          43.000  
C28  23882525.729   124362577.919        1414.899          47.000                                                                  
C23  25123477.355   130824545.465       -2281.715          43.000                                                                  
C16  37175197.656   193581008.387          34.654          48.000    37175185.305   149689066.605          26.717          48.000  
C27  25387519.762   132199475.809        2774.647          41.000                                                                  
C19  25730733.638   133986687.912         359.006          40.000                                                                  
C09  37807106.111   196871524.288         193.543          45.000    37807090.566   152233490.853         149.621          48.000  
C11                                                                  27119222.730   109197871.174       -1954.474          43.000  
> 2025 10 28 08 26 43.1220000  0 24                     
G04  21672927.432   113892003.650         375.694          45.000    21672918.565    88746978.580         292.535          46.000  
G27  21765422.521   114378067.502        2483.438          45.000    21765414.489    89125738.313        1935.236          44.000  
G16  20660936.985   108573955.363        -310.904          47.000                                                                  
G08  23864809.744   125410422.890        3464.167          37.000    23864808.800    97722418.342        2699.535          39.000  
G09  23800150.876   125070639.633        2332.894          37.000    23800143.907    97457614.831        1817.270          37.000  
G31  21965425.873   115429092.457       -2070.514          46.000    21965415.420    89944699.521       -1613.528          44.000  
C06  36736110.510   191294548.482          35.266          47.000    36736092.315   147921020.934          27.310          49.000  
C32  26647305.788   138759455.991       -3572.931          38.000                                                                  
C37  22877642.500   119129889.322        -562.785          49.000                                                                  
C07  38360982.695   199755704.226         705.458          41.000    38360966.096   154463718.676         545.645          45.000  
C13  41762295.443   217467234.392       -2327.853          36.000    41762327.180   168159595.034       -1800.227          38.000  
C20  24616590.319   128185045.518       -2114.336          46.000                                                                  
G18  25361773.129   133277019.103         943.553          38.000    25361766.569   103852188.848         735.313          39.000  
G28  24149091.700   126904331.802       -2974.583          41.000    24149084.218    98886452.370       -2317.892          42.000  
G03  25664435.808   134867521.860       -3024.087          33.000    25664450.431   105091553.829       -2356.471          39.000  
G26  21756579.615   114331598.297       -2211.219          46.000    21756571.736    89089524.738       -1723.010          45.000  
C10  39423826.346   205290209.359         661.780          38.000    39423814.754   158743363.413         512.024          43.000  
C28  23882514.905   124362521.315        1414.982          47.000                                                                  
C23  25123494.871   130824636.741       -2281.941          43.000                                                                  
C16  37175197.371   193581007.002          34.536          48.000    37175185.011   149689065.537          26.620          48.000  
C27  25387498.453   132199364.829        2774.516          41.000                                                                  
C19  25730730.883   133986673.536         359.156          40.000                                                                  
C09  37807104.618   196871516.547         193.469          45.000    37807089.074   152233484.875         149.420          48.000  
C11                                                                  27119242.137   109197949.366       -1954.746          43.000  
> 2025 10 28 08 26 43.1620000  0 24                     
G04  21672924.559   113891988.616         375.737          45.000    21672915.705    88746966.867         292.633          46.000  
G27  21765403.607   114377968.154        2483.519          46.000    21765395.582    89125660.899        1935.274          44.000  
G16  20660939.327   108573967.788        -310.770          47.000                                                                  
G08  23864783.393   125410284.312        3464.280          37.000    23864782.438    97722310.360        2699.491          39.000  
G09  23800133.130   125070546.307        2332.994          37.000    23800126.150    97457542.105        1817.729          37.000  
G31  21965441.621   115429175.269       -2070.481          46.000    21965431.188    89944764.051       -1613.442          44.000  
C06  36736110.264   191294547.059          35.438          47.000    36736092.027   147921019.841          27.268          49.000  
C32  26647333.222   138759598.892       -3572.764          38.000                                                                  
C37  22877646.822   119129911.832        -562.804          49.000                                                                  
C07  38360977.254   199755676.005         705.374          41.000    38360960.627   154463696.848         545.657          45.000  
C13  41762313.338   217467327.527       -2328.392          36.000    41762345.057   168159667.029       -1800.038          38.000  
C20  24616606.580   128185130.085       -2114.314          46.000                                                                  
G18  25361765.947   133276981.341         943.798          38.000    25361759.396   103852159.433         735.330          39.000  
G28  24149114.333   126904450.786       -2974.636          41.000    24149106.859    98886545.082       -2317.891          42.000  
G03  25664458.806   134867642.809       -3023.855          33.000    25664473.454   105091648.081       -2356.416          39.000  
G26  21756596.418   114331686.727       -2210.938          46.000    21756588.566    89089593.651       -1722.920          45.000  
C10  39423821.284   205290182.874         661.865          38.000    39423809.675   158743342.939         511.841          43.000  
C28  23882504.046   124362464.718        1414.908          47.000                                                                  
C23  25123512.399   130824727.992       -2281.600          43.000                                                                  
C16  37175197.087   193581005.609          34.667          48.000    37175184.745   149689064.463          26.705          48.000  
C27  25387477.160   132199253.845        2774.535          41.000                                                                  
C19  25730728.112   133986659.171         359.081          40.000                                                                  
C09  37807103.133   196871508.802         193.525          45.000    37807087.568   152233478.892         149.452          48.000  
C11                                                                  27119261.548   109198027.548       -1954.689          43.000  
> 2025 10 28 08 26 43.2020000  0 24                     
G04  21672921.696   113891973.588         375.659          45.000    21672912.819    88746955.153         292.725          46.000  
G27  21765384.705   114377868.808        2483.588          46.000    21765376.676    89125583.490        1935.212          44.000  
G16  20660941.687   108573980.217        -310.769          47.000                                                                  
G08  23864757.018   125410145.746        3464.155          37.000    23864756.068    97722202.384        2699.354          39.000  
G09  23800115.369   125070453.005        2332.626          37.000    23800108.400    97457469.375        1818.141          37.000  
G31  21965457.343   115429258.084       -2070.468          46.000    21965446.935    89944828.579       -1613.351          44.000  
C06  36736110.006   191294545.638          35.480          47.000    36736091.735   147921018.744          27.308          49.000  
C32  26647360.660   138759741.789       -3572.576          38.000                                                                  
C37  22877651.138   119129934.345        -562.855          49.000                                                                  
C07  38360971.846   199755647.787         705.334          41.000    38360955.215   154463675.025         545.582          45.000  
C13  41762331.236   217467420.645       -2328.223          36.000    41762362.932   168159739.018       -1799.782          38.000  
C20  24616622.837   128185214.654       -2114.316          46.000                                                                  
G18  25361758.772   133276943.595         943.711          38.000    25361752.193   103852130.008         735.493          39.000  
G28  24149136.957   126904569.761       -2974.493          41.000    24149129.511    98886637.796       -2317.891          42.000  
G03  25664481.809   134867763.761       -3023.830          33.000    25664496.462   105091742.334       -2356.376          39.000  
G26  21756613.258   114331775.171       -2211.047          46.000    21756605.396    89089662.565       -1722.861          45.000  
C10  39423816.178   205290156.370         662.335          38.000    39423804.577   158743322.462         511.847          43.000  
C28  23882493.156   124362408.126        1414.771          47.000                                                                  
C23  25123529.906   130824819.249       -2281.532          43.000                                                                  
C16  37175196.777   193581004.220          34.654          48.000    37175184.460   149689063.386          26.811          48.000  
C27  25387455.852   132199142.873        2774.334          41.000                                                                  
C19  25730725.347   133986644.808         359.055          40.000                                                                  
C09  37807101.645   196871501.061         193.501          45.000    37807086.090   152233472.900         149.654          48.000  
C11                                                                  27119280.964   109198105.737       -1954.794          43.000  
> 2025 10 28 08 26 43.2420000  0 24                     
G04  21672918.835   113891958.566         375.510          45.000    21672909.950    88746943.435         292.849          46.000  
G27  21765365.839   114377769.479        2483.308          46.000    21765357.761    89125506.082        1935.168          44.000  
G16  20660944.059   108573992.651        -310.844          47.000                                                                  
G08  23864730.647   125410007.177        3464.132          37.000    23864729.720    97722094.420        2699.119          39.000  
G09  23800097.613   125070359.698        2332.536          37.000    23800090.635    97457396.670        1817.852          37.000  
G31  21965473.088   115429340.891       -2070.319          46.000    21965462.688    89944893.107       -1613.313          44.000  
C06  36736109.717   191294544.234          35.191          47.000    36736091.464   147921017.649          27.326          49.000  
C32  26647388.103   138759884.690       -3572.559          38.000                                                                  
C37  22877655.489   119129956.858        -562.879          49.000                                                                  
C07  38360966.439   199755619.568         705.383          41.000    38360949.799   154463653.212         545.321          45.000  
C13  41762349.090   217467513.746       -2327.767          36.000    41762380.833   168159811.027       -1800.071          38.000  
C20  24616639.075   128185299.212       -2114.106          46.000                                                                  
G18  25361751.583   133276905.835         943.917          38.000    25361745.007   103852100.588         735.485          39.000  
G28  24149159.597   126904688.736       -2974.408          41.000    24149152.154    98886730.494       -2317.620          42.000  
G03  25664504.815   134867884.702       -3023.663          33.000    25664519.489   105091836.591       -2356.394          39.000  
G26  21756630.094   114331863.623       -2211.246          46.000    21756622.234    89089731.491       -1723.077          45.000  
C10  39423811.101   205290129.899         661.926          38.000    39423799.520   158743301.974         512.091          43.000  
C28  23882482.295   124362351.536        1414.711          47.000                                                                  
C23  25123547.431   130824910.518       -2281.714          43.000                                                                  
C16  37175196.490   193581002.834          34.630          48.000    37175184.149   149689062.311          26.842          48.000  
C27  25387434.550   132199031.881        2774.594          41.000                                                                  
C19  25730722.594   133986630.451         358.893          40.000                                                                  
C09  37807100.148   196871493.314         193.638          45.000    37807084.606   152233466.908         149.740          48.000  
C11                                                                  27119300.388   109198183.930       -1954.898          43.000  
> 2025 10 28 08 26 43.2820000  0 24                     
G04  21672915.973   113891943.539         375.531          45.000    21672907.083    88746931.731         292.631          46.000  
G27  21765346.929   114377670.139        2483.365          46.000    21765338.864    89125428.686        1934.959          44.000  
G16  20660946.444   108574005.087        -310.924          47.000                                                                  
G08  23864704.248   125409868.605        3464.183          37.000    23864703.331    97721986.464        2698.829          39.000  
G09  23800079.820   125070266.385        2332.670          37.000    23800072.889    97457323.969        1817.615          37.000  
G31  21965488.846   115429423.704       -2070.326          46.000    21965478.423    89944957.627       -1613.113          44.000  
C06  36736109.449   191294542.820          35.220          47.000    36736091.185   147921016.559          27.261          49.000  
C32  26647415.545   138760027.614       -3572.981          38.000                                                                  
C37  22877659.808   119129979.374        -562.922          49.000                                                                  
C07  38360961.031   199755591.335         705.651          41.000    38360944.393   154463631.391         545.364          45.000  
C13  41762366.965   217467606.823       -2327.123          36.000    41762398.726   168159883.024       -1800.064          38.000  
C20  24616655.332   128185383.788       -2114.281          46.000                                                                  
G18  25361744.399   133276868.072         944.083          38.000    25361737.803   103852071.176         735.333          39.000  
G28  24149182.216   126904807.716       -2974.525          41.000    24149174.794    98886823.204       -2317.707          42.000  
G03  25664527.823   134868005.681       -3024.161          33.000    25664542.532   105091930.858       -2356.627          39.000  
G26  21756646.924   114331952.077       -2211.379          46.000    21756639.046    89089800.414       -1723.123          45.000  
C10  39423806.025   205290103.424         661.841          38.000    39423794.413   158743281.489         512.195          43.000  
C28  23882471.420   124362294.947        1414.675          47.000                                                                  
C23  25123564.962   130825001.777       -2281.632          43.000                                                                  
C16  37175196.243   193581001.442          34.723          48.000    37175183.866   149689061.234          26.880          48.000  
C27  25387413.239   132198920.906        2774.462          40.000                                                                  
C19  25730719.832   133986616.087         358.957          40.000                                                                  
C09  37807098.668   196871485.569         193.635          45.000    37807083.120   152233460.921         149.706          48.000  
C11                                                                  27119319.820   109198262.118       -1954.817          43.000  
> 2025 10 28 08 26 43.3220000  0 24                     
G04  21672913.135   113891928.520         375.437          45.000    21672904.225    88746920.021         292.633          46.000  
G27  21765328.018   114377570.814        2483.144          46.000    21765319.965    89125351.280        1934.987          44.000  
G16  20660948.819   108574017.524        -310.967          47.000                                                                  
G08  23864677.870   125409730.036        3464.125          37.000    23864676.966    97721878.490        2699.101          39.000  
G09  23800062.067   125070173.058        2333.031          37.000    23800055.123    97457251.260        1817.655          37.000  
G31  21965504.623   115429506.528       -2070.546          46.000    21965494.182    89945022.162       -1613.269          44.000  
C06  36736109.159   191294541.408          35.246          47.000    36736090.892   147921015.459          27.395          49.000  
C32  26647442.985   138760170.528       -3573.015          38.000                                                                  
C37  22877664.126   119130001.891        -562.972          49.000                                                                  
C07  38360955.607   199755563.121         705.485          41.000    38360938.956   154463609.566         545.473          45.000  
C13  41762384.819   217467699.944       -2327.626          36.000    41762416.603   168159955.015       -1799.883          38.000  
C20  24616671.552   128185468.364       -2114.405          46.000                                                                  
G18  25361737.211   133276830.324         943.810          38.000    25361730.624   103852041.752         735.509          39.000  
G28  24149204.857   126904926.700       -2974.655          41.000    24149197.430    98886915.925       -2317.966          42.000  
G03  25664550.847   134868126.646       -3024.211          33.000    25664565.549   105092025.095       -2356.217          39.000  
G26  21756663.764   114332040.534       -2211.498          46.000    21756655.863    89089869.331       -1723.019          45.000  
C10  39423800.919   205290076.930         662.170          38.000    39423789.295   158743261.010         512.085          43.000  
C28  23882460.560   124362238.351        1414.776          47.000                                                                  
C23  25123582.490   130825093.053       -2281.847          43.000                                                                  
C16  37175195.946   193581000.058          34.623          48.000    37175183.574   149689060.165          26.746          48.000  
C27  25387391.927   132198809.921        2774.506          41.000                                                                  
C19  25730717.079   133986601.724         359.019          40.000                                                                  
C09  37807097.172   196871477.831         193.513          45.000    37807081.635   152233454.931         149.698          48.000  
C11                                                                  27119339.256   109198340.320       -1955.032          43.000  
> 2025 10 28 08 26 43.3620000  0 24                     
G04  21672910.287   113891913.498         375.434          45.000    21672901.389    88746908.325         292.414          46.000  
G27  21765309.099   114377471.479        2483.232          46.000    21765301.045    89125273.875        1935.050          44.000  
G16  20660951.184   108574029.963        -311.016          47.000                                                                  
G08  23864651.486   125409591.457        3464.376          37.000    23864650.600    97721770.518        2699.194          39.000  
G09  23800044.294   125070079.741        2332.998          37.000    23800037.361    97457178.545        1817.729          37.000  
G31  21965520.389   115429589.344       -2070.487          46.000    21965509.946    89945086.691       -1613.263          44.000  
C06  36736108.899   191294539.982          35.521          47.000    36736090.602   147921014.368          27.327          49.000  
C32  26647470.434   138760313.438       -3572.892          38.000                                                                  
C37  22877668.429   119130024.407        -562.962          49.000                                                                  
C07  38360950.171   199755534.906         705.389          41.000    38360933.558   154463587.739         545.549          45.000  
C13  41762402.710   217467793.061       -2327.881          36.000    41762434.473   168160027.022       -1800.082          38.000  
C20  24616687.814   128185552.942       -2114.492          46.000                                                                  
G18  25361730.032   133276792.581         943.564          38.000    25361723.459   103852012.346         735.263          39.000  
G28  24149227.475   126905045.680       -2974.605          41.000    24149220.082    98887008.644       -2318.082          42.000  
G03  25664573.885   134868247.623       -3024.506          33.000    25664588.562   105092119.337       -2356.102          39.000  
G26  21756680.568   114332128.986       -2211.448          46.000    21756672.714    89089938.261       -1723.184          45.000  
C10  39423795.855   205290050.442         662.207          38.000    39423784.184   158743240.536         511.853          43.000  
C28  23882449.677   124362181.761        1414.707          47.000                                                                  
C23  25123600.002   130825184.328       -2281.945          43.000                                                                  
C16  37175195.667   193580998.673          34.598          48.000    37175183.301   149689059.094          26.730          48.000  
C27  25387370.603   132198698.961        2774.101          40.000                                                                  
C19  25730714.317   133986587.369         358.928          40.000                                                                  
C09  37807095.685   196871470.099         193.343          45.000    37807080.159   152233448.947         149.594          48.000  
C11                                                                  27119358.666   109198418.499       -1954.698          43.000  
> 2025 10 28 08 26 43.4020000  0 24                     
G04  21672907.406   113891898.473         375.513          45.000    21672898.511    88746896.614         292.583          46.000  
G27  21765290.160   114377372.140        2483.348          46.000    21765282.136    89125196.473        1934.991          44.000  
G16  20660953.545   108574042.400        -310.970          47.000                                                                  
G08  23864625.112   125409452.891        3464.302          37.000    23864624.225    97721662.525        2699.616          39.000  
G09  23800026.561   125069986.425        2332.889          37.000    23800019.607    97457105.821        1818.143          37.000  
G31  21965536.141   115429672.159       -2070.468          46.000    21965525.722    89945151.229       -1613.434          44.000  
C06  36736108.636   191294538.567          35.459          47.000    36736090.328   147921013.269          27.391          49.000  
C32  26647497.897   138760456.346       -3572.752          38.000                                                                  
C37  22877672.791   119130046.922        -562.917          49.000                                                                  
C07  38360944.754   199755506.669         705.765          41.000    38360928.124   154463565.907         545.726          45.000  
C13  41762420.586   217467886.185       -2328.115          36.000    41762452.311   168160099.026       -1800.163          38.000  
C20  24616704.079   128185637.513       -2114.392          46.000                                                                  
G18  25361722.848   133276754.842         943.419          38.000    25361716.275   103851982.936         735.189          39.000  
G28  24149250.122   126905164.661       -2974.561          41.000    24149242.723    98887101.355       -2317.958          42.000  
G03  25664596.933   134868368.565       -3023.808          33.000    25664611.584   105092213.591       -2356.213          39.000  
G26  21756697.378   114332217.432       -2211.264          46.000    21756689.552    89090007.181       -1723.087          45.000  
C10  39423790.771   205290023.971         661.896          38.000    39423779.103   158743220.066         511.676          43.000  
C28  23882438.822   124362125.165        1414.800          47.000                                                                  
C23  25123617.534   130825275.589       -2281.714          43.000                                                                  
C16  37175195.387   193580997.288          34.602          48.000    37175183.047   149689058.017          26.829          48.000  
C27  25387349.288   132198587.974        2774.435          40.000                                                                  
C19  25730711.550   133986573.007         358.955          40.000                                                                  
C09  37807094.196   196871462.368         193.230          45.000    37807078.673   152233442.964         149.533          48.000  
C11                                                                  27119378.077   109198496.680       -1954.539          43.000  
> 2025 10 28 08 26 43.4420000  0 24                     
G04  21672904.542   113891883.449         375.566          45.000    21672895.640    88746884.911         292.535          46.000  
G27  21765271.251   114377272.799        2483.459          46.000    21765263.231    89125119.063        1935.120          44.000  
G16  20660955.899   108574054.835        -310.919          47.000                                                                  
G08  23864598.745   125409314.313        3464.457          37.000    23864597.857    97721554.546        2699.582          39.000  
G09  23800008.825   125069893.121        2332.603          37.000    23800001.841    97457033.103        1818.076          37.000  
G31  21965551.893   115429754.974       -2070.463          46.000    21965541.481    89945215.767       -1613.494          44.000  
C06  36736108.334   191294537.158          35.289          47.000    36736090.054   147921012.179          27.291          49.000  
C32  26647525.329   138760599.248       -3572.610          38.000                                                                  
C37  22877677.131   119130069.435        -562.866          49.000                                                                  
C07  38360939.292   199755478.446         705.691          41.000    38360922.702   154463544.090         545.507          45.000  
C13  41762438.459   217467979.298       -2327.981          36.000    41762470.203   168160171.024       -1800.094          38.000  
C20  24616720.335   128185722.080       -2114.260          46.000                                                                  
G18  25361715.665   133276717.081         943.857          38.000    25361709.097   103851953.512         735.464          39.000  
G28  24149272.791   126905283.653       -2974.734          41.000    24149265.383    98887194.057       -2317.693          42.000  
G03  25664619.949   134868489.548       -3024.272          33.000    25664634.586   105092307.846       -2356.309          39.000  
G26  21756714.192   114332305.877       -2211.196          46.000    21756706.392    89090076.100       -1723.048          45.000  
C10  39423785.724   205289997.486         661.993          38.000    39423774.019   158743199.594         511.682          43.000  
C28  23882427.937   124362068.584        1414.563          47.000                                                                  
C23  25123635.063   130825366.847       -2281.539          43.000                                                                  
C16  37175195.105   193580995.898          34.666          48.000    37175182.747   149689056.950          26.691          48.000  
C27  25387327.982   132198476.996        2774.452          40.000                                                                  
C19  25730708.776   133986558.641         359.079          40.000                                                                  
C09  37807092.744   196871454.618         193.575          45.000    37807077.156   152233436.986         149.413          48.000  
C11                                                                  27119397.483   109198574.861       -1954.503          43.000  
> 2025 10 28 08 26 43.4820000  0 24                     
G04  21672901.687   113891868.423         375.625          45.000    21672892.779    88746873.209         292.512          46.000  
G27  21765252.344   114377173.465        2483.375          46.000    21765244.317    89125041.663        1935.046          44.000  
G16  20660958.258   108574067.271        -310.895          47.000                                                                  
G08  23864572.367   125409175.759        3463.968          37.000    23864571.515    97721446.564        2699.573          39.000  
G09  23799991.068   125069799.815        2332.512          37.000    23799984.089    97456960.399        1817.687          37.000  
G31  21965567.677   115429837.789       -2070.455          46.000    21965557.241    89945280.302       -1613.448          44.000  
C06  36736108.050   191294535.741          35.346          47.000    36736089.777   147921011.088          27.255          49.000  
C32  26647552.806   138760742.165       -3572.839          38.000                                                                  
C37  22877681.455   119130091.949        -562.834          49.000                                                                  
C07  38360933.885   199755450.233         705.383          41.000    38360917.302   154463522.266         545.554          45.000  
C13  41762456.336   217468072.409       -2327.856          36.000    41762488.105   168160243.022       -1799.962          38.000  
C20  24616736.567   128185806.646       -2114.155          46.000                                                                  
G18  25361708.470   133276679.330         943.872          38.000    25361701.936   103851924.109         735.168          39.000  
G28  24149295.438   126905402.626       -2974.462          41.000    24149288.044    98887286.775       -2317.842          42.000  
G03  25664642.973   134868610.505       -3024.091          33.000    25664657.604   105092402.109       -2356.509          39.000  
G26  21756731.035   114332394.324       -2211.173          46.000    21756723.213    89090145.026       -1723.131          45.000  
C10  39423780.633   205289971.013         661.890          38.000    39423768.935   158743179.113         511.877          43.000  
C28  23882417.094   124362011.986        1414.783          47.000                                                                  
C23  25123652.568   130825458.109       -2281.504          43.000                                                                  
C16  37175194.811   193580994.517          34.568          48.000    37175182.475   149689055.881          26.674          48.000  
C27  25387306.677   132198366.015        2774.559          40.000                                                                  
C19  25730706.023   133986544.282         359.006          40.000                                                                  
C09  37807091.237   196871446.874         193.629          45.000    37807075.681   152233430.999         149.519          48.000  
C11                                                                  27119416.878   109198653.059       -1954.818          43.000  
> 2025 10 28 08 26 43.5220000  0 24                     
G04  21672898.823   113891853.406         375.474          45.000    21672889.919    88746861.498         292.667          46.000  
G27  21765233.450   114377074.134        2483.294          46.000    21765225.428    89124964.257        1935.085          44.000  
G16  20660960.609   108574079.702        -310.821          47.000                                                                  
G08  23864546.014   125409037.198        3463.903          37.000    23864545.140    97721338.594        2699.394          39.000  
G09  23799973.293   125069706.500        2332.650          37.000    23799966.339    97456887.703        1817.365          37.000  
G31  21965583.433   115429920.605       -2070.435          46.000    21965572.987    89945344.828       -1613.284          44.000  
C06  36736107.797   191294534.318          35.485          47.000    36736089.504   147921009.991          27.363          49.000  
C32  26647580.260   138760885.056       -3572.415          38.000                                                                  
C37  22877685.783   119130114.461        -562.803          49.000                                                                  
C07  38360928.463   199755421.998         705.699          41.000    38360911.866   154463500.441         545.612          45.000  
C13  41762474.217   217468165.497       -2327.423          36.000    41762505.997   168160315.010       -1799.758          38.000  
C20  24616752.789   128185891.217       -2114.214          46.000                                                                  
G18  25361701.286   133276641.571         943.982          38.000    25361694.768   103851894.692         735.279          39.000  
G28  24149318.080   126905521.598       -2974.333          41.000    24149310.696    98887379.488       -2317.848          42.000  
G03  25664665.986   134868731.442       -3023.573          33.000    25664680.630   105092496.353       -2356.271          39.000  
G26  21756747.855   114332482.767       -2211.103          46.000    21756740.053    89090213.948       -1723.101          45.000  
C10  39423775.554   205289944.526         662.048          38.000    39423763.868   158743158.636         511.926          43.000  
C28  23882406.240   124361955.395        1414.807          47.000                                                                  
C23  25123670.105   130825549.377       -2281.606          43.000                                                                  
C16  37175194.544   193580993.117          34.837          48.000    37175182.209   149689054.804          26.820          48.000  
C27  25387285.361   132198255.026        2774.710          40.000                                                                  
C19  25730703.279   133986529.931         358.838          40.000                                                                  
C09  37807089.750   196871439.125         193.734          45.000    37807074.201   152233425.007         149.698          48.000  
C11                                                                  27119436.299   109198731.250       -1954.848          43.000  
> 2025 10 28 08 26 43.5620000  0 24                     
G04  21672895.975   113891838.389         375.356          45.000    21672887.066    88746849.791         292.662          46.000  
G27  21765214.553   114376974.802        2483.280          46.000    21765206.523    89124886.843        1935.236          44.000  
G16  20660963.006   108574092.143        -310.966          47.000                                                                  
G08  23864519.649   125408898.633        3463.948          37.000    23864518.768    97721230.625        2699.251          39.000  
G09  23799955.545   125069613.198        2332.495          37.000    23799948.579    97456814.994        1817.417          37.000  
G31  21965599.204   115430003.430       -2070.612          46.000    21965588.736    89945409.365       -1613.392          44.000  
C06  36736107.521   191294532.903          35.436          47.000    36736089.216   147921008.891          27.447          49.000  
C32  26647607.700   138761027.950       -3572.313          38.000                                                                  
C37  22877690.087   119130136.978        -562.882          49.000                                                                  
C07  38360923.034   199755393.772         705.663          41.000    38360906.447   154463478.619         545.553          45.000  
C13  41762492.087   217468258.612       -2327.712          36.000    41762523.876   168160387.025       -1800.234          38.000  
C20  24616769.037   128185975.802       -2114.501          46.000                                                                  
G18  25361694.117   133276603.837         943.516          38.000    25361687.591   103851865.285         735.197          39.000  
G28  24149340.714   126905640.576       -2974.365          41.000    24149333.326    98887472.202       -2317.872          42.000  
G03  25664689.053   134868852.407       -3023.905          33.000    25664703.668   105092590.601       -2356.161          39.000  
G26  21756764.694   114332571.209       -2211.062          46.000    21756756.879    89090282.862       -1722.949          45.000  
C10  39423770.478   205289918.030         662.299          38.000    39423758.785   158743138.154         512.030          43.000  
C28  23882395.353   124361898.807        1414.713          47.000                                                                  
C23  25123687.637   130825640.640       -2281.614          43.000                                                                  
C16  37175194.269   193580991.726          34.831          48.000    37175181.894   149689053.726          26.929          48.000  
C27  25387264.059   132198144.046        2774.603          40.000                                                                  
C19  25730700.504   133986515.583         358.659          40.000                                                                  
C09  37807088.255   196871431.378         193.709          45.000    37807072.723   152233419.021         149.677          48.000  
C11                                                                  27119455.757   109198809.455       -1955.100          43.000  
> 2025 10 28 08 26 43.6020000  0 24                     
G04  21672893.148   113891823.379         375.236          45.000    21672884.203    88746838.097         292.428          46.000  
G27  21765195.640   114376875.474        2483.182          46.000    21765187.629    89124809.459        1934.792          44.000  
G16  20660965.407   108574104.593        -311.210          47.000                                                                  
G08  23864493.283   125408760.062        3464.206          37.000    23864492.408    97721122.653        2699.228          39.000  
G09  23799937.801   125069519.887        2332.685          37.000    23799930.821    97456742.299        1817.359          37.000  
G31  21965614.978   115430086.251       -2070.613          46.000    21965604.491    89945473.893       -1613.267          44.000  
C06  36736107.256   191294531.495          35.274          47.000    36736088.965   147921007.801          27.323          49.000  
C32  26647635.113   138761170.876       -3572.875          38.000                                                                  
C37  22877694.411   119130159.496        -562.972          49.000                                                                  
C07  38360917.609   199755365.555         705.460          41.000    38360901.009   154463456.800         545.458          45.000  
C13  41762509.977   217468351.725       -2327.919          36.000    41762541.717   168160459.020       -1800.076          38.000  
C20  24616785.295   128186060.392       -2114.781          46.000                                                                  
G18  25361686.928   133276566.091         943.532          38.000    25361680.380   103851835.862         735.460          39.000  
G28  24149363.371   126905759.569       -2974.710          41.000    24149355.966    98887564.911       -2317.848          42.000  
G03  25664712.050   134868973.366       -3024.025          33.000    25664726.707   105092684.876       -2356.671          39.000  
G26  21756781.554   114332659.663       -2211.257          46.000    21756773.723    89090351.784       -1722.998          45.000  
C10  39423765.373   205289891.561         661.926          38.000    39423753.703   158743117.674         512.030          43.000  
C28  23882384.490   124361842.218        1414.708          47.000                                                                  
C23  25123705.186   130825731.913       -2281.758          43.000                                                                  
C16  37175193.977   193580990.341          34.684          48.000    37175181.603   149689052.654          26.854          48.000  
C27  25387242.734   132198033.068        2774.492          40.000                                                                  
C19  25730697.756   133986501.227         358.764          40.000                                                                  
C09  37807086.759   196871423.648         193.375          45.000    37807071.220   152233413.036         149.631          48.000  
C11                                                                  27119475.146   109198887.646       -1954.945          43.000  
> 2025 10 28 08 26 43.6420000  0 24                     
G04  21672890.305   113891808.365         375.253          45.000    21672881.347    88746826.401         292.321          46.000  
G27  21765176.741   114376776.148        2483.112          46.000    21765168.733    89124732.063        1934.777          44.000  
G16  20660967.784   108574117.033        -311.150          47.000                                                                  
G08  23864466.912   125408621.509        3463.937          37.000    23864466.054    97721014.702        2698.842          39.000  
G09  23799920.012   125069426.571        2332.782          37.000    23799913.059    97456669.599        1817.417          37.000  
G31  21965630.745   115430169.074       -2070.614          46.000    21965620.240    89945538.434       -1613.446          44.000  
C06  36736107.005   191294530.083          35.233          47.000    36736088.732   147921006.714          27.169          49.000  
C32  26647662.535   138761313.798       -3573.020          38.000                                                                  
C37  22877698.711   119130182.021        -563.104          49.000                                                                  
C07  38360912.194   199755337.334         705.444          41.000    38360895.593   154463434.978         545.492          45.000  
C13  41762527.863   217468444.826       -2327.788          36.000    41762559.590   168160531.013       -1799.913          38.000  
C20  24616801.552   128186144.978       -2114.792          46.000                                                                  
G18  25361679.724   133276528.357         943.356          38.000    25361673.205   103851806.460         735.208          39.000  
G28  24149386.015   126905878.560       -2974.833          41.000    24149378.625    98887657.629       -2317.971          42.000  
G03  25664735.079   134869094.352       -3024.462          33.000    25664749.732   105092779.147       -2356.871          39.000  
G26  21756798.380   114332748.128       -2211.565          46.000    21756790.529    89090420.710       -1723.135          45.000  
C10  39423760.271   205289865.090         661.755          38.000    39423748.604   158743097.196         511.969          43.000  
C28  23882373.602   124361785.634        1414.596          47.000                                                                  
C23  25123722.709   130825823.179       -2281.714          43.000                                                                  
C16  37175193.695   193580988.966          34.446          48.000    37175181.335   149689051.582          26.800          48.000  
C27  25387221.422   132197922.089        2774.440          40.000                                                                  
C19  25730695.004   133986486.869         358.896          40.000                                                                  
C09  37807085.283   196871415.911         193.342          45.000    37807069.740   152233407.049         149.657          48.000  
C11                                                                  27119494.595   109198965.839       -1954.921          43.000  
> 2025 10 28 08 26 43.6820000  0 24                     
G04  21672887.456   113891793.347         375.329          45.000    21672878.506    88746814.705         292.317          46.000  
G27  21765157.844   114376676.823        2483.078          46.000    21765149.827    89124654.663        1934.858          44.000  
G16  20660970.131   108574129.479        -311.199          47.000                                                                  
G08  23864440.534   125408482.949        3463.899          37.000    23864439.671    97720906.737        2698.896          39.000  
G09  23799902.257   125069333.292        2332.172          37.000    23799895.300    97456596.900        1817.418          37.000  
G31  21965646.494   115430251.899       -2070.646          46.000    21965636.004    89945602.982       -1613.652          44.000  
C06  36736106.756   191294528.673          35.188          47.000    36736088.454   147921005.624          27.141          49.000  
C32  26647690.011   138761456.710       -3572.910          38.000                                                                  
C37  22877703.059   119130204.544        -563.165          49.000                                                                  
C07  38360906.785   199755309.130         705.200          41.000    38360890.180   154463413.162         545.404          45.000  
C13  41762545.752   217468537.916       -2327.380          36.000    41762577.480   168160603.015       -1800.052          38.000  
C20  24616817.828   128186229.549       -2114.503          46.000                                                                  
G18  25361672.513   133276490.616         943.388          38.000    25361666.005   103851777.038         735.341          39.000  
G28  24149408.658   126905997.560       -2975.047          41.000    24149401.248    98887750.349       -2318.026          42.000  
G03  25664758.081   134869215.300       -3024.115          33.000    25664772.753   105092873.399       -2356.610          39.000  
G26  21756815.223   114332836.588       -2211.641          46.000    21756807.376    89090489.637       -1723.192          45.000  
C10  39423755.188   205289838.614         661.798          38.000    39423743.544   158743076.728         511.749          43.000  
C28  23882362.708   124361729.055        1414.460          47.000                                                                  
C23  25123740.241   130825914.459       -2281.942          43.000                                                                  
C16  37175193.415   193580987.584          34.440          48.000    37175181.042   149689050.517          26.651          48.000  
C27  25387200.130   132197811.123        2774.091          40.000                                                                  
C19  25730692.235   133986472.526         358.674          40.000                                                                  
C09  37807083.812   196871408.182         193.211          45.000    37807068.267   152233401.064         149.638          48.000  
C11                                                                  27119514.040   109199044.039       -1954.982          43.000  
> 2025 10 28 08 26 43.7220000  0 24                     
G04  21672884.596   113891778.337         375.234          45.000    21672875.641    88746803.005         292.402          46.000  
G27  21765138.944   114376577.497        2483.111          46.000    21765130.934    89124577.279        1934.678          44.000  
G16  20660972.500   108574141.929        -311.312          47.000                                                                  
G08  23864414.137   125408344.375        3464.142          37.000    23864413.308    97720798.749        2699.458          39.000  
G09  23799884.528   125069240.003        2332.026          37.000    23799877.529    97456524.176        1817.871          37.000  
G31  21965662.245   115430334.722       -2070.616          46.000    21965651.727    89945667.518       -1613.539          44.000  
C06  36736106.504   191294527.261          35.233          47.000    36736088.191   147921004.529          27.254          49.000  
C32  26647717.447   138761599.622       -3572.814          38.000                                                                  
C37  22877707.422   119130227.062        -563.058          49.000                                                                  
C07  38360901.391   199755280.915         705.241          41.000    38360884.777   154463391.344         545.386          45.000  
C13  41762563.611   217468631.035       -2327.770          36.000    41762595.349   168160675.014       -1800.007          38.000  
C20  24616834.088   128186314.127       -2114.434          46.000                                                                  
G18  25361665.345   133276452.880         943.312          38.000    25361658.826   103851747.645         734.930          39.000  
G28  24149431.310   126906116.548       -2974.904          41.000    24149423.888    98887843.078       -2318.210          42.000  
G03  25664781.094   134869336.292       -3024.622          33.000    25664795.763   105092967.637       -2356.178          39.000  
G26  21756832.045   114332925.038       -2211.465          46.000    21756824.208    89090558.564       -1723.248          45.000  
C10  39423750.105   205289812.124         662.128          38.000    39423738.480   158743056.262         511.621          43.000  
C28  23882351.859   124361672.474        1414.437          47.000                                                                  
C23  25123757.762   130826005.733       -2281.964          43.000                                                                  
C16  37175193.153   193580986.199          34.523          48.000    37175180.766   149689049.450          26.617          48.000  
C27  25387178.830   132197700.150        2774.115          40.000                                                                  
C19  25730689.474   133986458.184         358.508          40.000                                                                  
C09  37807082.346   196871400.447         193.262          45.000    37807066.770   152233395.082         149.554          48.000  
C11                                                                  27119533.450   109199122.240       -1955.012          43.000  
> 2025 10 28 08 26 43.7620000  0 24                     
G04  21672881.740   113891763.330         375.167          45.000    21672872.756    88746791.311         292.340          46.000  
G27  21765120.035   114376478.178        2482.999          46.000    21765112.029    89124499.881        1934.839          44.000  
G16  20660974.845   108574154.376        -311.284          47.000                                                                  
G08  23864387.798   125408205.817        3464.018          37.000    23864386.948    97720690.773        2699.574          39.000  
G09  23799866.758   125069146.680        2332.632          37.000    23799859.780    97456451.484        1817.565          36.000  
G31  21965678.004   115430417.550       -2070.681          46.000    21965667.475    89945732.052       -1613.418          44.000  
C06  36736106.219   191294525.853          35.197          47.000    36736087.949   147921003.442          27.188          49.000  
C32  26647744.912   138761742.516       -3572.432          38.000                                                                  
C37  22877711.766   119130249.584        -563.044          49.000                                                                  
C07  38360895.973   199755252.695         705.396          41.000    38360879.376   154463369.524         545.439          45.000  
C13  41762581.473   217468724.151       -2327.936          36.000    41762613.243   168160747.023       -1800.213          38.000  
C20  24616850.326   128186398.708       -2114.463          46.000                                                                  
G18  25361658.147   133276415.135         943.431          38.000    25361651.652   103851718.249         734.847          39.000  
G28  24149453.946   126906235.535       -2974.762          41.000    24149446.522    98887935.789       -2318.000          42.000  
G03  25664804.114   134869457.248       -3024.279          33.000    25664818.773   105093061.892       -2356.147          39.000  
G26  21756848.864   114333013.493       -2211.403          46.000    21756841.050    89090627.494       -1723.281          45.000  
C10  39423744.982   205289785.644         662.109          38.000    39423733.397   158743035.785         511.780          43.000  
C28  23882341.011   124361615.892        1414.482          47.000                                                                  
C23  25123775.285   130826097.004       -2281.899          43.000                                                                  
C16  37175192.897   193580984.811          34.627          48.000    37175180.484   149689048.381          26.654          48.000  
C27  25387157.516   132197589.177        2774.210          41.000                                                                  
C19  25730686.730   133986443.834         358.624          40.000                                                                  
C09  37807080.865   196871392.704         193.468          45.000    37807065.282   152233389.100         149.505          48.000  
C11                                                                  27119552.878   109199200.432       -1954.889          43.000  
> 2025 10 28 08 26 43.8020000  0 24                     
G04  21672878.854   113891748.324         375.098          45.000    21672869.926    88746779.619         292.269          46.000  
G27  21765101.139   114376378.856        2482.983          46.000    21765093.135    89124422.482        1934.937          44.000  
G16  20660977.186   108574166.820        -311.189          47.000                                                                  
G08  23864361.447   125408067.250        3464.117          37.000    23864360.573    97720582.793        2699.570          39.000  
G09  23799848.992   125069053.380        2332.543          37.000    23799842.010    97456378.779        1817.640          37.000  
G31  21965693.745   115430500.370       -2070.609          46.000    21965683.244    89945796.585       -1613.298          44.000  
C06  36736105.922   191294524.437          35.297          47.000    36736087.698   147921002.347          27.290          49.000  
C32  26647772.351   138761885.429       -3572.612          38.000                                                                  
C37  22877716.130   119130272.100        -562.956          49.000                                                                  
C07  38360890.544   199755224.460         705.724          41.000    38360873.980   154463347.705         545.438          45.000  
C13  41762599.364   217468817.268       -2327.901          36.000    41762631.139   168160819.015       -1799.956          38.000  
C20  24616866.606   128186483.291       -2114.575          46.000                                                                  
G18  25361650.967   133276377.391         943.571          38.000    25361644.461   103851688.818         735.400          39.000  
G28  24149476.590   126906354.516       -2974.602          41.000    24149469.167    98888028.506       -2317.963          42.000  
G03  25664827.127   134869578.209       -3024.073          33.000    25664841.788   105093156.151       -2356.298          39.000  
G26  21756865.704   114333101.945       -2211.365          46.000    21756857.874    89090696.418       -1723.190          45.000  
C10  39423739.899   205289759.172         661.859          38.000    39423728.304   158743015.305         511.951          43.000  
C28  23882330.140   124361559.305        1414.575          47.000                                                                  
C23  25123792.816   130826188.274       -2281.818          43.000                                                                  
C16  37175192.613   193580983.426          34.630          48.000    37175180.212   149689047.309          26.726          48.000  
C27  25387136.219   132197478.200        2774.321          40.000                                                                  
C19  25730683.986   133986429.480         358.741          40.000                                                                  
C09  37807079.373   196871384.956         193.664          45.000    37807063.786   152233383.118         149.533          48.000  
C11                                                                  27119572.328   109199278.622       -1954.728          43.000  
> 2025 10 28 08 26 43.8420000  0 24                     
G04  21672876.021   113891733.317         375.117          45.000    21672867.058    88746767.916         292.432          46.000  
G27  21765082.242   114376279.527        2483.125          46.000    21765074.229    89124345.082        1934.973          44.000  
G16  20660979.566   108574179.258        -311.019          47.000                                                                  
G08  23864335.101   125407928.678        3464.222          37.000    23864334.224    97720474.841        2699.078          39.000  
G09  23799831.231   125068960.079        2332.506          37.000    23799824.261    97456306.073        1817.664          37.000  
G31  21965709.475   115430583.189       -2070.531          46.000    21965698.994    89945861.121       -1613.339          44.000  
C06  36736105.634   191294523.023          35.371          47.000    36736087.440   147921001.253          27.327          49.000  
C32  26647799.804   138762028.339       -3572.650          38.000                                                                  
C37  22877720.466   119130294.615        -562.873          49.000                                                                  
C07  38360885.092   199755196.240         705.618          41.000    38360868.548   154463325.878         545.584          45.000  
C13  41762617.244   217468910.379       -2327.813          36.000    41762648.991   168160891.000       -1799.651          38.000  
C20  24616882.869   128186567.875       -2114.611          46.000                                                                  
G18  25361643.776   133276339.645         943.675          38.000    25361637.300   103851659.405         735.383          39.000  
G28  24149499.212   126906473.493       -2974.443          41.000    24149491.805    98888121.218       -2317.858          42.000  
G03  25664850.130   134869699.171       -3024.078          33.000    25664864.805   105093250.398       -2356.188          39.000  
G26  21756882.507   114333190.388       -2211.132          46.000    21756874.692    89090765.338       -1723.072          45.000  
C10  39423734.822   205289732.692         661.908          38.000    39423723.225   158742994.826         512.036          43.000  
C28  23882319.279   124361502.722        1414.575          47.000                                                                  
C23  25123810.344   130826279.524       -2281.418          43.000                                                                  
C16  37175192.293   193580982.039          34.655          48.000    37175179.957   149689046.228          26.933          48.000  
C27  25387114.899   132197367.221        2774.391          40.000                                                                  
C19  25730681.247   133986415.128         358.785          40.000                                                                  
C09  37807077.886   196871377.195         194.011          45.000    37807062.286   152233377.127         149.674          48.000  
C11                                                                  27119591.747   109199356.815       -1954.741          43.000  
> 2025 10 28 08 26 43.8820000  0 24                     
G04  21672873.158   113891718.295         375.378          45.000    21672864.222    88746756.217         292.450          46.000  
G27  21765063.315   114376180.184        2483.449          46.000    21765055.310    89124267.686        1934.921          44.000  
G16  20660981.932   108574191.695        -310.896          47.000                                                                  
G08  23864308.703   125407790.109        3464.221          37.000    23864307.859    97720366.864        2699.254          39.000  
G09  23799813.491   125068866.775        2332.606          37.000    23799806.507    97456233.372        1817.584          36.000  
G31  21965725.235   115430666.008       -2070.494          46.000    21965714.732    89945925.652       -1613.262          44.000  
C06  36736105.347   191294521.595          35.605          47.000    36736087.163   147921000.149          27.517          49.000  
C32  26647827.272   138762171.237       -3572.454          38.000                                                                  
C37  22877724.800   119130317.130        -562.844          49.000                                                                  
C07  38360879.689   199755168.015         705.674          41.000    38360863.108   154463304.056         545.563          45.000  
C13  41762635.137   217469003.463       -2327.235          36.000    41762666.844   168160962.994       -1799.730          38.000  
C20  24616899.133   128186652.447       -2114.399          46.000                                                                  
G18  25361636.590   133276301.903         943.519          38.000    25361630.109   103851629.993         735.381          39.000  
G28  24149521.871   126906592.470       -2974.401          41.000    24149514.464    98888213.928       -2317.760          42.000  
G03  25664873.141   134869820.115       -3023.861          33.000    25664887.816   105093344.648       -2356.169          39.000  
G26  21756899.316   114333278.835       -2211.094          46.000    21756891.532    89090834.252       -1722.938          45.000  
C10  39423729.715   205289706.212         661.920          38.000    39423718.142   158742974.343         512.152          43.000  
C28  23882308.426   124361446.131        1414.718          47.000                                                                  
C23  25123827.865   130826370.779       -2281.313          43.000                                                                  
C16  37175192.046   193580980.638          34.880          48.000    37175179.678   149689045.147          27.010          48.000  
C27  25387093.580   132197256.230        2774.619          40.000                                                                  
C19  25730678.493   133986400.778         358.749          40.000                                                                  
C09  37807076.404   196871369.454         193.745          45.000    37807060.808   152233371.137         149.735          48.000  
C11                                                                  27119611.166   109199435.005       -1954.717          43.000  
> 2025 10 28 08 26 43.9220000  0 24                     
G04  21672870.292   113891703.269         375.590          45.000    21672861.389    88746744.516         292.516          46.000  
G27  21765044.415   114376080.854        2483.391          46.000    21765036.411    89124190.279        1935.086          44.000  
G16  20660984.314   108574204.131        -310.867          47.000                                                                  
G08  23864282.343   125407651.552        3463.990          37.000    23864281.498    97720258.879        2699.535          39.000  
G09  23799795.735   125068773.468        2332.648          37.000    23799788.745    97456160.656        1817.884          36.000  
G31  21965741.002   115430748.830       -2070.543          46.000    21965730.485    89945990.187       -1613.325          44.000  
C06  36736105.048   191294520.179          35.528          47.000    36736086.897   147920999.049          27.535          49.000  
C32  26647854.716   138762314.144       -3572.571          38.000                                                                  
C37  22877729.139   119130339.644        -562.814          49.000                                                                  
C07  38360874.247   199755139.791         705.627          41.000    38360857.720   154463282.231         545.586          45.000  
C13  41762653.017   217469096.576       -2327.500          36.000    41762684.696   168161034.997       -1799.967          38.000  
C20  24616915.393   128186737.023       -2114.358          46.000                                                                  
G18  25361629.417   133276264.138         943.934          38.000    25361622.945   103851600.605         734.903          39.000  
G28  24149544.521   126906711.456       -2974.574          41.000    24149537.095    98888306.639       -2317.761          42.000  
G03  25664896.179   134869941.100       -3024.420          33.000    25664910.838   105093438.916       -2356.557          39.000  
G26  21756916.163   114333367.287       -2211.215          46.000    21756908.371    89090903.184       -1723.171          45.000  
C10  39423724.630   205289679.708         662.384          38.000    39423713.028   158742953.865         512.091          43.000  
C28  23882297.575   124361389.540        1414.766          47.000                                                                  
C23  25123845.370   130826462.051       -2281.587          43.000                                                                  
C16  37175191.772   193580979.250          34.761          48.000    37175179.421   149689044.071          26.959          48.000  
C27  25387072.234   132197145.242        2774.690          40.000                                                                  
C19  25730675.711   133986386.419         358.885          40.000                                                                  
C09  37807074.932   196871361.719         193.494          45.000    37807059.324   152233365.140         149.879          48.000  
C11                                                                  27119630.618   109199513.201       -1954.810          43.000  
> 2025 10 28 08 26 43.9620000  0 24                     
G04  21672867.447   113891688.272         375.172          45.000    21672858.558    88746732.833         292.213          46.000  
G27  21765025.516   114375981.550        2482.859          46.000    21765017.532    89124112.897        1934.756          44.000  
G16  20660986.658   108574216.593        -311.333          47.000                                                                  
G08  23864255.972   125407512.979        3464.223          37.000    23864255.130    97720150.909        2699.339          39.000  
G09  23799777.987   125068680.167        2332.535          37.000    23799770.992    97456087.958        1817.702          36.000  
G31  21965756.796   115430831.662       -2070.762          46.000    21965746.245    89946054.731       -1613.538          44.000  
C06  36736104.751   191294518.781          35.105          47.000    36736086.634   147920997.961          27.283          49.000  
C32  26647882.136   138762457.064       -3572.950          38.000                                                                  
C37  22877733.481   119130362.173        -563.137          49.000                                                                  
C07  38360868.834   199755111.579         705.352          41.000    38360852.320   154463260.414         545.472          45.000  
C13  41762670.889   217469189.687       -2327.695          36.000    41762702.586   168161107.000       -1800.123          38.000  
C20  24616931.624   128186821.610       -2114.584          46.000                                                                  
G18  25361622.224   133276226.427         943.141          38.000    25361615.757   103851571.199         734.906          39.000  
G28  24149567.162   126906830.458       -2974.968          41.000    24149559.755    98888399.366       -2318.101          42.000  
G03  25664919.200   134870062.046       -3024.059          33.000    25664933.853   105093533.185       -2356.777          39.000  
G26  21756932.984   114333455.760       -2211.677          46.000    21756925.213    89090972.119       -1723.367          45.000  
C10  39423719.548   205289653.252         661.682          38.000    39423707.942   158742933.397         511.798          43.000  
C28  23882286.694   124361332.967        1414.466          47.000                                                                  
C23  25123862.890   130826553.338       -2282.075          43.000                                                                  
C16  37175191.488   193580977.874          34.467          48.000    37175179.141   149689043.011          26.598          48.000  
C27  25387050.928   132197034.270        2774.402          40.000                                                                  
C19  25730672.945   133986372.075         358.666          40.000                                                                  
C09  37807073.447   196871353.988         193.274          45.000    37807057.836   152233359.161         149.612          48.000  
C11                                                                  27119650.038   109199591.418       -1955.284          43.000  
> 2025 10 28 08 26 44.0020000  0 24                     
G04  21672864.596   113891673.316         374.169          45.000    21672855.723    88746721.172         291.620          46.000  
G27  21765006.618   114375882.273        2482.031          46.000    21764998.639    89124035.534        1934.198          44.000  
G16  20660989.029   108574229.086        -312.230          47.000                                                                  
G08  23864229.608   125407374.480        3462.838          37.000    23864228.762    97720042.984        2698.412          39.000  
G09  23799760.272   125068586.922        2331.364          37.000    23799753.260    97456015.298        1816.856          36.000  
G31  21965772.548   115430914.530       -2071.547          46.000    21965762.012    89946119.319       -1614.435          44.000  
C06  36736104.457   191294517.409          34.416          47.000    36736086.401   147920996.905          26.581          49.000  
C32  26647909.576   138762600.004       -3573.493          38.000                                                                  
C37  22877737.807   119130384.742        -564.070          49.000                                                                  
C07  38360863.416   199755083.419         704.246          41.000    38360846.919   154463238.630         544.756          45.000  
C13  41762688.787   217469282.848       -2328.777          36.000    41762720.472   168161179.039       -1800.867          38.000  
C20  24616947.859   128186906.234       -2115.395          46.000                                                                  
G18  25361615.035   133276188.733         942.355          38.000    25361608.595   103851541.816         734.597          39.000  
G28  24149589.817   126906949.488       -2975.725          41.000    24149582.416    98888492.131       -2319.024          42.000  
G03  25664942.191   134870183.041       -3024.796          33.000    25664956.865   105093627.457       -2356.973          39.000  
G26  21756949.830   114333544.266       -2212.530          46.000    21756942.065    89091041.075       -1723.866          45.000  
C10  39423714.445   205289626.810         661.041          38.000    39423702.891   158742912.963         510.974          43.000  
C28  23882275.832   124361276.439        1413.365          47.000                                                                  
C23  25123880.437   130826644.654       -2282.852          43.000                                                                  
C16  37175191.193   193580976.530          33.724          48.000    37175178.885   149689041.976          25.946          48.000  
C27  25387029.624   132196923.334        2773.572          40.000                                                                  
C19  25730670.222   133986357.776         357.698          40.000                                                                  
C09  37807071.974   196871346.301         192.311          45.000    37807056.364   152233353.211         148.882          48.000  
C11                                                                  27119669.486   109199669.647       -1955.776          43.000  
> 2025 10 28 08 26 44.0420000  0 24                     
G04  21672861.761   113891658.424         372.544          45.000    21672852.897    88746709.560         290.474          46.000  
G27  21764987.734   114375783.052        2480.623          46.000    21764979.759    89123958.209        1933.265          44.000  
G16  20660991.412   108574241.640        -313.737          47.000                                                                  
G08  23864203.272   125407236.025        3461.330          37.000    23864202.423    97719935.091        2697.323          39.000  
G09  23799742.559   125068493.728        2329.957          37.000    23799735.526    97455942.665        1815.845          36.000  
G31  21965788.334   115430997.465       -2073.104          46.000    21965777.811    89946183.928       -1615.210          44.000  
C06  36736104.208   191294516.093          33.103          47.000    36736086.196   147920995.890          25.512          49.000  
C32  26647937.033   138762743.023       -3575.194          38.000                                                                  
C37  22877742.132   119130407.368        -565.495          49.000                                                                  
C07  38360858.020   199755055.309         702.793          41.000    38360841.511   154463216.885         543.696          45.000  
C13  41762706.683   217469376.067       -2330.317          36.000    41762738.386   168161251.120       -1802.000          38.000  
C20  24616964.143   128186990.927       -2117.034          46.000                                                                  
G18  25361607.887   133276151.104         940.880          38.000    25361601.427   103851512.489         733.385          39.000  
G28  24149612.475   126907068.568       -2976.928          41.000    24149605.076    98888584.924       -2319.895          42.000  
G03  25664965.224   134870304.094       -3026.176          33.000    25664979.912   105093721.796       -2358.229          39.000  
G26  21756966.676   114333632.823       -2213.827          46.000    21756958.928    89091110.087       -1725.081          45.000  
C10  39423709.391   205289600.422         659.772          38.000    39423697.793   158742892.564         509.937          43.000  
C28  23882265.000   124361219.966        1411.926          47.000                                                                  
C23  25123897.988   130826736.025       -2284.120          43.000                                                                  
C16  37175190.967   193580975.246          32.305          48.000    37175178.625   149689040.980          24.950          48.000  
C27  25387008.358   132196812.474        2771.788          40.000                                                                  
C19  25730667.518   133986343.542         356.042          40.000                                                                  
C09  37807070.520   196871338.659         191.085          45.000    37807054.897   152233347.314         147.587          48.000  
C11                                                                  27119688.910   109199747.916       -1956.679          43.000  
> 2025 10 28 08 26 44.0820000  0 24                     
G04  21672858.920   113891643.507         372.327          45.000    21672850.089    88746697.941         290.141          46.000  
G27  21764968.866   114375683.819        2480.304          46.000    21764960.906    89123880.896        1932.683          44.000  
G16  20660993.818   108574254.161        -313.666          47.000                                                                  
G08  23864176.911   125407097.530        3461.611          37.000    23864176.078    97719827.187        2697.150          39.000  
G09  23799724.815   125068400.499        2330.054          37.000    23799717.804    97455870.014        1815.852          36.000  
G31  21965804.126   115431080.380       -2073.380          46.000    21965793.591    89946248.535       -1615.483          44.000  
C06  36736103.931   191294514.760          32.871          47.000    36736085.950   147920994.863          25.274          49.000  
C32  26647964.513   138762886.015       -3575.373          38.000                                                                  
C37  22877746.446   119130429.965        -565.537          49.000                                                                  
C07  38360852.599   199755027.162         702.962          41.000    38360836.113   154463195.122         543.664          45.000  
C13  41762724.597   217469469.227       -2329.769          36.000    41762756.338   168161323.156       -1801.537          38.000  
C20  24616980.434   128187075.595       -2117.275          46.000                                                                  
G18  25361600.720   133276113.454         940.668          38.000    25361594.281   103851483.140         733.333          39.000  
G28  24149635.131   126907187.634       -2977.112          41.000    24149627.726    98888677.695       -2319.746          42.000  
G03  25664988.289   134870425.161       -3026.969          33.000    25665002.953   105093816.128       -2358.665          39.000  
G26  21756983.527   114333721.357       -2213.928          46.000    21756975.786    89091179.081       -1725.317          45.000  
C10  39423704.352   205289574.010         659.821          38.000    39423692.692   158742872.139         510.114          43.000  
C28  23882254.136   124361163.463        1411.950          47.000                                                                  
C23  25123915.564   130826827.363       -2284.087          43.000                                                                  
C16  37175190.720   193580973.937          32.172          48.000    37175178.358   149689039.972          24.792          48.000  
C27  25386987.079   132196701.587        2771.540          40.000                                                                  
C19  25730664.777   133986329.278         355.962          40.000                                                                  
C09  37807069.054   196871330.983         191.259          45.000    37807053.414   152233341.384         147.688          48.000  
C11                                                                  27119708.363   109199826.184       -1956.969          43.000  
> 2025 10 28 08 26 44.1220000  0 24                     
G04  21672856.093   113891628.515         373.748          45.000    21672847.244    88746686.253         291.309          46.000  
G27  21764949.967   114375584.505        2481.756          46.000    21764941.999    89123803.515        1933.671          44.000  
G16  20660996.207   108574266.624        -312.337          47.000                                                                  
G08  23864150.568   125406958.969        3463.124          37.000    23864149.700    97719719.221        2698.455          39.000  
G09  23799707.096   125068307.213        2331.402          37.000    23799700.064    97455797.354        1816.284          36.000  
G31  21965819.892   115431163.205       -2071.766          46.000    21965809.346    89946313.089       -1614.547          44.000  
C06  36736103.606   191294513.347          34.299          47.000    36736085.693   147920993.780          26.265          49.000  
C32  26647991.909   138763028.909       -3573.389          38.000                                                                  
C37  22877750.749   119130452.491        -564.098          49.000                                                                  
C07  38360847.179   199754998.947         704.491          41.000    38360830.678   154463173.313         544.617          45.000  
C13  41762742.481   217469562.320       -2328.078          36.000    41762774.237   168161395.169       -1800.686          38.000  
C20  24616996.668   128187160.192       -2115.939          46.000                                                                  
G18  25361593.542   133276075.702         942.573          38.000    25361587.087   103851453.761         733.946          39.000  
G28  24149657.768   126907306.639       -2975.856          41.000    24149650.358    98888770.422       -2318.665          42.000  
G03  25665011.339   134870546.126       -3025.122          33.000    25665025.979   105093910.370       -2357.156          39.000  
G26  21757000.374   114333809.827       -2212.692          46.000    21756992.612    89091248.012       -1724.109          45.000  
C10  39423699.251   205289547.539         661.121          38.000    39423687.594   158742851.670         511.194          43.000  
C28  23882243.234   124361106.888        1413.528          47.000                                                                  
C23  25123933.066   130826918.646       -2282.886          43.000                                                                  
C16  37175190.418   193580972.563          33.456          48.000    37175178.060   149689038.910          25.825          48.000  
C27  25386965.748   132196590.595        2773.603          40.000                                                                  
C19  25730662.026   133986314.937         357.523          40.000                                                                  
C09  37807067.543   196871323.239         192.791          45.000    37807051.920   152233335.400         148.898          48.000  
C11                                                                  27119727.775   109199904.381       -1955.633          43.000  
> 2025 10 28 08 26 44.1620000  0 24                     
G04  21672853.228   113891613.461         375.665          45.000    21672844.405    88746674.545         292.410          46.000  
G27  21764931.080   114375485.160        2483.176          46.000    21764923.116    89123726.103        1934.837          44.000  
G16  20660998.568   108574279.046        -310.887          47.000                                                                  
G08  23864124.182   125406820.387        3464.375          37.000    23864123.321    97719611.209        2699.981          39.000  
G09  23799689.319   125068213.888        2332.783          37.000    23799682.308    97455724.633        1817.521          36.000  
G31  21965835.652   115431245.997       -2070.219          46.000    21965825.087    89946377.608       -1613.362          44.000  
C06  36736103.284   191294511.905          35.663          47.000    36736085.439   147920992.661          27.527          49.000  
C32  26648019.342   138763171.792       -3572.093          38.000                                                                  
C37  22877755.049   119130474.982        -562.625          49.000                                                                  
C07  38360841.733   199754970.685         706.189          41.000    38360825.209   154463151.464         545.879          45.000  
C13  41762760.379   217469655.423       -2327.434          36.000    41762792.107   168161467.133       -1799.365          38.000  
C20  24617012.884   128187244.747       -2114.416          46.000                                                                  
G18  25361586.354   133276037.945         943.854          38.000    25361579.902   103851424.318         735.457          39.000  
G28  24149680.413   126907425.597       -2974.255          41.000    24149672.994    98888863.117       -2317.515          42.000  
G03  25665034.370   134870667.052       -3023.559          33.000    25665048.993   105094004.598       -2356.008          39.000  
G26  21757017.205   114333898.233       -2210.793          46.000    21757009.405    89091316.901       -1722.695          45.000  
C10  39423694.157   205289521.040         662.366          38.000    39423682.504   158742831.172         512.317          43.000  
C28  23882232.348   124361050.275        1415.040          47.000                                                                  
C23  25123950.578   130827009.879       -2281.299          44.000                                                                  
C16  37175190.117   193580971.132          35.229          48.000    37175177.791   149689037.805          27.185          48.000  
C27  25386944.411   132196479.585        2775.000          40.000                                                                  
C19  25730659.243   133986300.563         359.001          40.000                                                                  
C09  37807066.021   196871315.467         194.111          45.000    37807050.410   152233329.390         150.033          48.000  
C11                                                                  27119747.159   109199982.556       -1954.508          43.000  
> 2025 10 28 08 26 44.2020000  0 24                     
G04  21672850.346   113891598.410         376.576          45.000    21672841.533    88746662.814         293.309          46.000  
G27  21764912.162   114375385.784        2484.375          46.000    21764904.186    89123648.664        1935.896          44.000  
G16  20661000.933   108574291.452        -309.974          47.000                                                                  
G08  23864097.807   125406681.777        3465.344          37.000    23864096.937    97719503.219        2700.215          39.000  
G09  23799671.566   125068120.532        2334.015          37.000    23799664.548    97455651.898        1818.375          36.000  
G31  21965851.411   115431328.779       -2069.335          46.000    21965840.838    89946442.101       -1612.311          44.000  
C06  36736102.981   191294510.444          36.635          47.000    36736085.166   147920991.519          28.549          49.000  
C32  26648046.750   138763314.664       -3571.464          38.000                                                                  
C37  22877759.348   119130497.451        -561.598          49.000                                                                  
C07  38360836.319   199754942.428         706.842          41.000    38360819.753   154463129.610         546.560          45.000  
C13  41762778.242   217469748.501       -2326.735          36.000    41762809.989   168161539.096       -1798.742          38.000  
C20  24617029.130   128187329.276       -2113.234          46.000                                                                  
G18  25361579.158   133276000.162         944.766          38.000    25361572.710   103851394.871         736.235          39.000  
G28  24149703.041   126907544.541       -2973.332          41.000    24149695.620    98888955.799       -2316.855          42.000  
G03  25665057.383   134870787.952       -3022.332          33.000    25665072.017   105094098.817       -2355.281          39.000  
G26  21757034.016   114333986.642       -2209.927          46.000    21757026.244    89091385.792       -1722.046          45.000  
C10  39423689.028   205289494.524         663.123          38.000    39423677.382   158742810.655         513.080          43.000  
C28  23882221.466   124360993.655        1415.820          47.000                                                                  
C23  25123968.095   130827101.101       -2280.354          44.000                                                                  
C16  37175189.843   193580969.695          36.180          48.000    37175177.532   149689036.693          27.957          48.000  
C27  25386923.107   132196368.567        2775.776          40.000                                                                  
C19  25730656.489   133986286.173         359.940          40.000                                                                  
C09  37807064.539   196871307.685         194.843          45.000    37807048.904   152233323.359         150.919          48.000  
C11                                                                  27119766.563   109200060.725       -1953.954          43.000  
> 2025 10 28 08 26 44.2420000  0 24                     
G04  21672847.470   113891583.385         376.345          45.000    21672838.671    88746651.095         293.407          46.000  
G27  21764893.248   114375286.429        2484.464          46.000    21764885.290    89123571.249        1935.882          44.000  
G16  20661003.300   108574303.871        -309.966          47.000                                                                  
G08  23864071.440   125406543.198        3465.079          37.000    23864070.570    97719395.250        2699.750          39.000  
G09  23799653.777   125068027.212        2333.735          37.000    23799646.784    97455579.185        1818.295          36.000  
G31  21965867.180   115431411.575       -2069.325          46.000    21965856.590    89946506.610       -1612.230          44.000  
C06  36736102.670   191294508.995          36.768          47.000    36736084.892   147920990.399          28.524          49.000  
C32  26648074.197   138763457.543       -3571.506          38.000                                                                  
C37  22877763.631   119130519.948        -561.747          49.000                                                                  
C07  38360830.892   199754914.190         706.530          41.000    38360814.301   154463107.771         546.427          45.000  
C13  41762796.133   217469841.579       -2326.598          36.000    41762827.859   168161611.086       -1799.097          38.000  
C20  24617045.351   128187413.836       -2113.305          46.000                                                                  
G18  25361572.013   133275962.409         944.550          38.000    25361565.514   103851365.456         735.956          39.000  
G28  24149725.689   126907663.497       -2973.310          41.000    24149718.267    98889048.506       -2317.176          42.000  
G03  25665080.416   134870908.906       -3022.823          33.000    25665095.023   105094193.048       -2355.321          39.000  
G26  21757050.819   114334075.074       -2210.107          46.000    21757043.095    89091454.691       -1722.005          45.000  
C10  39423683.921   205289468.018         663.147          38.000    39423672.252   158742790.159         512.939          43.000  
C28  23882210.611   124360937.055        1415.599          47.000                                                                  
C23  25123985.608   130827192.341       -2280.402          44.000                                                                  
C16  37175189.543   193580968.278          36.089          48.000    37175177.225   149689035.591          28.009          48.000  
C27  25386901.770   132196257.567        2775.671          40.000                                                                  
C19  25730653.737   133986271.803         359.852          40.000                                                                  
C09  37807063.022   196871299.915         194.820          45.000    37807047.430   152233317.342         150.922          48.000  
C11                                                                  27119785.969   109200138.906       -1954.101          43.000  
> 2025 10 28 08 26 44.2820000  0 24                     
G04  21672844.626   113891568.394         375.452          45.000    21672835.804    88746639.417         292.620          46.000  
G27  21764874.325   114375187.126        2483.412          46.000    21764866.389    89123493.853        1935.378          44.000  
G16  20661005.657   108574316.327        -310.803          47.000                                                                  
G08  23864045.067   125406404.621        3464.825          37.000    23864044.214    97719287.284        2699.424          39.000  
G09  23799636.035   125067933.929        2332.700          37.000    23799629.045    97455506.470        1818.177          36.000  
G31  21965882.972   115431494.408       -2070.126          46.000    21965872.359    89946571.152       -1612.953          44.000  
C06  36736102.377   191294507.584          35.998          47.000    36736084.636   147920989.311          27.808          49.000  
C32  26648101.631   138763600.448       -3572.173          38.000                                                                  
C37  22877767.937   119130542.470        -562.480          49.000                                                                  
C07  38360825.488   199754885.970         705.934          41.000    38360808.894   154463085.950         545.920          45.000  
C13  41762814.008   217469934.683       -2327.129          36.000    41762845.734   168161683.078       -1799.513          38.000  
C20  24617061.585   128187498.427       -2114.088          46.000                                                                  
G18  25361564.808   133275924.674         943.983          38.000    25361558.339   103851336.055         735.429          39.000  
G28  24149748.324   126907782.496       -2974.288          41.000    24149740.927    98889141.223       -2317.629          42.000  
G03  25665103.435   134871029.877       -3023.581          33.000    25665118.058   105094287.309       -2356.044          39.000  
G26  21757067.660   114334163.534       -2210.879          46.000    21757059.948    89091523.625       -1722.724          45.000  
C10  39423678.815   205289441.525         662.738          38.000    39423667.143   158742769.686         512.231          43.000  
C28  23882199.747   124360880.479        1414.895          47.000                                                                  
C23  25124003.131   130827283.612       -2281.157          44.000                                                                  
C16  37175189.297   193580966.899          35.181          49.000    37175176.958   149689034.525          27.257          48.000  
C27  25386880.448   132196146.588        2775.024          40.000                                                                  
C19  25730650.999   133986257.466         359.071          40.000                                                                  
C09  37807061.527   196871292.173         194.099          45.000    37807045.943   152233311.365         150.056          48.000  
C11                                                                  27119805.390   109200217.103       -1954.566          43.000  
> 2025 10 28 08 26 44.3220000  0 24                     
G04  21672841.785   113891553.431         374.429          45.000    21672832.942    88746627.742         292.056          46.000  
G27  21764855.448   114375087.823        2482.772          46.000    21764847.492    89123416.484        1934.563          44.000  
G16  20661008.008   108574328.797        -311.574          47.000                                                                  
G08  23864018.701   125406266.081        3463.927          37.000    23864017.848    97719179.306        2699.400          39.000  
G09  23799618.288   125067840.642        2332.282          37.000    23799611.293    97455433.768        1817.788          36.000  
G31  21965898.750   115431577.264       -2071.055          46.000    21965888.155    89946635.718       -1613.782          44.000  
C06  36736102.093   191294506.189          35.231          47.000    36736084.346   147920988.228          27.244          49.000  
C32  26648129.083   138763743.382       -3573.159          38.000                                                                  
C37  22877772.265   119130565.009        -563.227          49.000                                                                  
C07  38360820.075   199754857.777         705.105          41.000    38360803.474   154463064.142         545.382          45.000  
C13  41762831.903   217470027.800       -2327.753          36.000    41762863.645   168161755.086       -1800.054          38.000  
C20  24617077.839   128187583.039       -2114.966          46.000                                                                  
G18  25361557.642   133275886.960         943.213          38.000    25361551.168   103851306.666         734.848          39.000  
G28  24149770.997   126907901.503       -2975.021          41.000    24149763.557    98889233.948       -2318.047          42.000  
G03  25665126.441   134871150.861       -3024.378          33.000    25665141.089   105094381.581       -2356.653          39.000  
G26  21757084.483   114334252.014       -2211.714          46.000    21757076.783    89091592.570       -1723.381          45.000  
C10  39423673.737   205289415.056         661.975          38.000    39423662.091   158742749.228         511.560          43.000  
C28  23882188.887   124360823.925        1414.050          47.000                                                                  
C23  25124020.646   130827374.901       -2281.931          44.000                                                                  
C16  37175189.050   193580965.533          34.389          49.000    37175176.720   149689033.469          26.584          48.000  
C27  25386859.151   132196035.631        2774.221          40.000                                                                  
C19  25730648.255   133986243.157         358.084          40.000                                                                  
C09  37807060.045   196871284.449         193.358          45.000    37807044.477   152233305.397         149.361          48.000  
C11                                                                  27119824.834   109200295.317       -1955.201          43.000  
> 2025 10 28 08 26 44.3620000  0 24                     
G04  21672838.954   113891538.451         374.211          45.000    21672830.091    88746616.075         291.636          46.000  
G27  21764836.544   114374988.528        2482.304          46.000    21764828.598    89123339.103        1934.331          44.000  
G16  20661010.401   108574341.272        -312.023          47.000                                                                  
G08  23863992.350   125406127.542        3463.409          37.000    23863991.479    97719071.342        2699.158          39.000  
G09  23799600.535   125067747.350        2332.188          37.000    23799593.549    97455361.097        1816.929          36.000  
G31  21965914.513   115431660.114       -2071.410          46.000    21965903.946    89946700.286       -1614.279          44.000  
C06  36736101.837   191294504.788          34.936          47.000    36736084.111   147920987.160          26.739          49.000  
C32  26648156.561   138763886.310       -3573.488          38.000                                                                  
C37  22877776.535   119130587.553        -563.680          49.000                                                                  
C07  38360814.693   199754829.577         704.819          41.000    38360798.052   154463042.330         545.181          45.000  
C13  41762849.783   217470120.939       -2328.458          36.000    41762881.513   168161827.110       -1800.635          38.000  
C20  24617094.088   128187667.651       -2115.395          46.000                                                                  
G18  25361550.442   133275849.250         942.754          38.000    25361543.990   103851277.273         734.676          39.000  
G28  24149793.673   126908020.523       -2975.578          41.000    24149786.219    98889326.688       -2318.508          42.000  
G03  25665149.461   134871271.843       -3024.681          33.000    25665164.105   105094475.854       -2356.967          39.000  
G26  21757101.346   114334340.496       -2212.172          46.000    21757093.634    89091661.520       -1723.794          45.000  
C10  39423668.663   205289388.601         661.365          38.000    39423656.964   158742728.769         511.285          43.000  
C28  23882178.026   124360767.370        1413.677          47.000                                                                  
C23  25124038.184   130827466.197       -2282.419          43.000                                                                  
C16  37175188.795   193580964.169          33.968          49.000    37175176.487   149689032.412          26.292          48.000  
C27  25386837.845   132195924.663        2774.054          40.000                                                                  
C19  25730645.506   133986228.842         357.673          40.000                                                                  
C09  37807058.559   196871276.726         192.996          45.000    37807043.004   152233299.428         149.083          48.000  
C11                                                                  27119844.291   109200373.543       -1955.729          43.000  
> 2025 10 28 08 26 44.4020000  0 24                     
G04  21672836.097   113891523.470         374.196          45.000    21672827.225    88746604.403         291.562          46.000  
G27  21764817.672   114374889.239        2481.996          46.000    21764809.697    89123261.744        1933.903          44.000  
G16  20661012.765   108574353.751        -312.213          47.000                                                                  
G08  23863965.969   125405989.007        3463.174          37.000    23863965.125    97718963.405        2698.563          39.000  
G09  23799582.810   125067654.083        2331.680          37.000    23799575.819    97455288.428        1816.494          36.000  
G31  21965930.261   115431742.960       -2071.455          46.000    21965919.714    89946764.843       -1614.249          44.000  
C06  36736101.559   191294503.399          34.586          47.000    36736083.879   147920986.080          26.698          49.000  
C32  26648184.020   138764029.242       -3573.621          38.000                                                                  
C37  22877780.876   119130610.101        -563.933          49.000                                                                  
C07  38360809.293   199754801.371         704.837          41.000    38360792.631   154463020.532         544.885          45.000  
C13  41762867.665   217470214.043       -2328.108          36.000    41762899.363   168161899.118       -1800.580          38.000  
C20  24617110.335   128187752.258       -2115.478          46.000                                                                  
G18  25361543.269   133275811.526         942.807          38.000    25361536.819   103851247.887         734.475          39.000  
G28  24149816.319   126908139.528       -2975.469          41.000    24149808.863    98889419.428       -2318.696          42.000  
G03  25665172.470   134871392.798       -3024.227          33.000    25665187.110   105094570.121       -2356.984          39.000  
G26  21757118.162   114334428.970       -2212.186          46.000    21757110.451    89091730.464       -1723.833          45.000  
C10  39423663.549   205289362.149         661.078          38.000    39423651.866   158742708.308         511.298          43.000  
C28  23882167.165   124360710.818        1413.522          47.000                                                                  
C23  25124055.730   130827557.486       -2282.476          43.000                                                                  
C16  37175188.544   193580962.799          33.926          48.000    37175176.251   149689031.355          26.193          48.000  
C27  25386816.519   132195813.703        2773.841          40.000                                                                  
C19  25730642.762   133986214.517         357.725          40.000                                                                  
C09  37807057.097   196871269.001         192.889          45.000    37807041.536   152233293.457         149.032          48.000  
C11                                                                  27119863.726   109200451.765       -1955.818          43.000  
> 2025 10 28 08 26 44.4420000  0 24                     
G04  21672833.211   113891508.488         374.279          45.000    21672824.351    88746592.736         291.487          46.000  
G27  21764798.762   114374789.944        2482.023          46.000    21764790.788    89123184.370        1934.010          44.000  
G16  20661015.133   108574366.221        -312.072          47.000                                                                  
G08  23863939.593   125405850.473        3463.085          37.000    23863938.754    97718855.437        2698.886          39.000  
G09  23799565.082   125067560.825        2331.287          37.000    23799558.064    97455215.758        1816.390          36.000  
G31  21965946.009   115431825.811       -2071.454          46.000    21965935.491    89946829.402       -1614.200          44.000  
C06  36736101.286   191294502.008          34.518          47.000    36736083.594   147920985.000          26.737          49.000  
C32  26648211.460   138764172.152       -3573.094          38.000                                                                  
C37  22877785.224   119130632.643        -563.840          49.000                                                                  
C07  38360803.871   199754773.175         704.756          41.000    38360787.211   154462998.731         544.856          45.000  
C13  41762885.550   217470307.172       -2328.286          36.000    41762917.215   168161971.123       -1800.414          38.000  
C20  24617126.573   128187836.866       -2115.462          46.000                                                                  
G18  25361536.096   133275773.804         942.865          38.000    25361529.639   103851218.508         734.333          39.000  
G28  24149838.951   126908258.526       -2975.215          41.000    24149831.520    98889512.163       -2318.563          42.000  
G03  25665195.483   134871513.800       -3024.854          33.000    25665210.136   105094664.381       -2356.841          39.000  
G26  21757134.979   114334517.450       -2212.218          46.000    21757127.285    89091799.399       -1723.672          45.000  
C10  39423658.484   205289335.680         661.401          38.000    39423646.787   158742687.842         511.438          43.000  
C28  23882156.328   124360654.263        1413.602          47.000                                                                  
C23  25124073.273   130827648.766       -2282.288          43.000                                                                  
C16  37175188.308   193580961.424          34.093          49.000    37175175.971   149689030.296          26.253          48.000  
C27  25386795.207   132195702.762        2773.500          40.000                                                                  
C19  25730640.017   133986200.194         357.852          40.000                                                                  
C09  37807055.642   196871261.283         192.792          45.000    37807040.052   152233287.483         149.119          48.000  
C11                                                                  27119883.149   109200529.980       -1955.661          43.000  
> 2025 10 28 08 26 44.4820000  0 24                     
G04  21672830.361   113891493.514         374.243          45.000    21672821.494    88746581.064         291.602          46.000  
G27  21764779.865   114374690.641        2482.281          46.000    21764771.887    89123106.996        1934.125          44.000  
G16  20661017.522   108574378.685        -311.830          47.000                                                                  
G08  23863913.228   125405711.910        3463.637          37.000    23863912.365    97718747.490        2698.701          39.000  
G09  23799547.318   125067467.563        2331.224          37.000    23799540.325    97455143.063        1816.956          36.000  
G31  21965961.763   115431908.651       -2071.226          46.000    21965951.247    89946893.949       -1613.922          44.000  
C06  36736100.995   191294500.606          34.741          47.000    36736083.318   147920983.912          26.981          49.000  
C32  26648238.905   138764315.065       -3572.836          38.000                                                                  
C37  22877789.555   119130655.173        -563.525          49.000                                                                  
C07  38360798.470   199754744.963         705.034          41.000    38360781.792   154462976.925         545.009          45.000  
C13  41762903.417   217470400.302       -2328.383          36.000    41762935.113   168162043.134       -1800.382          38.000  
C20  24617142.819   128187921.474       -2115.362          46.000                                                                  
G18  25361528.937   133275736.106         942.499          38.000    25361522.456   103851189.120         734.503          39.000  
G28  24149861.590   126908377.536       -2975.257          41.000    24149854.159    98889604.894       -2318.409          42.000  
G03  25665218.498   134871634.780       -3024.840          33.000    25665233.166   105094758.642       -2356.653          39.000  
G26  21757151.789   114334605.922       -2212.030          46.000    21757144.135    89091868.342       -1723.665          45.000  
C10  39423653.387   205289309.221         661.371          38.000    39423641.702   158742667.374         511.621          43.000  
C28  23882145.468   124360597.697        1413.910          47.000                                                                  
C23  25124090.817   130827740.047       -2282.134          43.000                                                                  
C16  37175188.066   193580960.050          34.211          48.000    37175175.738   149689029.229          26.476          48.000  
C27  25386773.882   132195591.790        2773.937          40.000                                                                  
C19  25730637.265   133986185.866         358.004          40.000                                                                  
C09  37807054.149   196871253.543         193.185          45.000    37807038.568   152233281.498         149.438          48.000  
C11                                                                  27119902.590   109200608.182       -1955.290          43.000  
> 2025 10 28 08 26 44.5220000  0 24                     
G04  21672827.479   113891478.526         374.488          45.000    21672818.619    88746569.387         291.780          46.000  
G27  21764760.961   114374591.329        2482.624          46.000    21764752.978    89123029.610        1934.442          44.000  
G16  20661019.889   108574391.144        -311.579          47.000                                                                  
G08  23863886.875   125405573.355        3463.809          37.000    23863886.000    97718639.545        2698.578          39.000  
G09  23799529.563   125067374.274        2331.827          37.000    23799522.568    97455070.371        1817.198          36.000  
G31  21965977.519   115431991.488       -2071.050          46.000    21965967.004    89946958.495       -1613.733          44.000  
C06  36736100.680   191294499.191          35.133          47.000    36736083.058   147920982.821          27.170          49.000  
C32  26648266.367   138764457.958       -3572.382          38.000                                                                  
C37  22877793.926   119130677.703        -563.335          49.000                                                                  
C07  38360793.035   199754716.752         705.153          41.000    38360776.354   154462955.109         545.251          45.000  
C13  41762921.299   217470493.428       -2328.337          36.000    41762952.974   168162115.123       -1799.856          38.000  
C20  24617159.064   128188006.073       -2115.173          46.000                                                                  
G18  25361521.750   133275698.384         942.731          38.000    25361515.285   103851159.726         734.682          39.000  
G28  24149884.248   126908496.543       -2975.226          41.000    24149876.794    98889697.613       -2318.113          42.000  
G03  25665241.502   134871755.761       -3024.720          33.000    25665256.189   105094852.905       -2356.624          39.000  
G26  21757168.619   114334694.389       -2211.829          46.000    21757160.973    89091937.283       -1723.645          45.000  
C10  39423648.292   205289282.754         661.548          38.000    39423636.625   158742646.906         511.688          43.000  
C28  23882134.614   124360541.133        1414.059          47.000                                                                  
C23  25124108.334   130827831.327       -2282.030          43.000                                                                  
C16  37175187.810   193580958.662          34.530          48.000    37175175.501   149689028.166          26.527          48.000  
C27  25386752.539   132195480.823        2774.056          40.000                                                                  
C19  25730634.529   133986171.554         357.863          40.000                                                                  
C09  37807052.666   196871245.798         193.555          45.000    37807037.062   152233275.519         149.500          48.000  
C11                                                                  27119922.016   109200686.391       -1955.211          43.000  
> 2025 10 28 08 26 44.5620000  0 24                     
G04  21672824.626   113891463.549         374.418          45.000    21672815.770    88746557.714         291.810          46.000  
G27  21764742.052   114374492.028        2482.600          46.000    21764734.081    89122952.228        1934.541          44.000  
G16  20661022.246   108574403.614        -311.683          47.000                                                                  
G08  23863860.529   125405434.816        3463.653          37.000    23863859.627    97718531.583        2698.809          39.000  
G09  23799511.808   125067280.979        2332.229          37.000    23799504.807    97454997.687        1817.107          36.000  
G31  21965993.273   115432074.340       -2071.219          46.000    21965982.798    89947023.053       -1613.866          44.000  
C06  36736100.390   191294497.785          35.218          47.000    36736082.791   147920981.736          27.130          49.000  
C32  26648293.829   138764600.901       -3573.184          38.000                                                                  
C37  22877798.238   119130700.237        -563.347          49.000                                                                  
C07  38360787.604   199754688.551         705.062          41.000    38360770.963   154462933.292         545.380          45.000  
C13  41762939.170   217470586.541       -2328.013          36.000    41762970.846   168162187.125       -1799.885          38.000  
C20  24617175.310   128188090.680       -2115.176          46.000                                                                  
G18  25361514.535   133275660.650         943.104          38.000    25361508.087   103851130.322         735.007          39.000  
G28  24149906.920   126908615.548       -2975.171          41.000    24149899.446    98889790.341       -2318.133          42.000  
G03  25665264.514   134871876.747       -3024.653          33.000    25665279.204   105094947.160       -2356.484          39.000  
G26  21757185.423   114334782.855       -2211.687          46.000    21757177.817    89092006.229       -1723.696          45.000  
C10  39423643.234   205289256.276         661.792          38.000    39423631.578   158742626.436         511.755          43.000  
C28  23882123.748   124360484.574        1413.982          47.000                                                                  
C23  25124125.866   130827922.601       -2281.906          43.000                                                                  
C16  37175187.590   193580957.286          34.464          48.000    37175175.273   149689027.100          26.608          48.000  
C27  25386731.248   132195369.857        2774.104          40.000                                                                  
C19  25730631.783   133986157.234         357.904          40.000                                                                  
C09  37807051.192   196871238.077         193.246          45.000    37807035.590   152233269.538         149.528          48.000  
C11                                                                  27119941.445   109200764.607       -1955.342          43.000  
> 2025 10 28 08 26 44.6020000  0 24                     
G04  21672821.793   113891448.573         374.366          45.000    21672812.947    88746546.049         291.661          46.000  
G27  21764723.183   114374392.747        2482.211          45.000    21764715.180    89122874.872        1934.087          44.000  
G16  20661024.641   108574416.098        -312.010          47.000                                                                  
G08  23863834.165   125405296.288        3463.292          37.000    23863833.257    97718423.627        2698.846          39.000  
G09  23799494.051   125067187.707        2331.995          37.000    23799487.062    97454925.022        1816.746          36.000  
G31  21966009.022   115432157.189       -2071.256          46.000    21965998.550    89947087.615       -1614.053          44.000  
C06  36736100.107   191294496.388          35.069          47.000    36736082.515   147920980.654          27.082          49.000  
C32  26648321.281   138764743.837       -3573.487          38.000                                                                  
C37  22877802.551   119130722.780        -563.522          49.000                                                                  
C07  38360782.198   199754660.358         704.866          41.000    38360765.579   154462911.488         545.179          45.000  
C13  41762957.056   217470679.653       -2327.846          36.000    41762988.758   168162259.143       -1800.255          38.000  
C20  24617191.543   128188175.282       -2115.117          46.000                                                                  
G18  25361507.353   133275622.943         942.844          38.000    25361500.907   103851100.942         734.690          39.000  
G28  24149929.575   126908734.555       -2975.159          41.000    24149922.096    98889883.086       -2318.503          42.000  
G03  25665287.552   134871997.705       -3024.136          33.000    25665302.212   105095041.423       -2356.546          39.000  
G26  21757202.271   114334871.332       -2211.804          46.000    21757194.647    89092075.157       -1723.393          45.000  
C10  39423638.152   205289229.797         661.951          38.000    39423626.471   158742605.970         511.694          43.000  
C28  23882112.915   124360428.025        1413.796          47.000                                                                  
C23  25124143.392   130828013.901       -2282.312          43.000                                                                  
C16  37175187.328   193580955.924          34.165          48.000    37175175.018   149689026.042          26.495          48.000  
C27  25386709.933   132195258.898        2774.058          40.000                                                                  
C19  25730629.024   133986142.914         357.936          40.000                                                                  
C09  37807049.723   196871230.352         193.151          45.000    37807034.112   152233263.563         149.428          48.000  
C11                                                                  27119960.855   109200842.831       -1955.545          43.000  
> 2025 10 28 08 26 44.6420000  0 24                     
G04  21672818.947   113891433.603         374.251          45.000    21672810.098    88746534.383         291.605          46.000  
G27  21764704.295   114374293.450        2482.292          46.000    21764696.279    89122797.491        1934.325          44.000  
G16  20661027.013   108574428.573        -311.981          47.000                                                                  
G08  23863807.806   125405157.735        3463.568          37.000    23863806.888    97718315.657        2699.068          39.000  
G09  23799476.315   125067094.427        2332.020          37.000    23799469.292    97454852.343        1816.792          36.000  
G31  21966024.788   115432240.043       -2071.345          46.000    21966014.299    89947152.176       -1614.098          44.000  
C06  36736099.832   191294494.987          35.050          47.000    36736082.261   147920979.575          26.982          49.000  
C32  26648348.719   138764886.758       -3573.220          38.000                                                                  
C37  22877806.889   119130745.317        -563.501          49.000                                                                  
C07  38360776.786   199754632.145         705.168          41.000    38360760.135   154462889.684         545.104          45.000  
C13  41762974.929   217470772.757       -2327.580          36.000    41763006.637   168162331.156       -1800.404          38.000  
C20  24617207.769   128188259.892       -2115.185          46.000                                                                  
G18  25361500.166   133275585.221         942.916          38.000    25361493.736   103851071.558         734.546          39.000  
G28  24149952.215   126908853.560       -2975.128          41.000    24149944.734    98889975.828       -2318.607          42.000  
G03  25665310.573   134872118.657       -3023.829          33.000    25665325.251   105095135.708       -2356.958          39.000  
G26  21757219.112   114334959.810       -2211.877          46.000    21757211.487    89092144.093       -1723.332          45.000  
C10  39423633.063   205289203.347         661.462          38.000    39423621.379   158742585.504         511.688          43.000  
C28  23882102.069   124360371.468        1413.841          47.000                                                                  
C23  25124160.905   130828105.194       -2282.396          43.000                                                                  
C16  37175187.085   193580954.557          34.121          48.000    37175174.755   149689024.982          26.476          48.000  
C27  25386688.637   132195147.938        2773.991          40.000                                                                  
C19  25730626.280   133986128.602         357.814          40.000                                                                  
C09  37807048.262   196871222.624         193.146          45.000    37807032.624   152233257.593         149.275          48.000  
C11                                                                  27119980.298   109200921.044       -1955.476          43.000  
> 2025 10 28 08 26 44.6820000  0 24                     
G04  21672816.094   113891418.626         374.343          45.000    21672807.232    88746522.721         291.529          46.000  
G27  21764685.410   114374194.146        2482.469          46.000    21764677.378    89122720.117        1934.338          44.000  
G16  20661029.374   108574441.040        -311.810          47.000                                                                  
G08  23863781.429   125405019.193        3463.523          37.000    23863780.529    97718207.714        2698.699          39.000  
G09  23799458.548   125067001.167        2331.620          37.000    23799451.545    97454779.663        1816.811          36.000  
G31  21966040.561   115432322.880       -2071.121          46.000    21966030.076    89947216.734       -1614.047          44.000  
C06  36736099.568   191294493.588          34.961          47.000    36736081.989   147920978.490          27.029          49.000  
C32  26648376.185   138765029.669       -3572.906          38.000                                                                  
C37  22877811.233   119130767.852        -563.455          49.000                                                                  
C07  38360771.362   199754603.941         705.146          41.000    38360754.707   154462867.875         545.144          45.000  
C13  41762992.816   217470865.877       -2327.878          36.000    41763024.538   168162403.158       -1800.228          38.000  
C20  24617224.004   128188344.499       -2115.218          46.000                                                                  
G18  25361492.990   133275547.511         942.834          38.000    25361486.552   103851042.160         734.760          39.000  
G28  24149974.868   126908972.569       -2975.227          41.000    24149967.375    98890068.556       -2318.384          42.000  
G03  25665333.592   134872239.633       -3024.050          33.000    25665348.270   105095229.965       -2356.664          39.000  
G26  21757235.957   114335048.287       -2211.943          46.000    21757228.333    89092213.043       -1723.599          45.000  
C10  39423627.978   205289176.888         661.359          38.000    39423616.298   158742565.050         511.401          43.000  
C28  23882091.224   124360314.911        1413.885          47.000                                                                  
C23  25124178.429   130828196.473       -2282.192          43.000                                                                  
C16  37175186.831   193580953.182          34.243          48.000    37175174.491   149689023.914          26.587          48.000  
C27  25386667.327   132195036.978        2773.961          40.000                                                                  
C19  25730623.529   133986114.284         357.849          40.000                                                                  
C09  37807046.774   196871214.891         193.229          45.000    37807031.153   152233251.617         149.310          48.000  
C11                                                                  27119999.728   109200999.262       -1955.494          43.000  
> 2025 10 28 08 26 44.7220000  0 24                     
G04  21672813.250   113891403.662         374.155          45.000    21672804.381    88746511.050         291.640          46.000  
G27  21764666.536   114374094.852        2482.399          46.000    21764658.472    89122642.747        1934.290          44.000  
G16  20661031.729   108574453.523        -311.999          47.000                                                                  
G08  23863755.032   125404880.642        3463.667          37.000    23863754.160    97718099.766        2698.602          39.000  
G09  23799440.788   125066907.903        2331.467          37.000    23799433.774    97454706.976        1817.042          36.000  
G31  21966056.345   115432405.736       -2071.316          46.000    21966045.851    89947281.291       -1613.984          44.000  
C06  36736099.278   191294492.199          34.774          47.000    36736081.714   147920977.413          26.909          49.000  
C32  26648403.646   138765172.581       -3572.758          38.000                                                                  
C37  22877815.534   119130790.399        -563.635          49.000                                                                  
C07  38360765.941   199754575.740         705.037          41.000    38360749.268   154462846.076         544.985          45.000  
C13  41763010.682   217470959.007       -2328.188          36.000    41763042.419   168162475.170       -1800.284          38.000  
C20  24617240.224   128188429.123       -2115.503          46.000                                                                  
G18  25361485.803   133275509.802         942.723          38.000    25361479.383   103851012.787         734.417          39.000  
G28  24149997.518   126909091.587       -2975.418          41.000    24149990.029    98890161.295       -2318.495          42.000  
G03  25665356.629   134872360.631       -3024.690          33.000    25665371.310   105095324.245       -2356.864          39.000  
G26  21757252.798   114335136.768       -2212.047          46.000    21757245.175    89092281.987       -1723.632          45.000  
C10  39423622.907   205289150.437         661.224          38.000    39423611.235   158742544.595         511.328          43.000  
C28  23882080.368   124360258.350        1413.990          47.000                                                                  
C23  25124195.947   130828287.764       -2282.231          43.000                                                                  
C16  37175186.582   193580951.807          34.334          48.000    37175174.232   149689022.854          26.534          48.000  
C27  25386645.993   132194926.021        2773.910          40.000                                                                  
C19  25730620.777   133986099.968         357.851          40.000                                                                  
C09  37807045.271   196871207.171         193.037          45.000    37807029.669   152233245.646         149.235          48.000  
C11                                                                  27120019.142   109201077.482       -1955.531          43.000  
> 2025 10 28 08 26 44.7620000  0 24                     
G04  21672810.422   113891388.702         373.940          45.000    21672801.505    88746499.386         291.608          46.000  
G27  21764647.633   114373995.578        2481.979          46.000    21764639.573    89122565.387        1934.073          44.000  
G16  20661034.119   108574465.998        -311.960          47.000                                                                  
G08  23863728.680   125404742.105        3463.504          37.000    23863727.813    97717991.821        2698.586          39.000  
G09  23799423.057   125066814.639        2331.458          37.000    23799416.020    97454634.300        1816.973          36.000  
G31  21966072.132   115432488.599       -2071.563          46.000    21966061.593    89947345.857       -1614.111          44.000  
C06  36736099.035   191294490.804          34.772          47.000    36736081.413   147920976.341          26.741          49.000  
C32  26648431.118   138765315.515       -3573.093          38.000                                                                  
C37  22877819.858   119130812.946        -563.748          49.000                                                                  
C07  38360760.529   199754547.544         704.897          41.000    38360743.868   154462824.268         545.064          45.000  
C13  41763028.585   217471052.147       -2328.470          36.000    41763060.290   168162547.165       -1800.053          38.000  
C20  24617256.470   128188513.744       -2115.627          46.000                                                                  
G18  25361478.646   133275472.102         942.520          38.000    25361472.212   103850983.419         734.130          39.000  
G28  24150020.168   126909210.607       -2975.553          41.000    24150012.681    98890254.033       -2318.539          42.000  
G03  25665379.678   134872481.618       -3024.869          33.000    25665394.313   105095418.518       -2356.922          39.000  
G26  21757269.642   114335225.256       -2212.210          46.000    21757262.019    89092350.943       -1723.856          45.000  
C10  39423617.833   205289123.987         661.176          38.000    39423606.134   158742524.140         511.273          43.000  
C28  23882069.495   124360201.808        1413.628          47.000                                                                  
C23  25124213.482   130828379.055       -2282.312          43.000                                                                  
C16  37175186.361   193580950.441          34.215          48.000    37175173.994   149689021.801          26.365          48.000  
C27  25386624.686   132194815.058        2773.978          40.000                                                                  
C19  25730618.030   133986085.662         357.669          40.000                                                                  
C09  37807043.795   196871199.449         192.969          45.000    37807028.199   152233239.671         149.287          48.000  
C11                                                                  27120038.546   109201155.704       -1955.624          43.000  
> 2025 10 28 08 26 44.8020000  0 24                     
G04  21672807.585   113891373.754         373.637          45.000    21672798.679    88746487.742         291.229          46.000  
G27  21764628.761   114373896.309        2481.651          46.000    21764620.686    89122488.035        1933.793          44.000  
G16  20661036.515   108574478.499        -312.418          47.000                                                                  
G08  23863702.328   125404603.594        3462.895          37.000    23863701.445    97717883.877        2698.537          39.000  
G09  23799405.298   125066721.377        2331.497          37.000    23799398.289    97454561.643        1816.543          36.000  
G31  21966087.913   115432571.474       -2071.910          46.000    21966077.379    89947410.437       -1614.452          44.000  
C06  36736098.757   191294489.420          34.571          47.000    36736081.135   147920975.272          26.615          49.000  
C32  26648458.568   138765458.479       -3573.930          38.000                                                                  
C37  22877824.162   119130835.510        -564.076          49.000                                                                  
C07  38360755.096   199754519.364         704.546          41.000    38360738.427   154462802.483         544.717          45.000  
C13  41763046.449   217471145.286       -2328.572          36.000    41763078.181   168162619.193       -1800.552          38.000  
C20  24617272.704   128188598.374       -2115.830          46.000                                                                  
G18  25361471.476   133275434.411         942.287          38.000    25361465.069   103850954.060         733.926          39.000  
G28  24150042.827   126909329.641       -2975.835          41.000    24150035.315    98890346.785       -2318.797          42.000  
G03  25665402.709   134872602.610       -3024.932          33.000    25665417.344   105095512.806       -2357.190          39.000  
G26  21757286.486   114335313.750       -2212.414          46.000    21757278.861    89092419.900       -1724.000          45.000  
C10  39423612.773   205289097.530         661.285          38.000    39423601.060   158742503.698         511.005          43.000  
C28  23882058.641   124360145.283        1413.164          47.000                                                                  
C23  25124230.993   130828470.363       -2282.618          43.000                                                                  
C16  37175186.117   193580949.085          33.922          48.000    37175173.750   149689020.763          25.990          48.000  
C27  25386603.389   132194704.117        2773.618          40.000                                                                  
C19  25730615.304   133986071.362         357.480          40.000                                                                  
C09  37807042.315   196871191.746         192.601          45.000    37807026.713   152233233.702         149.204          48.000  
C11                                                                  27120057.993   109201233.938       -1955.857          43.000  
> 2025 10 28 08 26 44.8420000  0 24                     
G04  21672804.755   113891358.813         373.438          45.000    21672795.819    88746476.105         290.904          46.000  
G27  21764609.876   114373797.042        2481.506          45.000    21764601.817    89122410.696        1933.462          44.000  
G16  20661038.910   108574491.003        -312.657          47.000                                                                  
G08  23863675.954   125404465.088        3462.571          37.000    23863675.088    97717775.960        2697.958          39.000  
G09  23799387.562   125066628.136        2331.055          37.000    23799380.562    97454488.982        1816.480          37.000  
G31  21966103.673   115432654.348       -2072.018          46.000    21966093.171    89947475.011       -1614.507          44.000  
C06  36736098.491   191294488.046          34.334          47.000    36736080.884   147920974.207          26.556          49.000  
C32  26648486.005   138765601.425       -3573.893          38.000                                                                  
C37  22877828.478   119130858.072        -564.182          49.000                                                                  
C07  38360749.690   199754491.197         704.220          41.000    38360733.057   154462780.692         544.705          45.000  
C13  41763064.316   217471238.415       -2328.458          36.000    41763096.056   168162691.218       -1800.654          38.000  
C20  24617288.945   128188683.015       -2116.066          46.000                                                                  
G18  25361464.316   133275396.740         941.856          38.000    25361457.899   103850924.688         734.027          39.000  
G28  24150065.495   126909448.678       -2975.993          41.000    24150057.964    98890439.528       -2318.703          42.000  
G03  25665425.734   134872723.607       -3025.028          33.000    25665440.376   105095607.098       -2357.354          39.000  
G26  21757303.348   114335402.261       -2212.746          46.000    21757295.686    89092488.867       -1724.216          45.000  
C10  39423607.682   205289071.082         661.182          38.000    39423595.983   158742483.242         511.169          43.000  
C28  23882047.775   124360088.762        1412.902          47.000                                                                  
C23  25124248.538   130828561.664       -2282.651          43.000                                                                  
C16  37175185.878   193580947.746          33.535          48.000    37175173.527   149689019.723          25.866          48.000  
C27  25386582.066   132194593.205        2772.958          40.000                                                                  
C19  25730612.567   133986057.083         357.078          40.000                                                                  
C09  37807040.848   196871184.038         192.573          45.000    37807025.256   152233227.752         148.817          48.000  
C11                                                                  27120077.423   109201312.181       -1956.102          43.000  
> 2025 10 28 08 26 44.8820000  0 24                     
G04  21672801.925   113891343.859         373.603          45.000    21672792.970    88746464.454         291.021          46.000  
G27  21764590.991   114373697.761        2481.752          45.000    21764582.921    89122333.322        1933.961          44.000  
G16  20661041.298   108574503.485        -312.330          47.000                                                                  
G08  23863649.571   125404326.544        3463.224          37.000    23863648.738    97717667.997        2698.573          39.000  
G09  23799369.799   125066534.873        2331.346          37.000    23799362.820    97454416.312        1816.568          37.000  
G31  21966119.426   115432737.211       -2071.799          46.000    21966108.936    89947539.589       -1614.563          44.000  
C06  36736098.236   191294486.658          34.468          47.000    36736080.627   147920973.128          26.804          49.000  
C32  26648513.440   138765744.344       -3573.354          38.000                                                                  
C37  22877832.806   119130880.616        -563.847          49.000                                                                  
C07  38360744.254   199754462.997         704.659          41.000    38360727.658   154462758.888         544.928          45.000  
C13  41763082.171   217471331.519       -2327.816          36.000    41763113.933   168162763.235       -1800.533          38.000  
C20  24617305.194   128188767.640       -2115.869          46.000                                                                  
G18  25361457.125   133275359.041         942.148          38.000    25361450.729   103850895.295         734.590          39.000  
G28  24150088.154   126909567.683       -2975.431          41.000    24150080.619    98890532.275       -2318.702          42.000  
G03  25665448.773   134872844.603       -3024.965          33.000    25665463.387   105095701.356       -2356.838          39.000  
G26  21757320.181   114335490.741       -2212.361          46.000    21757312.509    89092557.806       -1723.804          45.000  
C10  39423602.609   205289044.623         661.395          38.000    39423590.915   158742462.775         511.511          43.000  
C28  23882036.917   124360032.218        1413.286          47.000                                                                  
C23  25124266.072   130828652.963       -2282.577          43.000                                                                  
C16  37175185.654   193580946.379          33.857          48.000    37175173.298   149689018.664          26.203          48.000  
C27  25386560.781   132194482.245        2773.516          40.000                                                                  
C19  25730609.836   133986042.792         357.096          40.000                                                                  
C09  37807039.341   196871176.313         192.886          45.000    37807023.814   152233221.783         149.017          48.000  
C11                                                                  27120096.848   109201390.406       -1955.854          43.000  
> 2025 10 28 08 26 44.9220000  0 24                     
G04  21672799.076   113891328.890         373.992          45.000    21672790.111    88746452.789         291.410          46.000  
G27  21764572.093   114373598.484        2481.832          45.000    21764564.029    89122255.961        1934.045          44.000  
G16  20661043.661   108574515.969        -312.174          47.000                                                                  
G08  23863623.191   125404187.999        3463.475          37.000    23863622.356    97717560.045        2698.752          39.000  
G09  23799352.035   125066441.600        2331.657          37.000    23799345.078    97454343.640        1816.667          37.000  
G31  21966135.188   115432820.066       -2071.527          46.000    21966124.699    89947604.148       -1614.241          44.000  
C06  36736097.961   191294485.259          34.779          47.000    36736080.331   147920972.048          26.955          49.000  
C32  26648540.912   138765887.270       -3573.232          38.000                                                                  
C37  22877837.154   119130903.160        -563.656          49.000                                                                  
C07  38360738.838   199754434.800         704.847          41.000    38360722.261   154462737.081         545.105          45.000  
C13  41763100.048   217471424.644       -2327.844          36.000    41763131.828   168162835.245       -1800.333          38.000  
C20  24617321.422   128188852.253       -2115.516          46.000                                                                  
G18  25361449.923   133275321.334         942.467          38.000    25361443.543   103850865.902         734.860          39.000  
G28  24150110.794   126909686.706       -2975.519          41.000    24150103.286    98890625.017       -2318.610          42.000  
G03  25665471.805   134872965.585       -3024.656          33.000    25665486.419   105095795.617       -2356.594          39.000  
G26  21757336.992   114335579.217       -2212.051          46.000    21757329.321    89092626.757       -1723.811          45.000  
C10  39423597.525   205289018.170         661.414          38.000    39423585.851   158742442.327         511.346          43.000  
C28  23882026.058   124359975.667        1413.622          47.000                                                                  
C23  25124283.598   130828744.260       -2282.511          43.000                                                                  
C16  37175185.428   193580945.003          34.244          48.000    37175173.049   149689017.596          26.568          48.000  
C27  25386539.464   132194371.284        2773.923          40.000                                                                  
C19  25730607.099   133986028.481         357.484          40.000                                                                  
C09  37807037.872   196871168.584         193.159          45.000    37807022.330   152233215.812         149.152          48.000  
C11                                                                  27120116.281   109201468.629       -1955.688          43.000  
> 2025 10 28 08 26 44.9620000  0 24                     
G04  21672796.234   113891313.938         373.889          45.000    21672787.275    88746441.126         291.539          46.000  
G27  21764553.179   114373499.205        2481.896          45.000    21764545.152    89122178.601        1934.039          44.000  
G16  20661046.053   108574528.463        -312.301          47.000                                                                  
G08  23863596.814   125404049.476        3463.128          37.000    23863595.989    97717452.107        2698.520          39.000  
G09  23799334.228   125066348.326        2331.835          37.000    23799327.337    97454270.970        1816.673          36.000  
G31  21966150.947   115432902.928       -2071.527          46.000    21966140.469    89947668.709       -1614.110          44.000  
C06  36736097.691   191294483.871          34.751          47.000    36736080.058   147920970.978          26.842          49.000  
C32  26648568.372   138766030.188       -3573.002          38.000                                                                  
C37  22877841.462   119130925.716        -563.816          49.000                                                                  
C07  38360733.446   199754406.604         704.873          41.000    38360716.819   154462715.292         544.841          45.000  
C13  41763117.931   217471517.784       -2328.365          36.000    41763149.709   168162907.259       -1800.316          38.000  
C20  24617337.668   128188936.871       -2115.439          46.000                                                                  
G18  25361442.725   133275283.640         942.338          38.000    25361436.356   103850836.556         734.019          39.000  
G28  24150133.445   126909805.734       -2975.679          41.000    24150125.941    98890717.762       -2318.585          42.000  
G03  25665494.809   134873086.571       -3024.543          33.000    25665509.436   105095889.904       -2356.964          39.000  
G26  21757353.833   114335667.702       -2212.048          46.000    21757346.167    89092695.707       -1723.802          45.000  
C10  39423592.432   205288991.728         661.169          38.000    39423580.769   158742421.878         511.206          43.000  
C28  23882015.187   124359919.127        1413.588          47.000                                                                  
C23  25124301.120   130828835.558       -2282.484          43.000                                                                  
C16  37175185.153   193580943.646          34.070          48.000    37175172.746   149689016.541          26.484          48.000  
C27  25386518.163   132194260.324        2774.046          40.000                                                                  
C19  25730604.349   133986014.193         357.305          40.000                                                                  
C09  37807036.386   196871160.865         193.062          45.000    37807020.841   152233209.842         149.181          48.000  
C11                                                                  27120135.719   109201546.843       -1955.430          43.000  
