     3.04           OBSERVATION DATA    M: Mixed            RINEX VERSION / TYPE
RTKCONV 2.4.3 b34                       20251028 084342 UTC PGM / RUN BY / DATE 
format: u-blox UBX                                          COMMENT             
log: D:\GPdata\10_28_2\fingure_up_place_phone_10_28_3.ubx   COMMENT             
                                                            MARKER NAME         
                                                            MARKER NUMBER       
                                                            MARKER TYPE         
                                                            OBSERVER / AGENCY   
                                                            REC # / TYPE / VERS 
                                                            ANT # / TYPE        
        0.0000        0.0000        0.0000                  APPROX POSITION XYZ 
        0.0000        0.0000        0.0000                  ANTENNA: DELTA H/E/N
G    8 C1C L1C D1C S1C C2L L2L D2L S2L                      SYS / # / OBS TYPES 
C    8 C2I L2I D2I S2I C7I L7I D7I S7I                      SYS / # / OBS TYPES 
  2025    10    28    08    30   50.3620000     GPS         TIME OF FIRST OBS   
  2025    10    28    08    31   11.1620000     GPS         TIME OF LAST OBS    
G L1C                                                       SYS / PHASE SHIFT   
G L2L  0.00000                                              SYS / PHASE SHIFT   
C L2I                                                       SYS / PHASE SHIFT   
C L7I                                                       SYS / PHASE SHIFT   
  0                                                         GLONASS SLOT / FRQ #
 C1C    0.000 C1P    0.000 C2C    0.000 C2P    0.000        GLONASS COD/PHS/BIS 
                                                            END OF HEADER       
> 2025 10 28 08 30 50.3620000  0 24                     
G04  21659143.278   113819567.4241        207.926          45.000    21659134.094    88690534.9821        161.968          46.000  
G27  21651511.255   113779462.0231       2355.928          47.000    21651503.190    88659293.3781       1835.587          44.000  
G16  20678072.706   108664006.1411       -419.257          46.000                                                                  
G08  23702927.880   124559752.3571       3414.197          37.000    23702926.413    97059563.0661       2660.095          40.000  
G09  23692988.094   124507493.2511       2219.455          41.000    23692980.975    97018799.6931       1729.416          39.000  
G31  22064767.607   115951132.8701      -2154.670          47.000    22064756.400    90351484.0851      -1678.887          44.000  
C06  36734379.471   191285539.2141         35.452          47.000    36734361.815   147914054.5991         27.583          48.000  
C32  26816640.916                       -3561.160          34.000                                                                  
C37  22905337.740   119274108.4691       -605.856          49.000                                                                  
C07  38328001.205   199583961.6301        681.619          42.000    38327984.054   154330917.1661        527.164          46.000  
C13  41872253.611                       -2305.713          35.000    41872285.908   168602397.6011      -1783.194          39.000  
C20  24719444.035   128720632.5131      -2219.494          46.000                                                                  
G18  25319845.400   133056686.2371        835.024          38.000    25319836.863   103680501.5441        651.295          39.000  
G28  24290412.950   127646979.5641      -3035.175          39.000    24290405.826    99465138.2531      -2365.131          41.000  
G03  25806766.302                       -3027.207          33.000    25806784.615   105674332.1671      -2358.618          38.000  
G26  21861845.775   114884774.5691      -2265.080          47.000    21861836.607    89520571.1141      -1765.073          44.000  
C10  39392810.277   205128705.5651        641.852          39.000    39392798.440   158618479.4431        496.393          43.000  
C28  23817807.384   124025577.2511       1307.885          47.000                                                                  
C23  25232313.932   131391285.4401      -2304.241          42.000                                                                  
C16  37173505.445   193572200.2751         34.501          48.000    37173493.558   149682255.8401         26.753          49.000  
C27  25256167.389   131515507.0311       2754.922          40.000                                                                  
C19  25716875.880                1        226.897          31.000                                                                  
C09  37797642.725   196822247.6441        202.770          45.000    37797627.583   152195387.3751        156.858          48.000  
C11                                                                  27241434.695   109689971.2721      -2026.403          41.000  
> 2025 10 28 08 30 50.4020000  0 24                     
G04  21659141.704   113819559.173         206.176          45.000    21659132.548    88690528.564         160.393          46.000  
G27  21651493.348   113779367.858        2354.074          47.000    21651485.273    88659220.011        1834.061          44.000  
G16  20678075.902   108664022.975        -421.015          46.000                                                                  
G08  23702901.908   124559615.889        3411.736          37.000    23702900.446    97059456.702        2658.805          40.000  
G09  23692971.209   124507404.527        2217.861          41.000    23692964.081    97018730.560        1728.055          39.000  
G31  22064784.029   115951219.123       -2156.437          47.000    22064772.823    90351551.302       -1680.470          44.000  
C06  36734379.200   191285537.868          33.591          47.000    36734361.577   147914053.570          25.857          48.000  
C32  26816668.282                       -3562.919          34.000                                                                  
C37  22905342.411   119274132.775        -607.759          49.000                                                                  
C07  38327995.974   199583934.432         679.821          42.000    38327978.872   154330896.142         525.555          46.000  
C13  41872271.344                       -2308.442          35.000    41872303.654   168602468.967       -1784.248          39.000  
C20  24719461.087   128720721.362       -2221.303          46.000                                                                  
G18  25319839.054   133056652.870         833.648          38.000    25319830.518   103680475.566         649.551          39.000  
G28  24290436.075   127647101.012       -3036.554          39.000    24290428.947    99465232.903       -2366.510          41.000  
G03  25806789.368                       -3028.842          33.000    25806807.688   105674426.577       -2360.276          38.000  
G26  21861863.049   114884865.247       -2266.993          47.000    21861853.853    89520641.782       -1766.715          43.000  
C10  39392805.364   205128679.925         640.546          39.000    39392793.530   158618459.627         495.123          43.000  
C28  23817797.365   124025525.004        1305.969          47.000                                                                  
C23  25232331.670   131391377.673       -2305.945          42.000                                                                  
C16  37173505.176   193572198.963          32.742          48.000    37173493.357   149682254.836          25.145          49.000  
C27  25256146.263   131515396.921        2752.849          40.000                                                                  
C19  25716874.143                3        224.166          30.000                                                                  
C09  37797641.180   196822239.595         201.031          45.000    37797626.006   152195381.161         155.295          48.000  
C11                                                                  27241454.867   109690052.390       -2028.005          41.000  
> 2025 10 28 08 30 50.4420000  0 24                     
G04  21659140.154   113819550.938         205.270          45.000    21659130.982    88690522.153         159.650          46.000  
G27  21651475.448   113779273.709        2353.068          47.000    21651467.368    88659146.642        1833.569          44.000  
G16  20678079.099   108664039.822        -421.819          46.000                                                                  
G08  23702875.940   124559479.402        3411.193          37.000    23702874.484    97059350.360        2658.022          40.000  
G09  23692954.329   124507315.802        2217.406          41.000    23692947.210    97018661.440        1727.460          39.000  
G31  22064800.464   115951305.388       -2157.310          47.000    22064789.235    90351618.530       -1681.274          44.000  
C06  36734378.946   191285536.533          32.722          47.000    36734361.364   147914052.542          25.132          48.000  
C32  26816695.647                       -3562.695          34.000                                                                  
C37  22905347.078   119274157.082        -608.463          49.000                                                                  
C07  38327990.768   199583907.231         679.268          42.000    38327973.658   154330875.114         525.097          46.000  
C13  41872289.086                       -2308.193          35.000    41872321.381   168602540.348       -1784.873          39.000  
C20  24719478.167   128720810.219       -2222.136          46.000                                                                  
G18  25319832.701   133056619.508         833.224          38.000    25319824.169   103680449.591         648.790          39.000  
G28  24290459.195   127647222.477       -3037.305          39.000    24290452.081    99465327.551       -2366.870          41.000  
G03  25806812.420                       -3029.443          33.000    25806830.741   105674520.986       -2360.879          38.000  
G26  21861880.320   114884955.936       -2267.894          47.000    21861871.135    89520712.449       -1767.320          43.000  
C10  39392800.452   205128654.287         640.186          39.000    39392788.618   158618439.818         494.635          43.000  
C28  23817787.341   124025472.746        1305.598          47.000                                                                  
C23  25232349.404   131391469.926       -2306.931          42.000                                                                  
C16  37173504.916   193572197.663          31.890          48.000    37173493.117   149682253.839          24.392          49.000  
C27  25256125.098   131515286.807        2752.149          40.000                                                                  
C19  25716872.749                3        222.793          30.000                                                                  
C09  37797639.642   196822231.548         200.425          45.000    37797624.488   152195374.947         154.728          48.000  
C11                                                                  27241475.004   109690133.477       -2027.938          41.000  
> 2025 10 28 08 30 50.4820000  0 24                     
G04  21659138.571   113819542.635         206.271          45.000    21659129.415    88690515.668         160.895          46.000  
G27  21651457.527   113779179.475        2354.376          47.000    21651449.416    88659073.214        1834.595          44.000  
G16  20678082.304   108664056.578        -420.171          46.000                                                                  
G08  23702849.938                        3413.439          37.000    23702848.505    97059243.940        2659.462          40.000  
G09  23692937.417   124507227.016        2218.645          41.000    23692930.312    97018592.255        1728.553          39.000  
G31  22064816.868   115951391.570       -2155.956          47.000    22064805.656    90351685.682       -1680.061          44.000  
C06  36734378.675   191285535.133          33.704          47.000    36734361.120   147914051.453          26.069          48.000  
C32  26816723.000                       -3561.517          34.000                                                                  
C37  22905351.722   119274181.309        -606.993          49.000                                                                  
C07  38327985.527   199583879.982         680.182          42.000    38327968.437   154330854.030         526.158          46.000  
C13  41872306.790                       -2306.970          35.000    41872339.098   168602611.708       -1784.585          39.000  
C20  24719495.210   128720899.003       -2220.983          46.000                                                                  
G18  25319826.353   133056586.083         834.418          38.000    25319817.793   103680423.553         649.781          39.000  
G28  24290482.297   127647343.866       -3035.815          39.000    24290475.199    99465422.145       -2365.668          41.000  
G03  25806835.490                       -3027.526          33.000    25806853.782   105674615.339       -2359.873          38.000  
G26  21861897.587   114885046.550       -2266.752          47.000    21861888.405    89520783.056       -1766.317          43.000  
C10  39392795.536   205128628.604         641.113          39.000    39392783.697   158618419.946         495.837          43.000  
C28  23817777.276   124025420.427        1306.849          47.000                                                                  
C23  25232367.096   131391562.084       -2305.369          42.000                                                                  
C16  37173504.605   193572196.296          32.915          48.000    37173492.899   149682252.778          25.371          49.000  
C27  25256103.953   131515176.647        2752.921          40.000                                                                  
C19  25716870.819                3        221.761          31.000                                                                  
C09  37797638.083   196822223.415         202.006          45.000    37797622.906   152195368.671         155.859          48.000  
C11                                                                  27241495.138   109690214.553       -2027.439          41.000  
> 2025 10 28 08 30 50.5220000  0 24                     
G04  21659136.980   113819534.291         207.725          45.000    21659127.833    88690509.163         162.048          46.000  
G27  21651439.593   113779085.221        2355.623          47.000    21651431.459    88658999.768        1835.582          44.000  
G16  20678085.495   108664073.342        -419.363          46.000                                                                  
G08  23702823.954                        3414.784          37.000    23702822.495    97059137.490        2660.741          40.000  
G09  23692920.520   124507138.235        2219.343          41.000    23692913.413    97018523.051        1729.707          39.000  
G31  22064833.264   115951477.733       -2154.713          47.000    22064822.051    90351752.813       -1678.894          44.000  
C06  36734378.359   191285533.686          35.264          47.000    36734360.838   147914050.337          27.216          48.000  
C32  26816750.344                       -3560.327          34.000                                                                  
C37  22905356.346   119274205.517        -605.756          49.000                                                                  
C07  38327980.254   199583852.685         681.746          42.000    38327963.187   154330832.930         527.112          46.000  
C13  41872324.511                       -2306.335          35.000    41872356.803   168602683.023       -1783.396          39.000  
C20  24719512.225   128720987.756       -2219.605          46.000                                                                  
G18  25319819.975   133056552.639         835.540          38.000    25319811.421   103680397.482         651.104          39.000  
G28  24290505.393   127647465.251       -3034.875          39.000    24290498.279    99465516.713       -2364.569          41.000  
G03  25806858.534                       -3026.794          33.000    25806876.800   105674709.652       -2358.490          38.000  
G26  21861914.812   114885137.130       -2265.370          47.000    21861905.646    89520853.639       -1765.154          43.000  
C10  39392790.605   205128602.894         642.273          38.000    39392778.754   158618400.062         496.790          43.000  
C28  23817767.218   124025368.084        1308.070          47.000                                                                  
C23  25232384.775   131391654.221       -2304.015          42.000                                                                  
C16  37173504.309   193572194.894          34.265          48.000    37173492.654   149682251.692          26.498          49.000  
C27  25256082.772   131515066.437        2754.417          40.000                                                                  
C19  25716868.830                3        221.585          30.000                                                                  
C09  37797636.509   196822215.280         202.984          45.000    37797621.337   152195362.365         157.104          48.000  
C11                                                                  27241515.282   109690295.601       -2026.600          41.000  
> 2025 10 28 08 30 50.5620000  0 24                     
G04  21659135.345   113819525.997         207.552          45.000    21659126.244    88690502.698         161.855          46.000  
G27  21651421.662   113778991.007        2355.536          47.000    21651413.526    88658926.349        1835.572          44.000  
G16  20678088.705   108664090.148        -419.826          46.000                                                                  
G08  23702797.977                        3413.368          37.000    23702796.501    97059031.106        2660.114          40.000  
G09  23692903.602   124507049.475        2219.124          41.000    23692896.518    97018453.893        1729.280          39.000  
G31  22064849.648   115951563.939       -2154.885          47.000    22064838.451    90351819.982       -1679.025          44.000  
C06  36734378.072   191285532.279          35.317          47.000    36734360.582   147914049.249          27.292          48.000  
C32  26816777.697                       -3561.311          34.000                                                                  
C37  22905360.974   119274229.775        -606.094          49.000                                                                  
C07  38327975.020   199583825.458         681.135          42.000    38327957.950   154330811.867         526.862          46.000  
C13  41872342.229                       -2306.699          35.000    41872374.504   168602754.371       -1783.484          39.000  
C20  24719529.265   128721076.550       -2219.648          46.000                                                                  
G18  25319813.593   133056519.241         835.197          38.000    25319805.055   103680371.440         651.203          39.000  
G28  24290528.482   127647586.678       -3035.358          39.000    24290521.384    99465611.335       -2365.155          41.000  
G03  25806881.595                       -3027.336          33.000    25806899.825   105674803.985       -2358.193          38.000  
G26  21861932.041   114885227.757       -2265.486          47.000    21861922.910    89520924.249       -1765.114          43.000  
C10  39392785.648   205128577.228         641.937          39.000    39392773.806   158618380.207         496.619          43.000  
C28  23817757.162   124025315.803        1307.431          47.000                                                                  
C23  25232402.466   131391746.415       -2304.395          42.000                                                                  
C16  37173504.031   193572193.537          34.142          48.000    37173492.372   149682250.635          26.550          49.000  
C27  25256061.614   131514956.283        2754.125          40.000                                                                  
C19  25716867.135                3        221.530          30.000                                                                  
C09  37797634.928   196822207.190         202.564          46.000    37797619.773   152195356.098         156.966          48.000  
C11                                                                  27241535.415   109690376.684       -2026.886          41.000  
> 2025 10 28 08 30 50.6020000  0 24                     
G04  21659133.747   113819517.789         205.892          45.000    21659124.691    88690496.308         160.360          46.000  
G27  21651403.738   113778896.883        2353.842          47.000    21651395.593    88658853.008        1834.129          44.000  
G16  20678091.927   108664107.033        -421.572          46.000                                                                  
G08  23702772.024                        3411.407          37.000    23702770.557    97058924.783        2658.583          40.000  
G09  23692886.742   124506960.805        2217.381          41.000    23692879.649    97018384.794        1727.878          39.000  
G31  22064866.066   115951650.222       -2156.425          47.000    22064854.896    90351887.223       -1680.420          44.000  
C06  36734377.815   191285530.967          33.592          47.000    36734360.362   147914048.224          26.165          48.000  
C32  26816805.080                       -3562.957          34.000                                                                  
C37  22905365.675   119274254.118        -607.905          49.000                                                                  
C07  38327969.782   199583798.279         679.871          42.000    38327952.739   154330790.853         525.741          46.000  
C13  41872359.966                       -2308.374          35.000    41872392.208   168602825.778       -1784.681          39.000  
C20  24719546.353   128721165.440       -2221.440          46.000                                                                  
G18  25319807.271   133056485.904         833.927          38.000    25319798.726   103680345.460         650.125          39.000  
G28  24290551.635   127647708.182       -3037.128          39.000    24290544.508    99465706.015       -2366.632          41.000  
G03  25806904.654                       -3028.834          33.000    25806922.892   105674898.418       -2360.020          38.000  
G26  21861949.283   114885318.464       -2267.000          47.000    21861940.174    89520994.932       -1766.417          43.000  
C10  39392780.744   205128551.625         640.509          39.000    39392768.882   158618360.417         495.233          43.000  
C28  23817747.134   124025263.584        1305.875          47.000                                                                  
C23  25232420.196   131391838.692       -2306.185          42.000                                                                  
C16  37173503.770   193572192.254          32.708          48.000    37173492.150   149682249.645          25.331          49.000  
C27  25256040.490   131514846.213        2752.422          40.000                                                                  
C19  25716865.308                3        220.313          30.000                                                                  
C09  37797633.400   196822199.181         200.813          46.000    37797618.227   152195349.905         155.458          48.000  
C11                                                                  27241555.565   109690457.807       -2027.823          41.000  
> 2025 10 28 08 30 50.6420000  0 24                     
G04  21659132.180   113819509.605         204.649          45.000    21659123.106    88690489.932         159.375          46.000  
G27  21651385.834   113778802.770        2352.813          47.000    21651377.679    88658779.674        1833.315          44.000  
G16  20678095.126   108664123.906        -422.110          46.000                                                                  
G08  23702746.079                        3410.814          37.000    23702744.579    97058818.454        2658.054          40.000  
G09  23692869.871   124506872.123        2216.765          41.000    23692862.783    97018315.698        1727.217          39.000  
G31  22064882.491   115951736.532       -2157.659          47.000    22064871.305    90351954.477       -1681.343          44.000  
C06  36734377.576   191285529.671          32.454          47.000    36734360.148   147914047.229          25.080          48.000  
C32  26816832.456                       -3563.492          34.000                                                                  
C37  22905370.384   119274278.469        -608.890          49.000                                                                  
C07  38327964.559   199583771.125         678.851          42.000    38327947.524   154330769.857         524.902          46.000  
C13  41872377.724                       -2308.602          35.000    41872409.951   168602897.188       -1785.365          39.000  
C20  24719563.453   128721254.342       -2222.543          46.000                                                                  
G18  25319800.923   133056452.612         832.543          38.000    25319792.400   103680319.518         648.819          39.000  
G28  24290574.768   127647829.691       -3037.958          39.000    24290567.643    99465800.689       -2367.145          41.000  
G03  25806927.730                       -3029.801          33.000    25806945.972   105674992.868       -2361.263          38.000  
G26  21861966.548   114885409.195       -2268.195          47.000    21861957.449    89521065.628       -1767.325          43.000  
C10  39392775.870   205128526.051         639.355          39.000    39392763.980   158618340.634         494.489          43.000  
C28  23817737.122   124025211.371        1305.104          47.000                                                                  
C23  25232437.920   131391930.980       -2307.264          42.000                                                                  
C16  37173503.526   193572190.990          31.654          48.000    37173491.940   149682248.670          24.459          49.000  
C27  25256019.360   131514736.127        2751.871          40.000                                                                  
C19  25716863.691                2        220.313          30.000                                                                  
C09  37797631.865   196822191.172         200.016          46.000    37797616.715   152195343.724         154.516          48.000  
C11                                                                  27241575.700   109690538.947       -2028.503          41.000  
> 2025 10 28 08 30 50.6820000  0 24                     
G04  21659130.614   113819501.361         205.227          45.000    21659121.555    88690483.508         159.818          46.000  
G27  21651367.908   113778708.603        2353.362          47.000    21651359.754    88658706.300        1833.670          44.000  
G16  20678098.334   108664140.742        -421.616          46.000                                                                  
G08  23702720.095                        3412.160          37.000    23702718.597    97058712.089        2658.601          40.000  
G09  23692852.961   124506783.404        2217.326          41.000    23692845.889    97018246.580        1727.453          39.000  
G31  22064898.901   115951822.777       -2156.985          47.000    22064887.700    90352021.688       -1680.946          44.000  
C06  36734377.279   191285528.320          32.964          47.000    36734359.916   147914046.178          25.556          48.000  
C32  26816859.804                       -3562.934          34.000                                                                  
C37  22905375.062   119274302.765        -608.245          49.000                                                                  
C07  38327959.332   199583743.929         679.200          42.000    38327942.285   154330748.830         525.138          46.000  
C13  41872395.465                       -2308.637          35.000    41872427.658   168602968.571       -1785.063          39.000  
C20  24719580.521   128721343.189       -2222.042          46.000                                                                  
G18  25319794.599   133056419.260         832.953          38.000    25319786.049   103680293.543         648.872          39.000  
G28  24290597.896   127647951.135       -3036.963          39.000    24290590.763    99465895.336       -2366.742          41.000  
G03  25806950.790                       -3029.099          33.000    25806969.024   105675087.252       -2360.446          38.000  
G26  21861983.783   114885499.870       -2267.690          47.000    21861974.713    89521136.288       -1767.083          43.000  
C10  39392770.938   205128500.418         639.996          39.000    39392759.036   158618320.828         494.611          43.000  
C28  23817727.081   124025159.119        1305.565          47.000                                                                  
C23  25232455.624   131392023.211       -2306.656          42.000                                                                  
C16  37173503.305   193572189.678          32.074          48.000    37173491.716   149682247.653          24.803          49.000  
C27  25255998.216   131514626.018        2752.151          40.000                                                                  
C19  25716862.981                2        221.312          31.000                                                                  
C09  37797630.302   196822183.110         200.736          46.000    37797615.207   152195337.492         155.079          48.000  
C11                                                                  27241595.867   109690620.068       -2028.369          41.000  
> 2025 10 28 08 30 50.7220000  0 24                     
G04  21659129.026   113819493.117         205.662          45.000    21659119.977    88690477.084         160.194          46.000  
G27  21651349.998   113778614.438        2353.740          47.000    21651341.824    88658632.930        1833.910          44.000  
G16  20678101.489   108664157.579        -421.221          46.000                                                                  
G08  23702694.098                        3412.302          37.000    23702692.627    97058605.733        2658.758          40.000  
G09  23692836.087   124506694.691        2217.621          41.000    23692828.994    97018177.450        1727.944          39.000  
G31  22064915.293   115951909.038       -2156.791          47.000    22064904.119    90352088.901       -1680.670          44.000  
C06  36734377.021   191285526.974          33.251          47.000    36734359.695   147914045.139          25.727          48.000  
C32  26816887.173                       -3562.913          34.000                                                                  
C37  22905379.708   119274327.066        -607.842          49.000                                                                  
C07  38327954.126   199583716.734         679.529          42.000    38327937.052   154330727.803         525.389          46.000  
C13  41872413.187                       -2308.125          35.000    41872445.379   168603039.949       -1784.698          39.000  
C20  24719597.581   128721432.037       -2221.615          46.000                                                                  
G18  25319788.264   133056385.895         833.548          38.000    25319779.699   103680267.537         649.529          39.000  
G28  24290621.006   127648072.589       -3036.499          39.000    24290613.876    99465989.984       -2366.461          41.000  
G03  25806973.873                       -3029.250          33.000    25806992.078   105675181.651       -2360.128          38.000  
G26  21862001.036   114885590.551       -2267.381          47.000    21861991.967    89521206.946       -1766.803          43.000  
C10  39392766.013   205128474.805         640.167          39.000    39392754.110   158618301.015         495.001          43.000  
C28  23817717.024   124025106.869        1305.938          47.000                                                                  
C23  25232473.324   131392115.439       -2306.117          42.000                                                                  
C16  37173503.047   193572188.372          32.325          48.000    37173491.459   149682246.640          25.035          49.000  
C27  25255977.051   131514515.884        2752.833          40.000                                                                  
C19  25716861.418                2        220.724          30.000                                                                  
C09  37797628.771   196822175.057         201.070          46.000    37797613.676   152195331.266         155.382          48.000  
C11                                                                  27241616.004   109690701.186       -2028.207          41.000  
> 2025 10 28 08 30 50.7620000  0 24                     
G04  21659127.441   113819484.851         206.321          45.000    21659118.422    88690470.650         160.629          46.000  
G27  21651332.062   113778520.261        2354.193          47.000    21651323.923    88658559.537        1834.463          44.000  
G16  20678104.692   108664174.400        -420.714          46.000                                                                  
G08  23702668.128                        3412.598          37.000    23702666.643    97058499.365        2659.024          40.000  
G09  23692819.209   124506605.977        2217.827          41.000    23692812.101    97018108.300        1728.559          39.000  
G31  22064931.708   115951995.273       -2156.180          47.000    22064920.517    90352156.095       -1680.143          44.000  
C06  36734376.759   191285525.599          33.964          47.000    36734359.458   147914044.082          26.156          48.000  
C32  26816914.538                       -3561.798          34.000                                                                  
C37  22905384.349   119274351.344        -607.210          49.000                                                                  
C07  38327948.896   199583689.517         680.171          42.000    38327931.830   154330706.757         525.898          46.000  
C13  41872430.933                       -2307.815          35.000    41872463.112   168603111.338       -1784.742          39.000  
C20  24719614.646   128721520.865       -2221.031          46.000                                                                  
G18  25319781.918   133056352.532         833.926          38.000    25319773.329   103680241.541         649.857          39.000  
G28  24290644.133   127648194.050       -3036.426          39.000    24290636.986    99466084.612       -2365.900          41.000  
G03  25806996.940                       -3028.847          33.000    25807015.139   105675276.024       -2359.562          38.000  
G26  21862018.287   114885681.201       -2266.625          47.000    21862009.222    89521277.586       -1766.293          43.000  
C10  39392761.083   205128449.162         640.759          39.000    39392749.209   158618281.183         495.599          43.000  
C28  23817706.994   124025054.598        1306.566          47.000                                                                  
C23  25232491.052   131392207.647       -2305.456          42.000                                                                  
C16  37173502.799   193572187.044          32.876          48.000    37173491.215   149682245.615          25.386          49.000  
C27  25255955.915   131514405.764        2752.996          40.000                                                                  
C19  25716859.359                2        220.345          31.000                                                                  
C09  37797627.237   196822166.983         201.624          46.000    37797612.123   152195325.016         155.981          48.000  
C11                                                                  27241636.125   109690782.283       -2027.726          41.000  
> 2025 10 28 08 30 50.8020000  0 24                     
G04  21659125.848   113819476.580         206.822          45.000    21659116.830    88690464.207         161.022          46.000  
G27  21651314.128   113778426.067        2354.750          47.000    21651306.008    88658486.149        1834.717          44.000  
G16  20678107.902   108664191.218        -420.392          46.000                                                                  
G08  23702642.143   124558250.753        3413.230          37.000    23702640.652    97058392.982        2659.502          40.000  
G09  23692802.309   124506517.222        2218.734          41.000    23692795.219    97018039.143        1729.034          39.000  
G31  22064948.120   115952081.500       -2155.707          47.000    22064936.909    90352223.276       -1679.636          44.000  
C06  36734376.469   191285524.216          34.517          47.000    36734359.225   147914043.014          26.606          48.000  
C32  26816941.888                       -3561.521          34.000                                                                  
C37  22905389.017   119274375.605        -606.516          49.000                                                                  
C07  38327943.656   199583662.273         680.975          42.000    38327926.562   154330685.698         526.432          46.000  
C13  41872448.625   218040878.305       -2306.852          35.000    41872480.836   168603182.688       -1783.996          39.000  
C20  24719631.696   128721609.681       -2220.449          46.000                                                                  
G18  25319775.576   133056319.135         834.720          38.000    25319766.967   103680215.522         650.425          39.000  
G28  24290667.239   127648315.471       -3035.626          39.000    24290660.112    99466179.224       -2365.326          41.000  
G03  25807019.968                       -3027.468          33.000    25807038.173   105675370.382       -2359.066          38.000  
G26  21862035.525   114885771.842       -2266.040          47.000    21862026.476    89521348.220       -1765.879          43.000  
C10  39392756.161   205128423.495         641.522          39.000    39392744.286   158618261.338         496.130          43.000  
C28  23817696.949   124025002.312        1307.140          47.000                                                                  
C23  25232508.757   131392299.846       -2304.905          42.000                                                                  
C16  37173502.567   193572185.694          33.608          48.000    37173490.958   149682244.577          25.861          49.000  
C27  25255934.786   131514295.611        2753.667          40.000                                                                  
C19  25716857.522                2        220.849          31.000                                                                  
C09  37797625.698   196822158.893         202.262          46.000    37797610.554   152195318.758         156.451          48.000  
C11                                                                  27241656.299   109690863.367       -2027.209          41.000  
> 2025 10 28 08 30 50.8420000  0 24                     
G04  21659124.264   113819468.278         207.537          45.000    21659115.236    88690457.726         161.873          46.000  
G27  21651296.201   113778331.842        2355.568          47.000    21651288.078    88658412.721        1835.516          44.000  
G16  20678111.110   108664207.997        -419.513          46.000                                                                  
G08  23702616.142   124558114.189        3414.120          37.000    23702614.634    97058286.574        2660.246          40.000  
G09  23692785.414   124506428.448        2219.441          41.000    23692778.328    97017969.963        1729.618          39.000  
G31  22064964.533   115952167.685       -2154.734          47.000    22064953.285    90352290.430       -1678.907          44.000  
C06  36734376.170   191285522.794          35.451          47.000    36734358.961   147914041.910          27.440          48.000  
C32  26816969.240                       -3560.854          34.000                                                                  
C37  22905393.690   119274399.843        -605.846          49.000                                                                  
C07  38327938.428   199583635.003         681.840          42.000    38327921.301   154330664.604         527.282          46.000  
C13  41872466.333                       -2305.747          36.000    41872498.526   168603254.008       -1783.087          39.000  
C20  24719648.771   128721698.477       -2219.847          46.000                                                                  
G18  25319769.209   133056285.720         835.415          38.000    25319760.589   103680189.481         651.049          39.000  
G28  24290690.324   127648436.860       -3034.662          39.000    24290683.226    99466273.823       -2364.911          41.000  
G03  25807043.005                       -3026.517          33.000    25807061.215   105675464.718       -2358.415          38.000  
G26  21862052.745   114885862.450       -2265.230          47.000    21862043.732    89521418.826       -1765.231          43.000  
C10  39392751.241   205128397.798         642.426          39.000    39392739.356   158618241.477         496.625          43.000  
C28  23817686.894   124024949.993        1307.985          47.000                                                                  
C23  25232526.445   131392392.011       -2304.087          42.000                                                                  
C16  37173502.307   193572184.306          34.620          48.000    37173490.721   149682243.513          26.527          49.000  
C27  25255913.619   131514185.431        2754.493          40.000                                                                  
C19  25716855.415                2        221.972          31.000                                                                  
C09  37797624.165   196822150.766         203.178          46.000    37797608.981   152195312.478         157.051          48.000  
C11                                                                  27241676.417   109690944.425       -2026.460          41.000  
> 2025 10 28 08 30 50.8820000  0 24                     
G04  21659122.686   113819459.948         208.338          45.000    21659113.626    88690451.239         162.376          46.000  
G27  21651278.270   113778237.595        2356.268          47.000    21651270.109    88658339.276        1836.186          44.000  
G16  20678114.285   108664224.755        -418.825          46.000                                                                  
G08  23702590.142   124557977.612        3414.618          37.000    23702588.607    97058180.147        2660.840          40.000  
G09  23692768.528   124506339.652        2220.096          41.000    23692761.422    97017900.783        1729.796          39.000  
G31  22064980.903   115952253.845       -2153.904          47.000    22064969.679    90352357.581       -1678.563          44.000  
C06  36734375.895   191285521.351          36.225          47.000    36734358.683   147914040.800          27.937          48.000  
C32  26816996.583                       -3560.179          34.000                                                                  
C37  22905398.348   119274424.058        -605.199          49.000                                                                  
C07  38327933.182   199583607.722         682.349          42.000    38327916.070   154330643.503         527.744          46.000  
C13  41872484.016                       -2304.859          36.000    41872516.227   168603325.315       -1782.507          39.000  
C20  24719665.827   128721787.232       -2218.932          46.000                                                                  
G18  25319762.844   133056252.286         836.028          38.000    25319754.210   103680163.423         651.663          39.000  
G28  24290713.435   127648558.243       -3034.271          39.000    24290706.320    99466368.411       -2364.526          41.000  
G03  25807066.079   135617010.197       -3026.208          33.000    25807084.240   105675559.060       -2358.316          38.000  
G26  21862069.988   114885953.036       -2264.486          47.000    21862060.959    89521489.415       -1764.643          43.000  
C10  39392746.319   205128372.094         642.810          39.000    39392734.429   158618221.596         497.168          43.000  
C28  23817676.867   124024897.661        1308.578          47.000                                                                  
C23  25232544.142   131392484.171       -2303.668          42.000                                                                  
C16  37173502.045   193572182.908          35.216          48.000    37173490.465   149682242.430          27.112          49.000  
C27  25255892.475   131514075.233        2755.102          40.000                                                                  
C19  25716854.053                2        223.006          31.000                                                                  
C09  37797622.602   196822142.637         203.557          46.000    37797607.409   152195306.188         157.453          48.000  
C11                                                                  27241696.552   109691025.473       -2026.015          41.000  
> 2025 10 28 08 30 50.9220000  0 24                     
G04  21659121.117   113819451.615         208.712          45.000    21659112.050    88690444.741         162.684          46.000  
G27  21651260.351   113778143.344        2356.617          47.000    21651252.169    88658265.826        1836.533          44.000  
G16  20678117.469   108664241.493        -418.227          46.000                                                                  
G08  23702564.142   124557841.035        3414.839          37.000    23702562.632    97058073.707        2661.278          40.000  
G09  23692751.606   124506250.840        2220.538          41.000    23692744.522    97017831.583        1730.175          39.000  
G31  22064997.279   115952340.001       -2153.521          47.000    22064986.079    90352424.719       -1678.246          44.000  
C06  36734375.608   191285519.906          36.534          47.000    36734358.411   147914039.681          28.215          48.000  
C32  26817023.918                       -3559.394          34.000                                                                  
C37  22905402.983   119274448.260        -604.761          49.000                                                                  
C07  38327927.939   199583580.415         682.941          42.000    38327910.830   154330622.398         527.933          46.000  
C13  41872501.718   218041154.961       -2305.067          36.000    41872533.918   168603396.627       -1782.456          39.000  
C20  24719682.855   128721875.992       -2218.593          46.000                                                                  
G18  25319756.457   133056218.819         836.834          38.000    25319747.834   103680137.356         651.951          39.000  
G28  24290736.520   127648679.612       -3033.948          39.000    24290729.425    99466462.981       -2364.087          41.000  
G03  25807089.117   135617131.222       -3025.465          33.000    25807107.271   105675653.389       -2358.102          38.000  
G26  21862087.223   114886043.612       -2264.041          47.000    21862078.166    89521559.981       -1764.011          43.000  
C10  39392741.351   205128346.363         643.372          39.000    39392729.511   158618201.703         497.546          43.000  
C28  23817666.780   124024845.315        1308.959          47.000                                                                  
C23  25232561.847   131392576.311       -2303.248          42.000                                                                  
C16  37173501.776   193572181.497          35.610          48.000    37173490.224   149682241.331          27.643          49.000  
C27  25255871.282   131513965.041        2755.214          40.000                                                                  
C19  25716852.294                2        223.687          31.000                                                                  
C09  37797621.042   196822134.488         203.976          46.000    37797605.834   152195299.889         157.721          48.000  
C11                                                                  27241716.724   109691106.508       -2025.649          41.000  
> 2025 10 28 08 30 50.9620000  0 24                     
G04  21659119.530   113819443.241         209.497          45.000    21659110.479    88690438.223         163.134          46.000  
G27  21651242.398   113778049.048        2357.507          47.000    21651234.220    88658192.359        1836.906          44.000  
G16  20678120.666   108664258.204        -417.488          46.000                                                                  
G08  23702538.146   124557704.384        3416.194          37.000    23702536.644    97057967.228        2662.039          40.000  
G09  23692734.694   124506161.987        2221.475          41.000    23692727.618    97017762.352        1730.878          39.000  
G31  22065013.676   115952426.130       -2152.921          47.000    22065002.480    90352491.827       -1677.594          44.000  
C06  36734375.327   191285518.422          37.278          47.000    36734358.129   147914038.529          28.915          48.000  
C32  26817051.267                       -3558.540          34.000                                                                  
C37  22905407.633   119274472.422        -603.881          49.000                                                                  
C07  38327922.681   199583553.067         683.930          42.000    38327905.591   154330601.260         528.568          46.000  
C13  41872519.419   218041247.155       -2304.612          36.000    41872551.638   168603467.901       -1781.834          39.000  
C20  24719699.880   128721964.704       -2217.698          46.000                                                                  
G18  25319750.105   133056185.328         837.576          38.000    25319741.468   103680111.255         652.662          39.000  
G28  24290759.591   127648800.949       -3033.282          39.000    24290752.501    99466557.524       -2363.489          41.000  
G03  25807112.147   135617252.217       -3024.614          33.000    25807130.318   105675747.673       -2357.217          38.000  
G26  21862104.461   114886134.147       -2263.176          47.000    21862095.412    89521630.528       -1763.445          43.000  
C10  39392736.411   205128320.603         644.141          39.000    39392724.559   158618181.773         498.334          43.000  
C28  23817656.762   124024792.930        1309.778          47.000                                                                  
C23  25232579.525   131392668.410       -2302.357          42.000                                                                  
C16  37173501.535   193572180.051          36.355          48.000    37173489.976   149682240.206          28.297          49.000  
C27  25255850.112   131513854.785        2756.312          40.000                                                                  
C19  25716850.895                2        223.351          31.000                                                                  
C09  37797619.468   196822126.295         204.946          46.000    37797604.252   152195293.553         158.439          48.000  
C11                                                                  27241736.843   109691187.511       -2024.944          41.000  
> 2025 10 28 08 30 51.0020000  0 24                     
G04  21659117.935   113819434.843         210.186          45.000    21659108.878    88690431.678         163.705          46.000  
G27  21651224.440   113777954.720        2358.370          47.000    21651216.271    88658118.863        1837.469          44.000  
G16  20678123.850   108664274.884        -416.722          46.000                                                                  
G08  23702512.110   124557567.710        3417.111          37.000    23702510.641    97057860.745        2662.407          40.000  
G09  23692717.770   124506073.126        2221.922          41.000    23692710.695    97017693.105        1731.441          39.000  
G31  22065030.069   115952512.213       -2152.001          47.000    22065018.843    90352558.899       -1676.746          44.000  
C06  36734375.045   191285516.911          37.999          47.000    36734357.841   147914037.353          29.557          48.000  
C32  26817078.587                       -3558.263          34.000                                                                  
C37  22905412.271   119274496.558        -603.126          49.000                                                                  
C07  38327917.419   199583525.717         684.236          42.000    38327900.358   154330580.100         529.158          46.000  
C13  41872537.119   218041339.312       -2303.868          36.000    41872569.341   168603539.165       -1781.477          39.000  
C20  24719716.897   128722053.397       -2217.082          46.000                                                                  
G18  25319743.709   133056151.814         838.214          38.000    25319735.078   103680085.153         652.911          39.000  
G28  24290782.673   127648922.262       -3032.678          39.000    24290775.562    99466652.043       -2362.842          41.000  
G03  25807135.177   135617373.205       -3024.178          33.000    25807153.344   105675841.945       -2356.634          38.000  
G26  21862121.688   114886224.655       -2262.448          47.000    21862112.637    89521701.057       -1762.961          43.000  
C10  39392731.465   205128294.823         644.769          39.000    39392719.592   158618161.838         498.694          43.000  
C28  23817646.696   124024740.523        1310.437          47.000                                                                  
C23  25232597.204   131392760.480       -2301.576          42.000                                                                  
C16  37173501.251   193572178.573          37.134          48.000    37173489.704   149682239.063          28.811          49.000  
C27  25255828.946   131513744.508        2757.140          40.000                                                                  
C19  25716848.909                2        224.625          30.000                                                                  
C09  37797617.876   196822118.071         205.782          46.000    37797602.672   152195287.200         159.024          48.000  
C11                                                                  27241756.979   109691268.498       -2024.395          41.000  
> 2025 10 28 08 30 51.0420000  0 24                     
G04  21659116.332   113819426.442         210.469          45.000    21659107.282    88690425.139         163.815          46.000  
G27  21651206.485   113777860.395        2358.619          47.000    21651198.336    88658045.363        1837.761          44.000  
G16  20678127.043   108664291.552        -416.335          46.000                                                                  
G08  23702486.121   124557431.040        3417.344          37.000    23702484.634    97057754.266        2662.348          40.000  
G09  23692700.849   124505984.246        2222.308          41.000    23692693.784    97017623.854        1731.585          39.000  
G31  22065046.440   115952598.295       -2151.616          47.000    22065035.213    90352625.975       -1676.489          44.000  
C06  36734374.726   191285515.383          38.505          47.000    36734357.523   147914036.173          29.831          48.000  
C32  26817105.924                       -3557.901          34.000                                                                  
C37  22905416.860   119274520.693        -602.911          49.000                                                                  
C07  38327912.158   199583498.351         684.536          42.000    38327895.086   154330558.947         529.200          46.000  
C13  41872554.827   218041431.439       -2303.033          35.000    41872587.039   168603610.419       -1781.186          39.000  
C20  24719733.916   128722142.086       -2216.798          46.000                                                                  
G18  25319737.324   133056118.300         838.347          38.000    25319728.716   103680059.023         653.456          39.000  
G28  24290805.756   127649043.545       -3031.952          39.000    24290798.628    99466746.564       -2362.677          41.000  
G03  25807158.207   135617494.178       -3023.875          33.000    25807176.349   105675936.212       -2356.432          38.000  
G26  21862138.928   114886315.169       -2262.303          47.000    21862129.870    89521771.593       -1762.954          43.000  
C10  39392726.491   205128269.030         645.154          39.000    39392714.646   158618141.901         498.755          43.000  
C28  23817636.609   124024688.110        1310.729          47.000                                                                  
C23  25232614.871   131392852.534       -2301.039          42.000                                                                  
C16  37173500.950   193572177.089          37.502          48.000    37173489.423   149682237.924          28.866          49.000  
C27  25255807.749   131513634.206        2757.816          40.000                                                                  
C19  25716847.302                2        224.886          31.000                                                                  
C09  37797616.282   196822109.854         205.937          46.000    37797601.080   152195280.837         159.369          48.000  
C11                                                                  27241777.096   109691349.490       -2024.419          41.000  
> 2025 10 28 08 30 51.0820000  0 24                     
G04  21659114.716   113819418.075         209.791          45.000    21659105.697    88690418.615         163.451          46.000  
G27  21651188.525   113777766.111        2357.800          47.000    21651180.386    88657971.893        1837.229          44.000  
G16  20678130.237   108664308.282        -417.522          46.000                                                                  
G08  23702460.119   124557294.427        3416.049          37.000    23702458.640    97057647.799        2661.905          40.000  
G09  23692683.950   124505895.437        2220.965          41.000    23692676.882    97017554.633        1730.936          39.000  
G31  22065062.818   115952684.427       -2152.563          47.000    22065051.584    90352693.090       -1677.262          44.000  
C06  36734374.427   191285513.902          37.722          47.000    36734357.230   147914035.029          29.169          48.000  
C32  26817133.248                       -3558.606          34.000                                                                  
C37  22905421.504   119274544.874        -603.896          49.000                                                                  
C07  38327906.901   199583471.037         683.481          42.000    38327889.807   154330537.814         528.670          46.000  
C13  41872572.544   218041523.639       -2304.185          35.000    41872604.733   168603681.689       -1781.441          39.000  
C20  24719750.961   128722230.811       -2217.521          46.000                                                                  
G18  25319730.942   133056084.827         837.399          38.000    25319722.344   103680032.946         652.558          39.000  
G28  24290828.846   127649164.889       -3032.965          39.000    24290821.709    99466841.113       -2363.324          41.000  
G03  25807181.230   135617615.227       -3025.364          33.000    25807199.376   105676030.508       -2357.046          38.000  
G26  21862156.157   114886405.716       -2263.072          47.000    21862147.114    89521842.148       -1763.490          43.000  
C10  39392721.569   205128243.276         644.397          39.000    39392709.714   158618121.981         498.273          43.000  
C28  23817626.555   124024635.741        1309.797          47.000                                                                  
C23  25232632.538   131392944.640       -2301.915          42.000                                                                  
C16  37173500.690   193572175.649          36.689          48.000    37173489.167   149682236.814          28.203          49.000  
C27  25255786.566   131513523.948        2757.138          40.000                                                                  
C19  25716845.610                2        224.854          31.000                                                                  
C09  37797614.689   196822101.678         204.985          46.000    37797599.501   152195274.509         158.729          48.000  
C11                                                                  27241797.220   109691430.504       -2025.014          41.000  
> 2025 10 28 08 30 51.1220000  0 24                     
G04  21659113.110   113819409.829         207.153          45.000    21659104.110    88690412.181         161.595          46.000  
G27  21651170.601   113777671.941        2355.225          47.000    21651162.464    88657898.496        1835.550          44.000  
G16  20678133.407   108664325.108        -419.969          46.000                                                                  
G08  23702434.157   124557157.954        3412.760          37.000    23702432.659    97057541.428        2659.801          40.000  
G09  23692667.047   124505806.701        2218.835          41.000    23692659.991    97017485.499        1728.933          39.000  
G31  22065079.218   115952770.669       -2155.123          47.000    22065067.975    90352760.290       -1679.250          44.000  
C06  36734374.188   191285512.541          35.079          47.000    36734356.947   147914033.969          27.233          48.000  
C32  26817160.624                       -3560.742          34.000                                                                  
C37  22905426.240   119274569.157        -606.318          49.000                                                                  
C07  38327901.663   199583443.800         681.489          42.000    38327884.606   154330516.765         526.799          46.000  
C13  41872590.239   218041615.900       -2305.982          35.000    41872622.464   168603753.050       -1783.385          39.000  
C20  24719768.033   128722319.649       -2219.990          46.000                                                                  
G18  25319724.566   133056051.461         834.813          38.000    25319715.999   103680006.943         650.674          40.000  
G28  24290851.950   127649286.315       -3035.132          39.000    24290844.803    99466935.753       -2365.515          41.000  
G03  25807204.324   135617736.339       -3027.227          33.000    25807222.430   105676124.857       -2358.371          38.000  
G26  21862173.377   114886496.374       -2265.533          47.000    21862164.373    89521912.774       -1765.107          43.000  
C10  39392716.655   205128217.610         642.236          39.000    39392704.801   158618102.146         496.417          43.000  
C28  23817616.550   124024583.481        1307.190          47.000                                                                  
C23  25232650.259   131393036.873       -2304.782          42.000                                                                  
C16  37173500.479   193572174.316          34.243          48.000    37173488.945   149682235.783          26.382          49.000  
C27  25255765.440   131513413.828        2754.094          40.000                                                                  
C19  25716843.935                2        222.019          31.000                                                                  
C09  37797613.154   196822093.605         202.582          46.000    37797597.967   152195268.260         156.844          48.000  
C11                                                                  27241817.363   109691511.604       -2026.968          41.000  
> 2025 10 28 08 30 51.1620000  0 24                     
G04  21659111.535   113819401.579         205.979          45.000    21659102.553    88690405.752         160.571          46.000  
G27  21651152.682   113777577.771        2353.972          47.000    21651144.562    88657825.127        1834.251          44.000  
G16  20678136.616   108664341.923        -420.873          46.000                                                                  
G08  23702408.176   124557021.406        3412.613          37.000    23702406.697    97057435.058        2658.860          40.000  
G09  23692650.178   124505717.959        2218.071          41.000    23692643.104    97017416.352        1728.245          39.000  
G31  22065095.630   115952856.912       -2156.362          47.000    22065084.385    90352827.500       -1680.400          44.000  
C06  36734373.923   191285511.163          34.096          47.000    36734356.710   147914032.916          26.197          48.000  
C32  26817187.968                       -3561.546          34.000                                                                  
C37  22905430.941   119274593.432        -607.285          49.000                                                                  
C07  38327896.449   199583416.585         680.206          42.000    38327879.402   154330495.708         526.113          46.000  
C13  41872607.970   218041708.171       -2306.981          35.000    41872640.213   168603824.397       -1783.999          39.000  
C20  24719785.078   128722408.485       -2221.134          46.000                                                                  
G18  25319718.232   133056018.078         834.004          38.000    25319709.649   103679980.936         649.873          40.000  
G28  24290875.055   127649407.751       -3036.212          39.000    24290867.924    99467030.365       -2365.894          41.000  
G03  25807227.383   135617857.441       -3027.882          33.000    25807245.499   105676219.234       -2359.389          38.000  
G26  21862190.615   114886587.032       -2266.708          47.000    21862181.625    89521983.417       -1766.145          43.000  
C10  39392711.745   205128191.948         641.260          39.000    39392699.865   158618082.306         495.728          43.000  
C28  23817606.504   124024531.205        1306.353          47.000                                                                  
C23  25232667.991   131393129.074       -2305.509          42.000                                                                  
C16  37173500.227   193572172.981          33.094          48.000    37173488.697   149682234.748          25.612          49.000  
C27  25255744.282   131513303.686        2753.159          40.000                                                                  
C19  25716842.698                2        220.881          31.000                                                                  
C09  37797611.620   196822085.512         201.858          46.000    37797596.424   152195262.023         155.787          48.000  
C11                                                                  27241837.544   109691592.692       -2027.569          41.000  
> 2025 10 28 08 30 51.2020000  0 24                     
G04  21659109.957   113819393.246         207.105          45.000    21659100.976    88690399.266         161.276          46.000  
G27  21651134.760   113777483.515        2355.140          47.000    21651126.631    88657751.687        1835.036          44.000  
G16  20678139.793   108664358.651        -419.392          46.000                                                                  
G08  23702382.179                        3414.361          37.000    23702380.728    97057328.613        2660.104          40.000  
G09  23692633.291   124505629.142        2219.416          41.000    23692626.211    97017347.139        1729.438          39.000  
G31  22065112.044   115952943.063       -2155.118          47.000    22065100.785    90352894.643       -1679.663          44.000  
C06  36734373.652   191285509.706          35.265          47.000    36734356.435   147914031.794          27.042          48.000  
C32  26817215.331                       -3561.004          34.000                                                                  
C37  22905435.536   119274617.618        -605.872          49.000                                                                  
C07  38327891.217   199583389.266         681.736          42.000    38327874.172   154330474.596         526.992          46.000  
C13  41872625.691                       -2305.462          35.000    41872657.931   168603895.717       -1783.587          39.000  
C20  24719802.099   128722497.235       -2219.958          46.000                                                                  
G18  25319711.857   133055984.635         834.933          38.000    25319703.299   103679954.885         650.496          40.000  
G28  24290898.173   127649529.106       -3034.869          39.000    24290891.020    99467124.930       -2364.850          41.000  
G03  25807250.446   135617978.492       -3027.040          33.000    25807268.548   105676313.555       -2358.792          38.000  
G26  21862207.850   114886677.609       -2265.639          47.000    21862198.849    89522054.010       -1765.650          43.000  
C10  39392706.791   205128166.214         642.395          39.000    39392694.933   158618062.396         496.918          43.000  
C28  23817596.431   124024478.839        1307.974          47.000                                                                  
C23  25232685.680   131393221.199       -2304.214          42.000                                                                  
C16  37173499.951   193572171.563          34.264          48.000    37173488.433   149682233.667          26.211          49.000  
C27  25255723.093   131513193.478        2754.121          40.000                                                                  
C19  25716840.790                2        221.998          31.000                                                                  
C09  37797610.032   196822077.351         203.025          46.000    37797594.867   152195255.717         156.706          48.000  
C11                                                                  27241857.677   109691673.731       -2026.705          41.000  
> 2025 10 28 08 30 51.2420000  0 24                     
G04  21659108.356   113819384.837         209.157          45.000    21659099.382    88690392.719         162.865          46.000  
G27  21651116.816   113777389.167        2357.511          47.000    21651108.706    88657678.170        1836.979          44.000  
G16  20678142.983   108664375.334        -417.697          46.000                                                                  
G08  23702356.176                        3416.156          37.000    23702354.708    97057222.118        2661.709          40.000  
G09  23692616.379   124505540.262        2221.312          41.000    23692609.290    97017277.894        1730.744          39.000  
G31  22065128.452   115953029.135       -2152.882          47.000    22065117.162    90352961.707       -1677.668          44.000  
C06  36734373.352   191285508.181          37.165          47.000    36734356.157   147914030.612          28.683          48.000  
C32  26817242.637                       -3558.671          34.000                                                                  
C37  22905440.124   119274641.750        -604.027          49.000                                                                  
C07  38327885.954   199583361.901         683.453          42.000    38327868.906   154330453.433         528.433          46.000  
C13  41872643.380   218041892.529       -2304.581          35.000    41872675.642   168603966.972       -1782.040          39.000  
C20  24719819.104   128722585.920       -2218.047          46.000                                                                  
G18  25319705.494   133055951.097         837.360          38.000    25319696.914   103679928.746         652.479          40.000  
G28  24290921.261   127649650.400       -3032.928          39.000    24290914.098    99467219.452       -2363.434          41.000  
G03  25807273.461                       -3023.921          33.000    25807291.562   105676407.824       -2357.452          38.000  
G26  21862225.093   114886768.104       -2263.478          47.000    21862216.071    89522124.535       -1764.052          43.000  
C10  39392701.841   205128140.439         643.921          39.000    39392689.956   158618042.461         498.090          43.000  
C28  23817586.346   124024426.423        1309.807          47.000                                                                  
C23  25232703.326   131393313.255       -2302.246          42.000                                                                  
C16  37173499.654   193572170.076          36.235          48.000    37173488.121   149682232.514          27.952          49.000  
C27  25255701.875   131513083.187        2756.297          40.000                                                                  
C19  25716838.873                2        223.914          31.000                                                                  
C09  37797608.427   196822069.116         205.029          46.000    37797593.290   152195249.350         158.414          48.000  
C11                                                                  27241877.781   109691754.713       -2025.127          41.000  
> 2025 10 28 08 30 51.2820000  0 24                     
G04  21659106.772   113819376.432         210.170          45.000    21659097.776    88690386.164         163.847          46.000  
G27  21651098.870   113777294.832        2358.527          47.000    21651090.731    88657604.654        1837.969          44.000  
G16  20678146.174   108664392.011        -416.780          46.000                                                                  
G08  23702330.165                        3417.063          37.000    23702328.679    97057115.621        2662.600          40.000  
G09  23692599.471   124505451.382        2222.249          41.000    23692592.349    97017208.628        1731.729          39.000  
G31  22065144.808   115953115.214       -2151.831          47.000    22065133.549    90353028.772       -1676.598          44.000  
C06  36734373.064   191285506.650          38.315          47.000    36734355.855   147914029.420          29.743          48.000  
C32  26817269.988                       -3558.020          34.000                                                                  
C37  22905444.778   119274665.874        -602.953          49.000                                                                  
C07  38327880.688   199583334.529         684.476          42.000    38327863.657   154330432.262         529.327          46.000  
C13  41872661.075   218041984.657       -2303.334          35.000    41872693.339   168604038.223       -1781.177          39.000  
C20  24719836.123   128722674.603       -2216.997          46.000                                                                  
G18  25319699.081   133055917.577         838.301          38.000    25319690.526   103679902.623         653.204          40.000  
G28  24290944.338   127649771.699       -3032.135          39.000    24290937.174    99467313.962       -2362.616          41.000  
G03  25807296.474                       -3023.498          33.000    25807314.567   105676502.076       -2356.456          38.000  
G26  21862242.311   114886858.599       -2262.307          47.000    21862233.280    89522195.039       -1762.801          43.000  
C10  39392696.871   205128114.621         645.361          39.000    39392685.011   158618022.507         498.950          43.000  
C28  23817576.269   124024374.007        1310.682          47.000                                                                  
C23  25232720.976   131393405.319       -2301.397          42.000                                                                  
C16  37173499.378   193572168.581          37.441          48.000    37173487.803   149682231.347          29.102          49.000  
C27  25255680.676   131512972.883        2757.618          40.000                                                                  
C19  25716836.654                2        224.253          31.000                                                                  
C09  37797606.866   196822060.884         206.004          46.000    37797591.684   152195242.979         159.340          48.000  
C11                                                                  27241897.846   109691835.683       -2024.097          41.000  
> 2025 10 28 08 30 51.3220000  0 24                     
G04  21659105.176   113819368.011         210.874          45.000    21659096.175    88690379.594         164.506          46.000  
G27  21651080.943   113777200.490        2359.031          47.000    21651072.776    88657531.141        1838.308          44.000  
G16  20678149.338   108664408.668        -416.080          46.000                                                                  
G08  23702304.158   124556474.752        3417.762          37.000    23702302.679    97057009.109        2663.096          40.000  
G09  23692582.554   124505362.486        2222.805          41.000    23692575.439    97017139.362        1732.108          39.000  
G31  22065161.166   115953201.279       -2151.200          47.000    22065149.930    90353095.833       -1676.124          44.000  
C06  36734372.806   191285505.104          39.026          47.000    36734355.565   147914028.220          30.318          48.000  
C32  26817297.317                       -3556.616          34.000                                                                  
C37  22905449.402   119274689.986        -602.386          49.000                                                                  
C07  38327875.404   199583307.141         685.092          42.000    38327858.401   154330411.081         529.834          46.000  
C13  41872678.750   218042076.787       -2302.882          35.000    41872711.010   168604109.431       -1780.133          39.000  
C20  24719853.133   128722763.264       -2216.210          46.000                                                                  
G18  25319692.695   133055884.037         838.946          38.000    25319684.146   103679876.492         653.632          40.000  
G28  24290967.422   127649892.971       -3031.445          39.000    24290960.269    99467408.464       -2362.207          41.000  
G03  25807319.501                       -3023.116          33.000    25807337.578   105676596.302       -2355.490          38.000  
G26  21862259.528   114886949.082       -2261.650          47.000    21862250.494    89522265.536       -1762.112          43.000  
C10  39392691.902   205128088.799         645.984          39.000    39392680.052   158618002.544         499.396          43.000  
C28  23817566.187   124024321.575        1311.214          47.000                                                                  
C23  25232738.648   131393497.361       -2300.737          42.000                                                                  
C16  37173499.111   193572167.069          38.156          48.000    37173487.524   149682230.176          29.662          49.000  
C27  25255659.469   131512862.563        2758.436          40.000                                                                  
C19  25716835.137                2        225.542          31.000                                                                  
C09  37797605.275   196822052.641         206.554          46.000    37797590.078   152195236.597         159.889          48.000  
C11                                                                  27241917.967   109691916.651       -2023.759          41.000  
> 2025 10 28 08 30 51.3620000  0 24                     
G04  21659103.573   113819359.600         210.840          45.000    21659094.566    88690373.044         164.292          46.000  
G27  21651062.993   113777106.161        2358.833          47.000    21651054.830    88657457.637        1838.093          44.000  
G16  20678152.514   108664425.346        -416.353          46.000                                                                  
G08  23702278.160   124556338.089        3417.286          37.000    23702276.669    97056902.614        2662.873          40.000  
G09  23692565.636   124505273.620        2222.306          41.000    23692558.532    97017070.120        1731.598          39.000  
G31  22065177.551   115953287.367       -2151.504          47.000    22065166.315    90353162.913       -1676.378          44.000  
C06  36734372.504   191285503.562          39.122          47.000    36734355.305   147914027.039          30.107          48.000  
C32  26817324.633                       -3556.693          34.000                                                                  
C37  22905454.014   119274714.116        -602.635          49.000                                                                  
C07  38327870.171   199583279.766         684.954          42.000    38327853.135   154330389.917         529.615          46.000  
C13  41872696.421   218042168.915       -2302.763          35.000    41872728.705   168604180.670       -1780.354          39.000  
C20  24719870.122   128722851.932       -2216.135          46.000                                                                  
G18  25319686.291   133055850.499         838.931          38.000    25319677.761   103679850.372         653.467          40.000  
G28  24290990.514   127650014.268       -3031.799          39.000    24290983.357    99467502.972       -2362.305          41.000  
G03  25807342.547                       -3023.909          33.000    25807360.592   105676690.555       -2355.639          38.000  
G26  21862276.751   114887039.576       -2261.707          47.000    21862267.699    89522336.055       -1762.307          43.000  
C10  39392686.945   205128063.004         645.599          39.000    39392675.086   158617982.592         499.200          43.000  
C28  23817556.113   124024269.167        1310.802          47.000                                                                  
C23  25232756.317   131393589.427       -2300.969          42.000                                                                  
C16  37173498.844   193572165.580          37.936          48.000    37173487.239   149682229.024          29.388          49.000  
C27  25255638.277   131512752.277        2757.961          40.000                                                                  
C19  25716833.595                2        225.692          31.000                                                                  
C09  37797603.689   196822044.419         206.218          46.000    37797588.476   152195230.235         159.588          48.000  
C11                                                                  27241938.107   109691997.629       -2023.962          41.000  
> 2025 10 28 08 30 51.4020000  0 24                     
G04  21659101.983   113819351.218         210.200          45.000    21659092.990    88690366.514         163.720          46.000  
G27  21651045.065   113777011.859        2358.109          47.000    21651036.878    88657384.159        1837.438          44.000  
G16  20678155.668   108664442.036        -416.833          46.000                                                                  
G08  23702252.163   124556201.458        3416.310          37.000    23702250.675    97056796.133        2662.382          40.000  
G09  23692548.713   124505184.750        2222.016          41.000    23692541.623    97017000.879        1731.227          39.000  
G31  22065193.917   115953373.471       -2152.103          47.000    22065182.702    90353230.004       -1676.815          44.000  
C06  36734372.237   191285502.056          38.381          47.000    36734355.000   147914025.869          29.646          48.000  
C32  26817352.000                       -3557.892          34.000                                                                  
C37  22905458.640   119274738.255        -603.087          49.000                                                                  
C07  38327864.908   199583252.407         684.444          42.000    38327847.905   154330368.764         529.185          46.000  
C13  41872714.123   218042261.065       -2303.282          35.000    41872746.396   168604251.938       -1781.202          39.000  
C20  24719887.164   128722940.636       -2216.912          46.000                                                                  
G18  25319679.901   133055817.006         837.952          38.000    25319671.401   103679824.262         653.047          40.000  
G28  24291013.599   127650135.575       -3032.306          39.000    24291006.431    99467597.493       -2362.695          41.000  
G03  25807365.566                       -3024.319          33.000    25807383.598   105676784.828       -2356.254          38.000  
G26  21862293.980   114887130.099       -2262.406          47.000    21862284.920    89522406.586       -1762.820          43.000  
C10  39392681.998   205128037.222         644.971          39.000    39392670.117   158617962.656         498.688          43.000  
C28  23817546.035   124024216.770        1310.293          47.000                                                                  
C23  25232773.993   131393681.489       -2301.222          42.000                                                                  
C16  37173498.593   193572164.109          37.339          48.000    37173486.975   149682227.890          28.812          49.000  
C27  25255617.117   131512642.017        2757.130          40.000                                                                  
C19  25716831.984                2        224.712          31.000                                                                  
C09  37797602.134   196822036.201         205.798          46.000    37797586.885   152195223.879         159.229          48.000  
C11                                                                  27241958.231   109692078.623       -2024.514          41.000  
> 2025 10 28 08 30 51.4420000  0 24                     
G04  21659100.386   113819342.861         209.282          45.000    21659091.387    88690360.002         163.021          46.000  
G27  21651027.126   113776917.586        2357.092          47.000    21651018.953    88657310.701        1836.659          44.000  
G16  20678158.846   108664458.752        -417.677          46.000                                                                  
G08  23702226.169   124556064.837        3415.566          37.000    23702224.679    97056689.674        2661.635          40.000  
G09  23692531.814   124505095.926        2220.932          41.000    23692524.727    97016931.645        1730.849          39.000  
G31  22065210.294   115953459.601       -2152.946          47.000    22065199.104    90353297.113       -1677.471          44.000  
C06  36734371.971   191285500.581          37.297          47.000    36734354.756   147914024.730          28.804          48.000  
C32  26817379.342                       -3559.471          34.000                                                                  
C37  22905463.309   119274762.438        -604.204          49.000                                                                  
C07  38327859.661   199583225.082         683.446          42.000    38327842.663   154330347.633         528.474          46.000  
C13  41872731.812   218042353.210       -2303.634          35.000    41872764.108   168604323.231       -1782.139          39.000  
C20  24719904.231   128723029.377       -2218.113          46.000                                                                  
G18  25319673.517   133055783.531         837.017          38.000    25319665.043   103679798.194         651.993          40.000  
G28  24291036.709   127650256.921       -3033.423          39.000    24291029.538    99467692.053       -2363.757          41.000  
G03  25807388.625                       -3025.572          33.000    25807406.621   105676879.127       -2357.187          38.000  
G26  21862311.227   114887220.649       -2263.402          47.000    21862302.168    89522477.156       -1763.840          43.000  
C10  39392677.062   205128011.466         644.104          39.000    39392665.157   158617942.737         498.059          43.000  
C28  23817535.964   124024164.404        1309.354          47.000                                                                  
C23  25232791.705   131393773.593       -2302.191          42.000                                                                  
C16  37173498.329   193572162.662          36.499          48.000    37173486.728   149682226.777          28.083          49.000  
C27  25255595.958   131512531.783        2756.088          40.000                                                                  
C19  25716830.575                2        223.344          31.000                                                                  
C09  37797600.564   196822028.012         204.976          46.000    37797585.327   152195217.557         158.330          48.000  
C11                                                                  27241978.354   109692159.650       -2025.456          41.000  
> 2025 10 28 08 30 51.4820000  0 24                     
G04  21659098.825   113819334.550         208.003          45.000    21659089.802    88690353.533         161.930          46.000  
G27  21651009.194   113776823.345        2356.060          47.000    21651001.012    88657237.258        1836.053          44.000  
G16  20678162.042   108664475.507        -418.844          46.000                                                                  
G08  23702200.194   124555928.247        3414.634          37.000    23702198.686    97056583.252        2660.621          40.000  
G09  23692514.944   124505007.130        2219.844          41.000    23692507.812    97016862.450        1729.918          39.000  
G31  22065226.697   115953545.763       -2153.949          47.000    22065215.497    90353364.264       -1678.551          44.000  
C06  36734371.720   191285499.133          36.266          47.000    36734354.466   147914023.614          27.968          48.000  
C32  26817406.685                       -3560.341          34.000                                                                  
C37  22905467.967   119274786.646        -605.222          49.000                                                                  
C07  38327854.424   199583197.782         682.476          42.000    38327837.431   154330326.527         527.667          46.000  
C13  41872749.551   218042445.435       -2305.135          35.000    41872781.845   168604394.526       -1782.655          39.000  
C20  24719921.293   128723118.148       -2219.215          46.000                                                                  
G18  25319667.165   133055750.115         835.596          38.000    25319658.681   103679772.129         651.399          40.000  
G28  24291059.825   127650378.291       -3034.399          39.000    24291052.634    99467786.629       -2364.532          41.000  
G03  25807411.652                       -3026.053          33.000    25807429.658   105676973.453       -2358.104          38.000  
G26  21862328.476   114887311.241       -2264.660          47.000    21862319.402    89522547.746       -1764.719          43.000  
C10  39392672.116   205127985.755         642.853          39.000    39392660.213   158617922.851         497.137          43.000  
C28  23817525.915   124024112.070        1308.341          47.000                                                                  
C23  25232809.407   131393865.736       -2303.383          42.000                                                                  
C16  37173498.074   193572161.254          35.349          48.000    37173486.464   149682225.694          27.177          49.000  
C27  25255574.802   131512421.564        2755.323          40.000                                                                  
C19  25716829.551                2        222.710          31.000                                                                  
C09  37797599.002   196822019.853         204.050          46.000    37797583.760   152195211.257         157.482          48.000  
C11                                                                  27241998.479   109692240.709       -2026.488          41.000  
> 2025 10 28 08 30 51.5220000  0 24                     
G04  21659097.244   113819326.266         206.945          45.000    21659088.225    88690347.078         161.155          46.000  
G27  21650991.257   113776729.131        2355.140          47.000    21650983.046    88657163.854        1835.116          44.000  
G16  20678165.252   108664492.300        -420.012          46.000                                                                  
G08  23702174.194   124555791.695        3413.646          37.000    23702172.710    97056476.850        2659.798          40.000  
G09  23692498.054   124504918.363        2218.937          41.000    23692490.945    97016793.293        1728.832          39.000  
G31  22065243.110   115953631.966       -2155.115          47.000    22065231.892    90353431.443       -1679.557          44.000  
C06  36734371.460   191285497.715          35.264          47.000    36734354.188   147914022.522          27.171          48.000  
C32  26817434.044                       -3560.898          34.000                                                                  
C37  22905472.574   119274810.886        -606.208          49.000                                                                  
C07  38327849.189   199583170.526         681.321          42.000    38327832.196   154330305.447         526.880          46.000  
C13  41872767.282   218042537.692       -2306.415          35.000    41872799.541   168604465.863       -1783.586          39.000  
C20  24719938.340   128723206.948       -2220.227          46.000                                                                  
G18  25319660.796   133055716.691         835.076          38.000    25319652.318   103679746.094         650.690          40.000  
G28  24291082.924   127650499.683       -3035.181          39.000    24291075.751    99467881.234       -2365.320          41.000  
G03  25807434.704   135618946.399       -3026.078          33.000    25807452.706   105677067.794       -2358.788          38.000  
G26  21862345.731   114887401.860       -2265.696          47.000    21862336.676    89522618.365       -1765.620          43.000  
C10  39392667.198   205127960.044         642.438          39.000    39392655.299   158617902.986         496.393          43.000  
C28  23817515.863   124024059.763        1307.439          47.000                                                                  
C23  25232827.126   131393957.919       -2304.623          42.000                                                                  
C16  37173497.821   193572159.886          34.113          48.000    37173486.243   149682224.628          26.448          49.000  
C27  25255553.624   131512311.370        2754.606          40.000                                                                  
C19  25716827.620                2        221.516          31.000                                                                  
C09  37797597.445   196822011.733         202.917          46.000    37797582.179   152195204.980         156.740          48.000  
C11                                                                  27242018.631   109692321.779       -2027.060          41.000  
> 2025 10 28 08 30 51.5620000  0 24                     
G04  21659095.645   113819317.977         206.624          45.000    21659086.637    88690340.614         161.104          46.000  
G27  21650973.332   113776634.916        2354.850          47.000    21650965.102    88657090.433        1835.046          44.000  
G16  20678168.467   108664509.083        -420.174          46.000                                                                  
G08  23702148.206   124555655.121        3413.697          37.000    23702146.735    97056370.429        2659.993          40.000  
G09  23692481.168   124504829.591        2218.772          41.000    23692474.024    97016724.107        1729.041          39.000  
G31  22065259.496   115953718.159       -2155.394          47.000    22065248.327    90353498.599       -1679.526          44.000  
C06  36734371.234   191285496.293          35.000          47.000    36734353.902   147914021.420          27.092          48.000  
C32  26817461.397                       -3560.760          34.000                                                                  
C37  22905477.223   119274835.115        -606.323          49.000                                                                  
C07  38327843.962   199583143.265         680.959          42.000    38327826.973   154330284.355         526.828          46.000  
C13  41872784.996   218042629.924       -2306.346          35.000    41872817.246   168604537.169       -1783.280          39.000  
C20  24719955.409   128723295.735       -2220.326          46.000                                                                  
G18  25319654.412   133055683.264         835.069          38.000    25319645.965   103679720.062         650.467          40.000  
G28  24291106.041   127650621.075       -3035.339          39.000    24291098.847    99467975.829       -2365.308          41.000  
G03  25807457.736   135619067.492       -3027.206          33.000    25807475.747   105677162.122       -2358.726          38.000  
G26  21862362.982   114887492.464       -2265.760          47.000    21862353.928    89522688.957       -1765.466          43.000  
C10  39392662.253   205127934.339         642.340          39.000    39392650.405   158617883.109         496.448          43.000  
C28  23817505.818   124024007.450        1307.261          47.000                                                                  
C23  25232844.859   131394050.089       -2304.858          42.000                                                                  
C16  37173497.570   193572158.505          33.906          48.000    37173486.021   149682223.551          26.422          49.000  
C27  25255532.484   131512201.177        2754.426          40.000                                                                  
C19  25716826.038                2        220.710          31.000                                                                  
C09  37797595.891   196822003.606         202.650          46.000    37797580.619   152195198.684         156.874          48.000  
C11                                                                  27242038.768   109692402.827       -2026.765          41.000  
> 2025 10 28 08 30 51.6020000  0 24                     
G04  21659094.063   113819309.682         206.766          45.000    21659085.055    88690334.138         161.378          46.000  
G27  21650955.396   113776540.684        2355.152          47.000    21650947.164    88657017.010        1835.177          44.000  
G16  20678171.667   108664525.844        -419.621          47.000                                                                  
G08  23702122.220   124555518.524        3414.405          37.000    23702120.729    97056263.993        2660.491          40.000  
G09  23692464.267   124504740.801        2219.231          41.000    23692457.112    97016654.937        1729.011          39.000  
G31  22065275.915   115953804.338       -2155.118          47.000    22065264.723    90353565.757       -1679.330          44.000  
C06  36734370.990   191285494.855          35.302          47.000    36734353.624   147914020.303          27.419          48.000  
C32  26817488.755                       -3560.461          34.000                                                                  
C37  22905481.874   119274859.333        -605.989          49.000                                                                  
C07  38327838.722   199583115.968         681.650          42.000    38327821.713   154330263.260         526.969          46.000  
C13  41872802.696   218042722.156       -2306.143          35.000    41872834.957   168604608.480       -1783.081          39.000  
C20  24719972.461   128723384.507       -2219.956          46.000                                                                  
G18  25319648.063   133055649.827         835.358          38.000    25319639.626   103679694.009         650.823          40.000  
G28  24291129.142   127650742.465       -3035.211          39.000    24291121.949    99468070.406       -2364.856          41.000  
G03  25807480.783   135619188.548       -3026.994          33.000    25807498.781   105677256.454       -2358.590          38.000  
G26  21862380.221   114887583.057       -2265.448          47.000    21862371.168    89522759.549       -1765.229          43.000  
C10  39392657.338   205127908.646         642.126          39.000    39392645.422   158617863.230         496.625          43.000  
C28  23817495.784   124023955.133        1307.489          47.000                                                                  
C23  25232862.542   131394142.233       -2304.291          42.000                                                                  
C16  37173497.330   193572157.101          34.387          48.000    37173485.765   149682222.474          26.545          49.000  
C27  25255511.343   131512090.996        2754.243          40.000                                                                  
C19  25716823.988                2        221.982          31.000                                                                  
C09  37797594.341   196821995.464         203.013          46.000    37797579.061   152195192.388         157.056          48.000  
C11                                                                  27242058.858   109692483.867       -2026.318          41.000  
> 2025 10 28 08 30 51.6420000  0 24                     
G04  21659092.469   113819301.342         207.781          45.000    21659083.455    88690327.641         162.027          46.000  
G27  21650937.463   113776446.416        2356.107          47.000    21650929.202    88656943.563        1835.829          44.000  
G16  20678174.865   108664542.571        -418.580          46.000                                                                  
G08  23702096.231   124555381.918        3415.059          37.000    23702094.725    97056157.540        2661.107          40.000  
G09  23692447.359   124504651.978        2220.154          41.000    23692440.196    97016585.720        1730.012          39.000  
G31  22065292.334   115953890.474       -2154.056          47.000    22065281.110    90353632.871       -1678.394          44.000  
C06  36734370.754   191285493.381          36.252          47.000    36734353.339   147914019.160          28.150          48.000  
C32  26817516.095                       -3559.343          34.000                                                                  
C37  22905486.526   119274883.512        -604.953          49.000                                                                  
C07  38327833.485   199583088.631         682.939          42.000    38327816.451   154330242.128         527.886          46.000  
C13  41872820.372   218042814.314       -2304.527          35.000    41872852.672   168604679.768       -1782.494          39.000  
C20  24719989.510   128723473.251       -2219.098          46.000                                                                  
G18  25319641.708   133055616.388         835.764          38.000    25319633.249   103679667.930         651.589          40.000  
G28  24291152.248   127650863.805       -3034.009          39.000    24291145.043    99468164.956       -2363.995          41.000  
G03  25807503.804   135619309.553       -3025.752          33.000    25807521.790   105677350.716       -2357.113          38.000  
G26  21862397.460   114887673.613       -2264.440          47.000    21862388.393    89522830.107       -1764.418          43.000  
C10  39392652.395   205127882.883         643.500          39.000    39392640.527   158617843.318         497.485          43.000  
C28  23817485.741   124023902.771        1308.559          47.000                                                                  
C23  25232880.225   131394234.333       -2303.063          42.000                                                                  
C16  37173497.081   193572155.656          35.544          48.000    37173485.497   149682221.364          27.305          49.000  
C27  25255490.151   131511980.758        2755.319          40.000                                                                  
C19  25716822.288                2        223.804          31.000                                                                  
C09  37797592.769   196821987.285         204.037          46.000    37797577.495   152195186.059         157.851          48.000  
C11                                                                  27242078.994   109692564.893       -2025.720          41.000  
> 2025 10 28 08 30 51.6820000  0 24                     
G04  21659090.859   113819292.925         209.761          45.000    21659081.873    88690321.087         163.430          46.000  
G27  21650919.518   113776352.082        2357.858          47.000    21650911.241    88656870.052        1837.279          44.000  
G16  20678178.022   108664559.239        -416.982          46.000                                                                  
G08  23702070.220   124555245.253        3416.467          37.000    23702068.709    97056051.050        2662.117          40.000  
G09  23692430.422   124504563.093        2221.842          41.000    23692423.280    97016516.452        1731.469          40.000  
G31  22065308.713   115953976.550       -2152.416          47.000    22065297.490    90353699.944       -1677.128          44.000  
C06  36734370.453   191285491.844          37.935          47.000    36734352.996   147914017.969          29.414          48.000  
C32  26817543.417                       -3557.978          34.000                                                                  
C37  22905491.127   119274907.627        -603.246          49.000                                                                  
C07  38327828.218   199583061.252         684.337          42.000    38327811.191   154330220.950         529.189          46.000  
C13  41872838.039   218042906.422       -2302.839          35.000    41872870.358   168604751.005       -1781.177          39.000  
C20  24720006.525   128723561.925       -2217.380          46.000                                                                  
G18  25319635.329   133055582.858         837.661          38.000    25319626.876   103679641.811         652.758          40.000  
G28  24291175.307   127650985.094       -3032.483          39.000    24291168.104    99468259.464       -2362.872          41.000  
G03  25807526.839   135619430.524       -3024.594          33.000    25807544.797   105677444.977       -2356.375          38.000  
G26  21862414.664   114887764.109       -2262.833          47.000    21862405.633    89522900.632       -1763.395          43.000  
C10  39392647.444   205127857.078         645.020          39.000    39392635.557   158617823.351         498.932          43.000  
C28  23817475.652   124023850.341        1310.433          47.000                                                                  
C23  25232897.898   131394326.382       -2301.469          42.000                                                                  
C16  37173496.811   193572154.153          37.178          48.000    37173485.195   149682220.198          28.741          49.000  
C27  25255468.959   131511870.454        2757.057          40.000                                                                  
C19  25716820.390                2        224.120          31.000                                                                  
C09  37797591.169   196821979.038         205.777          46.000    37797575.892   152195179.683         159.132          48.000  
C11                                                                  27242099.111   109692645.872       -2024.651          41.000  
> 2025 10 28 08 30 51.7220000  0 24                     
G04  21659089.214   113819284.495         210.942          45.000    21659080.251    88690314.525         164.190          46.000  
G27  21650901.561   113776257.735        2358.868          47.000    21650893.255    88656796.532        1838.138          44.000  
G16  20678181.194   108664575.895        -416.076          47.000                                                                  
G08  23702044.239   124555108.584        3417.093          37.000    23702042.703    97055944.545        2662.784          40.000  
G09  23692413.502   124504474.201        2222.627          41.000    23692406.349    97016447.186        1732.033          40.000  
G31  22065325.079   115954062.605       -2151.267          47.000    22065313.880    90353767.001       -1676.298          44.000  
C06  36734370.140   191285490.282          39.135          47.000    36734352.672   147914016.772          30.093          48.000  
C32  26817570.750                       -3557.092          34.000                                                                  
C37  22905495.741   119274931.736        -602.418          49.000                                                                  
C07  38327822.971   199583033.865         685.033          42.000    38327805.916   154330199.773         529.739          46.000  
C13  41872855.718   218042998.530       -2302.162          35.000    41872888.034   168604822.227       -1780.375          39.000  
C20  24720023.553   128723650.581       -2216.258          46.000                                                                  
G18  25319628.927   133055549.313         838.721          38.000    25319620.501   103679615.672         653.549          40.000  
G28  24291198.366   127651106.370       -3031.622          39.000    24291191.194    99468353.962       -2362.213          41.000  
G03  25807549.843   135619551.459       -3023.403          33.000    25807567.840   105677539.229       -2356.050          38.000  
G26  21862431.882   114887854.582       -2261.700          47.000    21862422.854    89522971.133       -1762.528          43.000  
C10  39392642.471   205127831.255         645.898          39.000    39392630.579   158617803.389         499.420          43.000  
C28  23817465.548   124023797.904        1311.278          47.000                                                                  
C23  25232915.577   131394418.408       -2300.373          42.000                                                                  
C16  37173496.541   193572152.639          38.134          48.000    37173484.896   149682219.027          29.480          49.000  
C27  25255447.810   131511760.150        2757.910          40.000                                                                  
C19  25716818.493                2        224.948          31.000                                                                  
C09  37797589.568   196821970.776         206.803          46.000    37797574.308   152195173.304         159.714          48.000  
C11                                                                  27242119.244   109692726.840       -2023.960          41.000  
> 2025 10 28 08 30 51.7620000  0 24                     
G04  21659087.613   113819276.104         210.648          45.000    21659078.644    88690307.982         164.133          46.000  
G27  21650883.604   113776163.413        2358.758          47.000    21650875.304    88656723.046        1837.837          44.000  
G16  20678184.370   108664592.578        -416.373          47.000                                                                  
G08  23702018.239   124554971.909        3417.309          37.000    23702016.682    97055838.039        2662.958          40.000  
G09  23692396.595   124504385.327        2222.493          41.000    23692389.437    97016377.935        1731.846          39.000  
G31  22065341.461   115954148.695       -2151.469          47.000    22065330.250    90353834.083       -1676.459          44.000  
C06  36734369.855   191285488.749          39.059          47.000    36734352.342   147914015.588          30.082          48.000  
C32  26817598.093                       -3557.202          34.000                                                                  
C37  22905500.380   119274955.866        -602.593          49.000                                                                  
C07  38327817.706   199583006.487         685.029          42.000    38327800.678   154330178.604         529.670          46.000  
C13  41872873.417   218043090.667       -2302.634          35.000    41872905.729   168604893.463       -1780.407          39.000  
C20  24720040.601   128723739.272       -2216.478          46.000                                                                  
G18  25319622.550   133055515.782         838.835          39.000    25319614.120   103679589.553         653.484          40.000  
G28  24291221.452   127651227.660       -3031.683          39.000    24291214.277    99468448.478       -2362.396          41.000  
G03  25807572.883   135619672.429       -3023.557          33.000    25807590.858   105677633.500       -2356.349          38.000  
G26  21862449.105   114887945.076       -2261.681          47.000    21862440.084    89523041.655       -1762.550          43.000  
C10  39392637.506   205127805.456         645.624          39.000    39392625.621   158617783.434         499.341          43.000  
C28  23817455.481   124023745.495        1310.949          47.000                                                                  
C23  25232933.266   131394510.479       -2300.870          42.000                                                                  
C16  37173496.266   193572151.150          37.954          48.000    37173484.567   149682217.868          29.500          49.000  
C27  25255426.598   131511649.854        2757.956          40.000                                                                  
C19  25716816.935                2        224.373          32.000                                                                  
C09  37797588.004   196821962.547         206.489          46.000    37797572.725   152195166.934         159.683          48.000  
C11                                                                  27242139.361   109692807.828       -2024.176          41.000  
> 2025 10 28 08 30 51.8020000  0 24                     
G04  21659086.012   113819267.747         209.697          45.000    21659077.034    88690301.467         163.453          46.000  
G27  21650865.643   113776069.126        2357.927          47.000    21650857.363    88656649.561        1837.523          44.000  
G16  20678187.545   108664609.285        -417.158          47.000                                                                  
G08  23701992.230   124554835.259        3416.763          37.000    23701990.695    97055731.568        2662.297          40.000  
G09  23692379.679   124504296.494        2221.483          41.000    23692372.515    97016308.719        1730.937          39.000  
G31  22065357.835   115954234.814       -2152.288          47.000    22065346.647    90353901.191       -1677.188          44.000  
C06  36734369.599   191285487.254          38.168          47.000    36734352.001   147914014.423          29.604          48.000  
C32  26817625.435                       -3558.248          34.000                                                                  
C37  22905505.031   119274980.027        -603.408          49.000                                                                  
C07  38327812.459   199582979.140         684.255          42.000    38327795.457   154330157.453         529.181          46.000  
C13  41872891.110   218043182.832       -2303.548          35.000    41872923.432   168604964.726       -1781.075          39.000  
C20  24720057.640   128723827.991       -2217.283          46.000                                                                  
G18  25319616.180   133055482.306         837.706          39.000    25319607.764   103679563.461         652.852          40.000  
G28  24291244.521   127651348.970       -3032.263          39.000    24291237.363    99468543.010       -2362.933          41.000  
G03  25807595.910   135619793.390       -3023.642          33.000    25807613.892   105677727.764       -2356.487          38.000  
G26  21862466.307   114888035.615       -2262.662          47.000    21862457.333    89523112.193       -1762.997          43.000  
C10  39392632.567   205127779.689         644.696          39.000    39392620.712   158617763.512         498.517          43.000  
C28  23817445.448   124023693.124        1309.871          47.000                                                                  
C23  25232950.948   131394602.573       -2301.726          42.000                                                                  
C16  37173496.000   193572149.691          37.161          48.000    37173484.282   149682216.737          28.872          49.000  
C27  25255405.413   131511539.576        2757.490          40.000                                                                  
C19  25716815.033                2        224.810          32.000                                                                  
C09  37797586.408   196821954.352         205.533          46.000    37797571.170   152195160.597         158.929          48.000  
C11                                                                  27242159.499   109692888.857       -2025.177          41.000  
> 2025 10 28 08 30 51.8420000  0 24                     
G04  21659084.435   113819259.421         208.535          45.000    21659075.430    88690294.975         162.567          46.000  
G27  21650847.720   113775974.873        2356.782          47.000    21650839.435    88656576.113        1836.566          44.000  
G16  20678190.733   108664626.027        -418.294          47.000                                                                  
G08  23701966.247   124554698.646        3415.735          37.000    23701964.695    97055625.125        2661.358          39.000  
G09  23692362.781   124504207.668        2220.764          41.000    23692355.622    97016239.514        1730.198          40.000  
G31  22065374.210   115954320.964       -2153.374          47.000    22065363.042    90353968.322       -1678.041          44.000  
C06  36734369.361   191285485.786          37.068          47.000    36734351.691   147914013.282          28.841          48.000  
C32  26817652.791                       -3559.826          34.000                                                                  
C37  22905509.685   119275004.218        -604.475          49.000                                                                  
C07  38327807.217   199582951.832         683.076          42.000    38327790.224   154330136.339         528.183          46.000  
C13  41872908.816   218043275.023       -2304.553          35.000    41872941.110   168605036.027       -1782.125          39.000  
C20  24720074.669   128723916.744       -2218.420          46.000                                                                  
G18  25319609.833   133055448.869         836.377          39.000    25319601.404   103679537.388         652.069          40.000  
G28  24291267.599   127651470.328       -3033.594          39.000    24291260.475    99468637.573       -2363.892          41.000  
G03  25807618.973   135619914.428       -3025.236          33.000    25807636.934   105677822.064       -2357.291          38.000  
G26  21862483.573   114888126.188       -2263.904          47.000    21862474.587    89523182.758       -1763.822          43.000  
C10  39392627.640   205127753.939         643.866          39.000    39392615.791   158617743.614         497.565          43.000  
C28  23817435.381   124023640.774        1308.860          47.000                                                                  
C23  25232968.628   131394694.693       -2302.739          42.000                                                                  
C16  37173495.749   193572148.258          36.193          48.000    37173483.970   149682215.641          27.789          49.000  
C27  25255384.247   131511429.363        2755.967          40.000                                                                  
C19  25716813.877                2        223.964          32.000                                                                  
C09  37797584.870   196821946.179         204.538          46.000    37797569.618   152195154.274         158.242          48.000  
C11                                                                  27242179.637   109692969.888       -2025.797          41.000  
> 2025 10 28 08 30 51.8820000  0 24                     
G04  21659082.871   113819251.126         207.415          45.000    21659073.865    88690288.526         161.402          46.000  
G27  21650829.800   113775880.654        2355.570          47.000    21650821.499    88656502.687        1835.724          44.000  
G16  20678193.926   108664642.808        -419.536          47.000                                                                  
G08  23701940.263   124554562.071        3414.459          37.000    23701938.710    97055518.704        2660.494          40.000  
G09  23692345.901   124504118.898        2219.453          41.000    23692338.744    97016170.338        1729.354          40.000  
G31  22065390.604   115954407.159       -2154.717          46.000    22065379.446    90354035.479       -1678.887          44.000  
C06  36734369.114   191285484.358          35.830          48.000    36734351.422   147914012.179          27.780          48.000  
C32  26817680.156                       -3560.353          34.000                                                                  
C37  22905514.330   119275028.443        -605.593          50.000                                                                  
C07  38327801.965   199582924.547         682.074          42.000    38327784.999   154330115.250         527.195          46.000  
C13  41872926.523   218043367.240       -2305.521          35.000    41872958.817   168605107.334       -1782.751          39.000  
C20  24720091.745   128724005.534       -2219.646          47.000                                                                  
G18  25319603.484   133055415.429         835.778          39.000    25319595.063   103679511.362         650.822          40.000  
G28  24291290.698   127651591.723       -3034.863          39.000    24291283.591    99468732.169       -2364.966          41.000  
G03  25807642.011   135620035.490       -3026.528          33.000    25807659.974   105677916.387       -2358.057          38.000  
G26  21862500.829   114888216.788       -2264.991          47.000    21862491.822    89523253.360       -1764.860          43.000  
C10  39392622.674   205127728.234         642.670          39.000    39392610.855   158617723.738         496.765          43.000  
C28  23817425.317   124023588.459        1307.806          47.000                                                                  
C23  25232986.311   131394786.844       -2303.739          43.000                                                                  
C16  37173495.486   193572146.867          34.930          49.000    37173483.688   149682214.569          26.846          49.000  
C27  25255363.105   131511319.163        2754.964          40.000                                                                  
C19  25716812.471                2        222.178          32.000                                                                  
C09  37797583.305   196821938.030         203.664          46.000    37797568.044   152195147.976         157.463          48.000  
C11                                                                  27242199.807   109693050.941       -2026.434          41.000  
> 2025 10 28 08 30 51.9220000  0 24                     
G04  21659081.304   113819242.820         207.147          45.000    21659072.303    88690282.054         161.286          46.000  
G27  21650811.862   113775786.425        2355.257          47.000    21650803.572    88656429.271        1835.156          44.000  
G16  20678197.115   108664659.564        -419.493          47.000                                                                  
G08  23701914.259   124554425.486        3414.181          37.000    23701912.710    97055412.284        2660.112          40.000  
G09  23692329.004   124504030.104        2219.374          41.000    23692321.841    97016101.146        1729.378          40.000  
G31  22065407.019   115954493.323       -2154.708          46.000    22065395.843    90354102.626       -1679.067          44.000  
C06  36734368.855   191285482.913          35.609          48.000    36734351.130   147914011.064          27.523          48.000  
C32  26817707.526                       -3559.642          34.000                                                                  
C37  22905519.014   119275052.648        -605.634          50.000                                                                  
C07  38327796.738   199582897.260         681.758          42.000    38327779.749   154330094.145         527.124          46.000  
C13  41872944.225   218043459.444       -2305.608          35.000    41872976.518   168605178.634       -1782.797          39.000  
C20  24720108.809   128724094.302       -2219.738          47.000                                                                  
G18  25319597.126   133055381.997         835.522          38.000    25319588.699   103679485.306         650.830          40.000  
G28  24291313.814   127651713.103       -3034.991          39.000    24291306.688    99468826.748       -2364.954          41.000  
G03  25807665.044   135620156.525       -3026.534          33.000    25807683.009   105678010.706       -2358.302          38.000  
G26  21862518.069   114888307.378       -2265.245          47.000    21862509.078    89523323.955       -1765.215          43.000  
C10  39392617.731   205127702.510         642.670          39.000    39392605.901   158617703.843         496.887          43.000  
C28  23817415.273   124023536.122        1307.858          47.000                                                                  
C23  25233004.022   131394878.992       -2304.092          43.000                                                                  
C16  37173495.233   193572145.459          34.717          49.000    37173483.443   149682213.477          26.792          49.000  
C27  25255341.951   131511208.952        2754.764          40.000                                                                  
C19  25716810.531                2        221.394          32.000                                                                  
C09  37797581.747   196821929.880         203.355          46.000    37797566.483   152195141.670         157.316          48.000  
C11                                                                  27242219.921   109693131.983       -2026.398          41.000  
> 2025 10 28 08 30 51.9620000  0 24                     
G04  21659079.730   113819234.476         207.880          45.000    21659070.706    88690275.549         161.967          46.000  
G27  21650793.946   113775692.151        2356.065          47.000    21650785.638    88656355.815        1835.718          44.000  
G16  20678200.295   108664676.288        -418.707          47.000                                                                  
G08  23701888.283   124554288.847        3415.175          37.000    23701886.712    97055305.838        2660.583          40.000  
G09  23692312.122   124503941.276        2220.111          41.000    23692304.923    97016031.933        1729.996          40.000  
G31  22065423.425   115954579.460       -2154.059          46.000    22065412.236    90354169.738       -1678.384          44.000  
C06  36734368.592   191285481.419          36.533          48.000    36734350.824   147914009.915          28.108          48.000  
C32  26817734.862                       -3558.930          34.000                                                                  
C37  22905523.637   119275076.815        -604.805          50.000                                                                  
C07  38327791.489   199582869.923         682.647          42.000    38327774.511   154330073.013         527.750          46.000  
C13  41872961.935   218043551.619       -2304.913          35.000    41872994.216   168605249.923       -1782.479          39.000  
C20  24720125.838   128724183.045       -2219.196          47.000                                                                  
G18  25319590.764   133055348.535         836.069          38.000    25319582.341   103679459.225         651.451          40.000  
G28  24291336.931   127651834.440       -3034.070          39.000    24291329.772    99468921.285       -2363.989          41.000  
G03  25807688.084   135620277.546       -3026.012          34.000    25807706.019   105678105.001       -2357.887          38.000  
G26  21862535.278   114888397.923       -2264.421          47.000    21862526.311    89523394.519       -1764.701          43.000  
C10  39392612.778   205127676.742         643.640          39.000    39392600.946   158617683.915         497.723          43.000  
C28  23817405.228   124023483.753        1308.650          47.000                                                                  
C23  25233021.688   131394971.087       -2303.147          43.000                                                                  
C16  37173494.948   193572144.010          35.503          49.000    37173483.170   149682212.357          27.408          49.000  
C27  25255320.769   131511098.715        2755.320          40.000                                                                  
C19  25716808.814                2        222.642          32.000                                                                  
C09  37797580.157   196821921.695         204.014          46.000    37797564.920   152195135.347         157.693          48.000  
C11                                                                  27242240.028   109693213.003       -2025.903          41.000  
> 2025 10 28 08 30 52.0020000  0 24                     
G04  21659078.131   113819226.104         208.843          45.000    21659069.137    88690269.022         162.818          46.000  
G27  21650776.007   113775597.844        2357.164          47.000    21650767.710    88656282.339        1836.472          44.000  
G16  20678203.499   108664692.993        -417.891          47.000                                                                  
G08  23701862.270   124554152.214        3415.665          37.000    23701860.689    97055199.350        2661.641          40.000  
G09  23692295.203   124503852.443        2220.601          41.000    23692288.011    97015962.696        1730.678          40.000  
G31  22065439.799   115954665.569       -2153.126          46.000    22065428.624    90354236.840       -1677.791          44.000  
C06  36734368.296   191285479.905          37.448          48.000    36734350.483   147914008.739          28.948          48.000  
C32  26817762.190                       -3558.001          34.000                                                                  
C37  22905528.261   119275100.965        -604.001          50.000                                                                  
C07  38327786.236   199582842.560         683.678          42.000    38327769.265   154330051.859         528.490          46.000  
C13  41872979.624   218043643.780       -2304.216          35.000    41873011.911   168605321.181       -1781.758          39.000  
C20  24720142.854   128724271.754       -2218.218          47.000                                                                  
G18  25319584.383   133055315.028         837.123          38.000    25319575.980   103679433.128         652.161          40.000  
G28  24291360.005   127651955.748       -3033.001          39.000    24291352.840    99469015.828       -2363.617          41.000  
G03  25807711.112   135620398.560       -3025.553          34.000    25807729.031   105678199.251       -2356.857          38.000  
G26  21862552.514   114888488.447       -2263.532          47.000    21862543.523    89523465.052       -1763.802          43.000  
C10  39392607.804   205127650.959         644.464          39.000    39392595.963   158617663.984         498.193          43.000  
C28  23817395.152   124023431.365        1309.452          47.000                                                                  
C23  25233039.367   131395063.163       -2302.265          43.000                                                                  
C16  37173494.668   193572142.533          36.492          49.000    37173482.873   149682211.215          28.199          49.000  
C27  25255299.571   131510988.443        2756.291          40.000                                                                  
C19  25716806.799                2        223.535          32.000                                                                  
C09  37797578.576   196821913.471         205.137          47.000    37797563.326   152195128.996         158.411          48.000  
C11                                                                  27242260.142   109693293.999       -2025.115          41.000  
> 2025 10 28 08 30 52.0420000  0 24                     
G04  21659076.530   113819217.758         208.865          45.000    21659067.529    88690262.519         162.788          46.000  
G27  21650758.077   113775503.567        2357.153          47.000    21650749.759    88656208.865        1836.829          44.000  
G16  20678206.661   108664709.720        -417.965          47.000                                                                  
G08  23701836.281   124554015.597        3415.573          37.000    23701834.660    97055092.873        2661.983          39.000  
G09  23692278.292   124503763.605        2220.920          41.000    23692271.124    97015893.477        1730.709          40.000  
G31  22065456.193   115954751.696       -2153.003          46.000    22065445.033    90354303.953       -1677.726          44.000  
C06  36734368.015   191285478.413          37.516          48.000    36734350.166   147914007.586          28.989          48.000  
C32  26817789.536                       -3558.872          34.000                                                                  
C37  22905532.888   119275125.142        -604.148          50.000                                                                  
C07  38327781.003   199582815.243         683.320          42.000    38327763.989   154330030.720         528.560          46.000  
C13  41872997.304   218043735.929       -2303.757          35.000    41873029.629   168605392.439       -1781.427          40.000  
C20  24720159.868   128724360.481       -2218.063          47.000                                                                  
G18  25319578.018   133055281.554         837.070          38.000    25319569.610   103679407.038         652.405          40.000  
G28  24291383.101   127652077.081       -3033.008          39.000    24291375.929    99469110.369       -2363.446          41.000  
G03  25807734.133   135620519.526       -3024.418          34.000    25807752.060   105678293.548       -2357.108          38.000  
G26  21862569.754   114888578.984       -2263.328          47.000    21862560.744    89523535.603       -1763.652          43.000  
C10  39392602.834   205127625.199         644.275          39.000    39392590.997   158617644.065         498.120          43.000  
C28  23817385.101   124023379.007        1309.220          47.000                                                                  
C23  25233057.049   131395155.268       -2302.355          44.000                                                                  
C16  37173494.408   193572141.078          36.580          49.000    37173482.586   149682210.091          28.269          49.000  
C27  25255278.378   131510878.171        2756.817          40.000                                                                  
C19  25716804.904                2        223.119          32.000                                                                  
C09  37797576.965   196821905.272         205.192          47.000    37797561.735   152195122.651         158.675          48.000  
C11                                                                  27242280.238   109693375.023       -2025.334          41.000  
> 2025 10 28 08 30 52.0820000  0 24                     
G04  21659074.936   113819209.442         208.283          45.000    21659065.984    88690256.038         162.322          46.000  
G27  21650740.137   113775409.333        2356.308          47.000    21650731.827    88656135.424        1836.340          44.000  
G16  20678209.868   108664726.476        -418.618          47.000                                                                  
G08  23701810.304   124553879.036        3414.433          37.000    23701808.677    97054986.458        2660.969          39.000  
G09  23692261.384   124503674.829        2219.807          41.000    23692254.210    97015824.284        1730.082          40.000  
G31  22065472.582   115954837.856       -2153.623          46.000    22065461.428    90354371.095       -1678.218          44.000  
C06  36734367.768   191285476.950          36.963          48.000    36734349.864   147914006.454          28.580          48.000  
C32  26817816.892                       -3559.962          34.000                                                                  
C37  22905537.547   119275149.346        -604.790          50.000                                                                  
C07  38327775.768   199582787.939         682.815          42.000    38327758.718   154330009.604         528.140          46.000  
C13  41873015.003   218043828.134       -2304.660          35.000    41873047.326   168605463.738       -1782.181          40.000  
C20  24720176.900   128724449.239       -2218.575          47.000                                                                  
G18  25319571.660   133055248.132         836.088          39.000    25319563.256   103679380.984         651.807          40.000  
G28  24291406.205   127652198.451       -3033.856          39.000    24291399.024    99469204.939       -2363.983          41.000  
G03  25807757.143   135620640.550       -3025.009          34.000    25807775.081   105678387.849       -2357.382          38.000  
G26  21862586.986   114888669.560       -2263.978          47.000    21862577.994    89523606.175       -1764.027          43.000  
C10  39392597.885   205127599.481         643.274          39.000    39392586.074   158617624.167         497.650          43.000  
C28  23817375.038   124023326.673        1308.577          47.000                                                                  
C23  25233074.740   131395247.398       -2302.963          44.000                                                                  
C16  37173494.124   193572139.658          35.914          49.000    37173482.318   149682208.985          27.896          49.000  
C27  25255257.200   131510767.972        2755.675          40.000                                                                  
C19  25716802.810                2        222.863          32.000                                                                  
C09  37797575.396   196821897.117         204.320          47.000    37797560.206   152195116.337         158.156          48.000  
C11                                                                  27242300.396   109693456.076       -2026.056          41.000  
> 2025 10 28 08 30 52.1220000  0 24                     
G04  21659073.358   113819201.167         207.208          45.000    21659064.408    88690249.582         161.590          46.000  
G27  21650722.193   113775315.118        2355.478          47.000    21650713.905    88656062.015        1835.499          44.000  
G16  20678213.069   108664743.257        -419.430          47.000                                                                  
G08  23701784.321   124553742.458        3414.147          37.000    23701782.696    97054880.046        2660.320          39.000  
G09  23692244.478   124503586.050        2219.321          41.000    23692237.312    97015755.128        1729.083          40.000  
G31  22065488.998   115954924.046       -2154.547          46.000    22065477.832    90354438.261       -1678.961          44.000  
C06  36734367.505   191285475.522          36.013          48.000    36734349.584   147914005.351          27.801          48.000  
C32  26817844.230   139647543.486       -3560.763          34.000                                                                  
C37  22905542.209   119275173.572        -605.563          50.000                                                                  
C07  38327770.516   199582760.668         681.958          42.000    38327753.518   154329988.521         527.274          46.000  
C13  41873032.705   218043920.347       -2305.248          35.000    41873065.059   168605535.051       -1782.813          40.000  
C20  24720193.966   128724538.034       -2219.549          47.000                                                                  
G18  25319565.309   133055214.726         835.201          39.000    25319556.911   103679354.953         651.000          40.000  
G28  24291429.290   127652319.843       -3034.711          39.000    24291422.138    99469299.534       -2364.777          41.000  
G03  25807780.190   135620761.620       -3026.275          34.000    25807798.104   105678482.206       -2358.570          38.000  
G26  21862604.227   114888760.165       -2264.852          47.000    21862595.255    89523676.769       -1764.659          43.000  
C10  39392592.973   205127573.792         642.303          39.000    39392581.153   158617604.299         496.790          43.000  
C28  23817364.996   124023274.364        1307.790          47.000                                                                  
C23  25233092.424   131395339.554       -2303.744          44.000                                                                  
C16  37173493.869   193572138.267          35.006          49.000    37173482.024   149682207.919          26.976          49.000  
C27  25255236.046   131510657.785        2754.774          40.000                                                                  
C19  25716801.020                2        222.355          33.000                                                                  
C09  37797573.852   196821888.981         203.495          47.000    37797558.634   152195110.052         157.346          48.000  
C11                                                                  27242320.551   109693537.141       -2026.646          41.000  
> 2025 10 28 08 30 52.1620000  0 24                     
G04  21659071.775   113819192.896         206.611          45.000    21659062.836    88690243.138         161.054          46.000  
G27  21650704.268   113775220.918        2354.857          47.000    21650696.001    88655988.621        1834.818          44.000  
G16  20678216.257   108664760.052        -420.007          47.000                                                                  
G08  23701758.343   124553605.876        3414.273          37.000    23701756.713    97054773.641        2659.935          39.000  
G09  23692227.604   124503497.302        2218.614          41.000    23692220.418    97015685.986        1728.434          40.000  
G31  22065505.416   115955010.260       -2155.389          46.000    22065494.253    90354505.435       -1679.457          44.000  
C06  36734367.223   191285474.108          35.309          48.000    36734349.313   147914004.256          27.276          48.000  
C32  26817871.578   139647685.912       -3561.169          34.000                                                                  
C37  22905546.835   119275197.821        -606.299          50.000                                                                  
C07  38327765.273   199582733.401         681.486          42.000    38327748.289   154329967.441         526.846          46.000  
C13  41873050.423   218044012.574       -2305.719          36.000    41873082.792   168605606.372       -1783.210          40.000  
C20  24720211.024   128724626.843       -2220.277          47.000                                                                  
G18  25319558.939   133055181.318         834.842          39.000    25319550.583   103679328.926         650.514          40.000  
G28  24291452.389   127652441.265       -3035.632          39.000    24291445.246    99469394.147       -2365.424          41.000  
G03  25807803.205   135620882.691       -3026.888          34.000    25807821.145   105678576.542       -2358.726          38.000  
G26  21862621.483   114888850.789       -2265.644          47.000    21862612.498    89523747.393       -1765.493          43.000  
C10  39392588.021   205127548.103         641.895          39.000    39392576.217   158617584.431         496.490          43.000  
C28  23817354.952   124023222.069        1307.183          47.000                                                                  
C23  25233110.124   131395431.725       -2304.368          44.000                                                                  
C16  37173493.570   193572136.895          34.242          49.000    37173481.741   149682206.855          26.459          49.000  
C27  25255214.877   131510547.598        2754.449          40.000                                                                  
C19  25716799.163                2        221.673          33.000                                                                  
C09  37797572.286   196821880.865         202.774          47.000    37797557.053   152195103.772         156.891          48.000  
C11                                                                  27242340.668   109693618.215       -2026.987          41.000  
> 2025 10 28 08 30 52.2020000  0 24                     
G04  21659070.182   113819184.630         206.314          45.000    21659061.253    88690236.701         160.703          46.000  
G27  21650686.318   113775126.718        2354.622          47.000    21650678.065    88655915.218        1834.706          44.000  
G16  20678219.438   108664776.854        -420.333          47.000                                                                  
G08  23701732.351   124553469.324        3413.778          37.000    23701730.718    97054667.241        2659.724          39.000  
G09  23692210.705   124503408.543        2218.561          41.000    23692203.554    97015616.824        1728.549          40.000  
G31  22065521.793   115955096.472       -2155.688          46.000    22065510.642    90354572.609       -1679.645          44.000  
C06  36734366.939   191285472.697          34.934          48.000    36734349.028   147914003.165          27.010          48.000  
C32  26817898.914                       -3560.742          34.000                                                                  
C37  22905551.516   119275222.066        -606.497          50.000                                                                  
C07  38327760.041   199582706.140         681.256          42.000    38327743.026   154329946.366         526.594          46.000  
C13  41873068.139   218044104.800       -2305.944          36.000    41873100.494   168605677.690       -1783.317          40.000  
C20  24720228.063   128724715.660       -2220.724          47.000                                                                  
G18  25319552.585   133055147.914         834.777          39.000    25319544.240   103679302.917         650.065          40.000  
G28  24291475.482   127652562.676       -3035.773          39.000    24291468.370    99469488.745       -2365.369          41.000  
G03  25807826.238   135621003.766       -3027.225          34.000    25807844.168   105678670.876       -2358.710          38.000  
G26  21862638.729   114888941.421       -2266.096          47.000    21862629.739    89523818.012       -1765.769          43.000  
C10  39392583.086   205127522.400         642.151          39.000    39392571.265   158617564.562         496.454          43.000  
C28  23817344.932   124023169.775        1307.000          47.000                                                                  
C23  25233127.818   131395523.900       -2304.648          44.000                                                                  
C16  37173493.308   193572135.516          34.059          49.000    37173481.449   149682205.787          26.351          49.000  
C27  25255193.719   131510437.413        2754.302          40.000                                                                  
C19  25716797.168                2        220.847          33.000                                                                  
C09  37797570.748   196821872.745         202.563          47.000    37797555.496   152195097.493         156.717          48.000  
C11                                                                  27242360.794   109693699.283       -2027.002          41.000  
> 2025 10 28 08 30 52.2420000  0 24                     
G04  21659068.621   113819176.382         205.964          45.000    21659059.694    88690230.280         160.317          46.000  
G27  21650668.380   113775032.544        2354.130          47.000    21650660.155    88655841.834        1834.393          44.000  
G16  20678222.637   108664793.677        -420.811          47.000                                                                  
G08  23701706.369   124553332.801        3413.011          37.000    23701704.743    97054560.853        2659.444          39.000  
G09  23692193.809   124503319.808        2218.162          41.000    23692186.652    97015547.668        1728.540          40.000  
G31  22065538.175   115955182.700       -2156.041          46.000    22065527.059    90354639.794       -1679.878          44.000  
C06  36734366.663   191285471.296          34.672          48.000    36734348.746   147914002.084          26.775          48.000  
C32  26817926.258   139647970.750       -3561.018          34.000                                                                  
C37  22905556.208   119275246.334        -606.935          50.000                                                                  
C07  38327754.837   199582678.898         680.818          42.000    38327737.812   154329925.301         526.404          46.000  
C13  41873085.870   218044197.070       -2306.771          36.000    41873118.215   168605749.043       -1783.940          40.000  
C20  24720245.112   128724804.493       -2221.135          47.000                                                                  
G18  25319546.261   133055114.546         834.102          39.000    25319537.897   103679276.906         649.922          40.000  
G28  24291498.592   127652684.111       -3036.120          39.000    24291491.483    99469583.367       -2365.668          41.000  
G03  25807849.294   135621124.875       -3027.927          34.000    25807867.222   105678765.242       -2359.171          38.000  
G26  21862655.973   114889032.066       -2266.479          47.000    21862646.982    89523888.637       -1765.936          43.000  
C10  39392578.141   205127496.724         641.815          39.000    39392566.307   158617544.718         496.002          43.000  
C28  23817334.903   124023117.507        1306.527          48.000                                                                  
C23  25233145.513   131395616.105       -2305.289          44.000                                                                  
C16  37173493.046   193572134.162          33.629          49.000    37173481.151   149682204.733          26.124          49.000  
C27  25255172.574   131510327.273        2753.484          40.000                                                                  
C19  25716795.466                2        220.138          33.000                                                                  
C09  37797569.190   196821864.634         202.403          47.000    37797553.954   152195091.228         156.429          48.000  
C11                                                                  27242380.930   109693780.377       -2027.444          41.000  
> 2025 10 28 08 30 52.2820000  0 24                     
G04  21659067.069   113819168.170         205.249          45.000    21659058.151    88690223.880         159.845          46.000  
G27  21650650.479   113774938.408        2353.287          47.000    21650642.241    88655768.479        1833.756          44.000  
G16  20678225.845   108664810.532        -421.488          47.000                                                                  
G08  23701680.401   124553196.305        3412.256          37.000    23701678.767    97054454.495        2658.821          39.000  
G09  23692176.895   124503231.126        2217.088          41.000    23692169.788    97015478.556        1727.842          40.000  
G31  22065554.565   115955268.952       -2156.514          46.000    22065543.474    90354707.007       -1680.394          44.000  
C06  36734366.385   191285469.926          34.074          48.000    36734348.465   147914001.024          26.378          48.000  
C32  26817953.613   139648113.212       -3561.580          34.000                                                                  
C37  22905560.844   119275270.626        -607.488          50.000                                                                  
C07  38327749.611   199582651.687         680.167          42.000    38327732.606   154329904.255         526.022          46.000  
C13  41873103.581   218044289.399       -2308.135          36.000    41873135.934   168605820.423       -1784.659          40.000  
C20  24720262.187   128724893.349       -2221.638          47.000                                                                  
G18  25319539.914   133055081.213         833.207          39.000    25319531.558   103679250.918         649.553          40.000  
G28  24291521.684   127652805.558       -3036.414          40.000    24291514.608    99469678.010       -2366.174          41.000  
G03  25807872.314   135621245.999       -3028.475          34.000    25807890.261   105678859.624       -2359.684          38.000  
G26  21862673.224   114889122.731       -2266.918          47.000    21862664.255    89523959.291       -1766.451          43.000  
C10  39392573.242   205127471.085         641.040          39.000    39392561.397   158617524.897         495.428          43.000  
C28  23817324.834   124023065.264        1305.926          48.000                                                                  
C23  25233163.223   131395708.326       -2305.799          44.000                                                                  
C16  37173492.763   193572132.832          33.082          49.000    37173480.883   149682203.702          25.671          49.000  
C27  25255151.413   131510217.156        2752.694          40.000                                                                  
C19  25716793.625                2        220.336          33.000                                                                  
C09  37797567.614   196821856.561         201.766          47.000    37797552.374   152195084.986         155.939          48.000  
C11                                                                  27242401.069   109693861.497       -2028.075          41.000  
> 2025 10 28 08 30 52.3220000  0 24                     
G04  21659065.503   113819159.940         205.310          45.000    21659056.579    88690217.456         160.122          46.000  
G27  21650632.546   113774844.244        2353.515          47.000    21650624.329    88655695.104        1833.925          44.000  
G16  20678229.034   108664827.356        -421.120          47.000                                                                  
G08  23701654.413   124553059.770        3412.779          37.000    23701652.777    97054348.106        2659.266          39.000  
G09  23692159.996   124503142.384        2217.816          41.000    23692152.910    97015409.411        1728.242          40.000  
G31  22065570.960   115955355.188       -2156.332          46.000    22065559.875    90354774.214       -1680.439          44.000  
C06  36734366.135   191285468.545          34.135          48.000    36734348.186   147913999.956          26.396          48.000  
C32  26817980.983   139648255.681       -3561.794          34.000                                                                  
C37  22905565.493   119275294.895        -607.188          50.000                                                                  
C07  38327744.375   199582624.457         680.315          42.000    38327727.361   154329883.197         526.182          46.000  
C13  41873121.301   218044381.660       -2307.295          36.000    41873153.645   168605891.767       -1784.144          40.000  
C20  24720279.248   128724982.182       -2221.303          47.000                                                                  
G18  25319533.580   133055047.837         833.759          39.000    25319525.210   103679224.920         649.622          40.000  
G28  24291544.792   127652926.992       -3036.182          40.000    24291537.712    99469772.626       -2365.735          41.000  
G03  25807895.379   135621367.092       -3027.984          34.000    25807913.301   105678953.990       -2359.535          38.000  
G26  21862690.474   114889213.378       -2266.617          47.000    21862681.499    89524029.934       -1766.375          43.000  
C10  39392568.309   205127445.425         641.211          39.000    39392556.487   158617505.041         495.990          43.000  
C28  23817314.794   124023012.998        1306.229          48.000                                                                  
C23  25233180.920   131395800.528       -2305.565          44.000                                                                  
C16  37173492.501   193572131.481          33.341          49.000    37173480.568   149682202.662          25.702          49.000  
C27  25255130.251   131510107.006        2753.058          40.000                                                                  
C19  25716792.013   133914083.0953        220.294          33.000                                                                  
C09  37797566.055   196821848.465         201.956          47.000    37797550.809   152195078.719         156.286          48.000  
C11                                                                  27242421.210   109693942.599       -2027.885          41.000  
> 2025 10 28 08 30 52.3620000  0 24                     
G04  21659063.938   113819151.646         206.582          45.000    21659055.011    88690211.004         160.862          46.000  
G27  21650614.622   113774750.019        2354.830          47.000    21650606.386    88655621.692        1834.733          44.000  
G16  20678232.231   108664844.139        -420.072          47.000                                                                  
G08  23701628.414   124552923.201        3413.752          37.000    23701626.770    97054241.684        2660.125          39.000  
G09  23692143.120   124503053.616        2218.827          41.000    23692136.027    97015340.252        1728.767          40.000  
G31  22065587.348   115955441.372       -2155.237          46.000    22065576.276    90354841.369       -1679.460          44.000  
C06  36734365.874   191285467.092          35.542          48.000    36734347.882   147913998.835          27.389          48.000  
C32  26818008.322   139648398.106       -3561.009          34.000                                                                  
C37  22905570.120   119275319.114        -606.034          50.000                                                                  
C07  38327739.116   199582597.177         681.428          42.000    38327722.139   154329862.103         526.954          46.000  
C13  41873139.001   218044473.842       -2305.339          36.000    41873171.356   168605963.073       -1783.109          40.000  
C20  24720296.282   128725070.964       -2220.167          47.000                                                                  
G18  25319527.224   133055014.422         834.811          39.000    25319518.842   103679198.888         650.353          40.000  
G28  24291567.896   127653048.376       -3035.058          40.000    24291560.801    99469867.232       -2365.289          41.000  
G03  25807918.448   135621488.160       -3027.136          33.000    25807936.345   105679048.315       -2358.604          38.000  
G26  21862707.718   114889303.974       -2265.500          47.000    21862698.731    89524100.529       -1765.462          43.000  
C10  39392563.365   205127419.721         642.181          39.000    39392551.511   158617485.163         496.710          43.000  
C28  23817304.734   124022960.687        1307.302          48.000                                                                  
C23  25233198.597   131395892.668       -2304.208          44.000                                                                  
C16  37173492.197   193572130.076          34.508          49.000    37173480.282   149682201.580          26.526          49.000  
C27  25255109.064   131509996.792        2754.503          40.000                                                                  
C19  25716791.133   133914074.2162        221.311          33.000                                                                  
C09  37797564.482   196821840.317         203.133          47.000    37797549.256   152195072.430         156.918          48.000  
C11                                                                  27242441.340   109694023.661       -2026.972          41.000  
> 2025 10 28 08 30 52.4020000  0 24                     
G04  21659062.351   113819143.347         207.338          45.000    21659053.451    88690204.531         161.635          46.000  
G27  21650596.664   113774655.786        2355.684          47.000    21650588.447    88655548.259        1835.561          44.000  
G16  20678235.435   108664860.913        -419.410          47.000                                                                  
G08  23701602.407   124552786.631        3414.281          37.000    23701600.781    97054135.240        2660.972          39.000  
G09  23692126.212   124502964.832        2219.566          41.000    23692119.133    97015271.065        1729.466          40.000  
G31  22065603.728   115955527.540       -2154.359          46.000    22065592.649    90354908.521       -1678.907          44.000  
C06  36734365.588   191285465.641          36.260          48.000    36734347.597   147913997.712          28.021          48.000  
C32  26818035.644   139648540.484       -3559.687          34.000                                                                  
C37  22905574.797   119275343.327        -605.348          50.000                                                                  
C07  38327733.881   199582569.880         682.272          42.000    38327716.911   154329841.001         527.496          46.000  
C13  41873156.676   218044566.036       -2304.632          36.000    41873189.049   168606034.355       -1782.164          40.000  
C20  24720313.337   128725159.736       -2219.374          47.000                                                                  
G18  25319520.855   133054981.001         835.477          39.000    25319512.461   103679172.841         651.013          40.000  
G28  24291590.999   127653169.763       -3034.564          40.000    24291583.888    99469961.800       -2364.435          41.000  
G03  25807941.494   135621609.200       -3026.275          33.000    25807959.376   105679142.614       -2357.703          38.000  
G26  21862724.959   114889394.568       -2264.850          47.000    21862715.972    89524171.121       -1764.885          43.000  
C10  39392558.425   205127393.995         643.054          39.000    39392546.600   158617465.288         496.985          43.000  
C28  23817294.682   124022908.369        1307.956          48.000                                                                  
C23  25233216.260   131395984.806       -2303.513          44.000                                                                  
C16  37173491.907   193572128.656          35.377          49.000    37173479.984   149682200.488          27.162          49.000  
C27  25255087.886   131509886.580        2755.326          40.000                                                                  
C19  25716789.395   133914065.3602        221.472          33.000                                                                  
C09  37797562.917   196821832.169         203.717          47.000    37797547.664   152195066.126         157.516          48.000  
C11                                                                  27242461.462   109694104.701       -2026.074          41.000  
> 2025 10 28 08 30 52.4420000  0 24                     
G04  21659060.765   113819135.058         207.489          45.000    21659051.905    88690198.079         161.599          46.000  
G27  21650578.746   113774561.573        2355.690          47.000    21650570.526    88655474.853        1835.492          44.000  
G16  20678238.642   108664877.700        -419.418          47.000                                                                  
G08  23701576.424   124552650.070        3414.204          37.000    23701574.808    97054028.842        2660.440          39.000  
G09  23692109.301   124502876.066        2219.494          41.000    23692102.243    97015201.901        1729.371          40.000  
G31  22065620.138   115955613.737       -2154.497          46.000    22065609.051    90354975.674       -1678.685          44.000  
C06  36734365.309   191285464.204          36.266          48.000    36734347.317   147913996.600          28.075          48.000  
C32  26818062.995   139648682.876       -3559.451          34.000                                                                  
C37  22905579.412   119275367.554        -605.353          50.000                                                                  
C07  38327728.642   199582542.600         682.282          42.000    38327711.705   154329819.910         527.455          46.000  
C13  41873174.399   218044658.253       -2304.837          36.000    41873206.755   168606105.669       -1782.406          40.000  
C20  24720330.368   128725248.529       -2219.445          47.000                                                                  
G18  25319514.467   133054947.593         835.484          39.000    25319506.096   103679146.805         651.113          40.000  
G28  24291614.106   127653291.161       -3034.686          40.000    24291607.000    99470056.402       -2364.685          41.000  
G03  25807964.543   135621730.243       -3025.927          33.000    25807982.399   105679236.945       -2357.908          38.000  
G26  21862742.183   114889485.171       -2264.800          47.000    21862733.225    89524241.706       -1764.545          43.000  
C10  39392553.506   205127368.294         642.932          39.000    39392541.640   158617445.415         496.918          43.000  
C28  23817284.611   124022856.069        1307.847          48.000                                                                  
C23  25233233.952   131396076.957       -2303.483          44.000                                                                  
C16  37173491.626   193572127.262          35.267          49.000    37173479.719   149682199.402          27.318          49.000  
C27  25255066.724   131509776.382        2755.333          40.000                                                                  
C19  25716787.733   133914056.4612        222.198          33.000                                                                  
C09  37797561.332   196821824.027         203.804          47.000    37797546.111   152195059.829         157.614          48.000  
C11                                                                  27242481.598   109694185.769       -2026.283          41.000  
> 2025 10 28 08 30 52.4820000  0 24                     
G04  21659059.182   113819126.842         206.134          45.000    21659050.343    88690191.671         160.672          46.000  
G27  21650560.809   113774467.427        2354.354          47.000    21650552.600    88655401.478        1834.764          44.000  
G16  20678241.851   108664894.541        -420.570          47.000                                                                  
G08  23701550.458   124552513.563        3412.990          37.000    23701548.837    97053922.487        2659.306          39.000  
G09  23692092.397   124502787.359        2218.187          41.000    23692085.382    97015132.783        1728.347          40.000  
G31  22065636.529   115955699.986       -2155.643          46.000    22065625.479    90355042.885       -1679.724          44.000  
C06  36734365.052   191285462.833          34.999          48.000    36734347.073   147913995.536          27.110          48.000  
C32  26818090.352   139648825.356       -3561.077          34.000                                                                  
C37  22905584.068   119275391.845        -606.682          50.000                                                                  
C07  38327723.453   199582515.388         680.899          42.000    38327706.459   154329798.860         526.584          46.000  
C13  41873192.151   218044750.571       -2307.123          36.000    41873224.504   168606177.030       -1783.563          40.000  
C20  24720347.456   128725337.390       -2220.822          47.000                                                                  
G18  25319508.115   133054914.242         834.314          39.000    25319499.724   103679120.813         650.267          40.000  
G28  24291637.210   127653412.630       -3036.224          40.000    24291630.121    99470151.051       -2365.869          41.000  
G03  25807987.559   135621851.366       -3027.371          33.000    25808005.429   105679331.311       -2358.764          38.000  
G26  21862759.433   114889575.830       -2265.905          47.000    21862750.475    89524312.361       -1765.719          43.000  
C10  39392548.577   205127342.666         641.296          39.000    39392536.726   158617425.588         495.911          43.000  
C28  23817274.588   124022803.827        1306.522          48.000                                                                  
C23  25233251.655   131396169.189       -2305.050          44.000                                                                  
C16  37173491.402   193572125.927          34.004          49.000    37173479.445   149682198.366          26.427          49.000  
C27  25255045.572   131509666.257        2753.815          40.000                                                                  
C19  25716785.649   133914047.6572        220.839          33.000                                                                  
C09  37797559.768   196821815.944         202.622          47.000    37797544.572   152195053.580         156.684          48.000  
C11                                                                  27242501.744   109694266.886       -2027.500          41.000  
> 2025 10 28 08 30 52.5220000  0 24                     
G04  21659057.609   113819118.715         203.803          45.000    21659048.792    88690185.331         158.934          46.000  
G27  21650542.893   113774373.357        2352.242          47.000    21650534.705    88655328.182        1832.876          44.000  
G16  20678245.059   108664911.467        -422.773          47.000                                                                  
G08  23701524.492   124552377.151        3410.710          37.000    23701522.884    97053816.190        2657.646          39.000  
G09  23692075.524   124502698.754        2215.580          41.000    23692068.511    97015063.716        1726.814          40.000  
G31  22065652.953   115955786.333       -2158.046          46.000    22065641.910    90355110.162       -1681.470          44.000  
C06  36734364.788   191285461.537          32.913          48.000    36734346.845   147913994.532          25.534          48.000  
C32  26818117.721                       -3563.258          34.000                                                                  
C37  22905588.768   119275416.217        -608.887          50.000                                                                  
C07  38327718.266   199582488.261         678.605          42.000    38327701.235   154329777.882         524.798          46.000  
C13  41873209.901   218044842.936       -2309.113          36.000    41873242.258   168606248.462       -1785.504          40.000  
C20  24720364.583   128725426.323       -2222.865          47.000                                                                  
G18  25319501.760   133054880.960         832.385          39.000    25319493.404   103679094.899         648.399          40.000  
G28  24291660.340   127653534.163       -3038.189          40.000    24291653.254    99470245.757       -2367.535          41.000  
G03  25808010.635   135621972.558       -3029.471          33.000    25808028.502   105679425.758       -2360.685          38.000  
G26  21862776.709   114889666.585       -2268.246          47.000    21862767.734    89524383.070       -1767.350          43.000  
C10  39392543.667   205127317.100         639.197          39.000    39392531.810   158617405.816         494.415          43.000  
C28  23817264.573   124022751.667        1304.314          47.000                                                                  
C23  25233269.380   131396261.491       -2307.211          44.000                                                                  
C16  37173491.161   193572124.673          31.854          49.000    37173479.221   149682197.392          24.780          49.000  
C27  25255024.450   131509556.207        2751.629          41.000                                                                  
C19  25716783.895                2        218.557          33.000                                                                  
C09  37797558.258   196821807.948         200.381          47.000    37797543.057   152195047.399         154.894          48.000  
C11                                                                  27242521.892   109694348.063       -2029.210          41.000  
> 2025 10 28 08 30 52.5620000  0 24                     
G04  21659056.069   113819110.626         202.054          45.000    21659047.253    88690179.035         157.379          46.000  
G27  21650524.993   113774279.338        2350.425          47.000    21650516.832    88655254.915        1831.537          44.000  
G16  20678248.289   108664928.432        -424.399          47.000                                                                  
G08  23701498.525   124552240.754        3409.444          37.000    23701496.932    97053709.903        2656.824          39.000  
G09  23692058.674   124502610.165        2214.237          41.000    23692051.657    97014994.688        1725.505          40.000  
G31  22065669.396   115955872.702       -2159.496          46.000    22065658.370    90355177.469       -1682.800          44.000  
C06  36734364.520   191285460.292          31.075          48.000    36734346.597   147913993.565          24.124          48.000  
C32  26818145.119   139649110.478       -3564.884          34.000                                                                  
C37  22905593.497   119275440.623        -610.432          50.000                                                                  
C07  38327713.042   199582461.159         677.225          42.000    38327696.019   154329756.925         523.647          46.000  
C13  41873227.657   218044935.317       -2310.108          36.000    41873259.987   168606319.903       -1786.462          40.000  
C20  24720381.657   128725515.301       -2224.588          47.000                                                                  
G18  25319495.445   133054847.752         830.238          39.000    25319487.093   103679069.017         646.987          40.000  
G28  24291683.485   127653655.728       -3039.502          40.000    24291676.403    99470340.473       -2368.378          41.000  
G03  25808033.732   135622093.815       -3031.490          33.000    25808051.586   105679520.240       -2362.138          38.000  
G26  21862793.994   114889757.380       -2270.009          47.000    21862785.017    89524453.821       -1768.806          43.000  
C10  39392538.780   205127291.560         637.964          39.000    39392526.916   158617386.062         493.518          43.000  
C28  23817254.569   124022699.542        1302.781          47.000                                                                  
C23  25233287.124   131396353.818       -2308.569          44.000                                                                  
C16  37173490.923   193572123.460          30.181          49.000    37173479.029   149682196.455          23.372          49.000  
C27  25255003.349   131509446.200        2749.951          41.000                                                                  
C19  25716782.087                2        216.637          33.000                                                                  
C09  37797556.728   196821799.979         198.957          47.000    37797541.544   152195041.240         153.739          48.000  
C11                                                                  27242542.071   109694429.270       -2030.427          41.000  
> 2025 10 28 08 30 52.6020000  0 24                     
G04  21659054.515   113819102.456         202.908          45.000    21659045.702    88690172.674         157.944          46.000  
G27  21650507.100   113774185.247        2351.042          47.000    21650498.956    88655181.601        1831.933          44.000  
G16  20678251.486   108664945.313        -423.304          47.000                                                                  
G08  23701472.559   124552104.246        3411.292          37.000    23701470.953    97053603.553        2657.755          39.000  
G09  23692041.799   124502521.479        2215.852          41.000    23692034.797    97014925.622        1725.869          40.000  
G31  22065685.819   115955958.998       -2158.639          46.000    22065674.777    90355244.717       -1682.198          44.000  
C06  36734364.254   191285458.955          32.060          48.000    36734346.358   147913992.541          24.654          48.000  
C32  26818172.487                       -3563.850          34.000                                                                  
C37  22905598.158   119275464.952        -609.458          50.000                                                                  
C07  38327707.836   199582433.977         678.269          42.000    38327690.806   154329735.912         524.364          46.000  
C13  41873245.388   218045027.649       -2309.383          36.000    41873277.727   168606391.300       -1785.858          40.000  
C20  24720398.716   128725604.202       -2223.807          47.000                                                                  
G18  25319489.133   133054814.441         831.263          39.000    25319480.766   103679043.068         647.728          40.000  
G28  24291706.627   127653777.220       -3038.415          40.000    24291699.544    99470435.145       -2367.657          41.000  
G03  25808056.804                       -3029.417          33.000    25808074.641   105679614.639       -2361.135          38.000  
G26  21862811.248   114889848.078       -2268.890          47.000    21862802.315    89524524.505       -1768.129          43.000  
C10  39392533.833   205127265.932         639.465          39.000    39392522.024   158617366.269         494.080          43.000  
C28  23817244.502   124022647.320        1304.208          47.000                                                                  
C23  25233304.856   131396446.085       -2307.855          44.000                                                                  
C16  37173490.657   193572122.161          31.138          49.000    37173478.788   149682195.463          23.853          49.000  
C27  25254982.200   131509336.087        2751.345          41.000                                                                  
C19  25716780.231                2        218.661          33.000                                                                  
C09  37797555.182   196821791.945         199.723          47.000    37797539.987   152195035.027         154.390          48.000  
C11                                                                  27242562.218   109694510.409       -2029.449          41.000  
> 2025 10 28 08 30 52.6420000  0 24                     
G04  21659052.991   113819094.274         203.706          45.000    21659044.143    88690166.292         158.747          46.000  
G27  21650489.195   113774091.118        2352.142          47.000    21650481.046    88655108.279        1832.401          44.000  
G16  20678254.705   108664962.221        -423.160          47.000                                                                  
G08  23701446.582   124551967.810        3410.961          37.000    23701444.980    97053497.217        2658.112          39.000  
G09  23692024.899   124502432.817        2216.199          41.000    23692017.925    97014856.541        1726.411          40.000  
G31  22065702.228   115956045.290       -2158.016          46.000    22065691.196    90355311.959       -1681.683          44.000  
C06  36734363.979   191285457.608          32.835          48.000    36734346.090   147913991.508          25.181          48.000  
C32  26818199.840                       -3563.919          34.000                                                                  
C37  22905602.798   119275489.279        -608.817          50.000                                                                  
C07  38327702.598   199582406.812         678.594          42.000    38327685.573   154329714.901         524.773          46.000  
C13  41873263.092   218045119.967       -2308.681          36.000    41873295.441   168606462.695       -1785.360          40.000  
C20  24720415.788   128725693.090       -2223.002          47.000                                                                  
G18  25319482.782   133054781.137         831.856          39.000    25319474.409   103679017.107         648.445          40.000  
G28  24291729.758   127653898.721       -3037.939          40.000    24291722.679    99470529.837       -2367.596          41.000  
G03  25808079.895   135622336.107       -3029.580          33.000    25808097.691   105679709.050       -2360.730          38.000  
G26  21862828.494   114889938.784       -2268.321          47.000    21862819.573    89524595.189       -1767.679          43.000  
C10  39392528.907   205127240.362         639.124          39.000    39392517.098   158617346.486         494.250          43.000  
C28  23817234.441   124022595.131        1304.383          47.000                                                                  
C23  25233322.542   131396538.321       -2306.830          44.000                                                                  
C16  37173490.388   193572120.864          31.707          49.000    37173478.513   149682194.469          24.263          49.000  
C27  25254961.032   131509225.994        2751.848          41.000                                                                  
C19  25716778.270                2        218.560          33.000                                                                  
C09  37797553.623   196821783.912         200.205          47.000    37797538.412   152195028.801         155.049          48.000  
C11                                                                  27242582.354   109694591.569       -2029.343          41.000  
> 2025 10 28 08 30 52.6820000  0 24                     
G04  21659051.462   113819086.206         202.182          45.000    21659042.626    88690160.010         157.424          46.000  
G27  21650471.283   113773997.127        2350.395          47.000    21650463.169    88655035.014        1831.711          44.000  
G16  20678257.925   108664979.221        -424.740          47.000                                                                  
G08  23701420.631   124551831.476        3408.916          37.000    23701419.034    97053390.984        2656.419          39.000  
G09  23692008.027   124502344.288        2213.946          41.000    23692001.083    97014787.531        1725.460          40.000  
G31  22065718.658   115956131.690       -2159.564          46.000    22065707.610    90355379.276       -1682.660          44.000  
C06  36734363.738   191285456.382          31.169          48.000    36734345.882   147913990.544          24.300          48.000  
C32  26818227.222                       -3564.673          34.000                                                                  
C37  22905607.497   119275513.709        -610.331          50.000                                                                  
C07  38327697.394   199582379.728         677.366          42.000    38327680.385   154329693.961         523.733          46.000  
C13  41873280.838   218045212.357       -2309.540          35.000    41873313.185   168606534.155       -1786.288          40.000  
C20  24720432.874   128725782.093       -2224.586          46.000                                                                  
G18  25319476.461   133054747.952         830.099          38.000    25319468.087   103678991.244         646.991          40.000  
G28  24291752.881   127654020.334       -3039.789          40.000    24291745.818    99470624.606       -2368.976          41.000  
G03  25808102.991                       -3031.737          33.000    25808120.759   105679803.542       -2361.986          38.000  
G26  21862845.772   114890029.601       -2269.897          47.000    21862836.851    89524665.952       -1768.779          43.000  
C10  39392524.013   205127214.859         637.732          39.000    39392512.183   158617326.753         493.420          43.000  
C28  23817224.457   124022543.035        1302.804          47.000                                                                  
C23  25233340.318   131396630.680       -2308.407          43.000                                                                  
C16  37173490.114   193572119.666          30.327          49.000    37173478.250   149682193.536          23.462          49.000  
C27  25254939.909   131509116.005        2750.288          40.000                                                                  
C19  25716776.557                2        217.017          33.000                                                                  
C09  37797552.094   196821775.969         198.889          46.000    37797536.890   152195022.660         153.886          48.000  
C11                                                                  27242602.496   109694672.797       -2030.433          41.000  
> 2025 10 28 08 30 52.7220000  0 24                     
G04  21659049.930   113819078.144         201.352          45.000    21659041.102    88690153.722         156.925          46.000  
G27  21650453.401   113773903.135        2349.620          47.000    21650445.304    88654961.765        1831.152          44.000  
G16  20678261.168   108664996.203        -424.999          47.000                                                                  
G08  23701394.693   124551695.112        3408.573          37.000    23701393.070    97053284.723        2656.108          39.000  
G09  23691991.191   124502255.735        2213.417          41.000    23691984.217    97014718.509        1725.270          40.000  
G31  22065735.106   115956218.102       -2160.446          46.000    22065724.063    90355446.606       -1683.307          44.000  
C06  36734363.479   191285455.160          30.325          47.000    36734345.653   147913989.593          23.692          48.000  
C32  26818254.618                       -3565.957          34.000                                                                  
C37  22905612.220   119275538.144        -611.073          50.000                                                                  
C07  38327692.181   199582352.655         676.615          42.000    38327675.222   154329673.026         523.200          46.000  
C13  41873298.581   218045304.783       -2310.597          35.000    41873330.952   168606605.605       -1786.510          40.000  
C20  24720449.997   128725871.100       -2225.365          46.000                                                                  
G18  25319470.156   133054714.761         829.430          38.000    25319461.771   103678965.378         646.423          40.000  
G28  24291776.036   127654141.920       -3040.033          40.000    24291768.937    99470719.341       -2368.866          41.000  
G03  25808126.070   135622578.648       -3031.791          33.000    25808143.854   105679898.033       -2362.438          38.000  
G26  21862863.057   114890120.415       -2270.583          47.000    21862854.125    89524736.712       -1769.248          43.000  
C10  39392519.117   205127189.346         637.396          39.000    39392507.303   158617307.024         493.042          43.000  
C28  23817214.486   124022490.931        1302.296          47.000                                                                  
C23  25233358.075   131396723.068       -2309.656          43.000                                                                  
C16  37173489.851   193572118.480          29.526          49.000    37173478.002   149682192.608          23.053          49.000  
C27  25254918.781   131509006.022        2749.444          40.000                                                                  
C19  25716775.428                2        216.554          33.000                                                                  
C09  37797550.565   196821768.029         198.280          46.000    37797535.350   152195016.524         153.275          48.000  
C11                                                                  27242622.669   109694754.011       -2030.593          41.000  
> 2025 10 28 08 30 52.7620000  0 24                     
G04  21659048.423   113819069.988         202.859          45.000    21659039.601    88690147.373         157.981          46.000  
G27  21650435.511   113773809.039        2351.293          47.000    21650427.390    88654888.454        1832.126          44.000  
G16  20678264.399   108665013.085        -423.026          47.000                                                                  
G08  23701368.728                        3411.263          37.000    23701367.112    97053178.409        2657.114          39.000  
G09  23691974.302   124502167.044        2215.964          41.000    23691967.359    97014649.422        1726.572          40.000  
G31  22065751.577   115956304.408       -2158.755          46.000    22065740.497    90355513.858       -1682.050          44.000  
C06  36734363.203   191285453.826          32.166          47.000    36734345.438   147913988.580          24.665          48.000  
C32  26818281.972                       -3563.907          34.000                                                                  
C37  22905616.883   119275562.479        -609.379          50.000                                                                  
C07  38327686.966   199582325.468         678.702          42.000    38327669.974   154329652.016         524.535          46.000  
C13  41873316.307                       -2309.090          35.000    41873348.695   168606677.000       -1785.400          40.000  
C20  24720467.059   128725960.009       -2223.724          46.000                                                                  
G18  25319463.822   133054681.430         831.976          38.000    25319455.443   103678939.418         648.053          40.000  
G28  24291799.156   127654263.422       -3038.318          40.000    24291792.060    99470814.007       -2367.242          41.000  
G03  25808149.146                       -3029.447          33.000    25808166.907   105679992.402       -2360.306          38.000  
G26  21862880.317   114890211.125       -2268.838          47.000    21862871.415    89524807.402       -1768.059          43.000  
C10  39392514.222   205127163.728         639.471          39.000    39392502.380   158617287.228         494.336          43.000  
C28  23817204.432   124022438.724        1304.251          47.000                                                                  
C23  25233375.755   131396815.323       -2307.656          43.000                                                                  
C16  37173489.573   193572117.190          31.193          49.000    37173477.757   149682191.613          24.175          49.000  
C27  25254897.645   131508895.953        2750.850          40.000                                                                  
C19  25716773.960                2        217.620          33.000                                                                  
C09  37797549.018   196821759.989         200.055          46.000    37797533.786   152195010.314         154.527          48.000  
C11                                                                  27242642.814   109694835.149       -2029.086          41.000  
> 2025 10 28 08 30 52.8020000  0 24                     
G04  21659046.851   113819061.730         205.439          45.000    21659038.022    88690140.937         160.068          46.000  
G27  21650417.566   113773714.848        2353.856          47.000    21650409.458    88654815.063        1834.024          44.000  
G16  20678267.591   108665029.919        -421.136          47.000                                                                  
G08  23701342.734                        3413.102          37.000    23701341.123    97053072.003        2659.331          39.000  
G09  23691957.393   124502078.329        2217.744          41.000    23691950.480    97014580.295        1727.984          40.000  
G31  22065767.975   115956390.611       -2156.082          46.000    22065756.901    90355581.035       -1680.060          44.000  
C06  36734362.898   191285452.408          34.623          47.000    36734345.156   147913987.486          26.606          48.000  
C32  26818309.320                       -3560.807          34.000                                                                  
C37  22905621.466   119275586.736        -607.078          50.000                                                                  
C07  38327681.719   199582298.233         680.618          42.000    38327664.737   154329630.951         526.191          46.000  
C13  41873334.015                       -2306.666          35.000    41873366.399   168606748.335       -1783.726          40.000  
C20  24720484.126   128726048.830       -2221.380          46.000                                                                  
G18  25319457.456   133054648.060         833.984          38.000    25319449.096   103678913.408         649.810          40.000  
G28  24291822.278   127654384.847       -3036.090          40.000    24291815.153    99470908.632       -2365.723          41.000  
G03  25808172.196                       -3027.338          33.000    25808189.939   105680086.762       -2359.080          38.000  
G26  21862897.573   114890301.750       -2266.431          47.000    21862888.659    89524878.010       -1766.017          43.000  
C10  39392509.294   205127138.059         641.412          39.000    39392497.409   158617267.372         496.075          43.000  
C28  23817194.395   124022386.467        1306.115          47.000                                                                  
C23  25233393.436   131396907.486       -2304.974          43.000                                                                  
C16  37173489.248   193572115.816          33.522          49.000    37173477.475   149682190.557          25.876          49.000  
C27  25254876.468   131508785.781        2753.298          40.000                                                                  
C19  25716772.048                2        220.936          33.000                                                                  
C09  37797547.441   196821751.871         202.338          46.000    37797532.218   152195004.039         156.367          48.000  
C11                                                                  27242662.956   109694916.255       -2027.777          41.000  
> 2025 10 28 08 30 52.8420000  0 24                     
G04  21659045.263   113819053.468         206.835          45.000    21659036.422    88690134.492         161.300          46.000  
G27  21650399.636   113773620.650        2355.278          47.000    21650391.496    88654741.654        1835.348          44.000  
G16  20678270.755   108665046.719        -419.671          47.000                                                                  
G08  23701316.734   124551285.532        3414.100          37.000    23701315.132    97052965.600        2660.352          39.000  
G09  23691940.497   124501989.584        2218.968          41.000    23691933.590    97014511.147        1728.927          40.000  
G31  22065784.358   115956476.812       -2154.667          46.000    22065773.311    90355648.206       -1678.988          44.000  
C06  36734362.588   191285450.976          36.090          47.000    36734344.879   147913986.374          27.914          48.000  
C32  26818336.663                       -3559.918          34.000                                                                  
C37  22905626.107   119275610.975        -605.643          50.000                                                                  
C07  38327676.462   199582270.968         681.973          42.000    38327659.524   154329609.859         527.454          46.000  
C13  41873351.710                       -2305.268          35.000    41873384.113   168606819.644       -1782.535          40.000  
C20  24720501.172   128726137.629       -2219.780          46.000                                                                  
G18  25319451.099   133054614.669         835.260          38.000    25319442.735   103678887.372         651.076          40.000  
G28  24291845.389   127654506.256       -3034.760          40.000    24291838.255    99471003.231       -2364.661          41.000  
G03  25808195.233                       -3026.396          33.000    25808212.981   105680181.097       -2358.094          38.000  
G26  21862914.797   114890392.364       -2265.021          47.000    21862905.911    89524948.620       -1765.016          43.000  
C10  39392504.347   205127112.371         642.566          39.000    39392492.497   158617247.506         497.028          43.000  
C28  23817184.358   124022334.174        1307.601          47.000                                                                  
C23  25233411.118   131396999.651       -2303.657          43.000                                                                  
C16  37173488.979   193572114.419          35.122          49.000    37173477.183   149682189.470          27.266          49.000  
C27  25254855.312   131508675.588        2754.932          40.000                                                                  
C19  25716770.418                2        221.349          33.000                                                                  
C09  37797545.883   196821743.746         203.527          46.000    37797530.652   152194997.743         157.594          48.000  
C11                                                                  27242683.077   109694997.337       -2026.780          41.000  
> 2025 10 28 08 30 52.8820000  0 24                     
G04  21659043.700   113819045.226         206.908          45.000    21659034.867    88690128.069         161.315          46.000  
G27  21650381.738   113773526.473        2355.355          47.000    21650373.563    88654668.272        1835.325          44.000  
G16  20678273.938   108665063.545        -419.764          47.000                                                                  
G08  23701290.760   124551149.008        3413.943          37.000    23701289.131    97052859.222        2660.141          39.000  
G09  23691923.614   124501900.859        2218.901          41.000    23691916.719    97014442.012        1728.897          39.000  
G31  22065800.764   115956563.045       -2154.825          46.000    22065789.721    90355715.397       -1679.025          44.000  
C06  36734362.289   191285449.564          36.176          47.000    36734344.622   147913985.283          28.003          48.000  
C32  26818364.028                       -3560.159          34.000                                                                  
C37  22905630.766   119275635.240        -605.717          50.000                                                                  
C07  38327671.249   199582243.726         681.866          42.000    38327654.276   154329588.785         527.496          46.000  
C13  41873369.427                       -2305.483          35.000    41873401.843   168606890.990       -1782.891          40.000  
C20  24720518.240   128726226.462       -2219.846          46.000                                                                  
G18  25319444.725   133054581.295         835.386          38.000    25319436.382   103678861.369         650.895          40.000  
G28  24291868.487   127654627.698       -3035.150          40.000    24291861.334    99471097.852       -2364.838          41.000  
G03  25808218.296                       -3026.484          33.000    25808236.021   105680275.449       -2358.151          38.000  
G26  21862932.025   114890483.005       -2265.090          47.000    21862923.163    89525019.248       -1765.032          43.000  
C10  39392499.442   205127086.713         642.291          39.000    39392487.568   158617227.652         496.997          43.000  
C28  23817174.316   124022281.910        1307.471          47.000                                                                  
C23  25233428.838   131397091.849       -2303.935          43.000                                                                  
C16  37173488.705   193572113.051          35.134          49.000    37173476.913   149682188.416          27.144          49.000  
C27  25254834.139   131508565.414        2755.180          40.000                                                                  
C19  25716769.222                2        221.411          33.000                                                                  
C09  37797544.355   196821735.646         203.361          46.000    37797529.096   152194991.463         157.678          48.000  
C11                                                                  27242703.218   109695078.433       -2026.832          41.000  
> 2025 10 28 08 30 52.9220000  0 24                     
G04  21659042.119   113819037.102         204.508          45.000    21659033.295    88690121.735         159.484          46.000  
G27  21650363.821   113773432.413        2352.951          47.000    21650355.654    88654594.979        1833.446          44.000  
G16  20678277.172   108665080.483        -422.301          47.000                                                                  
G08  23701264.798                        3410.929          37.000    23701263.163    97052752.913        2658.475          39.000  
G09  23691906.752                        2216.006          41.000    23691899.834    97014372.945        1727.348          39.000  
G31  22065817.151   115956649.380       -2157.087          46.000    22065806.138    90355782.674       -1680.887          44.000  
C06  36734362.029   191285448.278          33.668          47.000    36734344.393   147913984.265          26.479          48.000  
C32  26818391.395                       -3562.578          34.000                                                                  
C37  22905635.464   119275659.616        -608.190          50.000                                                                  
C07  38327666.058   199582216.584         679.675          42.000    38327649.035   154329567.816         525.300          46.000  
C13  41873387.177                       -2307.765          35.000    41873419.567   168606962.420       -1784.886          40.000  
C20  24720535.337   128726315.394       -2221.992          46.000                                                                  
G18  25319438.396                         832.444          38.000    25319430.051   103678835.474         648.555          40.000  
G28  24291891.621   127654749.234       -3037.457          40.000    24291884.449    99471192.551       -2366.730          41.000  
G03  25808241.378                       -3028.727          33.000    25808259.074   105680369.898       -2360.182          38.000  
G26  21862949.273   114890573.745       -2267.206          47.000    21862940.436    89525089.950       -1766.634          43.000  
C10  39392494.557                         640.106          39.000    39392482.633   158617207.887         495.026          43.000  
C28  23817164.326   124022229.759        1304.917          47.000                                                                  
C23  25233446.558                       -2306.401          43.000                                                                  
C16  37173488.452   193572111.793          32.788          49.000    37173476.648   149682187.427          25.668          49.000  
C27  25254812.987                        2752.789          40.000                                                                  
C19  25716767.886                2        218.856          33.000                                                                  
C09  37797542.856   196821727.631         201.420          46.000    37797527.588   152194985.281         155.653          48.000  
C11                                                                  27242723.388   109695159.615       -2028.773          41.000  
> 2025 10 28 08 30 52.9620000  0 24                     
G04  21659040.580   113819029.073         201.520          45.000    21659031.775    88690115.484         156.995          46.000  
G27  21650345.969   113773338.456        2349.832          47.000    21650337.768    88654521.769        1830.983          44.000  
G16  20678280.405   108665097.504        -425.103          47.000                                                                  
G08  23701238.882                        3408.341          37.000    23701237.225    97052646.673        2656.317          39.000  
G09  23691889.916                        2214.042          41.000    23691883.000    97014303.957        1725.110          40.000  
G31  22065833.621   115956735.817       -2160.059          46.000    22065822.599    90355850.027       -1683.235          44.000  
C06  36734361.825                          31.029          47.000    36734344.160   147913983.348          23.822          48.000  
C32  26818418.791                       -3565.364          34.000                                                                  
C37  22905640.193   119275684.074        -610.899          50.000                                                                  
C07  38327660.859                         676.658          42.000    38327643.854   154329546.891         523.329          46.000  
C13  41873404.940                       -2310.468          35.000    41873437.312   168607033.889       -1786.578          40.000  
C20  24720552.415                       -2225.167          46.000                                                                  
G18  25319432.106                         829.773          38.000    25319423.736   103678809.625         646.473          40.000  
G28  24291914.785                       -3040.283          39.000    24291907.602    99471287.338       -2369.263          41.000  
G03  25808264.476                       -3031.813          33.000    25808282.156   105680464.417       -2362.559          38.000  
G26  21862966.579   114890664.602       -2270.397          47.000    21862957.748    89525160.745       -1769.081          43.000  
C10  39392489.674                         637.805          39.000    39392477.739   158617188.180         492.963          43.000  
C28  23817154.353                        1302.261          47.000                                                                  
C23  25233464.346                       -2309.144          43.000                                                                  
C16  37173488.251   193572110.624          29.961          49.000    37173476.415   149682186.534          23.138          49.000  
C27  25254791.917                        2749.601          40.000                                                                  
C19  25716766.001                2        216.147          33.000                                                                  
C09  37797541.365   196821719.718         198.541          46.000    37797526.104   152194979.173         153.229          48.000  
C11                                                                  27242743.556   109695240.856       -2030.802          41.000  
> 2025 10 28 08 30 53.0020000  0 24                     
G04  21659039.075   113819021.029         200.398          45.000    21659030.240    88690109.218         156.079          46.000  
G27  21650328.065   113773244.480        2348.670          47.000    21650319.884    88654448.542        1830.087          44.000  
G16  20678283.653   108665114.505        -425.875          47.000                                                                  
G08  23701212.953                        3408.629          37.000    23701211.278    97052540.428        2655.568          39.000  
G09  23691873.105                        2212.705          41.000    23691866.165    97014234.961        1724.298          39.000  
G31  22065850.063   115956822.234       -2161.101          46.000    22065839.051    90355917.370       -1684.125          44.000  
C06  36734361.562   191285445.841          29.927          47.000    36734343.959   147913982.413          22.850          48.000  
C32  26818446.167                       -3566.217          34.000                                                                  
C37  22905644.902   119275708.508        -611.657          50.000                                                                  
C07  38327655.660   199582162.472         675.947          42.000    38327638.653   154329525.965         522.581          46.000  
C13  41873422.716                       -2311.174          35.000    41873455.045   168607105.365       -1787.323          40.000  
C20  24720569.514   128726493.466       -2226.305          46.000                                                                  
G18  25319425.792                         829.076          38.000    25319417.453   103678783.775         645.585          40.000  
G28  24291937.932   127654992.460       -3040.869          39.000    24291930.765    99471382.090       -2369.562          41.000  
G03  25808287.584                       -3032.760          33.000    25808305.252   105680558.916       -2363.255          38.000  
G26  21862983.885   114890755.419       -2271.234          47.000    21862975.043    89525231.530       -1770.085          43.000  
C10  39392484.769                         636.865          39.000    39392472.848   158617168.469         492.212          43.000  
C28  23817144.361   124022125.590        1301.556          47.000                                                                  
C23  25233482.087                       -2309.994          43.000                                                                  
C16  37173488.032   193572109.444          28.838          49.000    37173476.191   149682185.627          22.194          49.000  
C27  25254770.796                        2748.447          40.000                                                                  
C19  25716764.005                2        214.781          33.000                                                                  
C09  37797539.809   196821711.790         197.532          46.000    37797524.563   152194973.046         152.513          48.000  
C11                                                                  27242763.739   109695322.084       -2031.357          41.000  
> 2025 10 28 08 30 53.0420000  0 24                     
G04  21659037.537                         202.026          45.000    21659028.705    88690102.883         157.117          46.000  
G27  21650310.161                        2350.774          47.000    21650301.968    88654375.213        1831.823          44.000  
G16  20678286.866                        -424.016          47.000                                                                  
G08  23701186.984                        3410.669          37.000    23701185.331    97052434.096        2657.144          39.000  
G09  23691856.247                        2215.173          41.000    23691849.302    97014165.883        1725.933          39.000  
G31  22065866.523                       -2159.324          46.000    22065855.492    90355984.627       -1682.744          44.000  
C06  36734361.289                          31.504          47.000    36734343.754   147913981.396          24.118          48.000  
C32  26818473.518                       -3563.649          34.000                                                                  
C37  22905649.533                        -609.965          50.000                                                                  
C07  38327650.432                         678.086          42.000    38327633.457   154329504.959         523.989          46.000  
C13  41873440.434                       -2309.946          35.000    41873472.799   168607176.754       -1785.723          40.000  
C20  24720586.586                       -2224.314          46.000                                                                  
G18  25319419.495                         830.716          38.000    25319411.133   103678757.832         647.115          40.000  
G28  24291961.059                       -3038.763          39.000    24291953.887    99471476.765       -2367.920          41.000  
G03  25808310.630                       -3030.102          33.000    25808328.314   105680653.302       -2361.114          38.000  
G26  21863001.185   114890846.145       -2269.668          47.000    21862992.334    89525302.224       -1768.692          43.000  
C10  39392479.862                         638.721          39.000    39392467.979   158617148.666         493.994          43.000  
C28  23817134.335                        1303.571          47.000                                                                  
C23  25233499.780                       -2307.746          43.000                                                                  
C16  37173487.757                          30.552          49.000    37173475.935   149682184.643          23.370          49.000  
C27  25254749.634                        2750.769          40.000                                                                  
C19  25716762.390                2        218.035          33.000                                                                  
C09  37797538.238                         199.485          46.000    37797523.024   152194966.827         154.166          48.000  
C11                                                                  27242783.877   109695403.242       -2029.999          41.000  
> 2025 10 28 08 30 53.0820000  0 24                     
G04  21659035.906                         206.747          45.000    21659027.093    88690096.378         160.958          46.000  
G27  21650292.187                        2355.005          47.000    21650284.035    88654301.779        1834.788          44.000  
G16  20678289.981                        -419.335          47.000                                                                  
G08  23701160.953                        3414.315          37.000    23701159.341                        2660.692          39.000  
G09  23691839.301                        2219.643          41.000    23691832.385                        1729.336          39.000  
G31  22065882.907                       -2154.779          46.000    22065871.875    90356051.731       -1678.979          44.000  
C06  36734361.014                          35.760          47.000    36734343.488   147913980.237          27.502          48.000  
C32  26818500.844                       -3559.686          34.000                                                                  
C37  22905654.195                        -605.352          50.000                                                                  
C07  38327645.154                         682.483          42.000    38327628.219   154329483.815         527.455          46.000  
C13  41873458.113                       -2304.992          35.000    41873490.493   168607248.020       -1782.584          40.000  
C20  24720603.644                       -2220.100          46.000                                                                  
G18  25319413.126                         835.608          38.000    25319404.763                         650.806          40.000  
G28  24291984.137                       -3034.027          39.000    24291976.946                       -2364.056          41.000  
G03  25808333.652                       -3026.169          33.000    25808351.348                       -2358.436          38.000  
G26  21863018.392                       -2265.196          47.000    21863009.546    89525372.763       -1765.028          43.000  
C10  39392474.912                         643.018          39.000    39392463.023   158617128.737         497.485          43.000  
C28  23817124.292                        1307.931          47.000                                                                  
C23  25233517.506                       -2304.019          43.000                                                                  
C16  37173487.489                          34.993          49.000    37173475.647   149682183.509          26.924          49.000  
C27  25254728.484                        2755.056          40.000                                                                  
C19  25716760.322                2        220.772          33.000                                                                  
C09  37797536.659                         204.011          46.000    37797521.410   152194960.468         157.782          48.000  
C11                                                                  27242804.000                       -2026.467          41.000  
> 2025 10 28 08 30 53.1220000  0 24                     
G04  21659034.269                         210.883          45.000    21659025.474                         164.440          46.000  
G27  21650274.233                        2359.300          46.000    21650266.076                        1838.616          44.000  
G16  20678293.155                        -415.405          47.000                                                                  
G08  23701134.949                        3419.068          37.000    23701133.287                        2663.979          39.000  
G09  23691822.355                        2223.464          41.000    23691815.437                        1732.424          39.000  
G31  22065899.275                       -2150.647          46.000    22065888.245                       -1675.658          44.000  
C06  36734360.678                          40.253          47.000    36734343.174   147913978.962          31.305          48.000  
C32  26818528.136                       -3555.134          34.000                                                                  
C37  22905658.745                        -601.162          49.000                                                                  
C07  38327639.856                         686.425          42.000    38327622.962                         530.917          46.000  
C13  41873475.786                       -2300.436          35.000    41873508.146                       -1779.106          40.000  
C20  24720620.652                       -2215.651          46.000                                                                  
G18  25319406.738                         839.049          38.000    25319398.338                         654.232          40.000  
G28  24292007.167                       -3030.267          39.000    24291999.984                       -2361.182          41.000  
G03  25808356.646                       -3021.070          33.000    25808374.337                       -2354.765          38.000  
G26  21863035.568                       -2260.703          47.000    21863026.744                       -1761.584          43.000  
C10  39392469.903                         647.589          39.000    39392458.027                         500.696          43.000  
C28  23817114.211                        1311.996          47.000                                                                  
C23  25233535.181                       -2299.326          43.000                                                                  
C16  37173487.175                          39.386          49.000    37173475.315   149682182.271          30.549          49.000  
C27  25254707.288                        2759.381          40.000                                                                  
C19  25716758.129                2        226.843          33.000                                                                  
C09  37797535.020                         208.115          46.000    37797519.797                         161.004          48.000  
C11                                                                  27242824.111                       -2023.116          41.000  
> 2025 10 28 08 30 53.1620000  0 24                     
G04  21659032.654                         213.326          45.000    21659023.842                         166.584          46.000  
G27  21650256.263                        2361.939          46.000    21650248.102    88654154.624        1840.634          44.000  
G16  20678296.322                        -413.204          47.000                                                                  
G08  23701108.931                        3421.090          37.000    23701107.252                        2665.416          39.000  
G09  23691805.425                        2225.732          41.000    23691798.485                        1734.113          39.000  
G31  22065915.651                       -2147.983          46.000    22065904.609    90356185.745       -1673.903          44.000  
C06  36734360.354                          42.738          47.000    36734342.844   147913977.664          33.366          48.000  
C32  26818555.431                       -3553.043          34.000                                                                  
C37  22905663.338                        -599.009          49.000                                                                  
C07  38327634.554                         688.516          42.000    38327617.679   154329441.304         532.784          46.000  
C13  41873493.461                       -2298.324          35.000    41873525.768                       -1777.607          40.000  
C20  24720637.641                       -2213.271          46.000                                                                  
G18  25319400.332                         841.513          38.000    25319391.945                         656.320          40.000  
G28  24292030.246                       -3028.351          39.000    24292023.041                       -2359.656          41.000  
G03  25808379.642                       -3019.003          33.000    25808397.318                       -2352.451          38.000  
G26  21863052.783                       -2258.373          47.000    21863043.928    89525513.641       -1759.626          43.000  
C10  39392464.911                         649.432          39.000    39392453.037   158617088.672         502.277          43.000  
C28  23817104.117                        1314.065          47.000                                                                  
C23  25233552.812                       -2296.764          43.000                                                                  
C16  37173486.799                          41.908          48.000    37173474.986   149682181.009          32.509          49.000  
C27  25254686.090                        2761.738          40.000                                                                  
C19  25716756.400                2        227.932          33.000                                                                  
C09  37797533.423                         210.290          46.000    37797518.174   152194947.556         162.807          48.000  
C11                                                                  27242844.201                       -2021.492          41.000  
> 2025 10 28 08 30 53.2020000  0 24                     
G04  21659031.023                         213.075          45.000    21659022.233                         166.198          46.000  
G27  21650238.255                        2361.448          46.000    21650230.116                        1840.524          44.000  
G16  20678299.505                        -414.109          47.000                                                                  
G08  23701082.916                        3419.893          37.000    23701081.217                        2665.197          39.000  
G09  23691788.492                        2224.642          41.000    23691781.553                        1733.108          39.000  
G31  22065932.025                       -2148.499          46.000    22065920.949                       -1674.244          44.000  
C06  36734360.020                          42.380          47.000    36734342.529                          32.965          48.000  
C32  26818582.744                       -3554.768          34.000                                                                  
C37  22905667.993                        -599.750          49.000                                                                  
C07  38327629.283                         687.632          42.000    38327612.387                         531.998          46.000  
C13  41873511.128                       -2299.627          35.000    41873543.407                       -1778.044          40.000  
C20  24720654.683                       -2213.725          46.000                                                                  
G18  25319393.926                         841.281          38.000    25319385.547                         655.751          40.000  
G28  24292053.311                       -3029.358          39.000    24292046.116                       -2360.608          41.000  
G03  25808402.653                       -3020.883          33.000    25808420.318                       -2353.068          38.000  
G26  21863069.965                       -2258.783          47.000    21863061.140                       -1759.864          43.000  
C10  39392459.960                         647.778          39.000    39392448.079                         501.245          43.000  
C28  23817094.053                        1313.013          47.000                                                                  
C23  25233570.490                       -2297.703          43.000                                                                  
C16  37173486.478                          41.284          48.000    37173474.698                          32.137          49.000  
C27  25254664.892                        2760.661          40.000                                                                  
C19  25716755.305                2        227.487          33.000                                                                  
C09  37797531.845                         209.550          46.000    37797516.571                         162.251          48.000  
C11                                                                  27242864.317                       -2022.196          41.000  
> 2025 10 28 08 30 53.2420000  0 24                     
G04  21659029.473                         210.012          45.000    21659020.644                         163.751          46.000  
G27  21650220.341                        2358.374          46.000    21650212.170                        1837.598          44.000  
G16  20678302.701                        -416.549          47.000                                                                  
G08  23701056.921                        3416.713          37.000    23701055.217                        2663.038          39.000  
G09  23691771.599                        2221.933          41.000    23691764.661                        1731.906          39.000  
G31  22065948.460                       -2151.400          46.000    22065937.320                       -1676.211          44.000  
C06  36734359.734                          39.714          47.000    36734342.263                          30.425          48.000  
C32  26818610.103                       -3556.652          34.000                                                                  
C37  22905672.628                        -602.368          49.000                                                                  
C07  38327624.042                         685.505          42.000    38327607.101                         529.932          46.000  
C13  41873528.850                       -2302.002          35.000    41873561.116                       -1780.048          40.000  
C20  24720671.718                       -2216.727          46.000                                                                  
G18  25319387.556                         838.308          38.000    25319379.205                         653.003          40.000  
G28  24292076.399                       -3032.147          39.000    24292069.202                       -2362.396          41.000  
G03  25808425.703                       -3024.070          33.000    25808443.353                       -2355.655          38.000  
G26  21863087.205                       -2261.779          46.000    21863078.347                       -1762.252          43.000  
C10  39392455.050                         646.136          39.000    39392443.120                         499.194          43.000  
C28  23817084.000                        1310.517          47.000                                                                  
C23  25233588.197                       -2300.904          43.000                                                                  
C16  37173486.188                          38.483          48.000    37173474.426                          29.690          49.000  
C27  25254643.735                        2757.759          40.000                                                                  
C19  25716752.711                2        224.233          33.000                                                                  
C09  37797530.289                         207.109          46.000    37797515.004                         160.085          48.000  
C11                                                                  27242884.472                       -2024.571          41.000  
> 2025 10 28 08 30 53.2820000  0 24                     
G04  21659027.901                         208.465          45.000    21659019.068                         162.323          46.000  
G27  21650202.413                        2357.122          46.000    21650194.246                        1836.207          44.000  
G16  20678305.901                        -417.717          47.000                                                                  
G08  23701030.915                        3416.176          37.000    23701029.216                        2661.735          39.000  
G09  23691754.679                        2220.609          40.000    23691747.745                        1730.670          39.000  
G31  22065964.847                       -2152.987          46.000    22065953.739                       -1677.573          44.000  
C06  36734359.413                          38.164          47.000    36734341.978                          29.395          48.000  
C32  26818637.458                       -3558.260          34.000                                                                  
C37  22905677.264                        -603.629          49.000                                                                  
C07  38327618.804                         684.075          42.000    38327601.870                         528.719          46.000  
C13  41873546.528                       -2303.072          35.000    41873578.819                       -1781.287          40.000  
C20  24720688.781                       -2217.958          46.000                                                                  
G18  25319381.165                         837.343          38.000    25319372.833                         652.226          40.000  
G28  24292099.471                       -3032.886          39.000    24292092.283                       -2363.782          41.000  
G03  25808448.717                       -3024.376          33.000    25808466.383                       -2356.713          38.000  
G26  21863104.438                       -2263.050          46.000    21863095.613                       -1763.458          43.000  
C10  39392450.093                         645.062          39.000    39392438.173                         498.254          43.000  
C28  23817073.950                        1309.454          47.000                                                                  
C23  25233605.907                       -2302.083          43.000                                                                  
C16  37173485.887                          37.230          48.000    37173474.185                          28.564          49.000  
C27  25254622.568                        2756.901          40.000                                                                  
C19  25716751.438                2        223.903          33.000                                                                  
C09  37797528.719                         205.741          46.000    37797513.431                         158.891          48.000  
C11                                                                  27242904.599                       -2025.572          41.000  
> 2025 10 28 08 30 53.3220000  0 24                     
G04  21659026.335                         207.789          45.000    21659017.493                         161.635          46.000  
G27  21650184.503                        2356.325          46.000    21650176.318                        1835.770          44.000  
G16  20678309.096                        -418.376          47.000                                                                  
G08  23701004.919                        3415.771          37.000    23701003.225                        2661.126          39.000  
G09  23691737.779                        2220.109          40.000    23691730.873                        1730.076          39.000  
G31  22065981.242                       -2153.657          46.000    22065970.146                       -1678.379          44.000  
C06  36734359.104                          37.234          47.000    36734341.711                          28.708          48.000  
C32  26818664.807                       -3558.674          34.000                                                                  
C37  22905681.894                        -604.405          49.000                                                                  
C07  38327613.562                         683.204          42.000    38327596.620                         528.266          46.000  
C13  41873564.220                       -2303.565          35.000    41873596.544                       -1781.791          40.000  
C20  24720705.842                       -2218.901          46.000                                                                  
G18  25319374.812                         836.167          38.000    25319366.474                         651.753          40.000  
G28  24292122.558                       -3033.563          39.000    24292115.378                       -2364.001          41.000  
G03  25808471.770                       -3024.772          33.000    25808489.413                       -2357.327          38.000  
G26  21863121.684                       -2263.807          46.000    21863112.871                       -1764.125          43.000  
C10  39392445.158                         644.080          38.000    39392433.239                         498.059          43.000  
C28  23817063.899                        1308.664          47.000                                                                  
C23  25233623.592                       -2302.619          43.000                                                                  
C16  37173485.608                          36.458          48.000    37173473.910                          27.877          49.000  
C27  25254601.378                        2756.352          40.000                                                                  
C19  25716750.162                2        223.278          33.000                                                                  
C09  37797527.149                         205.067          46.000    37797511.852                         158.261          48.000  
C11                                                                  27242924.711                       -2025.917          41.000  
> 2025 10 28 08 30 53.3620000  0 24                     
G04  21659024.763                         208.213          45.000    21659015.918                         162.251          46.000  
G27  21650166.590                        2356.697          46.000    21650158.358                        1836.340          44.000  
G16  20678312.280                        -418.054          46.000                                                                  
G08  23700978.898                        3416.179          37.000    23700977.225                        2661.661          39.000  
G09  23691720.844                        2221.036          40.000    23691713.960                        1730.590          39.000  
G31  22065997.633                       -2153.181          46.000    22065986.523                       -1677.922          44.000  
C06  36734358.777                          37.719          47.000    36734341.448                          29.207          48.000  
C32  26818692.118                       -3557.944          34.000                                                                  
C37  22905686.540                        -603.819          49.000                                                                  
C07  38327608.300                         683.854          42.000    38327591.352                         528.757          46.000  
C13  41873581.905                       -2303.206          35.000    41873614.239                       -1781.102          40.000  
C20  24720722.877                       -2218.357          46.000                                                                  
G18  25319368.468                         836.840          38.000    25319360.108                         652.182          40.000  
G28  24292145.646                       -3033.020          39.000    24292138.460                       -2362.946          41.000  
G03  25808494.810                       -3023.821          33.000    25808512.433                       -2356.751          38.000  
G26  21863138.903                       -2263.424          46.000    21863130.083                       -1763.942          43.000  
C10  39392440.227                         644.501          38.000    39392428.303                         498.694          43.000  
C28  23817053.830                        1309.293          47.000                                                                  
C23  25233641.264                       -2302.031          43.000                                                                  
C16  37173485.321                          36.700          48.000    37173473.637                          28.407          49.000  
C27  25254580.202                        2756.991          40.000                                                                  
C19  25716748.311                2        223.323          33.000                                                                  
C09  37797525.548                         205.643          46.000    37797510.258                         158.894          48.000  
C11                                                                  27242944.823                       -2025.444          41.000  
> 2025 10 28 08 30 53.4020000  0 24                     
G04  21659023.175                         209.510          45.000    21659014.303                         163.360          46.000  
G27  21650148.634                        2357.736          46.000    21650140.397                        1837.509          44.000  
G16  20678315.479                        -416.991          46.000                                                                  
G08  23700952.865                        3417.213          37.000    23700951.210                        2663.014          39.000  
G09  23691703.909                        2221.914          40.000    23691697.047                        1731.296          39.000  
G31  22066014.029                       -2152.012          46.000    22066002.900                       -1676.802          44.000  
C06  36734358.473                          38.922          47.000    36734341.197                          30.152          48.000  
C32  26818719.419                       -3556.765          34.000                                                                  
C37  22905691.126                        -602.673          49.000                                                                  
C07  38327603.025                         685.123          42.000    38327586.062                         529.701          46.000  
C13  41873599.591                       -2302.014          35.000    41873631.931                       -1780.316          40.000  
C20  24720739.914                       -2217.167          46.000                                                                  
G18  25319362.076                         838.416          38.000    25319353.739                         652.826          40.000  
G28  24292168.704                       -3031.433          39.000    24292161.533                       -2362.292          41.000  
G03  25808517.821                       -3022.427          33.000    25808535.436                       -2355.241          38.000  
G26  21863156.127                       -2262.133          46.000    21863147.300                       -1762.865          43.000  
C10  39392435.263                         645.459          38.000    39392423.344                         499.365          43.000  
C28  23817043.720                        1310.447          47.000                                                                  
C23  25233658.897                       -2300.423          43.000                                                                  
C16  37173485.000                          37.909          48.000    37173473.347                          29.406          49.000  
C27  25254559.006                        2758.081          40.000                                                                  
C19  25716746.501                2        224.044          33.000                                                                  
C09  37797523.946                         206.746          46.000    37797508.688                         159.853          48.000  
C11                                                                  27242964.912                       -2024.450          41.000  
> 2025 10 28 08 30 53.4420000  0 24                     
G04  21659021.554                         209.885          45.000    21659012.705                         163.650          46.000  
G27  21650130.670                        2358.204          46.000    21650122.436                        1837.710          44.000  
G16  20678318.642                        -416.592          46.000                                                                  
G08  23700926.853                        3417.371          37.000    23700925.199                        2663.179          39.000  
G09  23691686.959                        2222.081          40.000    23691680.139    97013473.372        1731.322          39.000  
G31  22066030.402                       -2151.610          46.000    22066019.259    90356655.355       -1676.547          44.000  
C06  36734358.156                          39.461          47.000    36734340.929   147913969.315          30.513          48.000  
C32  26818746.757                       -3556.811          34.000                                                                  
C37  22905695.747                        -602.274          49.000                                                                  
C07  38327597.740                         685.260          42.000    38327580.801   154329293.103         529.885          46.000  
C13  41873617.278                       -2302.010          35.000    41873649.613                       -1779.985          40.000  
C20  24720756.938                       -2216.796          46.000                                                                  
G18  25319355.687                         838.331          38.000    25319347.361                         653.092          40.000  
G28  24292191.766                       -3031.311          39.000    24292184.595                       -2362.219          41.000  
G03  25808540.861                       -3022.658          33.000    25808558.431                       -2355.175          38.000  
G26  21863173.353                       -2261.826          46.000    21863164.520    89526007.297       -1762.438          43.000  
C10  39392430.346                         645.892          38.000    39392418.390   158616948.972         499.426          43.000  
C28  23817033.664                        1310.551          47.000                                                                  
C23  25233676.558                       -2300.192          43.000                                                                  
C16  37173484.729                          38.424          48.000    37173473.026   149682172.877          29.691          49.000  
C27  25254537.822                        2758.215          40.000                                                                  
C19  25716744.233                2        224.289          33.000                                                                  
C09  37797522.344                         207.165          46.000    37797507.094   152194902.907         160.126          48.000  
C11                                                                  27242985.022                       -2024.219          41.000  
> 2025 10 28 08 30 53.4820000  0 24                     
G04  21659019.969                         208.912          45.000    21659011.133                         162.646          46.000  
G27  21650112.707                        2357.197          46.000    21650104.501    88653566.797        1836.989          44.000  
G16  20678321.803                        -417.753          46.000                                                                  
G08  23700900.853                        3416.124          37.000    23700899.208                        2661.988          39.000  
G09  23691670.040                        2220.768          40.000    23691663.227    97013404.160        1730.509          39.000  
G31  22066046.800                       -2152.661          46.000    22066035.658    90356722.460       -1677.224          44.000  
C06  36734357.859                          38.526          47.000    36734340.645   147913968.147          29.681          48.000  
C32  26818774.098                       -3558.091          34.000                                                                  
C37  22905700.396                        -603.435          49.000                                                                  
C07  38327592.475                         684.034          42.000    38327575.533   154329271.950         529.157          46.000  
C13  41873634.986                       -2302.712          35.000    41873667.335                       -1780.876          40.000  
C20  24720773.992                       -2217.727          46.000                                                                  
G18  25319349.307                         836.973          38.000    25319340.994                         652.276          40.000  
G28  24292214.850                       -3032.843          39.000    24292207.684                       -2363.684          41.000  
G03  25808563.878                       -3024.132          33.000    25808581.463                       -2356.407          38.000  
G26  21863190.571                       -2262.866          46.000    21863181.764    89526077.850       -1763.330          43.000  
C10  39392425.387                         644.714          38.000    39392413.462   158616929.051         498.358          43.000  
C28  23817023.639                        1309.324          47.000                                                                  
C23  25233694.233                       -2301.347          43.000                                                                  
C16  37173484.436                          37.429          48.000    37173472.742   149682171.739          28.862          49.000  
C27  25254516.646                        2757.109          40.000                                                                  
C19  25716742.903                2        223.123          33.000                                                                  
C09  37797520.781                         205.723          46.000    37797505.535   152194896.551         159.303          48.000  
C11                                                                  27243005.128                       -2025.092          41.000  
> 2025 10 28 08 30 53.5220000  0 24                     
G04  21659018.405                         205.807          45.000    21659009.568                         160.254          46.000  
G27  21650094.788                        2354.244          46.000    21650086.565                        1834.534          44.000  
G16  20678324.988                        -421.071          46.000                                                                  
G08  23700874.887                        3412.791          37.000    23700873.253                        2659.119          39.000  
G09  23691653.153                        2217.824          40.000    23691646.375                        1727.886          39.000  
G31  22066063.215                       -2155.747          46.000    22066052.078                       -1679.725          44.000  
C06  36734357.627                          35.118          47.000    36734340.407                          27.439          48.000  
C32  26818801.458                       -3560.970          34.000                                                                  
C37  22905705.127                        -606.832          49.000                                                                  
C07  38327587.256                         681.167          42.000    38327570.337                         526.840          46.000  
C13  41873652.710                       -2306.409          35.000    41873685.069                       -1783.258          40.000  
C20  24720791.104                       -2220.930          46.000                                                                  
G18  25319342.964                         834.173          38.000    25319334.662                         650.181          40.000  
G28  24292237.976                       -3036.755          39.000    24292230.803                       -2365.961          41.000  
G03  25808586.929                       -3027.146          33.000    25808604.512                       -2358.809          38.000  
G26  21863207.813                       -2265.989          46.000    21863199.020                       -1765.489          43.000  
C10  39392420.467                         641.382          38.000    39392408.521                         495.923          43.000  
C28  23817013.633                        1306.332          47.000                                                                  
C23  25233711.984                       -2304.979          43.000                                                                  
C16  37173484.193                          34.407          48.000    37173472.530                          26.548          49.000  
C27  25254495.511                        2753.377          40.000                                                                  
C19  25716741.296                2        220.571          33.000                                                                  
C09  37797519.271                         202.914          46.000    37797504.001                         157.023          48.000  
C11                                                                  27243025.317                       -2027.771          41.000  
> 2025 10 28 08 30 53.5620000  0 24                     
G04  21659016.849                         202.194          45.000    21659008.021                         157.714          46.000  
G27  21650076.906                        2350.740          46.000    21650068.643                        1831.566          44.000  
G16  20678328.198                        -423.874          46.000                                                                  
G08  23700848.928                        3409.839          37.000    23700847.330                        2656.420          39.000  
G09  23691636.297                        2214.562          40.000    23691629.536                        1725.999          39.000  
G31  22066079.652                       -2159.213          46.000    22066068.518                       -1682.288          44.000  
C06  36734357.400                          31.958          46.000    36734340.181                          24.869          48.000  
C32  26818828.832                       -3564.240          34.000                                                                  
C37  22905709.856                        -609.961          49.000                                                                  
C07  38327582.084                         678.080          42.000    38327565.149                         524.152          46.000  
C13  41873670.473                       -2310.146          35.000    41873702.819                       -1785.726          40.000  
C20  24720808.209                       -2223.977          45.000                                                                  
G18  25319336.633                         830.679          38.000    25319328.352                         647.358          40.000  
G28  24292261.113                       -3039.307          39.000    24292253.953                       -2368.011          41.000  
G03  25808609.997                       -3030.918          33.000    25808627.590                       -2361.614          38.000  
G26  21863225.079                       -2269.166          46.000    21863216.311                       -1768.306          43.000  
C10  39392415.594                         638.855          38.000    39392403.622                         493.811          43.000  
C28  23817003.648                        1303.310          46.000                                                                  
C23  25233729.718                       -2307.970          43.000                                                                  
C16  37173483.965                          31.147          48.000    37173472.331                          24.144          49.000  
C27  25254474.392                        2750.480          40.000                                                                  
C19  25716739.519                2        217.924          32.000                                                                  
C09  37797517.768                         199.674          45.000    37797502.504                         154.304          48.000  
C11                                                                  27243045.479                       -2030.034          41.000  
> 2025 10 28 08 30 53.6020000  0 24                     
G04  21659015.318                         199.688          45.000    21659006.505                         155.706          46.000  
G27  21650059.003                        2348.557          46.000    21650050.757                        1829.819          44.000  
G16  20678331.440                        -426.235          46.000                                                                  
G08  23700822.998                        3407.737          37.000    23700821.367                        2655.317          39.000  
G09  23691619.432                        2212.536          40.000    23691612.695    97013197.022        1723.968          39.000  
G31  22066096.083                       -2161.433          46.000    22066084.992                       -1684.342          44.000  
C06  36734357.144                          29.847          46.000    36734339.960   147913965.143          23.016          48.000  
C32  26818856.232                       -3565.979          34.000                                                                  
C37  22905714.525                        -612.062          49.000                                                                  
C07  38327576.884                         675.637          42.000    38327559.933   154329209.015         522.275          46.000  
C13  41873688.224                       -2311.732          35.000    41873720.582                       -1787.785          40.000  
C20  24720825.295                       -2226.537          45.000                                                                  
G18  25319330.332                         828.527          38.000    25319322.059                         645.483          40.000  
G28  24292284.247                       -3041.376          39.000    24292277.086                       -2369.818          41.000  
G03  25808633.106                       -3032.814          33.000    25808650.692                       -2362.937          38.000  
G26  21863242.368                       -2271.670          46.000    21863233.604    89526290.012       -1770.059          43.000  
C10  39392410.711                         636.328          38.000    39392398.722   158616869.753         492.047          43.000  
C28  23816993.651                        1301.016          46.000                                                                  
C23  25233747.471                       -2310.339          42.000                                                                  
C16  37173483.726                          28.759          48.000    37173472.126   149682168.832          22.153          49.000  
C27  25254453.288                        2748.620          40.000                                                                  
C19  25716737.761                2        215.236          32.000                                                                  
C09  37797516.252                         197.473          45.000    37797501.007   152194877.992         152.501          48.000  
C11                                                                  27243065.678                       -2031.898          41.000  
> 2025 10 28 08 30 53.6420000  0 24                     
G04  21659013.808                         198.531          45.000    21659004.974    88690005.886         154.635          46.000  
G27  21650041.115                        2346.988          46.000    21650032.897    88653273.775        1828.775          44.000  
G16  20678334.702                        -427.792          46.000                                                                  
G08  23700797.055                        3406.552          37.000    23700795.428                        2654.575          39.000  
G09  23691602.596                        2210.947          40.000    23691595.863    97013128.067        1722.863          39.000  
G31  22066112.533                       -2162.758          46.000    22066101.466    90356991.699       -1685.427          44.000  
C06  36734356.916                          28.430          46.000    36734339.738   147913964.233          21.802          48.000  
C32  26818883.624                       -3567.384          34.000                                                                  
C37  22905719.237                        -613.283          49.000                                                                  
C07  38327571.712                         674.257          42.000    38327554.710   154329188.114         521.425          46.000  
C13  41873705.997                       -2312.898          35.000    41873738.355                       -1788.676          40.000  
C20  24720842.422                       -2228.007          45.000                                                                  
G18  25319324.010                         827.436          38.000    25319315.761   103678367.014         644.486          40.000  
G28  24292307.404                       -3042.621          39.000    24292300.243                       -2370.947          41.000  
G03  25808656.202                       -3033.626          33.000    25808673.774                       -2363.728          38.000  
G26  21863259.657                       -2273.020          46.000    21863250.898    89526360.816       -1771.111          43.000  
C10  39392405.841                         635.016          38.000    39392393.869   158616850.066         491.180          43.000  
C28  23816983.671                        1299.528          46.000                                                                  
C23  25233765.192                       -2311.403          42.000                                                                  
C16  37173483.511                          27.347          48.000    37173471.900   149682167.946          21.083          49.000  
C27  25254432.182                        2747.376          40.000                                                                  
C19  25716736.119                2        213.163          32.000                                                                  
C09  37797514.755                         196.130          45.000    37797499.508   152194871.891         151.486          48.000  
C11                                                                  27243085.861                       -2032.633          41.000  
> 2025 10 28 08 30 53.6820000  0 24                     
G04  21659012.326                         198.505          45.000    21659003.464                         154.764          46.000  
G27  21650023.272                        2347.040          46.000    21650015.033                        1828.669          44.000  
G16  20678337.942                        -427.400          46.000                                                                  
G08  23700771.121                        3406.794          37.000    23700769.508                        2654.644          39.000  
G09  23691585.789                        2211.483          40.000    23691579.034    97013059.100        1723.062          39.000  
G31  22066129.009                       -2162.701          46.000    22066117.931    90357059.063       -1685.377          44.000  
C06  36734356.672                          28.301          46.000    36734339.516   147913963.310          21.784          48.000  
C32  26818911.016                       -3566.812          34.000                                                                  
C37  22905723.915                        -613.154          49.000                                                                  
C07  38327566.487                         674.554          42.000    38327549.516   154329167.208         521.558          46.000  
C13  41873723.745                       -2312.236          35.000    41873756.121                       -1788.254          40.000  
C20  24720859.507                       -2227.833          45.000                                                                  
G18  25319317.730                         826.736          38.000    25319309.454                         644.632          40.000  
G28  24292330.582                       -3041.827          39.000    24292323.395                       -2370.117          41.000  
G03  25808679.326                       -3033.465          33.000    25808696.858                       -2364.066          38.000  
G26  21863276.966                       -2272.834          46.000    21863268.193    89526431.595       -1770.813          43.000  
C10  39392400.959                         635.443          38.000    39392388.958   158616830.365         491.467          43.000  
C28  23816973.647                        1299.952          46.000                                                                  
C23  25233782.925                       -2311.376          42.000                                                                  
C16  37173483.284                          27.328          48.000    37173471.696   149682167.039          21.379          49.000  
C27  25254411.059                        2748.073          40.000                                                                  
C19  25716734.131                2        213.469          32.000                                                                  
C09  37797513.229                         196.312          45.000    37797497.976   152194865.770         151.769          48.000  
C11                                                                  27243106.015                       -2032.489          41.000  
> 2025 10 28 08 30 53.7220000  0 24                     
G04  21659010.771                         201.315          45.000    21659001.938                         156.772          46.000  
G27  21650005.372                        2349.719          46.000    21649997.124                        1831.051          44.000  
G16  20678341.143                        -424.850          47.000                                                                  
G08  23700745.107                        3409.680          37.000    23700743.540                        2656.152          39.000  
G09  23691568.912                        2214.167          40.000    23691562.178                        1724.921          39.000  
G31  22066145.411                       -2160.070          46.000    22066134.376                       -1683.364          44.000  
C06  36734356.408                          30.989          46.000    36734339.228                          23.672          48.000  
C32  26818938.373                       -3565.447          34.000                                                                  
C37  22905728.597                        -610.284          49.000                                                                  
C07  38327561.253                         677.079          42.000    38327544.330                         523.740          46.000  
C13  41873741.459                       -2310.211          35.000    41873773.855                       -1786.028          40.000  
C20  24720876.593                       -2225.304          45.000                                                                  
G18  25319311.421                         829.924          38.000    25319303.123                         646.453          40.000  
G28  24292353.715                       -3039.251          39.000    24292346.531                       -2368.439          41.000  
G03  25808702.398                       -3030.822          33.000    25808719.942                       -2361.836          38.000  
G26  21863294.234                       -2270.415          46.000    21863285.467                       -1769.549          43.000  
C10  39392396.016                         638.409          38.000    39392384.047                         493.396          43.000  
C28  23816963.619                        1302.634          46.000                                                                  
C23  25233800.668                       -2308.937          42.000                                                                  
C16  37173483.075                          29.978          48.000    37173471.466                          23.237          49.000  
C27  25254389.898                        2749.813          40.000                                                                  
C19  25716732.602                2        216.018          32.000                                                                  
C09  37797511.699                         198.990          45.000    37797496.430                         153.699          48.000  
C11                                                                  27243126.158                       -2030.535          41.000  
> 2025 10 28 08 30 53.7620000  0 24                     
G04  21659009.255                         203.850          45.000    21659000.372                         159.012          46.000  
G27  21649987.474                        2352.394          46.000    21649979.207                        1833.274          44.000  
G16  20678344.356                        -422.124          47.000                                                                  
G08  23700719.137                        3411.763          37.000    23700717.558                        2659.544          39.000  
G09  23691551.991                        2217.192          40.000    23691545.282                        1727.249          39.000  
G31  22066161.836                       -2157.374          46.000    22066150.770                       -1681.044          44.000  
C06  36734356.122                          33.942          46.000    36734338.955                          26.119          48.000  
C32  26818965.739                       -3561.827          34.000                                                                  
C37  22905733.248                        -607.783          49.000                                                                  
C07  38327556.011                         679.962          42.000    38327539.070                         525.883          46.000  
C13  41873759.144                       -2307.125          34.000    41873791.545                       -1784.006          40.000  
C20  24720893.619                       -2222.539          45.000                                                                  
G18  25319305.096                         832.716          38.000    25319296.778                         648.507          40.000  
G28  24292376.838                       -3036.798          39.000    24292369.652                       -2366.443          41.000  
G03  25808725.398                       -3027.634          33.000    25808742.981                       -2359.903          38.000  
G26  21863311.459                       -2267.376          46.000    21863302.703                       -1766.844          43.000  
C10  39392391.061                         640.753          38.000    39392379.123                         495.435          43.000  
C28  23816953.538                        1305.183          46.000                                                                  
C23  25233818.350                       -2305.978          42.000                                                                  
C16  37173482.780                          32.903          48.000    37173471.228                          25.352          49.000  
C27  25254368.736                        2752.611          40.000                                                                  
C19  25716730.850                2        219.107          32.000                                                                  
C09  37797510.097                         201.745          45.000    37797494.848                         156.049          48.000  
C11                                                                  27243146.320                       -2028.448          41.000  
> 2025 10 28 08 30 53.8020000  0 24                     
G04  21659007.701                         206.742          45.000    21658998.796                         161.116          46.000  
G27  21649969.544                        2355.333          46.000    21649961.285                        1835.347          44.000  
G16  20678347.559                        -419.365          47.000                                                                  
G08  23700693.144                        3414.442          37.000    23700691.537                        2661.188          39.000  
G09  23691535.097                        2219.399          40.000    23691528.366                        1729.698          39.000  
G31  22066178.227                       -2154.508          46.000    22066167.143                       -1678.665          44.000  
C06  36734355.817                          36.573          46.000    36734338.681                          28.424          48.000  
C32  26818993.059                       -3558.983          33.000                                                                  
C37  22905737.878                        -605.147          49.000                                                                  
C07  38327550.739                         682.874          42.000    38327533.793                         528.012          46.000  
C13  41873776.831                       -2304.156          34.000    41873809.208                       -1781.949          40.000  
C20  24720910.656                       -2219.608          45.000                                                                  
G18  25319298.760                         835.632          38.000    25319290.396                         651.530          40.000  
G28  24292399.944                       -3034.338          39.000    24292392.742                       -2364.349          41.000  
G03  25808748.459                       -3026.015          33.000    25808765.987                       -2357.339          38.000  
G26  21863328.688                       -2264.613          46.000    21863319.948                       -1764.577          43.000  
C10  39392386.097                         643.250          38.000    39392374.178                         497.784          43.000  
C28  23816943.471                        1307.927          46.000                                                                  
C23  25233836.032                       -2303.041          42.000                                                                  
C16  37173482.481                          35.822          48.000    37173470.949                          27.700          49.000  
C27  25254347.531                        2755.507          40.000                                                                  
C19  25716729.049                2        221.431          32.000                                                                  
C09  37797508.503                         204.487          45.000    37797493.271                         158.397          48.000  
C11                                                                  27243166.453                       -2026.166          41.000  
> 2025 10 28 08 30 53.8420000  0 24                     
G04  21659006.126                         208.712          45.000    21658997.204                         162.614          46.000  
G27  21649951.605                        2357.324          46.000    21649943.332                        1836.750          44.000  
G16  20678350.757                        -417.730          47.000                                                                  
G08  23700667.137                        3416.409          38.000    23700665.550                        2662.078          39.000  
G09  23691518.162                        2220.626          40.000    23691511.459                        1730.760          39.000  
G31  22066194.618                       -2152.693          46.000    22066183.519                       -1677.117          44.000  
C06  36734355.518                          38.400          46.000    36734338.385                          29.925          48.000  
C32  26819020.392                       -3557.221          33.000                                                                  
C37  22905742.491                        -603.406          49.000                                                                  
C07  38327545.469                         684.508          42.000    38327528.542                         529.188          46.000  
C13  41873794.523                       -2302.845          34.000    41873826.873                       -1780.790          40.000  
C20  24720927.689                       -2217.722          45.000                                                                  
G18  25319292.406                         837.183          38.000    25319284.021                         652.629          40.000  
G28  24292423.036                       -3032.733          39.000    24292415.823                       -2363.165          41.000  
G03  25808771.477                       -3024.374          33.000    25808789.005                       -2356.208          38.000  
G26  21863345.885                       -2262.761          46.000    21863337.171                       -1763.141          43.000  
C10  39392381.143                         644.989          38.000    39392369.245                         498.889          43.000  
C28  23816933.419                        1309.514          46.000                                                                  
C23  25233853.730                       -2301.413          42.000                                                                  
C16  37173482.188                          37.631          48.000    37173470.699                          29.083          49.000  
C27  25254326.328                        2757.196          40.000                                                                  
C19  25716727.116                2        223.876          32.000                                                                  
C09  37797506.921                         206.186          45.000    37797491.695                         159.581          48.000  
C11                                                                  27243186.576                       -2025.257          41.000  
> 2025 10 28 08 30 53.8820000  0 24                     
G04  21659004.559                         207.413          45.000    21658995.627                         161.683          46.000  
G27  21649933.686                        2355.740          46.000    21649925.401                        1835.806          44.000  
G16  20678353.957                        -419.578          47.000                                                                  
G08  23700641.108                        3415.120          38.000    23700639.561                        2660.757          39.000  
G09  23691501.263                        2219.025          40.000    23691494.577                        1728.970          39.000  
G31  22066210.999                       -2153.938          46.000    22066199.907                       -1678.109          44.000  
C06  36734355.258                          37.499          46.000    36734338.082                          29.032          48.000  
C32  26819047.734                       -3559.644          33.000                                                                  
C37  22905747.181                        -605.050          49.000                                                                  
C07  38327540.244                         682.609          42.000    38327523.293                         528.014          46.000  
C13  41873812.239                       -2304.718          34.000    41873844.575                       -1781.927          40.000  
C20  24720944.739                       -2219.130          45.000                                                                  
G18  25319286.056                         835.820          38.000    25319277.656                         650.964          40.000  
G28  24292446.129                       -3035.071          39.000    24292438.932                       -2364.783          41.000  
G03  25808794.483                       -3025.196          33.000    25808812.043                       -2357.522          38.000  
G26  21863363.116                       -2264.153          46.000    21863354.406                       -1763.902          43.000  
C10  39392376.179                         643.237          38.000    39392364.331                         497.241          43.000  
C28  23816923.376                        1307.635          46.000                                                                  
C23  25233871.449                       -2302.664          42.000                                                                  
C16  37173481.958                          36.110          48.000    37173470.416                          28.207          49.000  
C27  25254305.169                        2755.833          40.000                                                                  
C19  25716725.411                2        222.877          32.000                                                                  
C09  37797505.363                         204.469          45.000    37797490.135                         158.192          48.000  
C11                                                                  27243206.707                       -2026.465          41.000  
> 2025 10 28 08 30 53.9220000  0 24                     
G04  21659003.018                         205.179          45.000    21658994.097                         160.125          46.000  
G27  21649915.805                        2353.818          46.000    21649907.491                        1834.285          44.000  
G16  20678357.156                        -420.668          47.000                                                                  
G08  23700615.159                        3413.259          38.000    23700613.593                        2659.397          39.000  
G09  23691484.397                        2217.889          40.000    23691477.722                        1728.100          39.000  
G31  22066227.463                       -2155.819          46.000    22066216.371                       -1680.048          44.000  
C06  36734355.008                          35.379          46.000    36734337.844                          27.404          48.000  
C32  26819075.116                       -3560.925          33.000                                                                  
C37  22905751.842                        -606.533          49.000                                                                  
C07  38327535.041                         681.019          42.000    38327518.074                         526.838          46.000  
C13  41873829.968                       -2305.455          34.000    41873862.316                       -1783.136          40.000  
C20  24720961.835                       -2221.194          45.000                                                                  
G18  25319279.730                         833.995          38.000    25319271.342                         649.678          40.000  
G28  24292469.253                       -3035.486          39.000    24292462.041                       -2365.381          41.000  
G03  25808817.561                       -3026.811          33.000    25808835.124                       -2359.023          38.000  
G26  21863380.410                       -2265.729          46.000    21863371.671                       -1765.438          43.000  
C10  39392371.255                         642.389          38.000    39392359.424                         496.405          43.000  
C28  23816913.365                        1306.525          46.000                                                                  
C23  25233889.181                       -2304.653          42.000                                                                  
C16  37173481.734                          34.268          48.000    37173470.190                          26.671          49.000  
C27  25254284.045                        2754.169          40.000                                                                  
C19  25716723.639                2        219.595          32.000                                                                  
C09  37797503.800                         202.841          45.000    37797488.621                         156.765          48.000  
C11                                                                  27243226.877                       -2027.040          41.000  
> 2025 10 28 08 30 53.9620000  0 24                     
G04  21659001.429                         206.952          45.000    21658992.512                         161.024          46.000  
G27  21649897.850                        2355.378          46.000    21649889.560                        1835.159          44.000  
G16  20678360.360                        -419.072          47.000                                                                  
G08  23700589.160                        3414.860          38.000    23700587.614                        2660.251          39.000  
G09  23691467.495                        2219.456          40.000    23691460.830                        1729.754          39.000  
G31  22066243.852                       -2154.393          46.000    22066232.753                       -1678.844          44.000  
C06  36734354.743                          36.665          46.000    36734337.537                          28.245          48.000  
C32  26819102.422                       -3558.372          33.000                                                                  
C37  22905756.470                        -604.788          49.000                                                                  
C07  38327529.751                         683.020          42.000    38327512.838                         527.787          46.000  
C13  41873847.668                       -2303.803          34.000    41873879.999                       -1781.997          40.000  
C20  24720978.863                       -2219.610          45.000                                                                  
G18  25319273.380                         835.358          38.000    25319264.973                         650.692          40.000  
G28  24292492.358                       -3034.119          39.000    24292485.143                       -2364.423          41.000  
G03  25808840.611                       -3025.281          33.000    25808858.130                       -2357.178          38.000  
G26  21863397.642                       -2264.587          46.000    21863388.895                       -1764.990          43.000  
C10  39392366.294                         644.037          38.000    39392354.503                         497.711          43.000  
C28  23816903.291                        1307.999          46.000                                                                  
C23  25233906.874                       -2303.128          42.000                                                                  
C16  37173481.428                          35.808          48.000    37173469.941                          27.529          49.000  
C27  25254262.886                        2755.981          40.000                                                                  
C19  25716722.177                2        222.122          32.000                                                                  
C09  37797502.225                         204.775          45.000    37797487.058                         158.037          48.000  
C11                                                                  27243247.002                       -2026.281          41.000  
> 2025 10 28 08 30 54.0020000  0 24                     
G04  21658999.838                         207.752          45.000    21658990.933                         161.503          46.000  
G27  21649879.919                        2356.202          46.000    21649871.644                        1835.704          44.000  
G16  20678363.531                        -419.204          47.000                                                                  
G08  23700563.150                        3415.315          38.000    23700561.614                        2660.857          39.000  
G09  23691450.573                        2219.849          40.000    23691443.930                        1729.818          39.000  
G31  22066260.206                       -2153.715          46.000    22066249.134                       -1678.351          44.000  
C06  36734354.448                          37.414          46.000    36734337.219                          28.792          48.000  
C32  26819129.723                       -3558.323          33.000                                                                  
C37  22905761.089                        -604.409          49.000                                                                  
C07  38327524.480                         683.114          42.000    38327507.566                         527.971          46.000  
C13  41873865.363                       -2304.326          34.000    41873897.695                       -1781.843          40.000  
C20  24720995.872                       -2218.857          45.000                                                                  
G18  25319267.026                         836.211          38.000    25319258.602                         651.369          40.000  
G28  24292515.445                       -3033.929          39.000    24292508.228                       -2364.105          41.000  
G03  25808863.622                       -3024.572          33.000    25808881.163                       -2357.104          38.000  
G26  21863414.870                       -2264.014          46.000    21863406.132                       -1764.445          43.000  
C10  39392361.335                         643.671          38.000    39392349.548                         497.729          43.000  
C28  23816893.247                        1308.281          46.000                                                                  
C23  25233924.554                       -2302.544          42.000                                                                  
C16  37173481.148                          36.444          48.000    37173469.652                          27.975          49.000  
C27  25254241.675                        2756.361          40.000                                                                  
C19  25716720.416                2        221.975          32.000                                                                  
C09  37797500.626                         205.144          45.000    37797485.477                         158.530          48.000  
C11                                                                  27243267.156                       -2026.543          41.000  
