     3.04           OBSERVATION DATA    M: Mixed            RINEX VERSION / TYPE
RTKCONV 2.4.3 b34                       20251028 084312 UTC PGM / RUN BY / DATE 
format: u-blox UBX                                          COMMENT             
log: D:\GPdata\10_28_2\fingure_up_place_2_10_28_4.ubx       COMMENT             
                                                            MARKER NAME         
                                                            MARKER NUMBER       
                                                            MARKER TYPE         
                                                            OBSERVER / AGENCY   
                                                            REC # / TYPE / VERS 
                                                            ANT # / TYPE        
        0.0000        0.0000        0.0000                  APPROX POSITION XYZ 
        0.0000        0.0000        0.0000                  ANTENNA: DELTA H/E/N
G    8 C1C L1C D1C S1C C2L L2L D2L S2L                      SYS / # / OBS TYPES 
C    8 C2I L2I D2I S2I C7I L7I D7I S7I                      SYS / # / OBS TYPES 
  2025    10    28    08    28   31.9220000     GPS         TIME OF FIRST OBS   
  2025    10    28    08    28   53.4820000     GPS         TIME OF LAST OBS    
G L1C                                                       SYS / PHASE SHIFT   
G L2L  0.00000                                              SYS / PHASE SHIFT   
C L2I                                                       SYS / PHASE SHIFT   
C L7I                                                       SYS / PHASE SHIFT   
  0                                                         GLONASS SLOT / FRQ #
 C1C    0.000 C1P    0.000 C2C    0.000 C2P    0.000        GLONASS COD/PHS/BIS 
                                                            END OF HEADER       
> 2025 10 28 08 28 31.9220000  0 24                     
G04  21665878.289   113854959.0001        306.412          45.000    21665868.712    88718112.6811        238.749          46.000  
G27  21714544.972   114110704.4951       2432.208          46.000    21714537.551    88917403.9221       1895.249          44.000  
G16  20667837.765   108610221.0461       -354.603          47.000                                                                  
G08  23793271.062   125034497.8111       3447.194          39.000    23793270.523    97429491.9271       2686.073          40.000  
G09  23752325.936   124819323.0631       2287.927          38.000    23752320.613    97261779.3391       1782.853          39.000  
G31  22008642.661   115656196.6081      -2103.301          47.000    22008631.936    90121663.7151      -1638.948          44.000  
C06  36735338.007   191290528.5051         39.711          46.000    36735319.861   147917912.5491         30.690          48.000  
C32  26721880.369   139147762.7611      -3564.100          38.000                                                                  
C37  22889567.394   119191988.2761       -577.700          49.000                                                                  
C07  38346318.151   199679342.2871        699.307          41.000    38346301.444   154404671.1161        540.704          46.000  
C13  41810798.966   217719824.0701      -2314.089          35.000    41810831.451   168354917.0551      -1789.520          40.000  
C20  24661224.431   128417468.6541      -2156.715          45.000                                                                  
G18  25342684.708   133176710.0691        900.860          38.000    25342678.061   103774026.4121        702.082          40.000  
G28  24210920.276   127229242.6971      -2996.907          40.000    24210913.027    99139629.3641      -2335.287          42.000  
G03  25727044.028                       -3021.767          33.000    25727057.147   105347894.2181      -2354.697          37.000  
G26  21802578.720   114573324.3681      -2231.013          47.000    21802570.751    89277882.6771      -1738.340          44.000  
C10  39410050.987   205218479.9661        657.715          39.000    39410039.296   158687898.1981        508.429          43.000  
C28  23853403.878   124210938.0981       1372.514          46.000                                                                  
C23  25171239.159   131073250.8261      -2287.338          43.000                                                                  
C16  37174440.214   193577067.3861         38.661          48.000    37174428.039   149686019.3051         29.935          48.000  
C27  25329578.325   131897766.3281       2770.689          41.000                                                                  
C19  25723823.847   133950708.8301        303.189          42.000                                                                  
C09  37802984.903   196850066.0671        202.080          45.000    37802969.757   152216898.1771        156.023          48.000  
C11                                                                  27172459.800   109412235.8311      -1983.536          42.000  
> 2025 10 28 08 28 31.9620000  0 24                     
G04  21665875.974   113854946.757         306.114          45.000    21665866.392    88718103.140         238.530          46.000  
G27  21714526.465   114110607.212        2432.035          46.000    21714519.023    88917328.104        1895.367          44.000  
G16  20667840.456   108610235.225        -354.563          47.000                                                                  
G08  23793244.838   125034359.942        3446.823          39.000    23793244.296    97429384.506        2685.626          40.000  
G09  23752308.537   124819231.561        2287.562          38.000    23752303.174    97261708.036        1782.687          39.000  
G31  22008658.686   115656280.746       -2103.523          47.000    22008647.927    90121729.273       -1639.052          44.000  
C06  36735337.670   191290526.923          39.565          46.000    36735319.575   147917911.326          30.586          48.000  
C32  26721907.745   139147905.325       -3564.140          38.000                                                                  
C37  22889571.846   119192011.380        -577.731          49.000                                                                  
C07  38346312.761   199679314.324         699.101          41.000    38346296.062   154404649.489         540.635          46.000  
C13  41810816.737   217719916.642       -2314.311          35.000    41810849.236   168354988.640       -1789.608          40.000  
C20  24661240.992   128417554.943       -2157.095          45.000                                                                  
G18  25342677.849   133176674.027         900.853          38.000    25342671.218   103773998.323         702.118          40.000  
G28  24210943.095   127229362.584       -2997.110          40.000    24210935.844    99139722.770       -2335.250          42.000  
G03  25727067.044                       -3022.060          33.000    25727080.157   105347988.428       -2355.228          37.000  
G26  21802595.741   114573413.610       -2231.101          47.000    21802587.753    89277952.223       -1738.608          44.000  
C10  39410045.908   205218453.674         657.349          39.000    39410034.245   158687877.870         508.185          43.000  
C28  23853393.304   124210883.205        1372.261          46.000                                                                  
C23  25171256.745   131073342.321       -2287.434          43.000                                                                  
C16  37174439.909   193577065.840          38.547          48.000    37174427.754   149686018.106          29.889          48.000  
C27  25329557.029   131897655.504        2770.579          41.000                                                                  
C19  25723821.524   133950696.715         302.860          42.000                                                                  
C09  37802983.336   196850058.007         201.641          45.000    37802968.210   152216891.932         156.021          48.000  
C11                                                                  27172479.503   109412315.174       -1983.627          42.000  
> 2025 10 28 08 28 32.0020000  0 24                     
G04  21665873.625   113854934.510         306.034          45.000    21665864.047    88718093.592         238.576          46.000  
G27  21714507.954   114110509.922        2432.086          46.000    21714500.507    88917252.304        1895.109          44.000  
G16  20667843.183   108610249.419        -354.820          47.000                                                                  
G08  23793218.602   125034222.076        3446.603          39.000    23793218.052    97429277.063        2685.824          40.000  
G09  23752291.118   124819140.048        2287.628          38.000    23752285.747    97261636.716        1782.862          39.000  
G31  22008674.700   115656364.879       -2103.511          47.000    22008663.936    90121794.835       -1639.158          44.000  
C06  36735337.337   191290525.350          39.348          46.000    36735319.304   147917910.107          30.459          48.000  
C32  26721935.131   139148047.880       -3564.028          38.000                                                                  
C37  22889576.317   119192034.487        -577.764          49.000                                                                  
C07  38346307.409   199679286.360         699.010          41.000    38346290.699   154404627.862         540.619          46.000  
C13  41810834.481   217720009.209       -2314.235          35.000    41810866.995   168355060.224       -1789.645          40.000  
C20  24661257.552   128417641.235       -2157.315          45.000                                                                  
G18  25342670.984   133176637.998         900.693          38.000    25342664.378   103773970.253         701.816          40.000  
G28  24210965.917   127229482.459       -2996.979          40.000    24210958.639    99139816.191       -2335.477          42.000  
G03  25727090.040   135196739.984       -3022.293          33.000    25727103.156   105348082.629       -2355.234          37.000  
G26  21802612.744   114573502.862       -2231.294          47.000    21802604.741    89278021.767       -1738.687          44.000  
C10  39410040.876   205218427.366         657.532          39.000    39410029.189   158687857.533         508.246          43.000  
C28  23853382.774   124210828.302        1372.352          46.000                                                                  
C23  25171274.324   131073433.817       -2287.489          43.000                                                                  
C16  37174439.645   193577064.281          38.766          48.000    37174427.495   149686016.903          29.961          48.000  
C27  25329535.763   131897544.702        2770.106          41.000                                                                  
C19  25723819.190   133950684.587         302.955          42.000                                                                  
C09  37802981.790   196850049.934         201.651          45.000    37802966.653   152216885.687         156.029          48.000  
C11                                                                  27172499.213   109412394.507       -1983.441          42.000  
> 2025 10 28 08 28 32.0420000  0 24                     
G04  21665871.308   113854922.267         305.942          45.000    21665861.709    88718084.061         238.311          46.000  
G27  21714489.448   114110412.646        2431.898          46.000    21714481.992    88917176.511        1894.842          44.000  
G16  20667845.896   108610263.619        -355.050          47.000                                                                  
G08  23793192.365   125034084.191        3446.918          39.000    23793191.810    97429169.629        2685.743          39.000  
G09  23752273.712   124819048.557        2287.326          38.000    23752268.320    97261565.405        1782.798          39.000  
G31  22008690.691   115656449.016       -2103.542          47.000    22008679.945    90121860.398       -1639.216          44.000  
C06  36735337.025   191290523.775          39.271          46.000    36735319.004   147917908.892          30.325          48.000  
C32  26721962.508   139148190.444       -3564.077          38.000                                                                  
C37  22889580.796   119192057.597        -577.819          49.000                                                                  
C07  38346302.047   199679258.405         698.865          42.000    38346285.361   154404606.238         540.564          46.000  
C13  41810852.257   217720101.786       -2314.454          35.000    41810884.729   168355131.813       -1789.795          40.000  
C20  24661274.100   128417727.532       -2157.515          45.000                                                                  
G18  25342664.136   133176601.976         900.472          38.000    25342657.542   103773942.179         701.755          40.000  
G28  24210988.731   127229602.353       -2997.262          40.000    24210981.449    99139909.615       -2335.648          42.000  
G03  25727113.045   135196860.880       -3022.569          33.000    25727126.154   105348176.826       -2355.101          37.000  
G26  21802629.743   114573592.128       -2231.650          47.000    21802621.735    89278091.319       -1738.844          44.000  
C10  39410035.818   205218401.069         657.434          39.000    39410024.184   158687837.215         507.947          43.000  
C28  23853372.260   124210773.412        1372.198          46.000                                                                  
C23  25171291.912   131073525.325       -2287.656          43.000                                                                  
C16  37174439.350   193577062.735          38.668          48.000    37174427.220   149686015.707          29.890          48.000  
C27  25329514.499   131897433.890        2770.087          41.000                                                                  
C19  25723816.839   133950672.471         302.845          42.000                                                                  
C09  37802980.239   196850041.878         201.361          45.000    37802965.112   152216879.454         155.845          48.000  
C11                                                                  27172518.951   109412473.853       -1983.545          42.000  
> 2025 10 28 08 28 32.0820000  0 24                     
G04  21665868.975   113854910.036         305.737          45.000    21665859.383    88718074.540         238.006          46.000  
G27  21714470.943   114110315.378        2431.654          46.000    21714463.482    88917100.717        1894.721          44.000  
G16  20667848.604   108610277.828        -355.328          47.000                                                                  
G08  23793166.122   125033946.311        3446.942          39.000    23793165.566    97429062.194        2685.801          39.000  
G09  23752256.291   124818957.052        2287.416          38.000    23752250.918    97261494.105        1782.550          39.000  
G31  22008706.701   115656533.159       -2103.663          47.000    22008695.960    90121925.975       -1639.464          44.000  
C06  36735336.717   191290522.201          39.248          46.000    36735318.697   147917907.670          30.388          48.000  
C32  26721989.888   139148333.010       -3564.208          38.000                                                                  
C37  22889585.203   119192080.713        -577.944          49.000                                                                  
C07  38346296.689   199679230.451         698.807          42.000    38346280.006   154404584.629         540.260          46.000  
C13  41810870.047   217720194.386       -2314.886          35.000    41810902.501   168355203.416       -1790.085          40.000  
C20  24661290.684   128417813.826       -2157.540          45.000                                                                  
G18  25342657.286   133176565.937         900.699          38.000    25342650.696   103773914.117         701.547          40.000  
G28  24211011.562   127229722.256       -2997.545          40.000    24211004.268    99140003.042       -2335.777          42.000  
G03  25727136.059   135196981.773       -3022.554          33.000    25727149.163   105348271.019       -2354.943          37.000  
G26  21802646.730   114573681.392       -2231.764          47.000    21802638.721    89278160.879       -1739.032          44.000  
C10  39410030.786   205218374.797         656.879          39.000    39410019.122   158687816.882         508.173          43.000  
C28  23853361.708   124210718.528        1372.044          46.000                                                                  
C23  25171309.473   131073616.844       -2287.965          43.000                                                                  
C16  37174439.060   193577061.197          38.448          48.000    37174426.935   149686014.521          29.672          48.000  
C27  25329493.236   131897323.092        2769.875          41.000                                                                  
C19  25723814.503   133950660.357         302.788          42.000                                                                  
C09  37802978.685   196850033.819         201.358          45.000    37802963.520   152216873.226         155.671          48.000  
C11                                                                  27172538.693   109412553.217       -1983.977          42.000  
> 2025 10 28 08 28 32.1220000  0 24                     
G04  21665866.663   113854897.814         305.484          45.000    21665857.070    88718065.020         237.835          46.000  
G27  21714452.463   114110218.123        2431.344          46.000    21714444.983    88917024.921        1894.776          44.000  
G16  20667851.290   108610292.040        -355.441          47.000                                                                  
G08  23793139.888   125033808.453        3446.556          39.000    23793139.340    97428954.769        2685.621          39.000  
G09  23752238.854   124818865.543        2287.617          38.000    23752233.511    97261422.836        1781.830          39.000  
G31  22008722.733   115656617.327       -2104.116          47.000    22008711.970    90121991.545       -1639.390          44.000  
C06  36735336.396   191290520.648          38.890          46.000    36735318.402   147917906.464          30.165          48.000  
C32  26722017.269   139148475.606       -3564.785          38.000                                                                  
C37  22889589.616   119192103.844        -578.246          49.000                                                                  
C07  38346291.334   199679202.502         698.649          41.000    38346274.646   154404563.023         540.115          46.000  
C13  41810887.816   217720286.986       -2315.137          35.000    41810920.293   168355275.021       -1790.250          40.000  
C20  24661307.273   128417900.134       -2157.740          45.000                                                                  
G18  25342650.419   133176529.924         900.345          38.000    25342643.851   103773886.047         701.534          40.000  
G28  24211034.390   127229842.161       -2997.691          40.000    24211027.083    99140096.485       -2336.127          42.000  
G03  25727159.073   135197102.691       -3023.020          33.000    25727172.174   105348365.211       -2354.862          37.000  
G26  21802663.706   114573770.659       -2231.844          47.000    21802655.713    89278230.440       -1739.104          44.000  
C10  39410025.755   205218348.514         656.915          39.000    39410014.050   158687796.550         508.240          43.000  
C28  23853351.184   124210663.652        1371.836          46.000                                                                  
C23  25171327.063   131073708.368       -2288.175          43.000                                                                  
C16  37174438.757   193577059.671          38.163          48.000    37174426.646   149686013.343          29.431          48.000  
C27  25329471.975   131897212.290        2769.854          41.000                                                                  
C19  25723812.162   133950648.263         302.382          42.000                                                                  
C09  37802977.132   196850025.767         201.228          45.000    37802961.952   152216867.003         155.504          48.000  
C11                                                                  27172558.438   109412632.572       -1984.031          42.000  
> 2025 10 28 08 28 32.1620000  0 24                     
G04  21665864.334   113854885.594         305.384          45.000    21665854.736    88718055.486         238.059          46.000  
G27  21714433.957   114110120.860        2431.354          46.000    21714426.445    88916949.135        1894.629          44.000  
G16  20667853.956   108610306.251        -355.429          47.000                                                                  
G08  23793113.657   125033670.603        3446.222          39.000    23793113.103    97428847.350        2685.506          39.000  
G09  23752221.469   124818774.049        2287.455          38.000    23752216.096    97261351.558        1781.719          39.000  
G31  22008738.747   115656701.481       -2104.077          47.000    22008727.962    90122057.117       -1639.413          44.000  
C06  36735336.047   191290519.076          39.058          46.000    36735318.119   147917905.258          30.090          48.000  
C32  26722044.675   139148618.189       -3564.760          38.000                                                                  
C37  22889594.074   119192126.974        -578.365          49.000                                                                  
C07  38346285.992   199679174.546         698.763          41.000    38346269.294   154404541.412         540.114          46.000  
C13  41810905.596   217720379.563       -2314.684          35.000    41810938.079   168355346.622       -1790.152          40.000  
C20  24661323.849   128417986.445       -2157.858          45.000                                                                  
G18  25342643.540   133176493.903         900.323          38.000    25342637.005   103773857.983         701.543          40.000  
G28  24211057.201   127229962.063       -2997.677          40.000    24211049.879    99140189.908       -2335.916          42.000  
G03  25727182.068   135197223.569       -3022.401          33.000    25727195.197   105348459.438       -2355.364          37.000  
G26  21802680.690   114573859.919       -2231.702          47.000    21802672.683    89278300.002       -1739.161          44.000  
C10  39410020.699   205218322.243         656.757          39.000    39410009.000   158687776.229         508.069          43.000  
C28  23853340.655   124210608.780        1371.690          46.000                                                                  
C23  25171344.638   131073799.877       -2287.947          43.000                                                                  
C16  37174438.473   193577058.142          38.091          48.000    37174426.385   149686012.163          29.376          48.000  
C27  25329450.688   131897101.493        2769.851          41.000                                                                  
C19  25723809.855   133950636.155         302.460          42.000                                                                  
C09  37802975.584   196850017.709         201.284          45.000    37802960.413   152216860.778         155.504          48.000  
C11                                                                  27172578.145   109412711.930       -1984.073          42.000  
> 2025 10 28 08 28 32.2020000  0 24                     
G04  21665862.008   113854873.368         305.490          45.000    21665852.414    88718045.957         238.122          46.000  
G27  21714415.446   114110023.590        2431.548          46.000    21714407.944    88916873.351        1894.537          44.000  
G16  20667856.669   108610320.459        -355.313          47.000                                                                  
G08  23793087.398   125033532.741        3446.320          39.000    23793086.854    97428739.938        2685.264          39.000  
G09  23752204.118   124818682.561        2287.250          38.000    23752198.692    97261280.239        1782.507          39.000  
G31  22008754.755   115656785.628       -2103.889          47.000    22008743.990    90122122.691       -1639.423          44.000  
C06  36735335.728   191290517.514          39.011          46.000    36735317.850   147917904.054          30.047          48.000  
C32  26722072.059   139148760.776       -3564.770          38.000                                                                  
C37  22889598.506   119192150.102        -578.318          49.000                                                                  
C07  38346280.633   199679146.599         698.709          41.000    38346263.951   154404519.794         540.327          46.000  
C13  41810923.369   217720472.163       -2314.890          35.000    41810955.838   168355418.212       -1789.890          40.000  
C20  24661340.472   128418072.739       -2157.566          45.000                                                                  
G18  25342636.691   133176457.894         900.203          38.000    25342630.127   103773829.914         701.654          40.000  
G28  24211080.008   127230081.961       -2997.540          40.000    24211072.696    99140283.334       -2335.817          42.000  
G03  25727205.050   135197344.461       -3022.335          33.000    25727218.202   105348553.631       -2355.051          37.000  
G26  21802697.684   114573949.188       -2231.745          47.000    21802689.675    89278369.552       -1738.933          44.000  
C10  39410015.669   205218295.966         656.757          39.000    39410003.972   158687755.904         508.051          43.000  
C28  23853330.138   124210553.900        1371.829          46.000                                                                  
C23  25171362.230   131073891.388       -2287.839          43.000                                                                  
C16  37174438.198   193577056.608          38.191          48.000    37174426.141   149686010.970          29.626          48.000  
C27  25329429.406   131896990.696        2769.865          41.000                                                                  
C19  25723807.519   133950624.063         302.292          42.000                                                                  
C09  37802974.065   196850009.654         201.307          45.000    37802958.895   152216854.543         155.708          48.000  
C11                                                                  27172597.830   109412791.283       -1983.992          42.000  
> 2025 10 28 08 28 32.2420000  0 24                     
G04  21665859.682   113854861.138         305.642          45.000    21665850.112    88718036.426         238.187          46.000  
G27  21714396.931   114109926.318        2431.693          46.000    21714389.445    88916797.550        1894.825          44.000  
G16  20667859.340   108610334.658        -355.080          47.000                                                                  
G08  23793061.166   125033394.859        3446.788          39.000    23793060.615    97428632.501        2685.608          39.000  
G09  23752186.717   124818591.051        2287.532          38.000    23752181.271    97261208.940        1782.567          39.000  
G31  22008770.733   115656869.771       -2103.684          47.000    22008760.000    90122188.258       -1639.268          44.000  
C06  36735335.428   191290515.946          39.108          46.000    36735317.575   147917902.833          30.318          48.000  
C32  26722099.445   139148903.329       -3564.139          38.000                                                                  
C37  22889602.959   119192173.216        -578.014          49.000                                                                  
C07  38346275.265   199679118.648         698.747          41.000    38346258.571   154404498.183         540.288          46.000  
C13  41810941.133   217720564.740       -2314.597          35.000    41810973.589   168355489.794       -1789.631          40.000  
C20  24661357.070   128418159.037       -2157.475          45.000                                                                  
G18  25342629.841   133176421.865         900.506          38.000    25342623.275   103773801.841         701.804          40.000  
G28  24211102.819   127230201.849       -2997.232          40.000    24211095.494    99140376.760       -2335.725          42.000  
G03  25727228.046   135197465.363       -3022.508          33.000    25727241.196   105348647.824       -2354.892          37.000  
G26  21802714.648   114574038.445       -2231.562          47.000    21802706.675    89278439.110       -1738.948          44.000  
C10  39410010.620   205218269.668         657.208          39.000    39409998.934   158687735.584         507.935          43.000  
C28  23853319.620   124210499.013        1372.029          46.000                                                                  
C23  25171379.806   131073982.900       -2287.811          43.000                                                                  
C16  37174437.944   193577055.067          38.395          48.000    37174425.866   149686009.782          29.664          48.000  
C27  25329408.147   131896879.878        2770.224          41.000                                                                  
C19  25723805.205   133950611.945         302.681          42.000                                                                  
C09  37802972.530   196850001.586         201.584          45.000    37802957.358   152216848.304         155.938          48.000  
C11                                                                  27172617.523   109412870.636       -1983.893          42.000  
> 2025 10 28 08 28 32.2820000  0 24                     
G04  21665857.343   113854848.890         306.064          45.000    21665847.776    88718026.881         238.476          46.000  
G27  21714378.399   114109829.036        2431.927          46.000    21714370.920    88916721.752        1894.946          44.000  
G16  20667862.063   108610348.864        -355.121          47.000                                                                  
G08  23793034.940   125033256.988        3446.740          39.000    23793034.364    97428525.051        2686.105          39.000  
G09  23752169.312   124818499.548        2287.631          38.000    23752163.856    97261137.633        1782.695          39.000  
G31  22008786.743   115656953.910       -2103.513          47.000    22008776.009    90122253.824       -1639.176          44.000  
C06  36735335.135   191290514.369          39.305          46.000    36735317.290   147917901.608          30.544          48.000  
C32  26722126.841   139149045.893       -3564.044          38.000                                                                  
C37  22889607.411   119192196.328        -577.833          49.000                                                                  
C07  38346269.890   199679090.697         698.701          41.000    38346253.171   154404476.556         540.560          46.000  
C13  41810958.901   217720657.339       -2314.777          35.000    41810991.351   168355561.391       -1789.820          40.000  
C20  24661373.671   128418245.328       -2157.308          45.000                                                                  
G18  25342622.976   133176385.842         900.588          38.000    25342616.420   103773773.766         701.850          40.000  
G28  24211125.642   127230321.747       -2997.320          40.000    24211118.317    99140470.177       -2335.509          42.000  
G03  25727251.049   135197586.269       -3022.640          33.000    25727264.202   105348742.018       -2354.849          37.000  
G26  21802731.615   114574127.700       -2231.397          47.000    21802723.683    89278508.660       -1738.818          44.000  
C10  39410005.556   205218243.354         657.629          39.000    39409993.898   158687715.252         508.142          43.000  
C28  23853309.095   124210444.122        1372.233          46.000                                                                  
C23  25171397.384   131074074.401       -2287.622          43.000                                                                  
C16  37174437.656   193577053.522          38.588          48.000    37174425.606   149686008.587          29.818          48.000  
C27  25329386.874   131896769.061        2770.438          41.000                                                                  
C19  25723802.892   133950599.830         302.850          42.000                                                                  
C09  37802970.975   196849993.511         201.842          45.000    37802955.859   152216842.063         156.040          48.000  
C11                                                                  27172637.259   109412949.986       -1983.813          42.000  
> 2025 10 28 08 28 32.3220000  0 24                     
G04  21665855.018   113854836.665         305.814          45.000    21665845.454    88718017.356         238.255          46.000  
G27  21714359.906   114109731.775        2431.677          46.000    21714352.427    88916645.964        1894.772          44.000  
G16  20667864.759   108610363.071        -355.192          47.000                                                                  
G08  23793008.714   125033119.134        3446.422          39.000    23793008.126    97428417.631        2685.721          39.000  
G09  23752151.915   124818408.074        2287.101          38.000    23752146.445    97261066.351        1782.232          39.000  
G31  22008802.791   115657038.067       -2103.799          47.000    22008792.005    90122319.395       -1639.236          44.000  
C06  36735334.853   191290512.790          39.450          46.000    36735317.031   147917900.398          30.367          48.000  
C32  26722154.205   139149188.471       -3564.296          38.000                                                                  
C37  22889611.850   119192219.448        -577.949          49.000                                                                  
C07  38346264.538   199679062.752         698.620          41.000    38346247.770   154404454.943         540.422          46.000  
C13  41810976.669   217720749.932       -2314.789          35.000    41811009.122   168355633.000       -1790.170          40.000  
C20  24661390.239   128418331.638       -2157.590          45.000                                                                  
G18  25342616.134   133176349.833         900.340          38.000    25342609.559   103773745.713         701.431          40.000  
G28  24211148.475   127230441.647       -2997.518          40.000    24211141.130    99140563.620       -2335.917          42.000  
G03  25727274.084   135197707.152       -3022.251          33.000    25727287.219   105348836.236       -2355.360          37.000  
G26  21802748.592   114574216.968       -2231.581          47.000    21802740.675    89278578.218       -1738.910          44.000  
C10  39410000.502   205218217.074         657.257          39.000    39409988.850   158687694.926         508.093          43.000  
C28  23853298.545   124210389.246        1372.020          46.000                                                                  
C23  25171414.946   131074165.916       -2287.795          43.000                                                                  
C16  37174437.339   193577051.986          38.462          48.000    37174425.332   149686007.393          29.851          48.000  
C27  25329365.601   131896658.262        2770.138          41.000                                                                  
C19  25723800.558   133950587.729         302.664          42.000                                                                  
C09  37802969.429   196849985.454         201.588          45.000    37802954.313   152216835.834         155.862          48.000  
C11                                                                  27172656.963   109413029.345       -1983.937          42.000  
> 2025 10 28 08 28 32.3620000  0 24                     
G04  21665852.703   113854824.462         305.260          45.000    21665843.139    88718007.850         237.810          46.000  
G27  21714341.412   114109634.542        2431.044          46.000    21714333.934    88916570.182        1894.552          44.000  
G16  20667867.466   108610377.303        -355.668          47.000                                                                  
G08  23792982.492   125032981.288        3446.177          39.000    23792981.896    97428310.222        2685.286          39.000  
G09  23752134.540   124818316.612        2286.550          38.000    23752129.040    97260995.066        1782.085          39.000  
G31  22008818.809   115657122.242       -2104.255          47.000    22008808.044    90122384.984       -1639.584          44.000  
C06  36735334.529   191290511.242          38.959          46.000    36735316.722   147917899.193          30.181          48.000  
C32  26722181.569   139149331.080       -3565.006          38.000                                                                  
C37  22889616.305   119192242.589        -578.391          49.000                                                                  
C07  38346259.197   199679034.814         698.496          41.000    38346242.392   154404433.340         540.175          46.000  
C13  41810994.444   217720842.505       -2314.448          35.000    41811026.899   168355704.613       -1790.397          40.000  
C20  24661406.839   128418417.955       -2157.856          45.000                                                                  
G18  25342609.306   133176313.832         900.050          38.000    25342602.733   103773717.657         701.346          40.000  
G28  24211171.314   127230561.571       -2998.017          40.000    24211163.950    99140657.066       -2336.211          42.000  
G03  25727297.106   135197828.071       -3022.688          33.000    25727310.237   105348930.457       -2355.662          37.000  
G26  21802765.597   114574306.252       -2231.992          47.000    21802757.668    89278647.784       -1739.109          44.000  
C10  39409995.445   205218190.809         656.750          39.000    39409983.787   158687674.616         507.788          43.000  
C28  23853287.991   124210334.384        1371.640          46.000                                                                  
C23  25171432.518   131074257.452       -2288.282          43.000                                                                  
C16  37174437.038   193577050.465          38.128          48.000    37174425.059   149686006.219          29.502          48.000  
C27  25329344.346   131896547.480        2769.699          41.000                                                                  
C19  25723798.232   133950575.648         302.152          42.000                                                                  
C09  37802967.896   196849977.417         201.072          45.000    37802952.739   152216829.616         155.516          48.000  
C11                                                                  27172676.639   109413108.704       -1984.048          42.000  
> 2025 10 28 08 28 32.4020000  0 24                     
G04  21665850.418   113854812.268         304.840          45.000    21665840.825    88717998.352         237.400          46.000  
G27  21714322.910   114109537.311        2430.702          46.000    21714315.435    88916494.415        1894.195          44.000  
G16  20667870.169   108610391.531        -355.838          47.000                                                                  
G08  23792956.242   125032843.462        3445.612          39.000    23792955.675    97428202.817        2685.060          39.000  
G09  23752117.140   124818225.123        2286.867          38.000    23752111.639    97260923.787        1781.964          39.000  
G31  22008834.837   115657206.419       -2104.523          47.000    22008824.091    90122450.585       -1639.989          44.000  
C06  36735334.208   191290509.697          38.609          46.000    36735316.429   147917898.002          29.827          48.000  
C32  26722208.987   139149473.683       -3565.274          38.000                                                                  
C37  22889620.726   119192265.736        -578.697          49.000                                                                  
C07  38346253.842   199679006.861         698.663          41.000    38346237.030   154404411.748         539.849          46.000  
C13  41811012.209   217720935.116       -2315.062          35.000    41811044.661   168355776.224       -1790.444          40.000  
C20  24661423.389   128418504.287       -2158.263          45.000                                                                  
G18  25342602.459   133176277.830         899.976          38.000    25342595.871   103773689.606         701.153          40.000  
G28  24211194.134   127230681.504       -2998.396          40.000    24211186.763    99140750.510       -2336.284          42.000  
G03  25727320.126   135197948.989       -3022.984          33.000    25727333.255   105349024.675       -2355.701          37.000  
G26  21802782.591   114574395.543       -2232.303          47.000    21802774.657    89278717.361       -1739.379          44.000  
C10  39409990.418   205218164.547         656.512          39.000    39409978.725   158687654.304         507.690          43.000  
C28  23853277.447   124210279.532        1371.276          46.000                                                                  
C23  25171450.089   131074348.994       -2288.580          43.000                                                                  
C16  37174436.772   193577048.955          37.744          48.000    37174424.769   149686005.050          29.208          48.000  
C27  25329323.081   131896436.697        2769.497          41.000                                                                  
C19  25723795.872   133950563.575         301.749          42.000                                                                  
C09  37802966.351   196849969.381         200.806          45.000    37802951.196   152216823.404         155.273          48.000  
C11                                                                  27172696.359   109413188.077       -1984.293          42.000  
> 2025 10 28 08 28 32.4420000  0 24                     
G04  21665848.119   113854800.079         304.561          45.000    21665838.504    88717988.852         237.296          46.000  
G27  21714304.394   114109440.069        2430.740          46.000    21714296.949    88916418.656        1893.887          44.000  
G16  20667872.883   108610405.772        -356.135          47.000                                                                  
G08  23792930.024   125032705.619        3445.756          39.000    23792929.417    97428095.410        2684.969          39.000  
G09  23752099.713   124818133.647        2286.792          38.000    23752094.211    97260852.521        1781.674          39.000  
G31  22008850.831   115657290.599       -2104.669          47.000    22008840.097    90122516.175       -1639.971          44.000  
C06  36735333.889   191290508.163          38.288          46.000    36735316.139   147917896.815          29.597          48.000  
C32  26722236.361   139149616.270       -3565.032          38.000                                                                  
C37  22889625.184   119192288.887        -578.917          49.000                                                                  
C07  38346248.487   199678978.939         698.180          41.000    38346231.642   154404390.155         539.711          46.000  
C13  41811029.966   217721027.735       -2315.493          35.000    41811062.463   168355847.836       -1790.448          40.000  
C20  24661439.981   128418590.611       -2158.291          45.000                                                                  
G18  25342595.593   133176241.837         899.756          38.000    25342589.011   103773661.570         700.906          40.000  
G28  24211216.955   127230801.427       -2998.344          40.000    24211209.615    99140843.963       -2336.449          42.000  
G03  25727343.143   135198069.902       -3022.890          33.000    25727356.268   105349118.892       -2355.604          37.000  
G26  21802799.569   114574484.836       -2232.479          47.000    21802791.641    89278786.944       -1739.639          44.000  
C10  39409985.360   205218138.286         656.439          39.000    39409973.689   158687633.997         507.544          43.000  
C28  23853266.933   124210224.681        1371.106          46.000                                                                  
C23  25171467.685   131074440.530       -2288.638          43.000                                                                  
C16  37174436.484   193577047.444          37.616          48.000    37174424.483   149686003.886          29.011          48.000  
C27  25329301.799   131896325.921        2769.281          41.000                                                                  
C19  25723793.570   133950551.498         301.688          42.000                                                                  
C09  37802964.799   196849961.346         200.722          45.000    37802949.660   152216817.191         155.173          48.000  
C11                                                                  27172716.057   109413267.454       -1984.439          42.000  
> 2025 10 28 08 28 32.4820000  0 24                     
G04  21665845.781   113854787.892         304.451          45.000    21665836.179    88717979.352         237.295          46.000  
G27  21714285.897   114109342.839        2430.612          46.000    21714278.435    88916342.892        1893.881          44.000  
G16  20667875.601   108610420.022        -356.380          47.000                                                                  
G08  23792903.800   125032567.788        3445.684          39.000    23792903.191    97427988.021        2684.611          39.000  
G09  23752082.285   124818042.191        2286.370          38.000    23752076.809    97260781.250        1781.640          39.000  
G31  22008866.825   115657374.788       -2104.866          47.000    22008856.122    90122581.781       -1640.192          44.000  
C06  36735333.599   191290506.638          38.019          46.000    36735315.858   147917895.634          29.394          48.000  
C32  26722263.757   139149758.863       -3564.976          38.000                                                                  
C37  22889629.669   119192312.047        -579.112          49.000                                                                  
C07  38346243.142   199678951.025         697.806          41.000    38346226.277   154404368.573         539.468          46.000  
C13  41811047.771   217721120.364       -2315.906          35.000    41811080.270   168355919.462       -1790.689          40.000  
C20  24661456.576   128418676.950       -2158.523          45.000                                                                  
G18  25342588.755   133176205.858         899.440          38.000    25342582.163   103773633.518         701.076          40.000  
G28  24211239.780   127230921.355       -2998.312          40.000    24211232.443    99140937.411       -2336.348          42.000  
G03  25727366.155   135198190.879       -3024.065          33.000    25727379.291   105349213.133       -2356.002          37.000  
G26  21802816.546   114574574.135       -2232.647          47.000    21802808.647    89278856.533       -1739.837          44.000  
C10  39409980.301   205218112.034         656.250          39.000    39409968.656   158687613.703         507.288          43.000  
C28  23853256.382   124210169.844        1370.837          46.000                                                                  
C23  25171485.254   131074532.077       -2288.802          43.000                                                                  
C16  37174436.202   193577045.947          37.329          48.000    37174424.185   149686002.724          28.894          48.000  
C27  25329280.521   131896215.147        2769.225          41.000                                                                  
C19  25723791.271   133950539.422         301.706          42.000                                                                  
C09  37802963.262   196849953.326         200.435          45.000    37802948.087   152216810.988         155.009          48.000  
C11                                                                  27172735.740   109413346.844       -1984.753          42.000  
> 2025 10 28 08 28 32.5220000  0 24                     
G04  21665843.461   113854775.700         304.559          45.000    21665833.855    88717969.850         237.395          46.000  
G27  21714267.380   114109245.600        2430.772          46.000    21714259.942    88916267.132        1893.876          44.000  
G16  20667878.320   108610434.259        -356.189          47.000                                                                  
G08  23792877.578   125032429.944        3445.885          39.000    23792876.978    97427880.628        2684.629          39.000  
G09  23752064.904   124817950.735        2286.295          38.000    23752059.410    97260709.989        1781.474          39.000  
G31  22008882.845   115657458.965       -2104.664          47.000    22008872.145    90122647.368       -1639.911          44.000  
C06  36735333.307   191290505.088          38.398          46.000    36735315.588   147917894.445          29.514          48.000  
C32  26722291.129   139149901.459       -3564.917          38.000                                                                  
C37  22889634.135   119192335.199        -579.010          49.000                                                                  
C07  38346237.805   199678923.098         697.938          41.000    38346220.884   154404346.981         539.629          46.000  
C13  41811065.539   217721212.979       -2315.699          35.000    41811098.025   168355991.076       -1790.549          40.000  
C20  24661473.120   128418763.290       -2158.610          45.000                                                                  
G18  25342581.901   133176169.882         899.288          38.000    25342575.313   103773605.479         700.969          40.000  
G28  24211262.609   127231041.275       -2998.064          40.000    24211255.269    99141030.858       -2336.237          42.000  
G03  25727389.185   135198311.783       -3023.309          33.000    25727402.323   105349307.365       -2355.949          37.000  
G26  21802833.524   114574663.417       -2232.315          47.000    21802825.617    89278926.106       -1739.628          44.000  
C10  39409975.264   205218085.777         656.366          39.000    39409963.624   158687593.398         507.458          43.000  
C28  23853245.856   124210114.993        1371.041          46.000                                                                  
C23  25171502.813   131074623.630       -2288.918          43.000                                                                  
C16  37174435.936   193577044.434          37.561          48.000    37174423.920   149686001.562          28.939          48.000  
C27  25329259.249   131896104.373        2769.269          41.000                                                                  
C19  25723788.972   133950527.348         301.781          42.000                                                                  
C09  37802961.728   196849945.298         200.497          45.000    37802946.539   152216804.774         155.196          48.000  
C11                                                                  27172755.491   109413426.225       -1984.708          42.000  
> 2025 10 28 08 28 32.5620000  0 24                     
G04  21665841.143   113854763.477         305.218          45.000    21665831.523    88717960.330         237.769          46.000  
G27  21714248.856   114109148.345        2431.161          46.000    21714241.443    88916191.338        1894.476          44.000  
G16  20667881.030   108610448.468        -355.496          47.000                                                                  
G08  23792851.350   125032292.076        3446.482          39.000    23792850.738    97427773.201        2685.367          39.000  
G09  23752047.480   124817859.261        2286.647          38.000    23752042.005    97260638.717        1781.690          39.000  
G31  22008898.855   115657543.117       -2104.081          47.000    22008888.145    90122712.933       -1639.332          44.000  
C06  36735333.001   191290503.517          39.016          46.000    36735315.297   147917893.228          30.112          48.000  
C32  26722318.542   139150044.062       -3564.953          38.000                                                                  
C37  22889638.530   119192358.316        -578.262          49.000                                                                  
C07  38346232.445   199678895.162         698.234          41.000    38346215.497   154404325.360         540.247          46.000  
C13  41811083.286   217721305.568       -2315.018          35.000    41811115.796   168356062.668       -1790.045          40.000  
C20  24661489.706   128418849.590       -2157.929          45.000                                                                  
G18  25342575.046   133176133.858         900.192          38.000    25342568.482   103773577.425         701.258          40.000  
G28  24211285.405   127231161.193       -2997.935          40.000    24211278.059    99141124.290       -2335.929          42.000  
G03  25727412.189   135198432.642       -3022.066          33.000    25727425.332   105349401.563       -2355.292          37.000  
G26  21802850.490   114574752.688       -2231.935          47.000    21802842.597    89278995.657       -1739.051          44.000  
C10  39409970.198   205218059.489         657.013          39.000    39409958.593   158687573.074         507.904          43.000  
C28  23853235.349   124210060.119        1371.615          46.000                                                                  
C23  25171520.373   131074715.130       -2288.042          43.000                                                                  
C16  37174435.659   193577042.896          38.165          48.000    37174423.596   149686000.373          29.453          48.000  
C27  25329237.966   131895993.561        2769.985          41.000                                                                  
C19  25723786.663   133950515.255         302.153          42.000                                                                  
C09  37802960.214   196849937.232         201.284          45.000    37802945.004   152216798.536         155.722          48.000  
C11                                                                  27172775.226   109413505.581       -1984.214          42.000  
> 2025 10 28 08 28 32.6020000  0 24                     
G04  21665838.811   113854751.245         305.705          45.000    21665829.163    88717950.801         238.138          46.000  
G27  21714230.322   114109051.073        2431.659          46.000    21714222.939    88916115.540        1894.895          44.000  
G16  20667883.709   108610462.668        -355.039          47.000                                                                  
G08  23792825.084   125032154.205        3446.794          39.000    23792824.504    97427665.775        2685.655          39.000  
G09  23752030.088   124817767.759        2287.324          38.000    23752024.596    97260567.408        1782.549          39.000  
G31  22008914.835   115657627.258       -2103.590          47.000    22008904.159    90122778.507       -1639.227          44.000  
C06  36735332.681   191290501.928          39.640          46.000    36735315.015   147917892.000          30.622          48.000  
C32  26722345.905   139150186.618       -3564.183          38.000                                                                  
C37  22889642.969   119192381.426        -577.757          49.000                                                                  
C07  38346227.077   199678867.208         698.681          41.000    38346210.141   154404303.729         540.765          45.000  
C13  41811101.068   217721398.125       -2314.057          35.000    41811133.573   168356134.252       -1789.631          39.000  
C20  24661506.293   128418935.890       -2157.537          45.000                                                                  
G18  25342568.185   133176097.832         900.692          38.000    25342561.627   103773549.348         701.687          40.000  
G28  24211308.209   127231281.087       -2997.455          40.000    24211300.867    99141217.708       -2335.511          42.000  
G03  25727435.199   135198553.519       -3021.646          33.000    25727448.320   105349495.737       -2354.487          37.000  
G26  21802867.473   114574841.942       -2231.451          47.000    21802859.610    89279065.212       -1738.808          44.000  
C10  39409965.143   205218033.203         657.269          39.000    39409953.534   158687552.738         508.350          42.000  
C28  23853224.823   124210005.235        1372.071          46.000                                                                  
C23  25171537.986   131074806.629       -2287.526          43.000                                                                  
C16  37174435.406   193577041.348          38.639          48.000    37174423.309   149685999.174          29.906          48.000  
C27  25329216.693   131895882.751        2770.292          41.000                                                                  
C19  25723784.351   133950503.152         302.540          42.000                                                                  
C09  37802958.665   196849929.158         201.823          45.000    37802943.434   152216792.288         156.180          47.000  
C11                                                                  27172794.891   109413584.926       -1983.778          42.000  
> 2025 10 28 08 28 32.6420000  0 24                     
G04  21665836.477   113854739.020         305.818          45.000    21665826.810    88717941.266         238.398          46.000  
G27  21714211.814   114108953.813        2431.663          46.000    21714204.442    88916039.748        1894.965          45.000  
G16  20667886.434   108610476.879        -355.061          47.000                                                                  
G08  23792798.853   125032016.344        3446.765          39.000    23792798.275    97427558.329        2686.123          39.000  
G09  23752012.685   124817676.265        2287.493          38.000    23752007.183    97260496.099        1782.878          39.000  
G31  22008930.831   115657711.414       -2103.654          47.000    22008920.170    90122844.079       -1639.189          44.000  
C06  36735332.368   191290500.349          39.726          46.000    36735314.708   147917890.779          30.714          48.000  
C32  26722373.306   139150329.184       -3563.970          38.000                                                                  
C37  22889647.400   119192404.543        -577.683          49.000                                                                  
C07  38346221.705   199678839.248         699.015          41.000    38346204.789   154404282.111         540.715          45.000  
C13  41811118.825   217721490.703       -2313.959          35.000    41811151.346   168356205.851       -1789.792          39.000  
C20  24661522.857   128419022.189       -2157.388          45.000                                                                  
G18  25342561.296   133176061.799         901.031          38.000    25342554.758   103773521.282         701.718          40.000  
G28  24211331.021   127231400.977       -2997.199          40.000    24211323.683    99141311.150       -2335.791          42.000  
G03  25727458.205   135198674.424       -3021.961          33.000    25727471.327   105349589.939       -2354.682          37.000  
G26  21802884.477   114574931.202       -2231.328          47.000    21802876.571    89279134.765       -1738.771          44.000  
C10  39409960.093   205218006.915         657.336          39.000    39409948.478   158687532.407         508.392          42.000  
C28  23853214.235   124209950.355        1372.152          46.000                                                                  
C23  25171555.568   131074898.137       -2287.493          43.000                                                                  
C16  37174435.122   193577039.806          38.714          48.000    37174423.018   149685997.972          30.148          48.000  
C27  25329195.419   131895771.952        2770.117          41.000                                                                  
C19  25723781.998   133950491.062         302.489          42.000                                                                  
C09  37802957.092   196849921.087         201.964          45.000    37802941.906   152216786.049         156.204          47.000  
C11                                                                  27172814.597   109413664.285       -1983.849          41.000  
> 2025 10 28 08 28 32.6820000  0 24                     
G04  21665834.144   113854726.801         305.669          45.000    21665824.503    88717931.746         238.211          46.000  
G27  21714193.297   114108856.559        2431.516          46.000    21714185.957    88915963.968        1894.714          44.000  
G16  20667889.139   108610491.102        -355.361          47.000                                                                  
G08  23792772.612   125031878.489        3446.538          39.000    23792772.055    97427450.902        2685.904          39.000  
G09  23751995.272   124817584.761        2287.667          38.000    23751989.770    97260424.797        1782.776          39.000  
G31  22008946.844   115657795.569       -2103.738          47.000    22008936.176    90122909.661       -1639.403          44.000  
C06  36735332.043   191290498.784          39.429          46.000    36735314.423   147917889.567          30.500          48.000  
C32  26722400.675   139150471.753       -3564.026          38.000                                                                  
C37  22889651.837   119192427.671        -577.950          49.000                                                                  
C07  38346216.348   199678811.286         699.144          41.000    38346199.429   154404260.504         540.403          45.000  
C13  41811136.605   217721583.279       -2314.123          35.000    41811169.147   168356277.440       -1789.751          39.000  
C20  24661539.434   128419108.495       -2157.467          45.000                                                                  
G18  25342554.448   133176025.782         900.802          38.000    25342547.920   103773493.221         701.605          40.000  
G28  24211353.841   127231520.880       -2997.393          40.000    24211346.499    99141404.568       -2335.563          42.000  
G03  25727481.202   135198795.346       -3022.702          33.000    25727494.331   105349684.141       -2354.973          37.000  
G26  21802901.480   114575020.465       -2231.367          47.000    21802893.556    89279204.313       -1738.677          44.000  
C10  39409955.052   205217980.622         657.379          39.000    39409943.437   158687512.076         508.374          42.000  
C28  23853203.690   124209895.481        1372.024          46.000                                                                  
C23  25171573.125   131074989.651       -2287.649          43.000                                                                  
C16  37174434.841   193577038.270          38.578          48.000    37174422.709   149685996.787          29.917          48.000  
C27  25329174.134   131895661.153        2769.980          41.000                                                                  
C19  25723779.657   133950478.956         302.634          42.000                                                                  
C09  37802955.524   196849913.030         201.694          45.000    37802940.379   152216779.819         155.951          47.000  
C11                                                                  27172834.305   109413743.640       -1983.825          41.000  
> 2025 10 28 08 28 32.7220000  0 24                     
G04  21665831.838   113854714.614         304.986          45.000    21665822.172    88717922.252         237.628          46.000  
G27  21714174.795   114108759.336        2430.850          46.000    21714167.444    88915888.207        1894.207          44.000  
G16  20667891.855   108610505.342        -355.870          47.000                                                                  
G08  23792746.358   125031740.646        3446.152          39.000    23792745.816    97427343.489        2685.453          39.000  
G09  23751977.859   124817493.304        2286.817          38.000    23751972.372    97260353.547        1781.653          39.000  
G31  22008962.867   115657879.748       -2104.280          47.000    22008952.212    90122975.253       -1639.713          44.000  
C06  36735331.760   191290497.243          38.786          46.000    36735314.151   147917888.375          30.023          48.000  
C32  26722428.056   139150614.344       -3564.615          38.000                                                                  
C37  22889656.271   119192450.818        -578.478          49.000                                                                  
C07  38346210.969   199678783.357         698.539          41.000    38346194.071   154404238.916         539.890          45.000  
C13  41811154.398   217721675.902       -2315.140          35.000    41811186.962   168356349.050       -1790.132          39.000  
C20  24661555.994   128419194.821       -2157.921          45.000                                                                  
G18  25342547.602   133175989.804         899.852          38.000    25342541.095   103773465.181         701.165          40.000  
G28  24211376.652   127231640.812       -2998.072          40.000    24211369.309    99141498.022       -2336.157          42.000  
G03  25727504.224   135198916.268       -3023.211          33.000    25727517.339   105349778.363       -2355.460          37.000  
G26  21802918.469   114575109.754       -2231.966          47.000    21802910.540    89279273.894       -1739.240          44.000  
C10  39409949.998   205217954.359         656.763          39.000    39409938.387   158687491.769         507.886          42.000  
C28  23853193.153   124209840.627        1371.524          46.000                                                                  
C23  25171590.701   131075081.187       -2288.204          43.000                                                                  
C16  37174434.561   193577036.760          38.004          48.000    37174422.445   149685995.616          29.468          48.000  
C27  25329152.845   131895550.375        2769.495          41.000                                                                  
C19  25723777.345   133950466.885         302.029          42.000                                                                  
C09  37802953.976   196849904.993         201.121          45.000    37802938.872   152216773.609         155.431          47.000  
C11                                                                  27172854.017   109413823.028       -1984.503          41.000  
> 2025 10 28 08 28 32.7620000  0 24                     
G04  21665829.527   113854702.450         304.208          45.000    21665819.856    88717912.776         236.987          46.000  
G27  21714156.303   114108662.122        2430.343          46.000    21714148.956    88915812.459        1893.724          44.000  
G16  20667894.576   108610519.594        -356.329          47.000                                                                  
G08  23792720.151   125031602.832        3445.420          39.000    23792719.587    97427236.107        2684.678          39.000  
G09  23751960.495   124817401.857        2286.180          38.000    23751954.970    97260282.308        1780.913          39.000  
G31  22008978.918   115657963.950       -2104.950          47.000    22008968.211    90123040.858       -1640.148          44.000  
C06  36735331.442   191290495.731          37.934          46.000    36735313.856   147917887.202          29.425          48.000  
C32  26722455.448   139150756.973       -3565.551          38.000                                                                  
C37  22889660.714   119192473.992        -579.238          49.000                                                                  
C07  38346205.585   199678755.459         697.683          42.000    38346188.704   154404217.341         539.379          45.000  
C13  41811172.179   217721768.536       -2315.818          35.000    41811204.747   168356420.675       -1790.577          39.000  
C20  24661572.597   128419281.185       -2158.840          45.000                                                                  
G18  25342540.755   133175953.858         898.795          38.000    25342534.267   103773437.152         700.691          40.000  
G28  24211399.481   127231760.753       -2998.556          40.000    24211392.156    99141591.490       -2336.697          42.000  
G03  25727527.259   135199037.190       -3023.300          33.000    25727540.361   105349872.595       -2355.786          37.000  
G26  21802935.461   114575199.071       -2232.778          47.000    21802927.554    89279343.492       -1739.888          44.000  
C10  39409944.973   205217928.114         656.171          39.000    39409933.363   158687471.485         507.184          42.000  
C28  23853182.618   124209785.805        1370.681          46.000                                                                  
C23  25171608.277   131075172.748       -2288.879          43.000                                                                  
C16  37174434.276   193577035.269          37.344          48.000    37174422.150   149685994.469          28.805          48.000  
C27  25329131.575   131895439.614        2768.993          41.000                                                                  
C19  25723775.025   133950454.831         301.420          42.000                                                                  
C09  37802952.444   196849896.982         200.356          45.000    37802937.336   152216767.415         154.865          47.000  
C11                                                                  27172873.757   109413902.416       -1984.784          42.000  
> 2025 10 28 08 28 32.8020000  0 24                     
G04  21665827.197   113854690.272         304.133          45.000    21665817.524    88717903.300         236.712          46.000  
G27  21714137.802   114108564.900        2430.281          46.000    21714130.443    88915736.712        1893.483          44.000  
G16  20667897.327   108610533.855        -356.672          47.000                                                                  
G08  23792693.945   125031465.020        3445.079          39.000    23792693.361    97427128.723        2684.368          39.000  
G09  23751943.107   124817310.417        2285.795          38.000    23751937.572    97260211.050        1781.004          39.000  
G31  22008994.916   115658048.143       -2105.079          47.000    22008984.235    90123106.468       -1640.386          44.000  
C06  36735331.141   191290494.193          38.021          46.000    36735313.563   147917886.019          29.305          48.000  
C32  26722482.845   139150899.598       -3565.891          38.000                                                                  
C37  22889665.159   119192497.159        -579.443          49.000                                                                  
C07  38346200.220   199678727.541         697.668          42.000    38346183.333   154404195.759         539.314          45.000  
C13  41811189.937   217721861.165       -2315.958          35.000    41811222.535   168356492.294       -1790.621          39.000  
C20  24661589.189   128419367.543       -2159.152          46.000                                                                  
G18  25342533.916   133175917.888         898.887          38.000    25342527.431   103773409.122         700.492          40.000  
G28  24211422.278   127231880.692       -2998.701          40.000    24211414.964    99141684.951       -2336.755          42.000  
G03  25727550.253   135199158.099       -3023.018          33.000    25727563.376   105349966.849       -2356.361          37.000  
G26  21802952.462   114575288.390       -2233.145          47.000    21802944.554    89279413.087       -1740.072          44.000  
C10  39409939.915   205217901.877         655.829          39.000    39409928.319   158687451.192         507.050          42.000  
C28  23853172.105   124209730.974        1370.503          46.000                                                                  
C23  25171625.860   131075264.308       -2289.178          43.000                                                                  
C16  37174434.000   193577033.768          37.259          48.000    37174421.874   149685993.317          28.578          48.000  
C27  25329110.292   131895328.841        2768.974          41.000                                                                  
C19  25723772.729   133950442.779         301.149          42.000                                                                  
C09  37802950.907   196849888.957         200.292          45.000    37802935.799   152216761.211         154.862          47.000  
C11                                                                  27172893.470   109413981.804       -1984.837          41.000  
> 2025 10 28 08 28 32.8420000  0 24                     
G04  21665824.871   113854678.087         304.326          45.000    21665815.187    88717893.800         237.052          46.000  
G27  21714119.273   114108467.671        2430.445          46.000    21714111.935    88915660.953        1893.653          44.000  
G16  20667900.040   108610548.103        -356.512          47.000                                                                  
G08  23792667.710   125031327.179        3445.591          39.000    23792667.131    97427021.328        2684.499          39.000  
G09  23751925.703   124817218.970        2285.834          38.000    23751920.151    97260139.781        1781.364          39.000  
G31  22009010.942   115658132.332       -2104.984          47.000    22009000.245    90123172.077       -1640.430          44.000  
C06  36735330.859   191290492.645          38.334          46.000    36735313.266   147917884.825          29.531          48.000  
C32  26722510.221   139151042.191       -3565.379          38.000                                                                  
C37  22889669.654   119192520.311        -579.171          49.000                                                                  
C07  38346194.860   199678699.624         697.695          42.000    38346177.948   154404174.163         539.595          45.000  
C13  41811207.723   217721953.765       -2315.429          35.000    41811240.278   168356563.914       -1790.631          39.000  
C20  24661605.764   128419453.884       -2158.921          46.000                                                                  
G18  25342527.052   133175881.888         899.563          38.000    25342520.572   103773381.096         700.447          40.000  
G28  24211445.111   127232000.630       -2998.655          40.000    24211437.785    99141778.400       -2336.519          42.000  
G03  25727573.289   135199279.025       -3023.206          33.000    25727586.396   105350061.073       -2355.982          37.000  
G26  21802969.433   114575377.686       -2232.837          47.000    21802961.533    89279482.670       -1739.896          44.000  
C10  39409934.879   205217875.633         655.823          39.000    39409923.302   158687430.894         507.220          42.000  
C28  23853161.605   124209676.125        1370.833          46.000                                                                  
C23  25171643.465   131075355.849       -2288.909          43.000                                                                  
C16  37174433.754   193577032.262          37.401          48.000    37174421.592   149685992.150          28.840          48.000  
C27  25329089.006   131895218.075        2768.916          41.000                                                                  
C19  25723770.426   133950430.715         301.269          42.000                                                                  
C09  37802949.349   196849880.923         200.504          45.000    37802934.278   152216755.000         155.019          47.000  
C11                                                                  27172913.204   109414061.183       -1984.576          42.000  
> 2025 10 28 08 28 32.8820000  0 24                     
G04  21665822.511   113854665.887         304.747          45.000    21665812.858    88717884.294         237.453          46.000  
G27  21714100.761   114108370.426        2430.865          46.000    21714093.434    88915585.174        1894.141          44.000  
G16  20667902.740   108610562.332        -355.998          47.000                                                                  
G08  23792641.499   125031189.327        3446.108          39.000    23792640.890    97426913.912        2685.070          39.000  
G09  23751908.327   124817127.499        2286.417          38.000    23751902.735    97260068.500        1781.812          39.000  
G31  22009026.957   115658216.504       -2104.557          47.000    22009016.277    90123237.664       -1639.987          44.000  
C06  36735330.560   191290491.085          38.783          46.000    36735313.004   147917883.614          30.002          48.000  
C32  26722537.603   139151184.772       -3564.800          38.000                                                                  
C37  22889674.106   119192543.444        -578.603          49.000                                                                  
C07  38346189.507   199678671.680         698.258          42.000    38346172.581   154404152.555         540.054          45.000  
C13  41811225.490   217722046.369       -2315.130          35.000    41811258.053   168356635.518       -1790.331          39.000  
C20  24661622.344   128419540.200       -2158.284          46.000                                                                  
G18  25342520.182   133175845.874         900.280          38.000    25342513.722   103773353.031         701.164          40.000  
G28  24211467.909   127232120.548       -2998.198          40.000    24211460.621    99141871.849       -2336.321          42.000  
G03  25727596.305   135199399.954       -3023.318          33.000    25727609.409   105350155.270       -2355.281          37.000  
G26  21802986.432   114575466.959       -2232.230          47.000    21802978.508    89279552.240       -1739.521          44.000  
C10  39409929.833   205217849.344         656.787          39.000    39409918.270   158687410.569         507.825          42.000  
C28  23853151.080   124209621.266        1371.302          46.000                                                                  
C23  25171661.048   131075447.376       -2288.480          43.000                                                                  
C16  37174433.488   193577030.731          37.968          48.000    37174421.271   149685990.968          29.297          48.000  
C27  25329067.741   131895107.275        2769.610          41.000                                                                  
C19  25723768.097   133950418.634         301.731          42.000                                                                  
C09  37802947.808   196849872.873         200.982          45.000    37802932.732   152216748.777         155.367          47.000  
C11                                                                  27172932.935   109414140.541       -1984.108          42.000  
> 2025 10 28 08 28 32.9220000  0 24                     
G04  21665820.172   113854653.678         305.139          45.000    21665810.531    88717874.757         238.192          46.000  
G27  21714082.249   114108273.167        2431.363          46.000    21714074.935    88915509.384        1894.625          44.000  
G16  20667905.415   108610576.543        -355.386          47.000                                                                  
G08  23792615.246   125031051.456        3446.727          39.000    23792614.648    97426806.467        2685.938          39.000  
G09  23751890.906   124817036.001        2287.218          38.000    23751885.308    97259997.211        1782.181          39.000  
G31  22009042.950   115658300.657       -2103.972          47.000    22009032.299    90123303.232       -1639.364          44.000  
C06  36735330.279   191290489.506          39.357          46.000    36735312.692   147917882.398          30.357          48.000  
C32  26722564.996   139151327.328       -3564.063          38.000                                                                  
C37  22889678.519   119192566.564        -578.079          49.000                                                                  
C07  38346184.145   199678643.714         698.943          42.000    38346167.201   154404130.937         540.420          45.000  
C13  41811243.276   217722138.913       -2313.870          36.000    41811275.841   168356707.098       -1789.672          39.000  
C20  24661638.933   128419626.505       -2157.748          46.000                                                                  
G18  25342513.329   133175809.859         900.589          38.000    25342506.848   103773324.963         701.649          40.000  
G28  24211490.741   127232240.456       -2997.761          40.000    24211483.433    99141965.269       -2335.693          42.000  
G03  25727619.305   135199520.841       -3022.526          33.000    25727632.412   105350249.463       -2354.746          37.000  
G26  21803003.423   114575556.216       -2231.580          47.000    21802995.486    89279621.791       -1738.949          44.000  
C10  39409924.809   205217823.055         657.245          39.000    39409913.238   158687390.242         508.173          42.000  
C28  23853140.564   124209566.387        1371.896          46.000                                                                  
C23  25171678.627   131075538.877       -2287.758          43.000                                                                  
C16  37174433.218   193577029.190          38.468          48.000    37174420.990   149685989.769          29.863          48.000  
C27  25329046.455   131894996.472        2770.030          41.000                                                                  
C19  25723765.775   133950406.531         302.398          42.000                                                                  
C09  37802946.274   196849864.801         201.629          45.000    37802931.172   152216742.534         155.926          47.000  
C11                                                                  27172952.673   109414219.915       -1984.197          41.000  
> 2025 10 28 08 28 32.9620000  0 24                     
G04  21665817.834   113854641.462         305.416          45.000    21665808.215    88717865.238         238.209          46.000  
G27  21714063.742   114108175.909        2431.573          46.000    21714056.412    88915433.591        1894.880          44.000  
G16  20667908.087   108610590.752        -355.139          47.000                                                                  
G08  23792589.032   125030913.588        3446.881          39.000    23792588.412    97426699.031        2686.123          39.000  
G09  23751873.493   124816944.508        2287.497          38.000    23751867.887    97259925.914        1782.469          39.000  
G31  22009058.946   115658384.806       -2103.667          47.000    22009048.304    90123368.806       -1639.204          44.000  
C06  36735329.955   191290487.937          39.415          46.000    36735312.397   147917881.181          30.496          48.000  
C32  26722592.343   139151469.891       -3563.884          38.000                                                                  
C37  22889682.958   119192589.683        -577.858          49.000                                                                  
C07  38346178.790   199678615.755         699.179          42.000    38346161.833   154404109.321         540.518          45.000  
C13  41811261.038   217722231.504       -2314.198          36.000    41811293.626   168356778.690       -1789.603          39.000  
C20  24661655.508   128419712.810       -2157.536          46.000                                                                  
G18  25342506.470   133175773.865         900.238          38.000    25342499.992   103773296.910         701.538          40.000  
G28  24211513.555   127232360.347       -2997.320          40.000    24211506.231    99142058.704       -2335.703          42.000  
G03  25727642.314   135199641.745       -3022.457          33.000    25727655.399   105350343.659       -2354.720          37.000  
G26  21803020.382   114575645.477       -2231.371          47.000    21803012.466    89279691.348       -1738.800          44.000  
C10  39409919.765   205217796.766         657.416          39.000    39409908.192   158687369.916         508.264          42.000  
C28  23853130.048   124209511.521        1371.852          46.000                                                                  
C23  25171696.202   131075630.381       -2287.484          43.000                                                                  
C16  37174432.944   193577027.648          38.675          48.000    37174420.690   149685988.571          30.069          48.000  
C27  25329025.180   131894885.658        2770.389          41.000                                                                  
C19  25723763.456   133950394.439         302.470          42.000                                                                  
C09  37802944.722   196849856.738         201.755          45.000    37802929.605   152216736.294         156.117          47.000  
C11                                                                  27172972.363   109414299.282       -1984.192          42.000  
> 2025 10 28 08 28 33.0020000  0 24                     
G04  21665815.514   113854629.278         304.936          45.000    21665805.895    88717855.750         237.591          46.000  
G27  21714045.242   114108078.679        2431.085          46.000    21714037.919    88915357.836        1894.277          44.000  
G16  20667910.785   108610604.998        -355.744          47.000                                                                  
G08  23792562.817   125030775.773        3445.861          39.000    23792562.169    97426591.637        2685.282          39.000  
G09  23751856.091   124816853.047        2286.930          38.000    23751850.463    97259854.640        1782.116          39.000  
G31  22009074.972   115658468.989       -2104.204          47.000    22009064.344    90123434.402       -1639.614          44.000  
C06  36735329.651   191290486.393          38.944          46.000    36735312.107   147917879.986          30.113          48.000  
C32  26722619.719   139151612.503       -3564.780          38.000                                                                  
C37  22889687.404   119192612.835        -578.448          49.000                                                                  
C07  38346173.422   199678587.843         698.298          42.000    38346156.501   154404087.725         540.149          45.000  
C13  41811278.833   217722324.124       -2315.017          35.000    41811311.398   168356850.297       -1789.949          39.000  
C20  24661672.072   128419799.146       -2157.995          46.000                                                                  
G18  25342499.621   133175737.881         899.742          38.000    25342493.150   103773268.857         701.430          40.000  
G28  24211536.365   127232480.276       -2997.890          40.000    24211529.059    99142152.157       -2336.086          42.000  
G03  25727665.326   135199762.673       -3022.954          33.000    25727678.418   105350437.907       -2355.724          37.000  
G26  21803037.382   114575734.772       -2231.940          47.000    21803029.461    89279760.921       -1739.094          44.000  
C10  39409914.718   205217770.512         656.805          39.000    39409903.131   158687349.616         507.745          42.000  
C28  23853119.525   124209456.680        1371.275          46.000                                                                  
C23  25171713.779   131075721.923       -2288.092          43.000                                                                  
C16  37174432.672   193577026.134          38.187          48.000    37174420.393   149685987.404          29.529          48.000  
C27  25329003.878   131894774.877        2769.918          41.000                                                                  
C19  25723761.120   133950382.389         301.680          42.000                                                                  
C09  37802943.197   196849848.701         201.234          45.000    37802928.019   152216730.078         155.695          47.000  
C11                                                                  27172992.070   109414378.665       -1984.488          42.000  
> 2025 10 28 08 28 33.0420000  0 24                     
G04  21665813.216   113854617.102         304.542          45.000    21665803.596    88717846.273         237.043          46.000  
G27  21714026.744   114107981.464        2430.566          46.000    21714019.415    88915282.070        1894.133          44.000  
G16  20667913.532   108610619.247        -356.150          47.000                                                                  
G08  23792536.601   125030637.941        3445.711          39.000    23792535.953    97426484.262        2684.514          39.000  
G09  23751838.692   124816761.606        2286.259          38.000    23751833.073    97259783.391        1781.425          39.000  
G31  22009090.960   115658553.184       -2104.728          47.000    22009080.379    90123500.002       -1639.908          44.000  
C06  36735329.368   191290484.856          38.560          46.000    36735311.817   147917878.800          29.724          48.000  
C32  26722647.115   139151755.110       -3565.143          38.000                                                                  
C37  22889691.826   119192635.991        -578.815          49.000                                                                  
C07  38346168.061   199678559.935         697.779          42.000    38346151.153   154404066.139         539.752          45.000  
C13  41811296.623   217722416.745       -2315.550          36.000    41811329.204   168356921.923       -1790.490          39.000  
C20  24661688.640   128419885.490       -2158.455          45.000                                                                  
G18  25342492.781   133175701.904         899.388          38.000    25342486.313   103773240.827         701.015          40.000  
G28  24211559.207   127232600.211       -2998.284          40.000    24211551.871    99142245.596       -2336.042          42.000  
G03  25727688.309   135199883.559       -3022.465          33.000    25727701.430   105350532.131       -2355.804          37.000  
G26  21803054.383   114575824.080       -2232.507          47.000    21803046.474    89279830.507       -1739.435          44.000  
C10  39409909.651   205217744.258         656.396          39.000    39409898.077   158687329.309         507.593          42.000  
C28  23853108.980   124209401.832        1371.116          46.000                                                                  
C23  25171731.363   131075813.468       -2288.517          43.000                                                                  
C16  37174432.393   193577024.629          37.780          48.000    37174420.074   149685986.238          29.220          48.000  
C27  25328982.603   131894664.115        2769.280          41.000                                                                  
C19  25723758.796   133950370.329         301.447          42.000                                                                  
C09  37802941.642   196849840.674         200.771          45.000    37802926.445   152216723.862         155.420          47.000  
C11                                                                  27173011.803   109414458.041       -1984.474          42.000  
> 2025 10 28 08 28 33.0820000  0 24                     
G04  21665810.873   113854604.898         304.825          45.000    21665801.277    88717836.765         237.373          46.000  
G27  21714008.219   114107884.220        2430.818          46.000    21714000.922    88915206.306        1894.042          44.000  
G16  20667916.260   108610633.470        -355.849          47.000                                                                  
G08  23792510.375   125030500.085        3446.114          39.000    23792509.692    97426376.824        2685.374          39.000  
G09  23751821.267   124816670.114        2286.906          38.000    23751815.673    97259712.123        1781.455          39.000  
G31  22009106.971   115658637.346       -2104.382          47.000    22009096.380    90123565.578       -1639.642          44.000  
C06  36735329.078   191290483.291          38.881          46.000    36735311.516   147917877.586          30.051          48.000  
C32  26722674.513   139151897.668       -3564.398          38.000                                                                  
C37  22889696.272   119192659.122        -578.531          49.000                                                                  
C07  38346162.704   199678531.985         698.336          42.000    38346145.807   154404044.537         539.880          45.000  
C13  41811314.414   217722509.332       -2315.077          36.000    41811346.979   168356993.523       -1790.243          39.000  
C20  24661705.217   128419971.811       -2158.264          46.000                                                                  
G18  25342485.910   133175665.921         899.350          38.000    25342479.475   103773212.785         701.007          40.000  
G28  24211582.020   127232720.124       -2998.073          40.000    24211574.693    99142339.039       -2336.091          42.000  
G03  25727711.293   135200004.429       -3021.918          33.000    25727724.436   105350626.315       -2355.010          37.000  
G26  21803071.365   114575913.360       -2232.293          47.000    21803063.469    89279900.060       -1739.025          44.000  
C10  39409904.629   205217717.978         656.757          39.000    39409893.030   158687308.986         507.861          42.000  
C28  23853098.468   124209346.966        1371.436          46.000                                                                  
C23  25171748.922   131075904.994       -2288.363          43.000                                                                  
C16  37174432.136   193577023.092          38.151          48.000    37174419.777   149685985.058          29.343          48.000  
C27  25328961.327   131894553.308        2769.773          41.000                                                                  
C19  25723756.474   133950358.241         301.877          42.000                                                                  
C09  37802940.082   196849832.609         201.275          45.000    37802924.903   152216717.637         155.504          47.000  
C11                                                                  27173031.518   109414537.397       -1984.042          42.000  
> 2025 10 28 08 28 33.1220000  0 24                     
G04  21665808.552   113854592.698         304.915          45.000    21665798.952    88717827.252         237.646          46.000  
G27  21713989.691   114107786.974        2430.999          46.000    21713982.418    88915130.541        1893.979          44.000  
G16  20667918.979   108610647.704        -355.868          47.000                                                                  
G08  23792484.132   125030362.230        3446.304          39.000    23792483.451    97426269.413        2685.372          39.000  
G09  23751803.857   124816578.632        2287.053          38.000    23751798.269    97259640.842        1781.743          39.000  
G31  22009122.970   115658721.508       -2104.187          47.000    22009112.431    90123631.171       -1639.783          44.000  
C06  36735328.796   191290481.721          39.123          46.000    36735311.216   147917876.378          30.134          48.000  
C32  26722701.898   139152040.248       -3564.433          38.000                                                                  
C37  22889700.722   119192682.253        -578.385          49.000                                                                  
C07  38346157.324   199678504.032         698.682          42.000    38346140.454   154404022.925         540.148          45.000  
C13  41811332.200   217722601.914       -2314.697          36.000    41811364.791   168357065.121       -1790.062          39.000  
C20  24661721.822   128420058.122       -2157.977          46.000                                                                  
G18  25342479.061   133175629.923         899.607          38.000    25342472.624   103773184.732         701.179          40.000  
G28  24211604.833   127232840.038       -2997.968          40.000    24211597.516    99142432.474       -2335.974          42.000  
G03  25727734.305   135200125.340       -3022.419          33.000    25727747.461   105350720.512       -2354.908          37.000  
G26  21803088.356   114576002.626       -2231.905          47.000    21803080.455    89279969.623       -1739.009          44.000  
C10  39409899.573   205217691.692         657.062          39.000    39409887.994   158687288.665         507.947          42.000  
C28  23853087.917   124209292.111        1371.380          46.000                                                                  
C23  25171766.511   131075996.510       -2288.103          43.000                                                                  
C16  37174431.859   193577021.560          38.264          48.000    37174419.438   149685983.869          29.586          48.000  
C27  25328940.020   131894442.509        2769.863          41.000                                                                  
C19  25723754.137   133950346.163         301.885          42.000                                                                  
C09  37802938.521   196849824.558         201.270          45.000    37802923.350   152216711.411         155.569          47.000  
C11                                                                  27173051.249   109414616.770       -1984.179          42.000  
> 2025 10 28 08 28 33.1620000  0 24                     
G04  21665806.261   113854580.532         304.354          45.000    21665796.639    88717817.764         237.318          46.000  
G27  21713971.221   114107689.770        2430.319          46.000    21713963.907    88915054.791        1893.685          44.000  
G16  20667921.701   108610661.970        -356.516          47.000                                                                  
G08  23792457.912   125030224.402        3445.823          39.000    23792457.222    97426162.021        2684.986          39.000  
G09  23751786.436   124816487.212        2285.893          38.000    23751780.877    97259569.587        1781.445          39.000  
G31  22009139.026   115658805.718       -2104.962          47.000    22009128.441    90123696.785       -1640.233          44.000  
C06  36735328.504   191290480.184          38.633          46.000    36735310.924   147917875.187          29.837          48.000  
C32  26722729.286   139152182.865       -3565.169          38.000                                                                  
C37  22889705.187   119192705.416        -578.934          49.000                                                                  
C07  38346151.951   199678476.128         697.874          42.000    38346135.104   154404001.339         539.756          45.000  
C13  41811349.973   217722694.537       -2315.342          36.000    41811382.583   168357136.734       -1790.294          39.000  
C20  24661738.396   128420144.478       -2158.651          46.000                                                                  
G18  25342472.232   133175593.949         899.400          38.000    25342465.778   103773156.690         701.073          40.000  
G28  24211627.656   127232959.995       -2998.751          40.000    24211620.331    99142525.948       -2336.690          42.000  
G03  25727757.328   135200246.328       -3024.144          33.000    25727770.471   105350814.753       -2355.715          37.000  
G26  21803105.346   114576091.927       -2232.350          47.000    21803097.455    89280039.222       -1739.729          44.000  
C10  39409894.538   205217665.448         656.354          39.000    39409882.937   158687268.370         507.483          42.000  
C28  23853077.384   124209237.290        1370.694          46.000                                                                  
C23  25171784.067   131076088.059       -2288.544          43.000                                                                  
C16  37174431.557   193577020.060          37.683          48.000    37174419.160   149685982.712          29.096          48.000  
C27  25328918.741   131894331.753        2769.134          41.000                                                                  
C19  25723751.821   133950334.103         301.545          42.000                                                                  
C09  37802936.966   196849816.528         200.830          45.000    37802921.784   152216705.211         155.128          47.000  
C11                                                                  27173070.982   109414696.169       -1984.771          42.000  
> 2025 10 28 08 28 33.2020000  0 24                     
G04  21665803.932   113854568.405         303.381          45.000    21665794.333    88717808.321         236.369          46.000  
G27  21713952.737   114107592.589        2429.612          46.000    21713945.433    88914979.058        1893.317          44.000  
G16  20667924.407   108610676.249        -357.022          47.000                                                                  
G08  23792431.701   125030086.608        3445.011          39.000    23792431.012    97426054.634        2684.708          39.000  
G09  23751769.022   124816395.792        2285.327          38.000    23751763.471    97259498.332        1781.329          39.000  
G31  22009155.053   115658889.951       -2105.737          47.000    22009144.462    90123762.411       -1640.659          44.000  
C06  36735328.268   191290478.683          37.760          46.000    36735310.632   147917874.025          29.193          48.000  
C32  26722756.698   139152325.510       -3566.047          38.000                                                                  
C37  22889709.632   119192728.609        -579.710          49.000                                                                  
C07  38346146.605   199678448.242         697.200          42.000    38346129.733   154403979.773         539.189          45.000  
C13  41811367.787   217722787.169       -2315.773          36.000    41811400.371   168357208.355       -1790.535          39.000  
C20  24661754.974   128420230.863       -2159.453          46.000                                                                  
G18  25342465.383   133175557.984         899.203          38.000    25342458.940   103773128.701         700.127          40.000  
G28  24211650.500   127233079.952       -2999.074          40.000    24211643.161    99142619.433       -2337.142          42.000  
G03  25727780.371   135200367.303       -3024.641          33.000    25727793.493   105350909.007       -2356.334          37.000  
G26  21803122.349   114576181.269       -2233.287          47.000    21803114.468    89280108.846       -1740.497          44.000  
C10  39409889.508   205217639.220         655.750          39.000    39409877.931   158687248.087         507.080          42.000  
C28  23853066.861   124209182.479        1370.234          46.000                                                                  
C23  25171801.676   131076179.637       -2289.281          43.000                                                                  
C16  37174431.277   193577018.590          36.895          48.000    37174418.887   149685981.573          28.560          48.000  
C27  25328897.472   131894221.016        2768.503          41.000                                                                  
C19  25723749.528   133950322.087         300.651          42.000                                                                  
C09  37802935.442   196849808.526         200.135          45.000    37802920.257   152216699.017         154.810          47.000  
C11                                                                  27173090.711   109414775.582       -1985.324          42.000  
> 2025 10 28 08 28 33.2420000  0 24                     
G04  21665801.612   113854556.239         303.658          45.000    21665792.034    88717798.843         236.539          46.000  
G27  21713934.255   114107495.378        2429.856          46.000    21713926.942    88914903.307        1893.474          44.000  
G16  20667927.091   108610690.501        -356.678          47.000                                                                  
G08  23792405.489   125029948.775        3445.399          39.000    23792404.789    97425947.240        2684.730          39.000  
G09  23751751.619   124816304.347        2285.673          38.000    23751746.084    97259427.091        1781.052          39.000  
G31  22009171.080   115658974.142       -2105.305          47.000    22009160.475    90123828.028       -1640.663          44.000  
C06  36735327.965   191290477.164          37.686          46.000    36735310.362   147917872.838          29.357          48.000  
C32  26722784.068   139152468.107       -3565.598          38.000                                                                  
C37  22889714.092   119192751.771        -579.446          49.000                                                                  
C07  38346141.243   199678420.317         697.621          42.000    38346124.348   154403958.183         539.423          45.000  
C13  41811385.567   217722879.795       -2315.862          36.000    41811418.149   168357279.986       -1790.806          39.000  
C20  24661771.547   128420317.218       -2159.289          46.000                                                                  
G18  25342458.530   133175522.014         899.194          38.000    25342452.088   103773100.665         700.469          40.000  
G28  24211673.327   127233199.891       -2998.750          40.000    24211665.987    99142712.890       -2336.807          42.000  
G03  25727803.406   135200488.188       -3023.029          33.000    25727816.504   105351003.224       -2355.828          37.000  
G26  21803139.374   114576270.575       -2233.088          47.000    21803131.464    89280178.436       -1740.213          44.000  
C10  39409884.477   205217612.972         655.908          39.000    39409872.898   158687227.787         507.300          43.000  
C28  23853056.353   124209127.643        1370.565          46.000                                                                  
C23  25171819.280   131076271.193       -2289.178          43.000                                                                  
C16  37174430.993   193577017.088          37.135          48.000    37174418.614   149685980.415          28.672          48.000  
C27  25328876.217   131894110.239        2768.915          41.000                                                                  
C19  25723747.221   133950310.027         301.010          42.000                                                                  
C09  37802933.897   196849800.499         200.301          45.000    37802918.695   152216692.811         154.944          47.000  
C11                                                                  27173110.412   109414854.966       -1984.981          42.000  
> 2025 10 28 08 28 33.2820000  0 24                     
G04  21665799.275   113854544.038         304.514          45.000    21665789.734    88717789.338         237.186          46.000  
G27  21713915.764   114107398.137        2430.552          46.000    21713908.435    88914827.528        1894.113          44.000  
G16  20667929.792   108610704.738        -356.173          47.000                                                                  
G08  23792379.250   125029810.934        3445.887          39.000    23792378.554    97425839.834        2684.980          40.000  
G09  23751734.219   124816212.873        2286.498          38.000    23751728.676    97259355.821        1781.504          39.000  
G31  22009187.101   115659058.305       -2104.520          47.000    22009176.487    90123893.608       -1639.951          44.000  
C06  36735327.668   191290475.590          38.708          46.000    36735310.037   147917871.630          29.877          48.000  
C32  26722811.452   139152610.672       -3564.573          38.000                                                                  
C37  22889718.494   119192774.904        -578.715          50.000                                                                  
C07  38346135.903   199678392.373         698.323          42.000    38346118.978   154403936.578         539.871          45.000  
C13  41811403.342   217722972.392       -2315.280          36.000    41811435.920   168357351.584       -1790.273          39.000  
C20  24661788.128   128420403.538       -2158.499          46.000                                                                  
G18  25342451.702   133175486.027         899.540          38.000    25342445.237   103773072.611         701.077          40.000  
G28  24211696.154   127233319.799       -2997.967          40.000    24211688.800    99142806.326       -2336.171          42.000  
G03  25727826.403   135200609.055       -3021.817          33.000    25727839.510   105351097.462       -2355.896          37.000  
G26  21803156.374   114576359.851       -2232.334          47.000    21803148.460    89280247.996       -1739.483          44.000  
C10  39409879.433   205217586.697         656.598          39.000    39409867.821   158687207.474         507.660          43.000  
C28  23853045.816   124209072.783        1371.238          46.000                                                                  
C23  25171836.834   131076362.719       -2288.547          43.000                                                                  
C16  37174430.678   193577015.558          37.850          48.000    37174418.297   149685979.228          29.307          48.000  
C27  25328854.921   131893999.441        2769.599          41.000                                                                  
C19  25723744.893   133950297.957         301.464          42.000                                                                  
C09  37802932.349   196849792.447         200.916          45.000    37802917.126   152216686.582         155.486          47.000  
C11                                                                  27173130.118   109414934.333       -1984.389          42.000  
> 2025 10 28 08 28 33.3220000  0 24                     
G04  21665796.941   113854531.817         305.353          45.000    21665787.415    88717779.820         237.794          46.000  
G27  21713897.233   114107300.872        2431.431          46.000    21713889.947    88914751.751        1894.430          45.000  
G16  20667932.521   108610718.952        -355.455          47.000                                                                  
G08  23792353.031   125029673.066        3446.606          39.000    23792352.322    97425732.406        2685.534          40.000  
G09  23751716.792   124816121.388        2287.078          38.000    23751711.250    97259284.521        1782.286          39.000  
G31  22009203.095   115659142.448       -2103.693          47.000    22009192.517    90123959.171       -1639.254          44.000  
C06  36735327.384   191290473.997          39.604          46.000    36735309.734   147917870.402          30.507          48.000  
C32  26722838.816   139152753.230       -3563.875          38.000                                                                  
C37  22889722.943   119192798.012        -577.873          49.000                                                                  
C07  38346130.513   199678364.403         699.133          42.000    38346113.587   154403914.963         540.292          45.000  
C13  41811421.104   217723064.933       -2313.957          35.000    41811453.715   168357423.177       -1789.927          39.000  
C20  24661804.697   128420489.842       -2157.757          46.000                                                                  
G18  25342444.857   133175450.020         900.073          38.000    25342438.385   103773044.568         701.170          40.000  
G28  24211718.954   127233439.687       -2997.218          40.000    24211711.608    99142899.748       -2335.525          42.000  
G03  25727849.411   135200729.932       -3021.479          33.000    25727862.512   105351191.646       -2354.958          37.000  
G26  21803173.362   114576449.106       -2231.573          47.000    21803165.429    89280317.537       -1738.720          44.000  
C10  39409874.368   205217560.390         657.544          39.000    39409862.751   158687187.143         508.154          43.000  
C28  23853035.299   124209017.905        1371.912          46.000                                                                  
C23  25171854.386   131076454.213       -2287.635          43.000                                                                  
C16  37174430.349   193577014.002          38.719          48.000    37174417.973   149685978.017          30.086          48.000  
C27  25328833.678   131893888.634        2770.182          41.000                                                                  
C19  25723742.566   133950285.859         302.255          42.000                                                                  
C09  37802930.803   196849784.373         201.665          45.000    37802915.611   152216680.333         156.098          47.000  
C11                                                                  27173149.788   109415013.687       -1983.885          42.000  
> 2025 10 28 08 28 33.3620000  0 24                     
G04  21665794.622   113854519.598         305.664          45.000    21665785.077    88717770.289         238.291          46.000  
G27  21713878.683   114107203.597        2431.970          46.000    21713871.438    88914675.966        1894.689          45.000  
G16  20667935.232   108610733.162        -355.108          47.000                                                                  
G08  23792326.800   125029535.176        3447.276          39.000    23792326.096    97425624.993        2685.484          40.000  
G09  23751699.373   124816029.897        2287.393          38.000    23751693.839    97259213.230        1782.459          39.000  
G31  22009219.114   115659226.591       -2103.361          47.000    22009208.500    90124024.738       -1639.005          44.000  
C06  36735327.094   191290472.406          39.974          46.000    36735309.378   147917869.170          30.872          48.000  
C32  26722866.175   139152895.778       -3563.474          38.000                                                                  
C37  22889727.394   119192821.120        -577.511          50.000                                                                  
C07  38346125.132   199678336.442         699.252          42.000    38346108.202   154403893.335         540.681          45.000  
C13  41811438.876   217723157.507       -2314.007          35.000    41811471.514   168357494.757       -1789.514          39.000  
C20  24661821.265   128420576.131       -2157.175          46.000                                                                  
G18  25342438.023   133175414.015         900.277          38.000    25342431.547   103773016.497         701.659          40.000  
G28  24211741.768   127233559.580       -2997.025          40.000    24211734.425    99142993.175       -2335.406          42.000  
G03  25727872.406   135200850.816       -3021.636          33.000    25727885.519   105351285.816       -2354.282          37.000  
G26  21803190.350   114576538.351       -2231.029          47.000    21803182.398    89280387.087       -1738.515          44.000  
C10  39409869.333   205217534.085         657.886          39.000    39409857.718   158687166.804         508.527          43.000  
C28  23853024.734   124208963.029        1372.128          46.000                                                                  
C23  25171871.968   131076545.708       -2287.198          43.000                                                                  
C16  37174430.021   193577012.438          39.208          48.000    37174417.644   149685976.814          30.266          48.000  
C27  25328812.381   131893777.808        2770.719          41.000                                                                  
C19  25723740.237   133950273.766         302.532          42.000                                                                  
C09  37802929.260   196849776.287         202.197          45.000    37802914.066   152216674.088         156.286          47.000  
C11                                                                  27173169.511   109415093.045       -1983.778          42.000  
> 2025 10 28 08 28 33.4020000  0 24                     
G04  21665792.315   113854507.398         305.375          45.000    21665782.745    88717760.785         237.998          46.000  
G27  21713860.206   114107106.351        2431.649          46.000    21713852.914    88914600.183        1894.711          45.000  
G16  20667937.935   108610747.381        -355.208          47.000                                                                  
G08  23792300.565   125029397.326        3446.737          39.000    23792299.875    97425517.564        2685.662          40.000  
G09  23751681.961   124815938.412        2287.368          38.000    23751676.432    97259141.957        1782.155          39.000  
G31  22009235.125   115659310.754       -2103.665          47.000    22009224.509    90124090.322       -1639.232          44.000  
C06  36735326.774   191290470.829          39.809          47.000    36735309.060   147917867.951          30.761          48.000  
C32  26722893.550   139153038.361       -3564.049          38.000                                                                  
C37  22889731.820   119192844.249        -577.818          50.000                                                                  
C07  38346119.752   199678308.486         699.152          42.000    38346102.813   154403871.716         540.682          45.000  
C13  41811456.669   217723250.099       -2314.505          35.000    41811489.259   168357566.323       -1789.115          39.000  
C20  24661837.811   128420662.450       -2157.493          46.000                                                                  
G18  25342431.163   133175377.990         900.652          38.000    25342424.706   103772988.442         701.534          40.000  
G28  24211764.568   127233679.501       -2997.559          40.000    24211757.255    99143086.602       -2335.440          42.000  
G03  25727895.425   135200971.753       -3022.664          33.000    25727908.505   105351380.012       -2354.463          37.000  
G26  21803207.369   114576627.621       -2231.302          47.000    21803199.389    89280456.645       -1738.658          44.000  
C10  39409864.305   205217507.815         657.281          39.000    39409852.665   158687146.478         508.386          42.000  
C28  23853014.200   124208908.161        1371.928          46.000                                                                  
C23  25171889.541   131076637.215       -2287.306          43.000                                                                  
C16  37174429.694   193577010.890          39.072          48.000    37174417.343   149685975.621          30.123          48.000  
C27  25328791.085   131893667.002        2770.565          41.000                                                                  
C19  25723737.908   133950261.681         302.421          42.000                                                                  
C09  37802927.699   196849768.222         202.029          45.000    37802912.535   152216667.859         156.024          47.000  
C11                                                                  27173189.187   109415172.412       -1983.978          42.000  
> 2025 10 28 08 28 33.4420000  0 24                     
G04  21665790.015   113854495.213         304.898          45.000    21665780.447    88717751.284         237.694          46.000  
G27  21713841.692   114107009.125        2431.029          46.000    21713834.429    88914524.418        1894.366          44.000  
G16  20667940.658   108610761.611        -355.539          47.000                                                                  
G08  23792274.356   125029259.466        3446.605          39.000    23792273.659    97425410.138        2685.677          40.000  
G09  23751664.552   124815846.951        2286.797          38.000    23751659.029    97259070.673        1782.117          39.000  
G31  22009251.162   115659394.935       -2104.208          47.000    22009240.532    90124155.917       -1639.664          44.000  
C06  36735326.484   191290469.275          39.198          47.000    36735308.741   147917866.745          30.386          48.000  
C32  26722920.929   139153180.942       -3564.374          38.000                                                                  
C37  22889736.238   119192867.385        -578.204          50.000                                                                  
C07  38346114.362   199678280.548         698.689          42.000    38346097.468   154403850.109         540.397          45.000  
C13  41811474.462   217723342.681       -2314.548          35.000    41811507.008   168357637.910       -1789.396          39.000  
C20  24661854.377   128420748.784       -2158.014          46.000                                                                  
G18  25342424.329   133175341.999         900.153          38.000    25342417.865   103772960.387         701.510          40.000  
G28  24211787.396   127233799.425       -2997.996          40.000    24211780.076    99143180.040       -2335.718          42.000  
G03  25727918.400   135201092.668       -3023.015          33.000    25727931.500   105351474.216       -2354.749          37.000  
G26  21803224.384   114576716.909       -2231.870          47.000    21803216.408    89280526.222       -1739.156          44.000  
C10  39409859.270   205217481.540         656.976          39.000    39409847.574   158687126.150         508.289          42.000  
C28  23853003.670   124208853.312        1371.453          46.000                                                                  
C23  25171907.097   131076728.731       -2287.615          43.000                                                                  
C16  37174429.374   193577009.364          38.521          48.000    37174417.071   149685974.444          29.684          48.000  
C27  25328769.803   131893556.204        2770.239          41.000                                                                  
C19  25723735.591   133950249.610         302.049          42.000                                                                  
C09  37802926.158   196849760.157         201.848          45.000    37802910.980   152216661.630         155.822          47.000  
C11                                                                  27173208.885   109415251.781       -1984.144          42.000  
> 2025 10 28 08 28 33.4820000  0 24                     
G04  21665787.716   113854483.049         304.233          45.000    21665778.128    88717741.811         236.998          46.000  
G27  21713823.196   114106911.923        2430.192          46.000    21713815.946    88914448.671        1893.832          44.000  
G16  20667943.379   108610775.874        -356.343          47.000                                                                  
G08  23792248.135   125029121.643        3445.758          39.000    23792247.423    97425302.720        2685.514          40.000  
G09  23751647.138   124815755.502        2286.239          38.000    23751641.628    97258999.420        1781.512          39.000  
G31  22009267.191   115659479.135       -2104.919          47.000    22009256.581    90124221.531       -1640.300          44.000  
C06  36735326.188   191290467.734          38.615          47.000    36735308.430   147917865.556          29.816          48.000  
C32  26722948.286   139153323.556       -3565.231          38.000                                                                  
C37  22889740.667   119192890.547        -578.926          50.000                                                                  
C07  38346108.988   199678252.649         697.702          42.000    38346092.105   154403828.525         539.781          45.000  
C13  41811492.251   217723435.303       -2315.406          35.000    41811524.790   168357709.536       -1790.325          39.000  
C20  24661870.928   128420835.131       -2158.572          46.000                                                                  
G18  25342417.475   133175306.008         899.824          38.000    25342411.023   103772932.355         700.988          40.000  
G28  24211810.218   127233919.358       -2998.384          40.000    24211802.900    99143273.508       -2336.483          42.000  
G03  25727941.418   135201213.588       -3023.214          33.000    25727954.516   105351568.455       -2355.583          37.000  
G26  21803241.389   114576806.212       -2232.474          47.000    21803233.409    89280595.806       -1739.574          44.000  
C10  39409854.185   205217455.294         656.250          39.000    39409842.555   158687105.853         507.617          42.000  
C28  23852993.130   124208798.485        1370.751          46.000                                                                  
C23  25171924.660   131076820.290       -2288.625          43.000                                                                  
C16  37174429.065   193577007.865          37.656          48.000    37174416.758   149685973.283          29.127          48.000  
C27  25328748.551   131893445.437        2769.413          41.000                                                                  
C19  25723733.273   133950237.561         301.397          42.000                                                                  
C09  37802924.605   196849752.130         200.979          45.000    37802909.435   152216655.421         155.317          47.000  
C11                                                                  27173228.613   109415331.172       -1984.680          42.000  
> 2025 10 28 08 28 33.5220000  0 24                     
G04  21665785.392   113854470.951         302.704          45.000    21665775.825    88717732.387         235.771          46.000  
G27  21713804.709   114106814.776        2428.789          46.000    21713797.453    88914372.975        1892.625          44.000  
G16  20667946.085   108610790.199        -357.897          47.000                                                                  
G08  23792221.913   125028983.905        3443.804          39.000    23792221.206    97425195.390        2683.785          40.000  
G09  23751629.723   124815664.126        2284.639          38.000    23751624.218    97258928.217        1780.240          39.000  
G31  22009283.226   115659563.397       -2106.364          47.000    22009272.614    90124287.196       -1641.497          44.000  
C06  36735325.953   191290466.268          36.962          47.000    36735308.102   147917864.423          28.546          48.000  
C32  26722975.690   139153466.227       -3566.718          38.000                                                                  
C37  22889745.167   119192913.779        -580.562          50.000                                                                  
C07  38346103.660   199678224.788         696.506          42.000    38346086.752   154403806.993         538.483          45.000  
C13  41811510.055   217723527.971       -2316.651          35.000    41811542.587   168357781.216       -1791.806          39.000  
C20  24661887.548   128420921.557       -2160.273          46.000                                                                  
G18  25342410.657   133175270.141         897.483          38.000    25342404.206   103772904.381         699.660          40.000  
G28  24211833.048   127234039.360       -2999.885          40.000    24211825.753    99143367.021       -2337.725          42.000  
G03  25727964.415   135201334.571       -3024.474          33.000    25727977.536   105351662.749       -2357.103          37.000  
G26  21803258.397   114576895.581       -2233.974          47.000    21803250.420    89280665.440       -1740.696          44.000  
C10  39409849.175   205217429.099         654.938          39.000    39409837.553   158687085.614         506.158          43.000  
C28  23852982.635   124208743.729        1369.103          46.000                                                                  
C23  25171942.247   131076911.908       -2290.200          43.000                                                                  
C16  37174428.787   193577006.428          36.122          48.000    37174416.479   149685972.167          28.033          48.000  
C27  25328727.301   131893334.757        2767.381          41.000                                                                  
C19  25723730.959   133950225.591         299.545          42.000                                                                  
C09  37802923.081   196849744.172         199.245          45.000    37802907.902   152216649.256         154.230          47.000  
C11                                                                  27173248.346   109415410.612       -1985.862          42.000  
> 2025 10 28 08 28 33.5620000  0 24                     
G04  21665783.103   113854458.883         301.556          45.000    21665773.555    88717722.981         234.939          46.000  
G27  21713786.237   114106717.655        2427.792          46.000    21713778.964    88914297.291        1891.874          44.000  
G16  20667948.811   108610804.549        -358.985          47.000                                                                  
G08  23792195.701   125028846.157        3443.164          39.000    23792195.002    97425088.060        2682.946          40.000  
G09  23751612.335   124815572.762        2283.753          38.000    23751606.858    97258857.026        1779.501          39.000  
G31  22009299.272   115659647.682       -2107.374          47.000    22009288.641    90124352.869       -1642.114          44.000  
C06  36735325.670   191290464.820          35.956          47.000    36735307.810   147917863.297          27.859          48.000  
C32  26723003.094   139153608.903       -3567.380          38.000                                                                  
C37  22889749.613   119192937.021        -581.396          50.000                                                                  
C07  38346098.331   199678196.957         695.569          42.000    38346081.414   154403785.466         537.889          45.000  
C13  41811527.844   217723620.658       -2317.438          36.000    41811560.369   168357852.894       -1792.400          39.000  
C20  24661904.181   128421008.002       -2161.353          46.000                                                                  
G18  25342403.859   133175234.269         896.471          38.000    25342397.392   103772876.433         698.608          40.000  
G28  24211855.888   127234159.391       -3000.974          40.000    24211848.597    99143460.554       -2338.537          42.000  
G03  25727987.446   135201455.549       -3024.886          33.000    25728000.572   105351757.023       -2357.374          37.000  
G26  21803275.426   114576984.976       -2235.073          47.000    21803267.425    89280735.108       -1741.783          44.000  
C10  39409844.189   205217402.920         654.132          39.000    39409832.532   158687065.379         505.542          43.000  
C28  23852972.110   124208688.974        1368.455          46.000                                                                  
C23  25171959.857   131077003.543       -2291.158          43.000                                                                  
C16  37174428.487   193577005.010          35.164          48.000    37174416.184   149685971.072          27.201          48.000  
C27  25328706.032   131893224.071        2766.637          41.000                                                                  
C19  25723728.669   133950213.622         298.801          42.000                                                                  
C09  37802921.546   196849736.223         198.366          45.000    37802906.363   152216643.115         153.396          47.000  
C11                                                                  27173268.093   109415490.076       -1986.774          42.000  
> 2025 10 28 08 28 33.6020000  0 24                     
G04  21665780.804   113854446.755         302.211          45.000    21665771.260    88717713.533         235.412          46.000  
G27  21713767.756   114106620.486        2428.344          46.000    21713760.489    88914221.580        1892.179          44.000  
G16  20667951.548   108610818.837        -358.095          47.000                                                                  
G08  23792169.478   125028708.366        3443.903          39.000    23792168.786    97424980.698        2683.397          40.000  
G09  23751594.947   124815481.355        2284.343          38.000    23751589.471    97258785.803        1779.963          39.000  
G31  22009315.313   115659731.918       -2106.809          47.000    22009304.666    90124418.500       -1641.487          44.000  
C06  36735325.392   191290463.300          36.941          47.000    36735307.493   147917862.136          28.305          48.000  
C32  26723030.500   139153751.524       -3566.412          38.000                                                                  
C37  22889754.034   119192960.209        -580.612          50.000                                                                  
C07  38346092.969   199678169.070         696.344          42.000    38346076.050   154403763.909         538.301          45.000  
C13  41811545.636   217723713.315       -2316.979          35.000    41811578.159   168357924.537       -1791.763          39.000  
C20  24661920.766   128421094.387       -2160.639          46.000                                                                  
G18  25342397.028   133175198.316         897.677          38.000    25342390.545   103772848.438         699.010          40.000  
G28  24211878.728   127234279.358       -3000.096          40.000    24211871.415    99143554.034       -2337.760          42.000  
G03  25728010.467   135201576.528       -3024.978          33.000    25728023.584   105351851.283       -2357.026          37.000  
G26  21803292.446   114577074.318       -2234.480          47.000    21803284.426    89280804.727       -1741.358          44.000  
C10  39409839.156   205217376.694         654.980          39.000    39409827.479   158687045.105         506.219          43.000  
C28  23852961.590   124208634.174        1369.243          46.000                                                                  
C23  25171977.423   131077095.121       -2290.386          43.000                                                                  
C16  37174428.200   193577003.531          36.030          48.000    37174415.894   149685969.928          27.844          48.000  
C27  25328684.740   131893113.312        2767.850          41.000                                                                  
C19  25723726.359   133950201.609         299.440          42.000                                                                  
C09  37802919.992   196849728.221         199.115          45.000    37802904.825   152216636.936         153.827          47.000  
C11                                                                  27173287.841   109415569.488       -1986.083          42.000  
> 2025 10 28 08 28 33.6420000  0 24                     
G04  21665778.504   113854434.621         302.749          45.000    21665768.938    88717704.073         235.974          46.000  
G27  21713749.257   114106523.289        2429.211          46.000    21713741.987    88914145.840        1892.903          45.000  
G16  20667954.270   108610833.130        -357.651          47.000                                                                  
G08  23792143.254   125028570.561        3444.571          39.000    23792142.546    97424873.322        2683.936          40.000  
G09  23751577.550   124815389.957        2284.589          38.000    23751572.045    97258714.591        1780.111          39.000  
G31  22009331.340   115659816.142       -2106.169          47.000    22009320.705    90124484.122       -1640.967          44.000  
C06  36735325.089   191290461.782          37.467          47.000    36735307.188   147917860.958          28.904          48.000  
C32  26723057.873   139153894.150       -3565.963          38.000                                                                  
C37  22889758.478   119192983.392        -580.029          50.000                                                                  
C07  38346087.630   199678141.172         696.988          42.000    38346070.685   154403742.343         538.759          45.000  
C13  41811563.431   217723805.947       -2316.229          35.000    41811595.924   168357996.168       -1791.106          39.000  
C20  24661937.362   128421180.757       -2159.909          46.000                                                                  
G18  25342390.182   133175162.373         898.161          38.000    25342383.704   103772820.422         699.802          40.000  
G28  24211901.552   127234399.337       -2999.768          40.000    24211894.219    99143647.522       -2337.438          42.000  
G03  25728033.497   135201697.480       -3024.475          33.000    25728046.582   105351945.525       -2356.427          37.000  
G26  21803309.415   114577163.639       -2233.708          47.000    21803301.439    89280874.330       -1740.686          44.000  
C10  39409834.115   205217350.476         655.237          39.000    39409822.396   158687024.828         506.683          43.000  
C28  23852951.066   124208579.377        1369.644          46.000                                                                  
C23  25171994.994   131077186.694       -2289.799          43.000                                                                  
C16  37174427.883   193577002.040          36.771          48.000    37174415.613   149685968.778          28.347          48.000  
C27  25328663.459   131893002.568        2768.323          41.000                                                                  
C19  25723724.012   133950189.588         299.953          42.000                                                                  
C09  37802918.464   196849720.217         199.621          45.000    37802903.263   152216630.747         154.317          47.000  
C11                                                                  27173307.552   109415648.907       -1985.761          42.000  
> 2025 10 28 08 28 33.6820000  0 24                     
G04  21665776.212   113854422.491         303.098          45.000    21665766.652    88717694.621         236.190          46.000  
G27  21713730.773   114106426.118        2429.331          46.000    21713723.479    88914070.126        1892.917          45.000  
G16  20667956.969   108610847.422        -357.351          47.000                                                                  
G08  23792117.062   125028432.769        3444.806          39.000    23792116.315    97424765.954        2684.179          40.000  
G09  23751560.145   124815298.544        2285.134          38.000    23751554.651    97258643.360        1780.598          39.000  
G31  22009347.355   115659900.370       -2105.829          47.000    22009336.728    90124549.762       -1640.953          44.000  
C06  36735324.827   191290460.275          37.647          47.000    36735306.866   147917859.792          29.080          48.000  
C32  26723085.264   139154036.790       -3565.889          38.000                                                                  
C37  22889762.972   119193006.587        -579.858          50.000                                                                  
C07  38346082.276   199678113.280         697.282          42.000    38346065.334   154403720.776         539.094          45.000  
C13  41811581.235   217723898.582       -2315.794          36.000    41811613.693   168358067.795       -1790.654          39.000  
C20  24661953.953   128421267.151       -2159.834          46.000                                                                  
G18  25342383.341   133175126.429         898.577          38.000    25342376.860   103772792.415         700.081          40.000  
G28  24211924.367   127234519.321       -2999.645          40.000    24211917.032    99143741.007       -2337.174          42.000  
G03  25728056.527   135201818.442       -3024.207          33.000    25728069.600   105352039.764       -2356.064          37.000  
G26  21803326.403   114577252.976       -2233.473          47.000    21803318.433    89280943.933       -1740.255          44.000  
C10  39409829.092   205217324.256         655.450          39.000    39409817.359   158687004.540         507.135          43.000  
C28  23852940.553   124208524.580        1369.923          46.000                                                                  
C23  25172012.599   131077278.273       -2289.540          43.000                                                                  
C16  37174427.596   193577000.568          36.894          48.000    37174415.305   149685967.638          28.486          48.000  
C27  25328642.222   131892891.816        2768.725          41.000                                                                  
C19  25723721.694   133950177.580         300.121          42.000                                                                  
C09  37802916.937   196849712.213         199.993          45.000    37802901.768   152216624.555         154.680          47.000  
C11                                                                  27173327.250   109415728.316       -1985.342          42.000  
> 2025 10 28 08 28 33.7220000  0 24                     
G04  21665773.912   113854410.320         304.011          45.000    21665764.339    88717685.148         236.681          46.000  
G27  21713712.291   114106328.913        2429.980          46.000    21713704.988    88913994.378        1893.503          45.000  
G16  20667959.647   108610861.679        -356.557          47.000                                                                  
G08  23792090.811   125028294.943        3445.525          39.000    23792090.068    97424658.553        2684.924          40.000  
G09  23751542.742   124815207.096        2286.026          38.000    23751537.252    97258572.090        1781.591          39.000  
G31  22009363.362   115659984.567       -2105.061          47.000    22009352.746    90124615.372       -1640.438          44.000  
C06  36735324.548   191290458.736          38.303          47.000    36735306.554   147917858.600          29.639          48.000  
C32  26723112.653   139154179.385       -3565.038          38.000                                                                  
C37  22889767.429   119193029.747        -579.126          50.000                                                                  
C07  38346076.904   199678085.358         697.927          42.000    38346059.955   154403699.176         539.849          45.000  
C13  41811598.997   217723991.168       -2314.754          36.000    41811631.477   168358139.398       -1790.037          39.000  
C20  24661970.558   128421353.499       -2158.982          46.000                                                                  
G18  25342376.498   133175090.464         899.124          38.000    25342370.021   103772764.393         700.476          40.000  
G28  24211947.204   127234639.243       -2998.425          40.000    24211939.858    99143834.462       -2336.497          42.000  
G03  25728079.572   135201939.352       -3023.037          33.000    25728092.600   105352133.977       -2355.479          37.000  
G26  21803343.411   114577342.282       -2232.819          47.000    21803335.421    89281013.519       -1739.697          44.000  
C10  39409824.036   205217297.996         656.342          39.000    39409812.287   158686984.245         507.489          43.000  
C28  23852930.040   124208469.752        1370.585          46.000                                                                  
C23  25172030.174   131077369.815       -2288.768          43.000                                                                  
C16  37174427.279   193576999.055          37.680          48.000    37174415.020   149685966.472          29.022          48.000  
C27  25328620.959   131892781.049        2769.214          41.000                                                                  
C19  25723719.385   133950165.527         301.037          42.000                                                                  
C09  37802915.395   196849704.183         200.651          45.000    37802900.257   152216618.339         155.273          47.000  
C11                                                                  27173346.944   109415807.707       -1984.819          42.000  
> 2025 10 28 08 28 33.7620000  0 24                     
G04  21665771.625   113854398.152         304.379          45.000    21665762.035    88717675.665         237.071          46.000  
G27  21713693.768   114106231.690        2430.596          46.000    21713686.476    88913918.627        1893.823          44.000  
G16  20667962.326   108610875.928        -356.117          47.000                                                                  
G08  23792064.561   125028157.109        3445.997          39.000    23792063.844    97424551.140        2685.363          40.000  
G09  23751525.337   124815115.648        2286.447          38.000    23751519.827    97258500.820        1781.928          39.000  
G31  22009379.376   115660068.748       -2104.495          47.000    22009368.754    90124680.962       -1639.851          44.000  
C06  36735324.250   191290457.183          38.831          47.000    36735306.239   147917857.393          30.143          48.000  
C32  26723140.011   139154321.961       -3564.382          38.000                                                                  
C37  22889771.874   119193052.892        -578.568          50.000                                                                  
C07  38346071.536   199678057.429         698.424          42.000    38346054.555   154403677.577         540.156          45.000  
C13  41811616.770   217724083.766       -2314.497          36.000    41811649.252   168358211.015       -1790.115          39.000  
C20  24661987.125   128421439.837       -2158.442          46.000                                                                  
G18  25342369.657   133175054.479         899.679          38.000    25342363.166   103772736.360         700.822          40.000  
G28  24211970.014   127234759.178       -2998.110          40.000    24211962.677    99143927.918       -2336.236          42.000  
G03  25728102.568   135202060.252       -3022.279          33.000    25728115.631   105352228.199       -2355.358          37.000  
G26  21803360.398   114577431.566       -2232.129          47.000    21803352.423    89281083.095       -1739.337          44.000  
C10  39409818.982   205217271.734         656.805          39.000    39409807.236   158686963.945         507.666          43.000  
C28  23852919.528   124208414.916        1370.995          46.000                                                                  
C23  25172047.730   131077461.340       -2288.143          43.000                                                                  
C16  37174426.978   193576997.529          38.232          48.000    37174414.738   149685965.294          29.465          48.000  
C27  25328599.697   131892670.266        2769.625          41.000                                                                  
C19  25723717.061   133950153.474         301.438          42.000                                                                  
C09  37802913.879   196849696.132         201.299          45.000    37802898.712   152216612.110         155.796          47.000  
C11                                                                  27173366.653   109415887.087       -1984.428          42.000  
> 2025 10 28 08 28 33.8020000  0 24                     
G04  21665769.315   113854385.990         304.363          45.000    21665759.746    88717666.188         237.131          46.000  
G27  21713675.262   114106134.478        2430.595          46.000    21713667.999    88913842.881        1893.817          44.000  
G16  20667965.029   108610890.193        -356.294          47.000                                                                  
G08  23792038.344   125028019.273        3446.138          39.000    23792037.617    97424443.752        2684.968          40.000  
G09  23751507.933   124815024.197        2286.556          38.000    23751502.422    97258429.583        1781.365          39.000  
G31  22009395.420   115660152.939       -2104.486          47.000    22009384.779    90124746.574       -1639.966          44.000  
C06  36735323.976   191290455.631          39.014          47.000    36735305.924   147917856.198          30.137          48.000  
C32  26723167.376   139154464.575       -3564.839          38.000                                                                  
C37  22889776.308   119193076.044        -578.468          50.000                                                                  
C07  38346066.159   199678029.500         698.527          42.000    38346049.213   154403655.994         539.921          45.000  
C13  41811634.540   217724176.395       -2315.123          36.000    41811667.044   168358282.632       -1790.244          39.000  
C20  24662003.687   128421526.189       -2158.486          46.000                                                                  
G18  25342362.823   133175018.538         899.081          38.000    25342356.326   103772708.334         700.802          40.000  
G28  24211992.814   127234879.119       -2998.250          40.000    24211985.500    99144021.379       -2336.294          42.000  
G03  25728125.576   135202181.176       -3022.455          33.000    25728138.663   105352322.444       -2355.765          37.000  
G26  21803377.423   114577520.874       -2232.249          47.000    21803369.413    89281152.686       -1739.509          44.000  
C10  39409813.932   205217245.482         656.689          39.000    39409802.217   158686943.634         507.886          43.000  
C28  23852908.982   124208360.086        1371.025          46.000                                                                  
C23  25172065.294   131077552.885       -2288.252          43.000                                                                  
C16  37174426.660   193576996.019          38.109          48.000    37174414.439   149685964.123          29.502          48.000  
C27  25328578.431   131892559.486        2769.674          41.000                                                                  
C19  25723714.724   133950141.423         301.486          42.000                                                                  
C09  37802912.313   196849688.093         201.309          45.000    37802897.129   152216605.897         155.653          47.000  
C11                                                                  27173386.376   109415966.483       -1984.592          42.000  
> 2025 10 28 08 28 33.8420000  0 24                     
G04  21665766.979   113854373.851         303.835          45.000    21665757.416    88717656.726         236.820          46.000  
G27  21713656.760   114106037.286        2430.152          46.000    21713649.519    88913767.145        1893.560          44.000  
G16  20667967.761   108610904.472        -356.733          47.000                                                                  
G08  23792012.123   125027881.476        3445.341          39.000    23792011.403    97424336.372        2684.625          40.000  
G09  23751490.524   124814932.787        2285.665          38.000    23751485.014    97258358.337        1781.216          39.000  
G31  22009411.443   115660237.151       -2104.966          47.000    22009400.793    90124812.189       -1640.198          44.000  
C06  36735323.703   191290454.095          38.749          47.000    36735305.640   147917855.014          29.845          48.000  
C32  26723194.778   139154607.185       -3565.115          38.000                                                                  
C37  22889780.777   119193099.220        -579.009          50.000                                                                  
C07  38346060.805   199678001.607         697.778          42.000    38346043.825   154403634.421         539.529          45.000  
C13  41811652.322   217724269.015       -2315.480          36.000    41811684.838   168358354.248       -1790.339          39.000  
C20  24662020.250   128421612.561       -2158.968          46.000                                                                  
G18  25342355.985   133174982.587         898.851          38.000    25342349.483   103772680.327         700.392          40.000  
G28  24212015.647   127234999.077       -2998.721          40.000    24212008.328    99144114.859       -2336.795          42.000  
G03  25728148.583   135202302.142       -3023.490          33.000    25728161.682   105352416.693       -2356.127          37.000  
G26  21803394.406   114577610.187       -2232.560          47.000    21803386.418    89281222.283       -1739.777          44.000  
C10  39409808.890   205217219.255         655.963          39.000    39409797.162   158686923.347         507.428          43.000  
C28  23852898.415   124208305.270        1370.640          46.000                                                                  
C23  25172082.883   131077644.449       -2288.737          43.000                                                                  
C16  37174426.355   193576994.528          37.617          48.000    37174414.129   149685962.965          29.234          48.000  
C27  25328557.137   131892448.740        2769.025          41.000                                                                  
C19  25723712.413   133950129.393         301.042          42.000                                                                  
C09  37802910.767   196849680.065         201.011          45.000    37802895.603   152216599.696         155.272          47.000  
C11                                                                  27173406.107   109416045.888       -1984.932          42.000  
> 2025 10 28 08 28 33.8820000  0 24                     
G04  21665764.678   113854361.741         303.016          45.000    21665755.142    88717647.280         236.307          46.000  
G27  21713638.262   114105940.128        2429.291          46.000    21713631.038    88913691.439        1892.863          44.000  
G16  20667970.497   108610918.771        -357.365          47.000                                                                  
G08  23791985.918   125027743.696        3444.609          39.000    23791985.179    97424229.013        2684.054          40.000  
G09  23751473.143   124814841.389        2285.028          38.000    23751467.606    97258287.117        1780.638          39.000  
G31  22009427.460   115660321.399       -2105.898          47.000    22009416.809    90124877.841       -1640.974          44.000  
C06  36735323.441   191290452.600          37.799          47.000    36735305.346   147917853.862          29.093          48.000  
C32  26723222.169   139154749.839       -3566.060          38.000                                                                  
C37  22889785.217   119193122.425        -579.860          50.000                                                                  
C07  38346055.440   199677973.731         697.040          42.000    38346038.464   154403612.859         539.113          45.000  
C13  41811670.115   217724361.664       -2316.131          36.000    41811702.646   168358425.890       -1790.861          39.000  
C20  24662036.849   128421698.964       -2159.844          46.000                                                                  
G18  25342349.170   133174946.673         898.093          38.000    25342342.649   103772652.325         700.057          40.000  
G28  24212038.491   127235119.056       -2999.373          40.000    24212031.147    99144208.344       -2337.096          42.000  
G03  25728171.609   135202423.128       -3024.572          33.000    25728184.724   105352510.955       -2356.512          37.000  
G26  21803411.399   114577699.542       -2233.485          47.000    21803403.447    89281291.903       -1740.340          44.000  
C10  39409803.844   205217193.038         655.469          39.000    39409792.126   158686903.067         507.056          43.000  
C28  23852887.897   124208250.493        1369.707          46.000                                                                  
C23  25172100.476   131077736.037       -2289.430          43.000                                                                  
C16  37174426.056   193576993.063          36.849          48.000    37174413.807   149685961.829          28.650          48.000  
C27  25328535.873   131892338.006        2768.447          41.000                                                                  
C19  25723710.112   133950117.384         300.424          42.000                                                                  
C09  37802909.235   196849672.082         199.992          45.000    37802894.063   152216593.518         154.627          47.000  
C11                                                                  27173425.809   109416125.319       -1985.591          42.000  
> 2025 10 28 08 28 33.9220000  0 24                     
G04  21665762.374   113854349.604         303.113          45.000    21665752.827    88717637.828         236.178          46.000  
G27  21713619.779   114105842.943        2429.368          46.000    21713612.526    88913615.696        1893.184          44.000  
G16  20667973.221   108610933.050        -357.250          47.000                                                                  
G08  23791959.685   125027605.875        3445.083          39.000    23791958.964    97424121.640        2684.041          40.000  
G09  23751455.744   124814749.949        2285.558          38.000    23751450.208    97258215.870        1780.956          39.000  
G31  22009443.495   115660405.618       -2105.793          47.000    22009432.816    90124943.467       -1640.907          44.000  
C06  36735323.163   191290451.082          37.762          47.000    36735305.056   147917852.682          29.231          48.000  
C32  26723249.533   139154892.441       -3565.529          38.000                                                                  
C37  22889789.674   119193145.598        -579.649          50.000                                                                  
C07  38346050.102   199677945.821         697.398          42.000    38346033.126   154403591.283         539.212          46.000  
C13  41811687.886   217724454.279       -2315.713          36.000    41811720.433   168358497.513       -1790.726          40.000  
C20  24662053.409   128421785.337       -2159.690          46.000                                                                  
G18  25342342.322   133174910.710         898.640          38.000    25342335.803   103772624.316         700.089          40.000  
G28  24212061.328   127235239.005       -2999.056          40.000    24212053.964    99144301.801       -2336.688          42.000  
G03  25728194.622   135202544.027       -3023.396          33.000    25728207.723   105352605.187       -2356.123          37.000  
G26  21803428.384   114577788.868       -2233.406          47.000    21803420.434    89281361.499       -1740.171          45.000  
C10  39409798.821   205217166.787         655.927          39.000    39409787.082   158686882.789         506.891          43.000  
C28  23852877.376   124208195.678        1369.988          46.000                                                                  
C23  25172118.052   131077827.602       -2289.366          43.000                                                                  
C16  37174425.760   193576991.573          36.931          48.000    37174413.533   149685960.680          28.607          49.000  
C27  25328514.595   131892227.245        2768.732          41.000                                                                  
C19  25723707.797   133950105.368         300.306          42.000                                                                  
C09  37802907.681   196849664.069         200.015          45.000    37802892.522   152216587.318         154.750          48.000  
C11                                                                  27173445.525   109416204.715       -1985.243          42.000  
> 2025 10 28 08 28 33.9620000  0 24                     
G04  21665760.050   113854337.421         304.025          45.000    21665750.504    88717628.341         236.783          46.000  
G27  21713601.259   114105745.715        2430.205          46.000    21713594.024    88913539.941        1893.642          44.000  
G16  20667975.950   108610947.298        -356.549          47.000                                                                  
G08  23791933.473   125027468.033        3445.787          39.000    23791932.732    97424014.213        2685.171          40.000  
G09  23751438.356   124814658.504        2285.950          38.000    23751432.801    97258144.612        1781.336          39.000  
G31  22009459.487   115660489.797       -2104.921          47.000    22009448.828    90125009.053       -1640.105          44.000  
C06  36735322.851   191290449.521          38.547          47.000    36735304.719   147917851.473          29.867          48.000  
C32  26723276.930   139155035.012       -3564.614          38.000                                                                  
C37  22889794.105   119193168.734        -578.805          50.000                                                                  
C07  38346044.740   199677917.887         698.080          42.000    38346027.747   154403569.678         539.830          46.000  
C13  41811705.683   217724546.866       -2314.896          36.000    41811738.214   168358569.104       -1790.053          40.000  
C20  24662069.998   128421871.666       -2158.760          46.000                                                                  
G18  25342335.457   133174874.712         899.609          38.000    25342328.945   103772596.273         700.667          40.000  
G28  24212084.148   127235358.933       -2998.402          40.000    24212076.794    99144395.248       -2336.294          42.000  
G03  25728217.609   135202664.948       -3023.016          33.000    25728230.712   105352699.363       -2354.911          37.000  
G26  21803445.359   114577878.145       -2232.457          47.000    21803437.430    89281431.077       -1739.733          45.000  
C10  39409793.774   205217140.520         656.464          39.000    39409782.032   158686862.465         507.666          43.000  
C28  23852866.856   124208140.834        1370.737          46.000                                                                  
C23  25172135.615   131077919.122       -2288.446          43.000                                                                  
C16  37174425.459   193576990.035          37.921          48.000    37174413.247   149685959.496          29.255          49.000  
C27  25328493.327   131892116.453        2769.494          41.000                                                                  
C19  25723705.498   133950093.294         301.305          42.000                                                                  
C09  37802906.123   196849656.010         200.973          45.000    37802890.973   152216581.089         155.383          48.000  
C11                                                                  27173465.222   109416284.104       -1984.917          42.000  
> 2025 10 28 08 28 34.0020000  0 24                     
G04  21665757.743   113854325.271         303.891          45.000    21665748.185    88717618.866         236.820          46.000  
G27  21713582.774   114105648.517        2430.038          46.000    21713575.523    88913464.204        1893.497          44.000  
G16  20667978.652   108610961.583        -356.998          47.000                                                                  
G08  23791907.245   125027330.226        3445.326          39.000    23791906.482    97423906.823        2684.926          40.000  
G09  23751420.953   124814567.076        2285.778          38.000    23751415.392    97258073.380        1780.940          39.000  
G31  22009475.506   115660573.995       -2104.906          47.000    22009464.835    90125074.665       -1640.194          44.000  
C06  36735322.575   191290447.978          38.563          47.000    36735304.399   147917850.282          29.848          48.000  
C32  26723304.315   139155177.611       -3564.868          38.000                                                                  
C37  22889798.565   119193191.904        -579.091          50.000                                                                  
C07  38346039.361   199677889.975         697.875          42.000    38346022.370   154403548.094         539.686          46.000  
C13  41811723.445   217724639.499       -2315.546          36.000    41811756.014   168358640.730       -1790.419          40.000  
C20  24662086.590   128421958.021       -2158.788          46.000                                                                  
G18  25342328.598   133174838.736         899.662          38.000    25342322.091   103772568.258         700.462          40.000  
G28  24212106.977   127235478.899       -2998.960          40.000    24212099.610    99144488.722       -2336.697          42.000  
G03  25728240.611   135202785.869       -3023.059          33.000    25728253.740   105352793.598       -2355.406          37.000  
G26  21803462.350   114577967.447       -2232.487          47.000    21803454.456    89281500.670       -1739.807          44.000  
C10  39409788.707   205217114.293         655.872          39.000    39409776.979   158686842.179         507.263          43.000  
C28  23852856.337   124208086.028        1370.295          46.000                                                                  
C23  25172153.194   131078010.671       -2288.564          43.000                                                                  
C16  37174425.120   193576988.528          37.818          48.000    37174412.902   149685958.330          29.179          49.000  
C27  25328472.061   131892005.693        2769.203          41.000                                                                  
C19  25723703.168   133950081.267         300.903          42.000                                                                  
C09  37802904.529   196849647.975         200.944          45.000    37802889.436   152216574.878         155.333          48.000  
C11                                                                  27173484.908   109416363.516       -1985.276          42.000  
> 2025 10 28 08 28 34.0420000  0 24                     
G04  21665755.479   113854313.307         300.369          45.000    21665745.903    88717609.527         234.389          46.000  
G27  21713564.334   114105551.491        2426.797          46.000    21713557.046    88913388.587        1891.210          44.000  
G16  20667981.383   108610976.027        -360.239          47.000                                                                  
G08  23791881.067   125027192.579        3442.066          39.000    23791880.287    97423799.566        2682.198          40.000  
G09  23751403.620   124814475.824        2282.355          38.000    23751398.035    97258002.272        1778.351          39.000  
G31  22009491.550   115660658.385       -2108.431          47.000    22009480.882    90125140.421       -1642.931          44.000  
C06  36735322.345   191290446.610          35.407          47.000    36735304.130   147917849.223          27.387          48.000  
C32  26723331.744   139155320.414       -3568.744          38.000                                                                  
C37  22889803.080   119193215.251        -582.578          50.000                                                                  
C07  38346034.028   199677862.228         694.656          42.000    38346017.049   154403526.631         537.297          46.000  
C13  41811741.277   217724732.282       -2318.622          36.000    41811773.815   168358712.493       -1793.232          40.000  
C20  24662103.226   128422044.563       -2162.212          46.000                                                                  
G18  25342321.821   133174803.000         895.213          38.000    25342315.265   103772540.374         697.957          40.000  
G28  24212129.849   127235599.013       -3002.034          40.000    24212122.483    99144582.330       -2339.407          42.000  
G03  25728263.676   135202906.932       -3025.628          33.000    25728276.786   105352887.960       -2358.185          37.000  
G26  21803479.367   114578056.934       -2235.874          47.000    21803471.457    89281570.381       -1742.031          44.000  
C10  39409783.724   205217088.204         652.930          39.000    39409771.962   158686822.008         504.846          43.000  
C28  23852845.908   124208031.376        1367.172          46.000                                                                  
C23  25172170.784   131078102.395       -2291.904          43.000                                                                  
C16  37174424.850   193576987.195          34.486          48.000    37174412.664   149685957.282          26.939          49.000  
C27  25328450.844   131891895.076        2766.400          41.000                                                                  
C19  25723700.878   133950069.421         297.253          42.000                                                                  
C09  37802902.989   196849640.119         197.548          45.000    37802887.919   152216568.788         153.043          48.000  
C11                                                                  27173504.640   109416443.029       -1987.383          42.000  
> 2025 10 28 08 28 34.0820000  0 24                     
G04  21665753.202   113854301.329         298.982          45.000    21665743.626    88717600.205         232.953          46.000  
G27  21713545.861   114105454.477        2425.105          46.000    21713538.574    88913312.988        1889.836          44.000  
G16  20667984.134   108610990.443        -361.095          47.000                                                                  
G08  23791854.888   125027054.908        3441.155          39.000    23791854.102    97423692.292        2681.367          40.000  
G09  23751386.255   124814384.530        2281.649          38.000    23751380.684    97257931.154        1777.434          39.000  
G31  22009507.619   115660742.756       -2109.781          47.000    22009496.973    90125206.164       -1643.973          44.000  
C06  36735322.099   191290445.250          33.783          47.000    36735303.847   147917848.171          26.117          48.000  
C32  26723359.187   139155463.151       -3569.355          38.000                                                                  
C37  22889807.564   119193238.572        -583.647          50.000                                                                  
C07  38346028.701   199677834.465         693.516          42.000    38346011.767   154403505.175         536.118          46.000  
C13  41811759.081   217724825.032       -2319.400          35.000    41811791.629   168358784.226       -1793.931          40.000  
C20  24662119.874   128422131.099       -2163.739          46.000                                                                  
G18  25342314.996   133174767.203         894.149          38.000    25342308.462   103772512.490         696.851          40.000  
G28  24212152.695   127235719.094       -3002.761          40.000    24212145.337    99144675.922       -2340.327          42.000  
G03  25728286.691   135203028.045       -3027.673          33.000    25728299.864   105352982.333       -2359.605          37.000  
G26  21803496.401   114578146.416       -2237.393          47.000    21803488.482    89281640.115       -1743.417          44.000  
C10  39409778.711   205217062.109         651.819          39.000    39409766.968   158686801.826         504.071          43.000  
C28  23852835.434   124207976.715        1366.023          46.000                                                                  
C23  25172188.427   131078194.110       -2293.270          43.000                                                                  
C16  37174424.580   193576985.856          33.137          48.000    37174412.414   149685956.255          25.560          49.000  
C27  25328429.631   131891784.479        2764.797          41.000                                                                  
C19  25723698.593   133950057.548         296.154          42.000                                                                  
C09  37802901.486   196849632.243         196.338          45.000    37802886.420   152216562.711         151.736          48.000  
C11                                                                  27173524.388   109416522.543       -1988.205          42.000  
> 2025 10 28 08 28 34.1220000  0 24                     
G04  21665750.933   113854289.256         300.280          45.000    21665741.334    88717590.801         233.882          46.000  
G27  21713527.407   114105357.349        2426.489          46.000    21713520.118    88913237.324        1890.489          44.000  
G16  20667986.884   108611004.792        -359.981          47.000                                                                  
G08  23791828.675   125026917.165        3442.334          39.000    23791827.905    97423584.973        2682.071          40.000  
G09  23751368.907   124814293.169        2282.821          38.000    23751363.305    97257859.966        1778.498          39.000  
G31  22009523.674   115660827.031       -2108.420          47.000    22009513.011    90125271.854       -1643.334          44.000  
C06  36735321.825   191290443.782          35.087          47.000    36735303.549   147917847.045          26.987          48.000  
C32  26723386.580   139155605.837       -3568.369          38.000                                                                  
C37  22889811.980   119193261.804        -582.274          50.000                                                                  
C07  38346023.340   199677806.639         694.465          42.000    38346006.412   154403483.652         536.995          46.000  
C13  41811776.888   217724917.730       -2318.387          35.000    41811809.438   168358855.894       -1792.786          40.000  
C20  24662136.405   128422217.545       -2162.698          46.000                                                                  
G18  25342308.183   133174731.340         895.016          38.000    25342301.642   103772484.536         697.750          40.000  
G28  24212175.552   127235839.128       -3001.956          40.000    24212168.156    99144769.441       -2339.140          42.000  
G03  25728309.755   135203149.088       -3027.209          33.000    25728322.888   105353076.598       -2358.120          37.000  
G26  21803513.430   114578235.806       -2236.251          47.000    21803505.507    89281709.777       -1742.682          44.000  
C10  39409773.662   205217035.918         653.412          39.000    39409761.983   158686781.590         505.005          43.000  
C28  23852824.899   124207921.972        1367.248          46.000                                                                  
C23  25172206.026   131078285.742       -2292.186          43.000                                                                  
C16  37174424.247   193576984.416          34.494          48.000    37174412.139   149685955.165          26.159          48.000  
C27  25328408.394   131891673.802        2765.655          41.000                                                                  
C19  25723696.289   133950045.576         297.676          42.000                                                                  
C09  37802899.923   196849624.291         197.450          45.000    37802884.923   152216556.574         152.387          48.000  
C11                                                                  27173544.126   109416602.009       -1987.494          42.000  
> 2025 10 28 08 28 34.1620000  0 24                     
G04  21665748.627   113854277.171         301.324          45.000    21665739.022    88717581.391         234.623          46.000  
G27  21713508.938   114105260.212        2427.568          46.000    21713501.630    88913161.628        1891.535          44.000  
G16  20667989.626   108611019.133        -359.064          47.000                                                                  
G08  23791802.469   125026779.411        3443.277          39.000    23791801.685    97423477.631        2683.042          40.000  
G09  23751351.526   124814201.808        2283.532          38.000    23751345.915    97257788.764        1779.497          39.000  
G31  22009539.710   115660911.305       -2107.515          47.000    22009529.064    90125337.522       -1642.458          44.000  
C06  36735321.532   191290442.301          36.205          47.000    36735303.268   147917845.900          27.934          48.000  
C32  26723413.982   139155748.500       -3567.187          38.000                                                                  
C37  22889816.426   119193285.034        -581.325          50.000                                                                  
C07  38346017.962   199677778.782         695.596          42.000    38346001.102   154403462.118         537.797          46.000  
C13  41811794.676                       -2317.423          35.000    41811827.223   168358927.552       -1791.952          40.000  
C20  24662152.983   128422303.958       -2161.336          46.000                                                                  
G18  25342301.363   133174695.417         896.855          38.000    25342294.791   103772456.548         698.922          40.000  
G28  24212198.414   127235959.158       -3001.325          40.000    24212190.974    99144862.961       -2338.412          42.000  
G03  25728332.749                       -3025.424          33.000    25728345.908   105353170.888       -2357.573          37.000  
G26  21803530.450   114578325.177       -2235.125          47.000    21803522.537    89281779.423       -1741.795          44.000  
C10  39409768.619   205217009.742         654.199          39.000    39409756.961   158686761.355         505.548          43.000  
C28  23852814.359   124207867.225        1368.116          46.000                                                                  
C23  25172223.579   131078377.347       -2290.986          43.000                                                                  
C16  37174423.927   193576982.976          35.354          48.000    37174411.847   149685954.048          27.192          48.000  
C27  25328387.135   131891563.100        2766.695          41.000                                                                  
C19  25723693.958   133950033.610         298.545          42.000                                                                  
C09  37802898.356   196849616.325         198.475          45.000    37802883.401   152216550.406         153.467          48.000  
C11                                                                  27173563.833   109416681.472       -1986.925          42.000  
> 2025 10 28 08 28 34.2020000  0 24                     
G04  21665746.318   113854265.104         301.691          45.000    21665736.733    88717571.990         234.957          45.000  
G27  21713490.459   114105163.091        2427.973          46.000    21713483.148    88913085.953        1891.831          44.000  
G16  20667992.335   108611033.482        -358.685          47.000                                                                  
G08  23791776.267   125026641.685        3443.336          39.000    23791775.482    97423370.314        2683.069          39.000  
G09  23751334.171   124814110.477        2283.437          38.000    23751328.521    97257717.576        1779.740          39.000  
G31  22009555.731   115660995.596       -2107.233          47.000    22009545.103    90125403.187       -1641.826          44.000  
C06  36735321.271   191290440.848          36.396          47.000    36735302.963   147917844.767          28.301          48.000  
C32  26723441.382   139155891.176       -3566.800          38.000                                                                  
C37  22889820.907   119193308.281        -581.078          50.000                                                                  
C07  38346012.628   199677750.953         695.787          42.000    38345995.776   154403440.592         538.148          46.000  
C13  41811812.510   217725103.096       -2317.264          35.000    41811845.026   168358999.240       -1791.999          40.000  
C20  24662169.569   128422390.405       -2161.088          46.000                                                                  
G18  25342294.528   133174659.530         897.205          38.000    25342287.975   103772428.607         698.754          39.000  
G28  24212221.249   127236079.179       -3000.708          40.000    24212213.803    99144956.489       -2338.155          41.000  
G03  25728355.767                       -3025.441          33.000    25728368.925   105353265.181       -2357.342          37.000  
G26  21803547.460   114578414.573       -2234.859          47.000    21803539.547    89281849.083       -1741.532          44.000  
C10  39409763.583   205216983.573         654.376          39.000    39409751.898   158686741.109         506.067          43.000  
C28  23852803.872   124207812.484        1368.531          46.000                                                                  
C23  25172241.128   131078468.983       -2290.825          43.000                                                                  
C16  37174423.648   193576981.554          35.587          48.000    37174411.537   149685952.934          27.751          48.000  
C27  25328365.872   131891452.414        2767.073          41.000                                                                  
C19  25723691.672   133950021.654         298.944          42.000                                                                  
C09  37802896.840   196849608.376         198.748          45.000    37802881.877   152216544.249         153.894          48.000  
C11                                                                  27173583.559   109416760.928       -1986.463          42.000  
> 2025 10 28 08 28 34.2420000  0 24                     
G04  21665744.011   113854252.997         302.563          45.000    21665734.433    88717562.555         235.721          45.000  
G27  21713471.981   114105065.929        2428.925          46.000    21713464.657    88913010.246        1892.548          44.000  
G16  20667995.043   108611047.782        -357.598          47.000                                                                  
G08  23791750.026   125026503.895        3444.540          39.000    23791749.272    97423262.936        2684.256          39.000  
G09  23751316.793   124814019.077        2284.643          38.000    23751311.134    97257646.355        1780.489          39.000  
G31  22009571.763   115661079.831       -2106.094          47.000    22009561.126    90125468.819       -1640.897          44.000  
C06  36735320.996   191290439.337          37.532          47.000    36735302.635   147917843.602          29.061          48.000  
C32  26723468.751   139156033.802       -3565.711          38.000                                                                  
C37  22889825.364   119193331.475        -580.019          50.000                                                                  
C07  38346007.294   199677723.067         696.961          42.000    38345990.415   154403419.032         538.934          46.000  
C13  41811830.282   217725195.731       -2316.053          35.000    41811862.838   168359070.868       -1790.911          40.000  
C20  24662186.147   128422476.809       -2160.219          46.000                                                                  
G18  25342287.689   133174623.612         897.951          38.000    25342281.151   103772400.624         699.387          39.000  
G28  24212244.092   127236199.159       -2999.620          40.000    24212236.640    99145049.967       -2337.072          41.000  
G03  25728378.762                       -3023.630          33.000    25728391.946   105353359.403       -2355.947          37.000  
G26  21803564.479   114578503.914       -2233.749          47.000    21803556.552    89281918.684       -1740.284          44.000  
C10  39409758.543   205216957.342         655.609          39.000    39409746.904   158686720.829         507.019          43.000  
C28  23852793.363   124207757.693        1369.665          46.000                                                                  
C23  25172258.736   131078560.559       -2289.651          43.000                                                                  
C16  37174423.337   193576980.078          36.673          48.000    37174411.228   149685951.787          28.634          48.000  
C27  25328344.606   131891341.679        2768.149          41.000                                                                  
C19  25723689.382   133950009.655         299.921          42.000                                                                  
C09  37802895.323   196849600.368         199.955          45.000    37802880.311   152216538.055         154.792          48.000  
C11                                                                  27173603.297   109416840.351       -1985.596          42.000  
> 2025 10 28 08 28 34.2820000  0 24                     
G04  21665741.706   113854240.823         304.138          45.000    21665732.086    88717553.058         237.182          45.000  
G27  21713453.490   114104968.706        2430.429          46.000    21713446.138    88912934.476        1893.953          44.000  
G16  20667997.736   108611062.025        -356.076          47.000                                                                  
G08  23791723.773   125026366.050        3446.041          39.000    23791723.038    97423155.516        2685.533          39.000  
G09  23751299.357   124813927.616        2286.357          38.000    23751293.719    97257575.097        1781.445          39.000  
G31  22009587.785   115661164.008       -2104.564          47.000    22009577.129    90125534.409       -1639.761          44.000  
C06  36735320.655   191290437.767          39.098          46.000    36735302.319   147917842.384          30.303          48.000  
C32  26723496.132   139156176.379       -3564.341          38.000                                                                  
C37  22889829.776   119193354.610        -578.471          50.000                                                                  
C07  38346001.918   199677695.122         698.549          42.000    38345985.062   154403397.421         540.159          46.000  
C13  41811848.054   217725288.316       -2314.546          35.000    41811880.584   168359142.450       -1789.565          40.000  
C20  24662202.703   128422563.137       -2158.500          46.000                                                                  
G18  25342280.846   133174587.640         899.277          38.000    25342274.294   103772372.568         700.974          39.000  
G28  24212266.915   127236319.081       -2998.066          40.000    24212259.460    99145143.425       -2336.301          41.000  
G03  25728401.735                       -3022.097          33.000    25728414.955   105353453.617       -2355.192          37.000  
G26  21803581.462   114578593.185       -2232.012          47.000    21803573.552    89281988.245       -1739.026          44.000  
C10  39409753.516   205216931.072         656.879          39.000    39409741.889   158686700.512         508.008          43.000  
C28  23852782.833   124207702.847        1371.159          46.000                                                                  
C23  25172276.295   131078652.077       -2288.097          43.000                                                                  
C16  37174423.007   193576978.536          38.380          48.000    37174410.925   149685950.599          29.727          48.000  
C27  25328323.322   131891230.874        2769.914          41.000                                                                  
C19  25723687.062   133949997.608         301.174          42.000                                                                  
C09  37802893.780   196849592.291         201.723          45.000    37802878.722   152216531.817         155.958          48.000  
C11                                                                  27173623.022   109416919.723       -1984.300          42.000  
> 2025 10 28 08 28 34.3220000  0 24                     
G04  21665739.379   113854228.668         304.444          45.000    21665729.774    88717543.584         237.336          45.000  
G27  21713434.990   114104871.495        2430.789          46.000    21713427.631    88912858.731        1894.122          44.000  
G16  20668000.417   108611076.299        -356.170          47.000                                                                  
G08  23791697.535   125026228.222        3446.270          39.000    23791696.815    97423048.134        2685.203          39.000  
G09  23751281.964   124813836.196        2286.174          38.000    23751276.308    97257503.875        1781.083          39.000  
G31  22009603.797   115661248.202       -2104.274          47.000    22009593.150    90125600.021       -1639.772          44.000  
C06  36735320.330   191290436.213          39.379          46.000    36735302.020   147917841.182          30.520          48.000  
C32  26723523.511   139156318.970       -3564.218          38.000                                                                  
C37  22889834.233   119193377.763        -578.265          50.000                                                                  
C07  38345996.540   199677667.207         698.546          42.000    38345979.668   154403375.838         540.088          46.000  
C13  41811865.828   217725380.917       -2314.335          35.000    41811898.355   168359214.062       -1789.714          40.000  
C20  24662219.343   128422649.487       -2158.185          46.000                                                                  
G18  25342273.981   133174551.668         899.719          38.000    25342267.445   103772344.545         701.077          39.000  
G28  24212289.750   127236439.032       -2998.126          40.000    24212282.288    99145236.896       -2336.369          41.000  
G03  25728424.757                       -3021.979          33.000    25728437.962   105353547.832       -2354.932          37.000  
G26  21803598.457   114578682.488       -2231.908          47.000    21803590.556    89282057.836       -1739.127          44.000  
C10  39409748.471   205216904.835         656.628          39.000    39409736.862   158686680.214         507.959          43.000  
C28  23852772.314   124207648.034        1371.020          46.000                                                                  
C23  25172293.863   131078743.617       -2287.921          43.000                                                                  
C16  37174422.692   193576977.016          38.614          48.000    37174410.628   149685949.425          29.841          48.000  
C27  25328302.028   131891120.097        2770.060          41.000                                                                  
C19  25723684.756   133949985.561         301.560          42.000                                                                  
C09  37802892.252   196849584.253         201.701          45.000    37802877.164   152216525.605         155.846          48.000  
C11                                                                  27173642.708   109416999.115       -1984.266          42.000  
> 2025 10 28 08 28 34.3620000  0 24                     
G04  21665737.087   113854216.592         302.983          45.000    21665727.449    88717534.185         235.933          45.000  
G27  21713416.486   114104774.379        2429.116          46.000    21713409.135    88912783.055        1892.798          44.000  
G16  20668003.108   108611090.634        -357.549          47.000                                                                  
G08  23791671.313   125026090.452        3445.101          39.000    23791670.597    97422940.782        2684.364          39.000  
G09  23751264.552   124813744.824        2285.038          38.000    23751258.941    97257432.676        1780.306          39.000  
G31  22009619.819   115661332.478       -2105.801          47.000    22009609.200    90125665.698       -1641.044          44.000  
C06  36735320.057   191290434.744          37.844          46.000    36735301.753   147917840.041          29.398          48.000  
C32  26723550.918   139156461.649       -3565.965          38.000                                                                  
C37  22889838.745   119193400.997        -579.779          50.000                                                                  
C07  38345991.215   199677639.345         697.363          42.000    38345974.308   154403354.291         539.222          46.000  
C13  41811883.632                       -2316.428          35.000    41811916.136   168359285.726       -1790.917          40.000  
C20  24662235.942   128422735.924       -2159.769          46.000                                                                  
G18  25342267.148   133174515.768         898.507          38.000    25342260.616   103772316.596         699.652          39.000  
G28  24212312.576   127236559.034       -2999.265          40.000    24212305.133    99145330.408       -2337.285          41.000  
G03  25728447.781                       -3024.115          33.000    25728460.983   105353642.122       -2356.394          37.000  
G26  21803615.442   114578771.866       -2233.345          47.000    21803607.565    89282127.486       -1740.365          44.000  
C10  39409743.467   205216878.648         655.389          39.000    39409731.831   158686659.960         506.921          43.000  
C28  23852761.837   124207593.278        1369.697          46.000                                                                  
C23  25172311.450   131078835.222       -2289.189          43.000                                                                  
C16  37174422.442   193576975.577          37.059          48.000    37174410.349   149685948.314          28.608          48.000  
C27  25328280.777   131891009.386        2768.823          41.000                                                                  
C19  25723682.467   133949973.595         300.167          42.000                                                                  
C09  37802890.741   196849576.286         200.214          45.000    37802875.648   152216519.446         154.706          48.000  
C11                                                                  27173662.457   109417078.564       -1985.472          42.000  
> 2025 10 28 08 28 34.4020000  0 24                     
G04  21665734.807   113854204.508         302.286          45.000    21665725.168    88717524.773         235.348          45.000  
G27  21713398.001   114104677.235        2428.630          46.000    21713390.652    88912707.371        1892.191          44.000  
G16  20668005.835   108611104.964        -358.196          47.000                                                                  
G08  23791645.089   125025952.674        3444.523          39.000    23791644.406    97422833.439        2683.655          39.000  
G09  23751247.177   124813653.434        2284.730          38.000    23751241.544    97257361.455        1780.334          39.000  
G31  22009635.876   115661416.742       -2106.481          47.000    22009625.241    90125731.353       -1641.411          44.000  
C06  36735319.776   191290433.265          37.107          46.000    36735301.480   147917838.897          28.803          48.000  
C32  26723578.321   139156604.284       -3566.146          38.000                                                                  
C37  22889843.229   119193424.215        -580.390          50.000                                                                  
C07  38345985.840   199677611.488         696.594          42.000    38345968.975   154403332.751         538.596          46.000  
C13  41811901.427   217725566.273       -2316.644          35.000    41811933.930   168359357.381       -1791.430          40.000  
C20  24662252.535   128422822.343       -2160.356          46.000                                                                  
G18  25342260.336   133174479.887         897.437          38.000    25342253.781   103772288.624         699.265          39.000  
G28  24212335.402   127236679.032       -2999.836          40.000    24212327.977    99145423.900       -2337.425          41.000  
G03  25728470.817                       -3024.181          33.000    25728484.008   105353736.387       -2356.742          37.000  
G26  21803632.449   114578861.236       -2234.076          47.000    21803624.580    89282197.125       -1740.873          44.000  
C10  39409738.448   205216852.439         655.164          39.000    39409726.813   158686639.703         506.396          43.000  
C28  23852751.303   124207538.516        1369.073          46.000                                                                  
C23  25172329.054   131078926.843       -2290.178          43.000                                                                  
C16  37174422.158   193576974.127          36.381          48.000    37174410.074   149685947.195          28.065          48.000  
C27  25328259.519   131890898.657        2768.352          41.000                                                                  
C19  25723680.189   133949961.613         299.617          42.000                                                                  
C09  37802889.201   196849568.312         199.481          45.000    37802874.110   152216513.280         154.210          48.000  
C11                                                                  27173682.215   109417158.015       -1986.167          42.000  
> 2025 10 28 08 28 34.4420000  0 24                     
G04  21665732.519   113854192.386         302.693          45.000    21665722.873    88717515.317         235.941          45.000  
G27  21713379.493   114104580.054        2429.147          46.000    21713372.150    88912631.646        1892.660          44.000  
G16  20668008.553   108611119.245        -357.550          47.000                                                                  
G08  23791618.848   125025814.867        3444.934          39.000    23791618.191    97422726.069        2683.962          39.000  
G09  23751229.806   124813562.015        2285.271          38.000    23751224.151    97257290.216        1780.754          39.000  
G31  22009651.910   115661500.966       -2106.001          47.000    22009641.288    90125796.978       -1640.980          44.000  
C06  36735319.506   191290431.735          37.744          46.000    36735301.216   147917837.718          29.177          48.000  
C32  26723605.703   139156746.882       -3565.330          38.000                                                                  
C37  22889847.658   119193447.385        -579.672          50.000                                                                  
C07  38345980.483   199677583.580         697.251          42.000    38345963.611   154403311.169         539.169          46.000  
C13  41811919.208                       -2315.348          35.000    41811951.711   168359429.012       -1791.093          40.000  
C20  24662269.121   128422908.728       -2159.951          46.000                                                                  
G18  25342253.472   133174443.937         898.192          38.000    25342246.951   103772260.611         699.914          39.000  
G28  24212358.238   127236798.990       -2999.241          40.000    24212350.786    99145517.368       -2336.961          41.000  
G03  25728493.836                       -3024.113          33.000    25728507.029   105353830.615       -2356.156          37.000  
G26  21803649.428   114578950.552       -2233.381          47.000    21803641.585    89282266.723       -1740.338          44.000  
C10  39409733.399   205216826.171         656.305          39.000    39409721.777   158686619.413         506.927          43.000  
C28  23852740.776   124207483.705        1369.841          46.000                                                                  
C23  25172346.631   131079018.411       -2289.696          43.000                                                                  
C16  37174421.878   193576972.633          36.917          48.000    37174409.825   149685946.044          28.427          48.000  
C27  25328238.281   131890787.908        2768.552          41.000                                                                  
C19  25723677.906   133949949.599         299.987          42.000                                                                  
C09  37802887.656   196849560.284         200.193          45.000    37802872.561   152216507.070         154.828          48.000  
C11                                                                  27173701.933   109417237.422       -1985.608          42.000  
> 2025 10 28 08 28 34.4820000  0 24                     
G04  21665730.187   113854180.191         304.187          45.000    21665720.551    88717505.811         237.194          45.000  
G27  21713360.983   114104482.816        2430.439          46.000    21713353.635    88912555.864        1893.963          44.000  
G16  20668011.282   108611133.475        -356.181          47.000                                                                  
G08  23791592.616   125025677.020        3445.924          39.000    23791591.953    97422618.641        2685.207          39.000  
G09  23751212.407   124813470.550        2286.352          38.000    23751206.727    97257218.953        1781.367          39.000  
G31  22009667.917   115661585.117       -2104.449          47.000    22009657.306    90125862.565       -1640.048          44.000  
C06  36735319.198   191290430.136          39.323          46.000    36735300.930   147917836.490          30.261          48.000  
C32  26723633.085   139156889.438       -3564.164          38.000                                                                  
C37  22889852.067   119193470.505        -578.417          50.000                                                                  
C07  38345975.108   199677555.601         698.876          42.000    38345958.246   154403289.558         539.998          46.000  
C13  41811936.977                       -2313.962          35.000    41811969.472   168359500.589       -1789.955          40.000  
C20  24662285.684   128422995.038       -2158.437          46.000                                                                  
G18  25342246.610   133174407.941         899.518          38.000    25342240.099   103772232.548         701.098          39.000  
G28  24212381.065   127236918.887       -2997.819          40.000    24212373.606    99145610.812       -2336.241          41.000  
G03  25728516.858                       -3022.533          33.000    25728530.041   105353924.818       -2355.384          37.000  
G26  21803666.417   114579039.812       -2232.006          47.000    21803658.556    89282336.276       -1739.254          44.000  
C10  39409728.353   205216799.884         657.196          39.000    39409716.715   158686599.076         508.087          43.000  
C28  23852730.188   124207428.845        1371.145          46.000                                                                  
C23  25172364.180   131079109.899       -2288.046          43.000                                                                  
C16  37174421.563   193576971.060          38.611          48.000    37174409.543   149685944.831          29.759          48.000  
C27  25328216.969   131890677.101        2769.660          41.000                                                                  
C19  25723675.593   133949937.530         301.241          42.000                                                                  
C09  37802886.087   196849552.205         201.501          45.000    37802870.994   152216500.811         156.058          48.000  
C11                                                                  27173721.635   109417316.785       -1984.468          42.000  
> 2025 10 28 08 28 34.5220000  0 24                     
G04  21665727.859   113854168.008         304.750          45.000    21665718.234    88717496.327         237.366          45.000  
G27  21713342.455   114104385.581        2431.010          46.000    21713335.101    88912480.095        1894.414          44.000  
G16  20668014.014   108611147.710        -355.689          47.000                                                                  
G08  23791566.392   125025539.177        3446.271          39.000    23791565.726    97422511.209        2685.864          39.000  
G09  23751194.993   124813379.090        2286.727          38.000    23751189.317    97257147.682        1781.828          39.000  
G31  22009683.949   115661669.283       -2103.949          47.000    22009673.333    90125928.142       -1639.411          44.000  
C06  36735318.860   191290428.558          39.761          47.000    36735300.615   147917835.268          30.659          48.000  
C32  26723660.471   139157031.995       -3563.652          38.000                                                                  
C37  22889856.502   119193493.629        -577.906          50.000                                                                  
C07  38345969.749   199677527.650         699.142          42.000    38345952.873   154403267.931         540.635          46.000  
C13  41811954.756                       -2314.300          36.000    41811987.248   168359572.156       -1789.210          40.000  
C20  24662302.251   128423081.365       -2157.978          46.000                                                                  
G18  25342239.763   133174371.949         900.090          38.000    25342233.243   103772204.504         701.376          39.000  
G28  24212403.895   127237038.807       -2997.622          40.000    24212396.423    99145704.254       -2335.961          41.000  
G03  25728539.881   135204358.503       -3021.729          33.000    25728553.034   105354018.999       -2354.603          37.000  
G26  21803683.411   114579129.079       -2231.479          47.000    21803675.515    89282405.834       -1738.843          44.000  
C10  39409723.285   205216773.615         657.172          39.000    39409711.647   158686578.753         508.331          43.000  
C28  23852719.648   124207373.993        1371.556          46.000                                                                  
C23  25172381.727   131079201.399       -2287.380          43.000                                                                  
C16  37174421.264   193576969.512          39.028          48.000    37174409.252   149685943.626          30.253          48.000  
C27  25328195.696   131890566.301        2770.131          41.000                                                                  
C19  25723673.267   133949925.461         301.820          42.000                                                                  
C09  37802884.531   196849544.123         202.180          45.000    37802869.437   152216494.569         156.341          48.000  
C11                                                                  27173741.380   109417396.159       -1984.128          42.000  
> 2025 10 28 08 28 34.5620000  0 24                     
G04  21665725.539   113854155.866         304.185          45.000    21665715.918    88717486.860         237.061          45.000  
G27  21713323.950   114104288.380        2430.592          46.000    21713316.600    88912404.360        1893.928          44.000  
G16  20668016.729   108611161.979        -356.201          47.000                                                                  
G08  23791540.158   125025401.340        3446.251          39.000    23791539.494    97422403.809        2685.417          39.000  
G09  23751177.595   124813287.660        2286.208          38.000    23751171.916    97257076.432        1781.547          39.000  
G31  22009699.979   115661753.491       -2104.585          47.000    22009689.360    90125993.754       -1639.796          44.000  
C06  36735318.570   191290427.004          39.407          46.000    36735300.326   147917834.070          30.359          48.000  
C32  26723687.863   139157174.599       -3564.453          38.000                                                                  
C37  22889860.942   119193516.789        -578.431          50.000                                                                  
C07  38345964.376   199677499.741         698.302          42.000    38345947.519   154403246.332         540.363          46.000  
C13  41811972.527   217725936.598       -2314.547          35.000    41812005.022   168359643.759       -1789.631          40.000  
C20  24662318.857   128423167.720       -2158.370          46.000                                                                  
G18  25342232.907   133174336.002         899.405          38.000    25342226.397   103772176.491         700.779          39.000  
G28  24212426.739   127237158.759       -2998.304          40.000    24212419.252    99145797.718       -2336.316          41.000  
G03  25728562.873   135204479.423       -3022.366          33.000    25728576.035   105354113.220       -2355.065          37.000  
G26  21803700.402   114579218.378       -2231.906          47.000    21803692.522    89282475.430       -1739.370          44.000  
C10  39409718.252   205216747.353         656.873          39.000    39409706.618   158686558.437         508.191          43.000  
C28  23852709.106   124207319.173        1371.011          46.000                                                                  
C23  25172399.315   131079292.943       -2287.932          43.000                                                                  
C16  37174420.971   193576967.995          38.508          48.000    37174408.947   149685942.455          29.781          48.000  
C27  25328174.411   131890455.527        2769.802          41.000                                                                  
C19  25723670.962   133949913.437         301.176          42.000                                                                  
C09  37802882.982   196849536.089         201.510          45.000    37802867.888   152216488.344         156.026          48.000  
C11                                                                  27173761.058   109417475.552       -1984.446          42.000  
> 2025 10 28 08 28 34.6020000  0 24                     
G04  21665723.205   113854143.751         303.289          45.000    21665713.629    88717477.418         236.373          45.000  
G27  21713305.458   114104191.206        2429.772          46.000    21713298.106    88912328.635        1893.394          44.000  
G16  20668019.428   108611176.273        -357.048          47.000                                                                  
G08  23791513.923   125025263.542        3445.368          39.000    23791513.269    97422296.434        2684.687          39.000  
G09  23751160.202   124813196.257        2285.360          38.000    23751154.537    97257005.206        1780.840          39.000  
G31  22009716.005   115661837.717       -2105.302          47.000    22009705.389    90126059.375       -1640.261          44.000  
C06  36735318.273   191290425.476          38.631          46.000    36735300.042   147917832.885          29.882          48.000  
C32  26723715.236   139157317.210       -3565.127          38.000                                                                  
C37  22889865.364   119193539.968        -579.181          50.000                                                                  
C07  38345959.016   199677471.831         697.782          42.000    38345942.167   154403224.760         539.646          46.000  
C13  41811990.322   217726029.234       -2315.393          35.000    41812022.804   168359715.367       -1790.020          40.000  
C20  24662335.446   128423254.103       -2159.155          46.000                                                                  
G18  25342226.061   133174300.068         898.616          38.000    25342219.538   103772148.485         700.343          39.000  
G28  24212449.587   127237278.719       -2998.871          40.000    24212442.084    99145891.186       -2336.649          41.000  
G03  25728585.912   135204600.341       -3022.721          33.000    25728599.054   105354207.460       -2355.665          37.000  
G26  21803717.387   114579307.709       -2232.792          47.000    21803709.503    89282545.027       -1739.742          44.000  
C10  39409713.219   205216721.108         656.323          39.000    39409701.571   158686538.146         507.562          43.000  
C28  23852698.593   124207264.379        1370.151          46.000                                                                  
C23  25172416.911   131079384.510       -2288.717          43.000                                                                  
C16  37174420.715   193576966.505          37.643          48.000    37174408.678   149685941.298          29.213          48.000  
C27  25328153.122   131890344.762        2769.362          41.000                                                                  
C19  25723668.660   133949901.425         300.512          41.000                                                                  
C09  37802881.439   196849528.067         200.853          45.000    37802866.393   152216482.148         155.238          48.000  
C11                                                                  27173780.815   109417554.974       -1985.224          42.000  
> 2025 10 28 08 28 34.6420000  0 24                     
G04  21665720.897   113854131.634         302.855          45.000    21665711.326    88717467.979         235.988          45.000  
G27  21713286.975   114104094.041        2429.180          46.000    21713279.599    88912252.927        1892.843          44.000  
G16  20668022.144   108611190.566        -357.422          47.000                                                                  
G08  23791487.693   125025125.732        3445.142          39.000    23791487.039    97422189.065        2684.231          39.000  
G09  23751142.814   124813104.842        2285.243          38.000    23751137.128    97256933.980        1780.528          39.000  
G31  22009732.029   115661921.949       -2105.804          47.000    22009721.430    90126125.010       -1640.759          44.000  
C06  36735317.976   191290423.964          37.971          46.000    36735299.728   147917831.713          29.399          48.000  
C32  26723742.649   139157459.832       -3565.644          38.000                                                                  
C37  22889869.803   119193563.154        -579.629          50.000                                                                  
C07  38345953.681   199677443.935         697.355          42.000    38345936.799   154403203.186         539.331          46.000  
C13  41812008.097   217726121.820       -2314.940          35.000    41812040.587   168359787.001       -1790.665          40.000  
C20  24662352.056   128423340.501       -2159.837          46.000                                                                  
G18  25342219.221   133174264.113         898.633          38.000    25342212.688   103772120.490         699.953          39.000  
G28  24212472.409   127237398.663       -2998.776          40.000    24212464.921    99145984.662       -2336.931          41.000  
G03  25728608.951   135204721.327       -3024.235          33.000    25728622.082   105354301.709       -2356.111          37.000  
G26  21803734.418   114579397.045       -2233.341          47.000    21803726.498    89282614.638       -1740.182          44.000  
C10  39409708.189   205216694.884         655.688          39.000    39409696.531   158686517.858         507.184          43.000  
C28  23852688.097   124207209.580        1369.871          46.000                                                                  
C23  25172434.476   131079476.071       -2289.037          43.000                                                                  
C16  37174420.449   193576965.014          37.253          48.000    37174408.388   149685940.150          28.721          48.000  
C27  25328131.852   131890234.007        2768.964          41.000                                                                  
C19  25723666.311   133949889.419         300.100          41.000                                                                  
C09  37802879.895   196849520.050         200.434          45.000    37802864.906   152216475.949         154.935          48.000  
C11                                                                  27173800.523   109417634.380       -1985.270          42.000  
> 2025 10 28 08 28 34.6820000  0 24                     
G04  21665718.584   113854119.498         303.051          45.000    21665709.004    88717458.523         236.089          45.000  
G27  21713268.472   114103996.850        2429.368          46.000    21713261.080    88912177.192        1893.040          44.000  
G16  20668024.877   108611204.837        -357.130          47.000                                                                  
G08  23791461.462   125024987.905        3445.408          39.000    23791460.810    97422081.675        2684.386          39.000  
G09  23751125.395   124813013.418        2285.333          38.000    23751119.765    97256862.748        1780.520          39.000  
G31  22009748.057   115662006.159       -2105.629          47.000    22009737.442    90126190.628       -1640.726          44.000  
C06  36735317.646   191290422.418          38.213          46.000    36735299.445   147917830.516          29.597          48.000  
C32  26723770.040   139157602.408       -3564.934          38.000                                                                  
C37  22889874.289   119193586.317        -579.430          50.000                                                                  
C07  38345948.305   199677416.017         697.569          42.000    38345931.437   154403181.596         539.487          46.000  
C13  41812025.872   217726214.442       -2315.428          36.000    41812058.339   168359858.620       -1790.766          40.000  
C20  24662368.637   128423426.872       -2159.680          46.000                                                                  
G18  25342212.370   133174228.155         898.747          38.000    25342205.837   103772092.475         700.098          39.000  
G28  24212495.233   127237518.614       -2998.862          40.000    24212487.756    99146078.132       -2336.924          41.000  
G03  25728631.970   135204842.214       -3023.118          33.000    25728645.095   105354395.926       -2355.802          37.000  
G26  21803751.389   114579486.357       -2233.152          47.000    21803743.486    89282684.225       -1739.979          44.000  
C10  39409703.148   205216668.609         656.342          39.000    39409691.475   158686497.569         507.092          43.000  
C28  23852677.550   124207154.768        1370.000          46.000                                                                  
C23  25172452.050   131079567.615       -2288.875          43.000                                                                  
C16  37174420.206   193576963.509          37.357          48.000    37174408.094   149685938.982          28.869          48.000  
C27  25328110.584   131890123.233        2769.078          41.000                                                                  
C19  25723664.008   133949877.377         300.609          41.000                                                                  
C09  37802878.361   196849512.003         200.786          45.000    37802863.355   152216469.732         155.126          48.000  
C11                                                                  27173820.242   109417713.777       -1985.115          42.000  
> 2025 10 28 08 28 34.7220000  0 24                     
G04  21665716.279   113854107.375         302.995          45.000    21665706.706    88717449.074         236.107          45.000  
G27  21713249.973   114103899.680        2429.205          46.000    21713242.603    88912101.462        1893.137          44.000  
G16  20668027.595   108611219.124        -357.222          47.000                                                                  
G08  23791435.261   125024850.098        3445.318          39.000    23791434.577    97421974.280        2684.700          39.000  
G09  23751108.016   124812921.997        2285.378          38.000    23751102.355    97256791.502        1780.764          39.000  
G31  22009764.070   115662090.386       -2105.762          47.000    22009753.470    90126256.270       -1641.074          44.000  
C06  36735317.335   191290420.891          38.091          46.000    36735299.168   147917829.333          29.516          48.000  
C32  26723797.404   139157745.029       -3565.371          38.000                                                                  
C37  22889878.770   119193609.491        -579.442          50.000                                                                  
C07  38345942.936   199677388.109         697.580          42.000    38345926.049   154403160.021         539.375          46.000  
C13  41812043.639   217726307.066       -2315.704          36.000    41812076.122   168359930.235       -1790.613          40.000  
C20  24662385.234   128423513.249       -2159.612          46.000                                                                  
G18  25342205.536   133174192.223         898.361          38.000    25342199.002   103772064.487         699.772          39.000  
G28  24212518.066   127237638.581       -2999.169          40.000    24212510.594    99146171.611       -2337.015          41.000  
G03  25728654.975   135204963.155       -3023.433          33.000    25728668.109   105354490.137       -2355.490          37.000  
G26  21803768.369   114579575.676       -2233.120          47.000    21803760.490    89282753.834       -1740.191          44.000  
C10  39409698.131   205216642.375         656.024          39.000    39409686.449   158686477.282         507.062          43.000  
C28  23852667.011   124207099.967        1369.960          46.000                                                                  
C23  25172469.616   131079659.181       -2289.125          43.000                                                                  
C16  37174419.944   193576962.008          37.392          48.000    37174407.831   149685937.827          28.806          48.000  
C27  25328089.310   131890012.474        2768.943          41.000                                                                  
C19  25723661.695   133949865.373         300.248          41.000                                                                  
C09  37802876.809   196849503.980         200.603          45.000    37802861.831   152216463.524         155.111          48.000  
C11                                                                  27173839.961   109417793.193       -1985.355          42.000  
> 2025 10 28 08 28 34.7620000  0 24                     
G04  21665713.972   113854095.228         303.431          45.000    21665704.393    88717439.605         236.513          45.000  
G27  21713231.480   114103802.469        2429.834          46.000    21713224.072    88912025.725        1893.326          44.000  
G16  20668030.330   108611233.381        -356.686          47.000                                                                  
G08  23791409.019   125024712.260        3445.841          39.000    23791408.328    97421866.870        2685.173          39.000  
G09  23751090.586   124812830.555        2285.833          38.000    23751084.956    97256720.256        1781.001          39.000  
G31  22009780.085   115662174.564       -2104.894          47.000    22009769.480    90126321.872       -1640.421          44.000  
C06  36735316.990   191290419.330          38.702          46.000    36735298.885   147917828.125          29.952          48.000  
C32  26723824.794   139157887.598       -3564.577          38.000                                                                  
C37  22889883.187   119193632.627        -578.694          50.000                                                                  
C07  38345937.577   199677360.167         698.210          42.000    38345920.653   154403138.416         539.874          46.000  
C13  41812061.418   217726399.659       -2315.184          36.000    41812093.922   168360001.823       -1789.981          40.000  
C20  24662401.826   128423599.595       -2158.987          46.000                                                                  
G18  25342198.712   133174156.265         898.708          38.000    25342192.163   103772036.440         700.678          39.000  
G28  24212540.871   127237758.509       -2998.513          40.000    24212533.428    99146265.063       -2336.521          41.000  
G03  25728677.986   135205084.072       -3023.078          33.000    25728691.100   105354584.350       -2355.300          37.000  
G26  21803785.370   114579664.964       -2232.507          47.000    21803777.496    89282823.409       -1739.688          44.000  
C10  39409693.104   205216616.105         656.525          39.000    39409681.399   158686456.963         507.739          43.000  
C28  23852656.466   124207045.131        1370.621          46.000                                                                  
C23  25172487.189   131079750.712       -2288.599          43.000                                                                  
C16  37174419.678   193576960.482          37.901          48.000    37174407.538   149685936.646          29.278          48.000  
C27  25328068.035   131889901.676        2769.673          41.000                                                                  
C19  25723659.400   133949853.317         301.052          41.000                                                                  
C09  37802875.274   196849495.925         201.139          45.000    37802860.294   152216457.293         155.569          48.000  
C11                                                                  27173859.687   109417872.582       -1984.910          42.000  
> 2025 10 28 08 28 34.8020000  0 24                     
G04  21665711.650   113854083.073         303.757          45.000    21665702.074    88717430.144         236.533          45.000  
G27  21713213.003   114103705.273        2429.904          46.000    21713205.583    88911949.985        1893.442          44.000  
G16  20668033.018   108611247.654        -356.761          47.000                                                                  
G08  23791382.806   125024574.442        3445.568          39.000    23791382.103    97421759.478        2685.057          39.000  
G09  23751073.190   124812739.127        2285.749          38.000    23751067.564    97256649.001        1781.222          39.000  
G31  22009796.115   115662258.761       -2104.817          47.000    22009785.481    90126387.475       -1640.129          44.000  
C06  36735316.658   191290417.771          38.938          47.000    36735298.573   147917826.923          30.044          48.000  
C32  26723852.158   139158030.175       -3564.440          38.000                                                                  
C37  22889887.635   119193655.779        -578.664          50.000                                                                  
C07  38345932.195   199677332.247         698.138          42.000    38345915.307   154403116.828         539.778          46.000  
C13  41812079.197   217726492.244       -2314.775          36.000    41812111.697   168360073.419       -1789.856          40.000  
C20  24662418.406   128423685.955       -2158.959          46.000                                                                  
G18  25342191.890   133174120.318         898.630          38.000    25342185.318   103772008.415         700.724          39.000  
G28  24212563.705   127237878.463       -2998.688          40.000    24212556.243    99146358.528       -2336.566          41.000  
G03  25728701.004   135205204.972       -3022.640          33.000    25728714.121   105354678.567       -2355.318          37.000  
G26  21803802.350   114579754.268       -2232.521          47.000    21803794.494    89282892.989       -1739.535          44.000  
C10  39409688.030   205216589.859         656.244          39.000    39409676.341   158686436.659         507.709          43.000  
C28  23852645.946   124206990.312        1370.566          46.000                                                                  
C23  25172504.774   131079842.253       -2288.545          43.000                                                                  
C16  37174419.379   193576958.953          38.188          48.000    37174407.250   149685935.462          29.548          48.000  
C27  25328046.726   131889790.899        2769.582          41.000                                                                  
C19  25723657.062   133949841.287         300.954          41.000                                                                  
C09  37802873.733   196849487.869         201.367          45.000    37802858.755   152216451.071         155.605          48.000  
C11                                                                  27173879.418   109417951.983       -1984.991          42.000  
> 2025 10 28 08 28 34.8420000  0 24                     
G04  21665709.339   113854070.952         303.367          45.000    21665699.778    88717420.700         236.248          45.000  
G27  21713194.518   114103608.091        2429.696          46.000    21713187.118    88911874.267        1893.125          44.000  
G16  20668035.737   108611261.937        -356.988          47.000                                                                  
G08  23791356.605   125024436.629        3445.438          39.000    23791355.860    97421652.097        2684.662          39.000  
G09  23751055.798   124812647.708        2285.454          38.000    23751050.157    97256577.777        1780.817          39.000  
G31  22009812.168   115662342.988       -2105.336          47.000    22009801.516    90126453.096       -1640.321          44.000  
C06  36735316.325   191290416.234          38.678          47.000    36735298.304   147917825.741          29.730          48.000  
C32  26723879.560   139158172.790       -3565.053          38.000                                                                  
C37  22889892.093   119193678.958        -579.164          49.000                                                                  
C07  38345926.843   199677304.333         698.011          42.000    38345909.966   154403095.232         539.891          46.000  
C13  41812096.984   217726584.840       -2314.721          36.000    41812129.472   168360145.031       -1790.139          40.000  
C20  24662434.994   128423772.339       -2159.347          46.000                                                                  
G18  25342185.055   133174084.377         898.502          38.000    25342178.465   103771980.414         700.239          39.000  
G28  24212586.531   127237998.419       -2998.842          40.000    24212579.070    99146452.004       -2336.775          41.000  
G03  25728724.022   135205325.876       -3022.470          33.000    25728737.153   105354772.818       -2355.978          37.000  
G26  21803819.354   114579843.596       -2232.970          47.000    21803811.499    89282962.591       -1739.829          44.000  
C10  39409682.985   205216563.602         656.305          39.000    39409671.252   158686416.361         507.550          43.000  
C28  23852635.412   124206935.515        1370.129          46.000                                                                  
C23  25172522.341   131079933.807       -2288.716          43.000                                                                  
C16  37174419.109   193576957.447          37.908          48.000    37174406.967   149685934.300          29.291          48.000  
C27  25328025.462   131889680.149        2769.035          41.000                                                                  
C19  25723654.770   133949829.287         300.286          41.000                                                                  
C09  37802872.198   196849479.848         200.828          45.000    37802857.206   152216444.863         155.351          48.000  
C11                                                                  27173899.156   109418031.385       -1985.022          42.000  
> 2025 10 28 08 28 34.8820000  0 24                     
G04  21665707.007   113854058.803         303.594          45.000    21665697.468    88717411.230         236.562          45.000  
G27  21713176.008   114103510.885        2430.007          46.000    21713168.610    88911798.521        1893.459          44.000  
G16  20668038.426   108611276.204        -356.792          47.000                                                                  
G08  23791330.368   125024298.795        3445.750          39.000    23791329.636    97421544.691        2684.982          39.000  
G09  23751038.364   124812556.270        2285.768          38.000    23751032.767    97256506.540        1780.825          39.000  
G31  22009828.171   115662427.182       -2105.045          47.000    22009817.516    90126518.701       -1640.188          44.000  
C06  36735316.049   191290414.676          38.855          46.000    36735298.032   147917824.535          29.974          48.000  
C32  26723906.969   139158315.374       -3564.801          38.000                                                                  
C37  22889896.565   119193702.114        -579.038          49.000                                                                  
C07  38345921.492   199677276.401         698.245          42.000    38345904.594   154403073.638         539.875          46.000  
C13  41812114.755   217726677.405       -2314.177          36.000    41812147.279   168360216.644       -1790.332          40.000  
C20  24662451.574   128423858.695       -2159.086          46.000                                                                  
G18  25342178.211   133174048.396         899.107          38.000    25342171.625   103771952.385         700.494          39.000  
G28  24212609.366   127238118.353       -2998.484          40.000    24212601.885    99146545.444       -2336.201          41.000  
G03  25728747.015   135205446.809       -3023.048          33.000    25728760.163   105354867.027       -2355.559          37.000  
G26  21803836.324   114579932.892       -2232.661          47.000    21803828.499    89283032.180       -1739.795          44.000  
C10  39409677.975   205216537.333         656.561          39.000    39409666.222   158686396.046         507.758          43.000  
C28  23852624.918   124206880.688        1370.454          46.000                                                                  
C23  25172539.938   131080025.339       -2288.420          43.000                                                                  
C16  37174418.830   193576955.921          38.077          48.000    37174406.652   149685933.120          29.452          48.000  
C27  25328004.200   131889569.361        2769.455          41.000                                                                  
C19  25723652.462   133949817.250         300.601          41.000                                                                  
C09  37802870.678   196849471.792         201.179          45.000    37802855.657   152216438.634         155.597          48.000  
C11                                                                  27173918.869   109418110.780       -1984.943          42.000  
> 2025 10 28 08 28 34.9220000  0 24                     
G04  21665704.693   113854046.666         303.510          45.000    21665695.140    88717401.770         236.541          45.000  
G27  21713157.508   114103413.677        2430.188          46.000    21713150.125    88911722.775        1893.617          44.000  
G16  20668041.120   108611290.466        -356.605          47.000                                                                  
G08  23791304.134   125024160.965        3445.779          39.000    23791303.402    97421437.283        2685.180          39.000  
G09  23751020.993   124812464.841        2285.660          38.000    23751015.354    97256435.283        1781.180          39.000  
G31  22009844.173   115662511.375       -2104.860          47.000    22009833.548    90126584.307       -1640.143          44.000  
C06  36735315.756   191290413.123          38.869          46.000    36735297.739   147917823.327          30.127          48.000  
C32  26723934.352   139158457.960       -3564.728          38.000                                                                  
C37  22889901.014   119193725.262        -578.800          49.000                                                                  
C07  38345916.132   199677248.463         698.456          42.000    38345899.219   154403052.043         539.880          46.000  
C13  41812132.528   217726769.980       -2314.126          35.000    41812165.037   168360288.227       -1789.813          40.000  
C20  24662468.185   128423945.044       -2158.783          45.000                                                                  
G18  25342171.366   133174012.432         899.152          38.000    25342164.790   103771924.368         700.441          39.000  
G28  24212632.179   127238238.279       -2998.177          40.000    24212624.680    99146638.901       -2336.253          41.000  
G03  25728770.004   135205567.718       -3022.919          33.000    25728783.173   105354961.232       -2355.190          37.000  
G26  21803853.316   114580022.178       -2232.287          47.000    21803845.493    89283101.765       -1739.714          44.000  
C10  39409672.897   205216511.076         656.464          39.000    39409661.150   158686375.737         507.758          43.000  
C28  23852614.415   124206825.856        1370.695          46.000                                                                  
C23  25172557.512   131080116.853       -2287.950          43.000                                                                  
C16  37174418.562   193576954.389          38.274          48.000    37174406.366   149685931.937          29.572          48.000  
C27  25327982.934   131889458.569        2769.731          41.000                                                                  
C19  25723650.155   133949805.212         300.839          41.000                                                                  
C09  37802869.106   196849463.733         201.398          45.000    37802854.123   152216432.406         155.695          48.000  
C11                                                                  27173938.586   109418190.171       -1984.819          42.000  
> 2025 10 28 08 28 34.9620000  0 24                     
G04  21665702.386   113854034.519         303.599          45.000    21665692.836    88717392.311         236.532          45.000  
G27  21713139.019   114103316.469        2430.235          46.000    21713131.604    88911647.024        1893.781          44.000  
G16  20668043.842   108611304.723        -356.419          47.000                                                                  
G08  23791277.861   125024023.119        3446.089          39.000    23791277.161    97421329.888        2685.015          39.000  
G09  23751003.599   124812373.398        2285.966          38.000    23750997.956    97256364.021        1781.464          39.000  
G31  22009860.190   115662595.569       -2104.802          47.000    22009849.578    90126649.914       -1640.118          44.000  
C06  36735315.468   191290411.562          38.997          46.000    36735297.478   147917822.119          30.227          48.000  
C32  26723961.704   139158600.529       -3564.380          38.000                                                                  
C37  22889905.483   119193748.409        -578.651          49.000                                                                  
C07  38345910.770   199677220.534         698.387          42.000    38345893.835   154403030.443         539.929          46.000  
C13  41812150.297   217726862.575       -2314.559          36.000    41812182.803   168360359.823       -1789.816          40.000  
C20  24662484.765   128424031.392       -2158.644          45.000                                                                  
G18  25342164.530   133173976.461         899.317          38.000    25342157.936   103771896.344         700.553          39.000  
G28  24212654.996   127238358.212       -2998.185          40.000    24212647.510    99146732.362       -2336.427          41.000  
G03  25728792.986   135205688.600       -3022.234          33.000    25728806.166   105355055.417       -2354.655          37.000  
G26  21803870.327   114580111.472       -2232.247          47.000    21803862.490    89283171.341       -1739.469          44.000  
C10  39409667.830   205216484.802         656.689          39.000    39409656.099   158686355.428         507.727          43.000  
C28  23852603.848   124206771.029        1370.724          46.000                                                                  
C23  25172575.090   131080208.385       -2288.075          43.000                                                                  
C16  37174418.262   193576952.861          38.279          48.000    37174406.106   149685930.753          29.624          48.000  
C27  25327961.652   131889347.776        2769.877          41.000                                                                  
C19  25723647.854   133949793.170         300.974          41.000                                                                  
C09  37802867.590   196849455.668         201.621          45.000    37802852.601   152216426.175         155.774          48.000  
C11                                                                  27173958.277   109418269.558       -1984.678          42.000  
> 2025 10 28 08 28 35.0020000  0 24                     
G04  21665700.075   113854022.372         303.654          45.000    21665690.511    88717382.836         236.781          45.000  
G27  21713120.524   114103219.278        2429.984          46.000    21713113.106    88911571.286        1893.623          44.000  
G16  20668046.581   108611318.995        -356.624          47.000                                                                  
G08  23791251.623   125023885.283        3445.978          39.000    23791250.931    97421222.498        2684.797          39.000  
G09  23750986.190   124812281.957        2286.083          38.000    23750980.561    97256292.763        1781.485          39.000  
G31  22009876.197   115662679.768       -2104.902          47.000    22009865.586    90126715.520       -1640.150          44.000  
C06  36735315.168   191290410.001          39.034          46.000    36735297.197   147917820.912          30.206          48.000  
C32  26723989.068   139158743.097       -3564.235          38.000                                                                  
C37  22889909.950   119193771.554        -578.619          49.000                                                                  
C07  38345905.442   199677192.600         698.391          42.000    38345888.464   154403008.844         539.927          46.000  
C13  41812168.088   217726955.183       -2315.056          36.000    41812200.592   168360431.419       -1789.824          40.000  
C20  24662501.350   128424117.751       -2158.842          45.000                                                                  
G18  25342157.698   133173940.487         899.426          38.000    25342151.082   103771868.327         700.492          39.000  
G28  24212677.827   127238478.152       -2998.377          40.000    24212670.320    99146825.813       -2336.340          41.000  
G03  25728815.994   135205809.502       -3022.205          33.000    25728829.185   105355149.641       -2355.166          37.000  
G26  21803887.299   114580200.769       -2232.313          47.000    21803879.470    89283240.916       -1739.391          44.000  
C10  39409662.811   205216458.534         656.744          39.000    39409651.071   158686335.113         507.788          43.000  
C28  23852593.310   124206716.207        1370.623          46.000                                                                  
C23  25172592.675   131080299.919       -2288.250          43.000                                                                  
C16  37174417.972   193576951.331          38.280          48.000    37174405.814   149685929.568          29.673          48.000  
C27  25327940.368   131889236.999        2769.618          41.000                                                                  
C19  25723645.530   133949781.134         300.950          41.000                                                                  
C09  37802866.054   196849447.625         201.247          45.000    37802851.042   152216419.944         155.789          48.000  
C11                                                                  27173977.994   109418348.950       -1984.729          42.000  
> 2025 10 28 08 28 35.0420000  0 24                     
G04  21665697.772   113854010.249         303.245          45.000    21665688.210    88717373.388         236.398          45.000  
G27  21713102.052   114103122.104        2429.493          46.000    21713094.628    88911495.572        1893.047          44.000  
G16  20668049.322   108611333.286        -357.153          47.000                                                                  
G08  23791225.398   125023747.476        3445.279          39.000    23791224.715    97421115.111        2684.669          39.000  
G09  23750968.775   124812190.547        2285.489          38.000    23750963.171    97256221.537        1780.854          39.000  
G31  22009892.227   115662763.988       -2105.338          47.000    22009881.629    90126781.149       -1640.601          44.000  
C06  36735314.850   191290408.459          38.673          46.000    36735296.922   147917819.720          29.937          48.000  
C32  26724016.479   139158885.692       -3564.680          38.000                                                                  
C37  22889914.414   119193794.723        -579.053          49.000                                                                  
C07  38345900.079   199677164.683         698.040          42.000    38345883.095   154402987.261         539.595          46.000  
C13  41812185.872   217727047.819       -2315.824          36.000    41812218.351   168360503.033       -1790.236          40.000  
C20  24662517.953   128424204.137       -2159.463          45.000                                                                  
G18  25342150.846   133173904.552         898.670          38.000    25342144.244   103771840.332         699.987          39.000  
G28  24212700.662   127238598.113       -2998.883          40.000    24212693.129    99146919.289       -2336.803          41.000  
G03  25728838.992   135205930.452       -3023.178          33.000    25728852.206   105355243.876       -2355.730          37.000  
G26  21803904.294   114580290.082       -2232.689          47.000    21803896.482    89283310.514       -1739.759          44.000  
C10  39409657.773   205216432.276         656.555          39.000    39409646.032   158686314.817         507.495          43.000  
C28  23852582.775   124206661.409        1370.081          46.000                                                                  
C23  25172610.243   131080391.478       -2288.782          43.000                                                                  
C16  37174417.663   193576949.830          37.714          48.000    37174405.558   149685928.404          29.289          48.000  
C27  25327919.092   131889126.240        2769.108          41.000                                                                  
C19  25723643.244   133949769.116         300.564          41.000                                                                  
C09  37802864.527   196849439.593         200.853          45.000    37802849.515   152216413.737         155.345          48.000  
C11                                                                  27173997.707   109418428.363       -1985.142          42.000  
> 2025 10 28 08 28 35.0820000  0 24                     
G04  21665695.475   113853998.148         302.610          45.000    21665685.910    88717363.966         235.734          45.000  
G27  21713083.573   114103024.950        2428.879          46.000    21713076.171    88911419.876        1892.426          44.000  
G16  20668052.056   108611347.603        -357.888          47.000                                                                  
G08  23791199.207   125023609.700        3444.413          39.000    23791198.495    97421007.743        2684.292          39.000  
G09  23750951.351   124812099.139        2285.099          38.000    23750945.795    97256150.334        1780.092          39.000  
G31  22009908.285   115662848.236       -2106.071          47.000    22009897.686    90126846.792       -1641.099          44.000  
C06  36735314.529   191290406.947          37.965          46.000    36735296.628   147917818.553          29.325          48.000  
C32  26724043.870   139159028.330       -3565.742          38.000                                                                  
C37  22889918.850   119193817.922        -579.834          49.000                                                                  
C07  38345894.728   199677136.806         697.125          42.000    38345877.768   154402965.695         539.150          46.000  
C13  41812203.670   217727140.446       -2316.003          36.000    41812236.135   168360574.650       -1790.463          40.000  
C20  24662534.539   128424290.543       -2160.162          45.000                                                                  
G18  25342144.020   133173868.643         897.788          38.000    25342137.400   103771812.340         699.657          39.000  
G28  24212723.504   127238718.090       -2999.460          40.000    24212715.955    99147012.785       -2337.400          41.000  
G03  25728862.012   135206051.424       -3024.198          33.000    25728875.215   105355338.130       -2356.333          37.000  
G26  21803921.315   114580379.424       -2233.385          47.000    21803913.479    89283380.131       -1740.323          44.000  
C10  39409652.724   205216406.046         655.817          39.000    39409640.983   158686294.544         506.934          43.000  
C28  23852572.223   124206606.629        1369.475          46.000                                                                  
C23  25172627.817   131080483.048       -2289.260          43.000                                                                  
C16  37174417.379   193576948.353          37.015          48.000    37174405.286   149685927.260          28.701          48.000  
C27  25327897.845   131889015.489        2768.711          41.000                                                                  
C19  25723640.953   133949757.134         299.731          41.000                                                                  
C09  37802862.972   196849431.585         200.220          45.000    37802847.952   152216407.545         154.800          48.000  
C11                                                                  27174017.421   109418507.786       -1985.591          42.000  
> 2025 10 28 08 28 35.1220000  0 24                     
G04  21665693.178   113853986.064         302.020          45.000    21665683.602    88717354.550         235.317          45.000  
G27  21713065.097   114102927.814        2428.328          46.000    21713057.685    88911344.193        1891.919          44.000  
G16  20668054.773   108611361.919        -358.165          47.000                                                                  
G08  23791172.995   125023471.923        3444.131          39.000    23791172.266    97420900.389        2683.834          39.000  
G09  23750933.992   124812007.752        2284.651          38.000    23750928.411    97256079.134        1779.771          39.000  
G31  22009924.305   115662932.484       -2106.389          47.000    22009913.734    90126912.458       -1641.670          44.000  
C06  36735314.235   191290405.441          37.529          46.000    36735296.336   147917817.390          28.983          48.000  
C32  26724071.262   139159170.965       -3566.162          38.000                                                                  
C37  22889923.279   119193841.128        -580.289          49.000                                                                  
C07  38345889.361   199677108.926         696.780          42.000    38345872.423   154402944.131         538.965          46.000  
C13  41812221.455   217727233.061       -2315.728          36.000    41812253.905   168360646.282       -1790.833          40.000  
C20  24662551.130   128424376.952       -2160.457          45.000                                                                  
G18  25342137.199   133173832.763         896.873          38.000    25342130.568   103771784.343         699.669          39.000  
G28  24212746.336   127238838.084       -2999.999          40.000    24212738.777    99147106.283       -2337.667          41.000  
G03  25728885.028   135206172.366       -3024.104          33.000    25728898.237   105355432.379       -2356.401          37.000  
G26  21803938.313   114580468.775       -2233.886          47.000    21803930.483    89283449.754       -1740.691          44.000  
C10  39409647.719   205216379.846         655.005          39.000    39409635.973   158686274.274         506.622          43.000  
C28  23852561.720   124206551.858        1369.103          46.000                                                                  
C23  25172645.400   131080574.638       -2289.739          43.000                                                                  
C16  37174417.116   193576946.871          36.810          48.000    37174405.040   149685926.123          28.344          48.000  
C27  25327876.551   131888904.753        2768.307          41.000                                                                  
C19  25723638.646   133949745.156         299.270          41.000                                                                  
C09  37802861.438   196849423.577         199.997          45.000    37802846.432   152216401.354         154.578          48.000  
C11                                                                  27174037.142   109418587.229       -1986.136          42.000  
> 2025 10 28 08 28 35.1620000  0 24                     
G04  21665690.857   113853973.983         301.774          45.000    21665681.311    88717345.145         234.954          45.000  
G27  21713046.603   114102830.674        2428.173          46.000    21713039.206    88911268.487        1892.138          44.000  
G16  20668057.480   108611376.244        -358.355          47.000                                                                  
G08  23791146.771   125023334.144        3444.185          39.000    23791146.046    97420793.041        2683.529          39.000  
G09  23750916.610   124811916.386        2284.015          38.000    23750911.042    97256007.933        1779.774          39.000  
G31  22009940.316   115663016.736       -2106.547          47.000    22009929.759    90126978.111       -1641.700          44.000  
C06  36735313.968   191290403.937          37.344          46.000    36735296.090   147917816.230          28.803          48.000  
C32  26724098.658   139159313.589       -3566.086          38.000                                                                  
C37  22889927.791   119193864.339        -580.538          49.000                                                                  
C07  38345884.004   199677081.045         696.719          42.000    38345867.080   154402922.580         538.662          46.000  
C13  41812239.257   217727325.670       -2315.403          36.000    41812271.727   168360717.913       -1790.972          40.000  
C20  24662567.765   128424463.367       -2160.635          45.000                                                                  
G18  25342130.361   133173796.857         896.989          38.000    25342123.749   103771756.370         699.323          39.000  
G28  24212769.159   127238958.080       -3000.198          40.000    24212761.613    99147199.787       -2337.750          41.000  
G03  25728908.062   135206293.294       -3023.646          33.000    25728921.234   105355526.619       -2356.281          37.000  
G26  21803955.281   114580558.135       -2234.218          47.000    21803947.491    89283519.394       -1741.142          44.000  
C10  39409642.685   205216353.649         654.657          39.000    39409630.977   158686253.996         506.708          43.000  
C28  23852551.212   124206497.096        1368.849          46.000                                                                  
C23  25172663.021   131080666.225       -2289.944          43.000                                                                  
C16  37174416.861   193576945.407          36.451          48.000    37174404.805   149685924.989          28.144          48.000  
C27  25327855.259   131888794.032        2767.906          41.000                                                                  
C19  25723636.341   133949733.172         299.208          41.000                                                                  
C09  37802859.907   196849415.587         199.622          45.000    37802844.886   152216395.168         154.463          48.000  
C11                                                                  27174056.870   109418666.671       -1986.293          42.000  
> 2025 10 28 08 28 35.2020000  0 24                     
G04  21665688.524   113853961.896         301.853          45.000    21665678.998    88717335.717         235.264          45.000  
G27  21713028.093   114102733.512        2428.615          46.000    21713020.724    88911192.777        1892.401          44.000  
G16  20668060.191   108611390.547        -357.950          47.000                                                                  
G08  23791120.539   125023196.350        3444.530          39.000    23791119.824    97420685.641        2684.462          39.000  
G09  23750899.178   124811825.000        2284.205          38.000    23750893.639    97255936.723        1780.021          39.000  
G31  22009956.334   115663100.978       -2106.357          47.000    22009945.785    90127043.741       -1641.178          44.000  
C06  36735313.677   191290402.424          37.504          46.000    36735295.806   147917815.054          29.044          48.000  
C32  26724126.029   139159456.178       -3565.228          38.000                                                                  
C37  22889932.239   119193887.525        -580.078          49.000                                                                  
C07  38345878.644   199677053.143         697.253          42.000    38345861.725   154402901.008         538.990          46.000  
C13  41812257.042   217727418.304       -2315.696          36.000    41812289.521   168360789.546       -1790.986          40.000  
C20  24662584.352   128424549.764       -2160.302          45.000                                                                  
G18  25342123.523   133173760.939         897.494          38.000    25342116.923   103771728.372         699.582          39.000  
G28  24212791.977   127239078.048       -2999.615          40.000    24212784.446    99147293.271       -2337.390          41.000  
G03  25728931.066   135206414.231       -3023.503          33.000    25728944.249   105355620.848       -2355.952          37.000  
G26  21803972.277   114580647.472       -2233.870          47.000    21803964.476    89283589.001       -1740.687          44.000  
C10  39409637.635   205216327.418         655.267          39.000    39409625.912   158686233.709         506.970          43.000  
C28  23852540.714   124206442.314        1369.179          46.000                                                                  
C23  25172680.606   131080757.807       -2289.852          43.000                                                                  
C16  37174416.595   193576943.914          36.872          48.000    37174404.547   149685923.836          28.496          48.000  
C27  25327833.996   131888683.277        2768.385          41.000                                                                  
C19  25723634.037   133949721.177         299.537          41.000                                                                  
C09  37802858.378   196849407.564         200.131          45.000    37802843.368   152216388.966         154.743          48.000  
C11                                                                  27174076.586   109418746.092       -1985.883          42.000  
> 2025 10 28 08 28 35.2420000  0 24                     
G04  21665686.213   113853949.759         302.890          45.000    21665676.686    88717326.263         235.985          45.000  
G27  21713009.591   114102636.325        2429.369          46.000    21713002.232    88911117.046        1892.968          44.000  
G16  20668062.910   108611404.820        -357.113          47.000                                                                  
G08  23791094.317   125023058.507        3445.732          39.000    23791093.586    97420578.239        2684.988          39.000  
G09  23750881.776   124811733.567        2285.374          38.000    23750876.236    97255865.462        1781.123          39.000  
G31  22009972.382   115663185.182       -2105.477          47.000    22009961.802    90127109.358       -1640.613          44.000  
C06  36735313.381   191290400.873          38.326          46.000    36735295.520   147917813.854          29.659          48.000  
C32  26724153.417   139159598.772       -3564.870          38.000                                                                  
C37  22889936.683   119193910.676        -579.129          49.000                                                                  
C07  38345873.280   199677025.214         698.044          42.000    38345856.398   154402879.416         539.583          46.000  
C13  41812274.831   217727510.912       -2315.372          36.000    41812307.306   168360861.149       -1790.336          40.000  
C20  24662600.933   128424636.133       -2159.577          45.000                                                                  
G18  25342116.683   133173724.957         898.915          38.000    25342110.093   103771700.363         699.985          39.000  
G28  24212814.804   127239197.974       -2998.451          40.000    24212807.263    99147386.734       -2336.749          41.000  
G03  25728954.047   135206535.142       -3023.022          33.000    25728967.252   105355715.074       -2355.695          37.000  
G26  21803989.279   114580736.784       -2233.168          47.000    21803981.474    89283658.589       -1740.030          44.000  
C10  39409632.601   205216301.131         656.732          39.000    39409620.841   158686213.401         507.526          43.000  
C28  23852530.183   124206387.498        1370.071          46.000                                                                  
C23  25172698.200   131080849.341       -2288.895          43.000                                                                  
C16  37174416.287   193576942.394          37.657          48.000    37174404.282   149685922.660          29.132          48.000  
C27  25327812.722   131888572.491        2769.318          41.000                                                                  
C19  25723631.708   133949709.156         300.225          41.000                                                                  
C09  37802856.846   196849399.514         200.938          45.000    37802841.809   152216382.748         155.277          48.000  
C11                                                                  27174096.321   109418825.496       -1985.279          42.000  
> 2025 10 28 08 28 35.2820000  0 24                     
G04  21665683.897   113853937.575         304.331          45.000    21665674.358    88717316.774         236.998          45.000  
G27  21712991.094   114102539.083        2430.735          46.000    21712983.717    88911041.274        1894.043          44.000  
G16  20668065.637   108611419.051        -355.942          47.000                                                                  
G08  23791068.073   125022920.645        3446.682          39.000    23791067.338    97420470.826        2685.449          39.000  
G09  23750864.356   124811642.106        2286.475          38.000    23750858.817    97255794.198        1781.725          39.000  
G31  22009988.396   115663269.343       -2104.254          47.000    22009977.806    90127174.934       -1639.596          44.000  
C06  36735313.058   191290399.273          39.649          46.000    36735295.208   147917812.614          30.716          48.000  
C32  26724180.798   139159741.326       -3563.921          38.000                                                                  
C37  22889941.124   119193933.792        -578.013          49.000                                                                  
C07  38345867.916   199676997.252         699.000          42.000    38345851.031   154402857.788         540.544          46.000  
C13  41812292.619   217727603.448       -2313.804          36.000    41812325.071   168360932.710       -1789.283          40.000  
C20  24662617.485   128424722.453       -2158.287          45.000                                                                  
G18  25342109.830   133173688.960         899.932          38.000    25342103.252   103771672.331         700.664          39.000  
G28  24212837.609   127239317.883       -2997.642          40.000    24212830.086    99147480.168       -2335.883          41.000  
G03  25728977.053   135206656.046       -3022.525          33.000    25728990.285   105355809.270       -2354.990          37.000  
G26  21804006.256   114580826.038       -2231.737          47.000    21803998.455    89283728.135       -1738.909          44.000  
C10  39409627.561   205216274.814         657.928          39.000    39409615.771   158686193.069         508.246          43.000  
C28  23852519.637   124206332.635        1371.409          46.000                                                                  
C23  25172715.769   131080940.834       -2287.588          43.000                                                                  
C16  37174416.020   193576940.830          38.846          48.000    37174403.995   149685921.451          30.088          48.000  
C27  25327791.420   131888461.669        2770.445          41.000                                                                  
C19  25723629.390   133949697.088         301.455          41.000                                                                  
C09  37802855.291   196849391.417         202.238          45.000    37802840.276   152216376.490         156.248          48.000  
C11                                                                  27174116.034   109418904.864       -1984.320          42.000  
> 2025 10 28 08 28 35.3220000  0 24                     
G04  21665681.559   113853925.365         305.408          45.000    21665672.009    88717307.268         237.756          45.000  
G27  21712972.573   114102441.823        2431.650          46.000    21712965.194    88910965.483        1894.875          44.000  
G16  20668068.335   108611433.258        -355.012          47.000                                                                  
G08  23791041.817   125022782.750        3447.653          39.000    23791041.101    97420363.383        2686.138          39.000  
G09  23750846.908   124811550.604        2287.664          38.000    23750841.407    97255722.906        1782.469          39.000  
G31  22010004.405   115663353.473       -2103.168          47.000    22009993.809    90127240.485       -1638.712          44.000  
C06  36735312.741   191290397.641          40.835          46.000    36735294.911   147917811.354          31.562          48.000  
C32  26724208.153   139159883.846       -3562.975          38.000                                                                  
C37  22889945.563   119193956.876        -576.975          49.000                                                                  
C07  38345862.548   199676969.258         699.965          42.000    38345845.636   154402836.140         541.324          46.000  
C13  41812310.395   217727695.991       -2313.220          36.000    41812342.832   168361004.250       -1788.428          40.000  
C20  24662634.052   128424808.742       -2157.162          45.000                                                                  
G18  25342102.962   133173652.944         900.680          38.000    25342096.390   103771644.254         701.761          39.000  
G28  24212860.419   127239437.766       -2996.878          40.000    24212852.900    99147573.575       -2335.062          41.000  
G03  25729000.052   135206776.900       -3021.471          33.000    25729013.269   105355903.417       -2353.829          37.000  
G26  21804023.214   114580915.267       -2230.647          47.000    21804015.434    89283797.657       -1737.991          44.000  
C10  39409622.513   205216248.487         658.545          39.000    39409610.695   158686172.711         509.009          43.000  
C28  23852509.061   124206277.758        1372.166          46.000                                                                  
C23  25172733.325   131081032.291       -2286.349          43.000                                                                  
C16  37174415.727   193576939.233          39.957          48.000    37174403.700   149685920.205          31.135          48.000  
C27  25327770.117   131888350.813        2771.502          41.000                                                                  
C19  25723627.093   133949685.002         302.316          41.000                                                                  
C09  37802853.736   196849383.294         203.239          45.000    37802838.719   152216370.201         157.241          48.000  
C11                                                                  27174135.735   109418984.222       -1983.746          42.000  
> 2025 10 28 08 28 35.3620000  0 24                     
G04  21665679.253   113853913.166         305.593          45.000    21665669.675    88717297.758         238.078          45.000  
G27  21712954.059   114102344.563        2431.979          46.000    21712946.694    88910889.705        1894.938          44.000  
G16  20668071.021   108611447.470        -354.815          47.000                                                                  
G08  23791015.576   125022644.851        3447.973          39.000    23791014.855    97420255.921        2686.694          39.000  
G09  23750829.498   124811459.119        2287.752          38.000    23750823.983    97255651.608        1782.761          39.000  
G31  22010020.406   115663437.608       -2102.870          47.000    22010009.799    90127306.053       -1638.706          44.000  
C06  36735312.405   191290396.010          41.278          46.000    36735294.618   147917810.097          31.802          48.000  
C32  26724235.523   139160026.346       -3562.235          38.000                                                                  
C37  22889950.007   119193979.967        -576.765          49.000                                                                  
C07  38345857.195   199676941.274         700.114          42.000    38345840.218   154402814.488         541.662          46.000  
C13  41812328.144   217727788.505       -2312.599          36.000    41812360.601   168361075.810       -1788.515          40.000  
C20  24662650.604   128424895.041       -2156.940          46.000                                                                  
G18  25342096.087   133173616.905         901.350          38.000    25342089.532   103771616.185         702.071          39.000  
G28  24212883.232   127239557.642       -2996.558          40.000    24212875.701    99147666.964       -2334.483          41.000  
G03  25729023.055   135206897.735       -3020.713          33.000    25729036.260   105355997.581       -2353.656          37.000  
G26  21804040.185   114581004.496       -2230.252          47.000    21804032.409    89283867.186       -1737.780          44.000  
C10  39409617.478   205216222.176         658.350          39.000    39409605.631   158686152.349         509.326          43.000  
C28  23852498.540   124206222.879        1372.387          46.000                                                                  
C23  25172750.914   131081123.753       -2285.936          43.000                                                                  
C16  37174415.426   193576937.642          40.274          48.000    37174403.425   149685918.977          31.237          48.000  
C27  25327748.812   131888239.965        2771.754          41.000                                                                  
C19  25723624.778   133949672.913         302.581          41.000                                                                  
C09  37802852.173   196849375.168         203.594          45.000    37802837.153   152216363.921         157.469          48.000  
C11                                                                  27174155.410   109419063.567       -1983.369          42.000  
> 2025 10 28 08 28 35.4020000  0 24                     
G04  21665676.945   113853900.996         304.979          45.000    21665667.373    88717288.265         237.795          45.000  
G27  21712935.550   114102247.326        2431.555          46.000    21712928.182    88910813.926        1894.854          44.000  
G16  20668073.726   108611461.690        -355.071          47.000                                                                  
G08  23790989.339   125022506.973        3447.486          39.000    23790988.617    97420148.488        2686.316          39.000  
G09  23750812.065   124811367.646        2287.393          38.000    23750806.581    97255580.347        1782.029          39.000  
G31  22010036.434   115663521.772       -2103.419          47.000    22010025.830    90127371.629       -1638.975          44.000  
C06  36735312.116   191290394.411          40.737          46.000    36735294.308   147917808.855          31.525          48.000  
C32  26724262.876   139160168.877       -3562.635          38.000                                                                  
C37  22889954.442   119194003.074        -577.146          49.000                                                                  
C07  38345851.831   199676913.293         699.974          42.000    38345834.864   154402792.851         541.388          46.000  
C13  41812345.929   217727881.044       -2312.948          36.000    41812378.386   168361147.359       -1788.498          40.000  
C20  24662667.192   128424981.368       -2157.524          46.000                                                                  
G18  25342089.234   133173580.921         900.396          38.000    25342082.680   103771588.128         701.853          39.000  
G28  24212906.030   127239677.538       -2996.920          40.000    24212898.503    99147760.398       -2335.186          41.000  
G03  25729046.049   135207018.586       -3020.753          33.000    25729059.253   105356091.754       -2353.837          37.000  
G26  21804057.177   114581093.750       -2230.677          47.000    21804049.398    89283936.746       -1738.382          44.000  
C10  39409612.414   205216195.876         657.886          39.000    39409600.582   158686131.998         509.131          43.000  
C28  23852488.001   124206168.015        1372.047          46.000                                                                  
C23  25172768.477   131081215.249       -2286.570          43.000                                                                  
C16  37174415.142   193576936.068          39.910          48.000    37174403.113   149685917.760          30.886          48.000  
C27  25327727.529   131888129.127        2771.510          41.000                                                                  
C19  25723622.463   133949660.858         301.967          41.000                                                                  
C09  37802850.645   196849367.074         203.012          45.000    37802835.620   152216357.662         157.003          48.000  
C11                                                                  27174175.136   109419142.927       -1983.602          42.000  
> 2025 10 28 08 28 35.4420000  0 24                     
G04  21665674.624   113853888.852         304.053          45.000    21665665.059    88717278.799         237.059          45.000  
G27  21712917.048   114102150.129        2430.498          46.000    21712909.688    88910738.191        1893.928          44.000  
G16  20668076.423   108611475.957        -356.177          47.000                                                                  
G08  23790963.111   125022369.128        3446.474          39.000    23790962.388    97420041.082        2685.542          39.000  
G09  23750794.648   124811276.219        2286.207          38.000    23750789.196    97255509.108        1781.189          39.000  
G31  22010052.469   115663605.965       -2104.362          47.000    22010041.858    90127437.226       -1639.558          44.000  
C06  36735311.816   191290392.836          39.880          46.000    36735294.037   147917807.641          30.771          48.000  
C32  26724290.261   139160311.448       -3563.735          38.000                                                                  
C37  22889958.884   119194026.211        -577.988          49.000                                                                  
C07  38345846.460   199676885.350         698.997          42.000    38345829.510   154402771.246         540.549          46.000  
C13  41812363.706   217727973.609       -2313.737          36.000    41812396.165   168361218.947       -1789.311          40.000  
C20  24662683.771   128425067.722       -2158.442          45.000                                                                  
G18  25342082.387   133173544.960         899.457          38.000    25342075.837   103771560.095         701.196          39.000  
G28  24212928.863   127239797.461       -2997.736          40.000    24212921.313    99147853.848       -2335.988          41.000  
G03  25729069.053   135207139.467       -3021.481          33.000    25729082.269   105356185.948       -2354.418          37.000  
G26  21804074.166   114581183.038       -2231.641          47.000    21804066.394    89284006.322       -1739.089          44.000  
C10  39409607.368   205216169.597         657.196          39.000    39409595.569   158686111.673         508.423          43.000  
C28  23852477.492   124206113.174        1371.353          46.000                                                                  
C23  25172786.070   131081306.761       -2287.338          43.000                                                                  
C16  37174414.879   193576934.527          39.005          48.000    37174402.796   149685916.571          30.122          48.000  
C27  25327706.246   131888018.333        2770.476          41.000                                                                  
C19  25723620.163   133949648.817         301.326          41.000                                                                  
C09  37802849.106   196849359.016         201.937          45.000    37802834.122   152216351.430         156.183          48.000  
C11                                                                  27174194.829   109419222.312       -1984.300          42.000  
> 2025 10 28 08 28 35.4820000  0 24                     
G04  21665672.329   113853876.721         303.303          45.000    21665662.759    88717269.350         236.362          45.000  
G27  21712898.574   114102052.944        2429.711          46.000    21712891.189    88910662.459        1893.342          44.000  
G16  20668079.158   108611490.232        -356.896          47.000                                                                  
G08  23790936.889   125022231.304        3445.634          39.000    23790936.172    97419933.689        2684.804          39.000  
G09  23750777.249   124811184.784        2285.753          38.000    23750771.797    97255437.871        1780.760          38.000  
G31  22010068.502   115663690.173       -2105.133          47.000    22010057.876    90127502.851       -1640.391          44.000  
C06  36735311.513   191290391.273          39.177          46.000    36735293.777   147917806.438          30.160          48.000  
C32  26724317.642   139160454.034       -3564.569          38.000                                                                  
C37  22889963.317   119194049.364        -578.732          49.000                                                                  
C07  38345841.102   199676857.418         698.276          42.000    38345824.150   154402749.649         539.974          46.000  
C13  41812381.481   217728066.205       -2314.741          36.000    41812413.928   168361290.530       -1789.701          40.000  
C20  24662700.370   128425154.088       -2159.108          46.000                                                                  
G18  25342075.547   133173508.995         899.043          38.000    25342069.010   103771532.068         700.757          39.000  
G28  24212951.680   127239917.399       -2998.467          40.000    24212944.142    99147947.315       -2336.712          41.000  
G03  25729092.088   135207260.401       -3022.872          33.000    25729105.286   105356280.160       -2355.099          37.000  
G26  21804091.156   114581272.342       -2232.460          47.000    21804083.402    89284075.908       -1739.620          44.000  
C10  39409602.323   205216143.310         657.025          39.000    39409590.491   158686091.365         507.758          43.000  
C28  23852466.978   124206058.358        1370.535          46.000                                                                  
C23  25172803.655   131081398.310       -2288.458          43.000                                                                  
C16  37174414.620   193576932.999          38.282          48.000    37174402.507   149685915.394          29.471          48.000  
C27  25327684.993   131887907.560        2769.532          41.000                                                                  
C19  25723617.865   133949636.785         300.826          41.000                                                                  
C09  37802847.558   196849350.954         201.479          45.000    37802832.590   152216345.202         155.697          48.000  
C11                                                                  27174214.593   109419301.699       -1984.724          42.000  
> 2025 10 28 08 28 35.5220000  0 24                     
G04  21665670.032   113853864.606         302.733          45.000    21665660.464    88717259.909         235.902          45.000  
G27  21712880.103   114101955.754        2429.446          46.000    21712872.700    88910586.734        1892.974          44.000  
G16  20668081.883   108611504.514        -357.310          47.000                                                                  
G08  23790910.658   125022093.483        3445.208          39.000    23790909.942    97419826.294        2684.519          39.000  
G09  23750759.835   124811093.348        2285.598          38.000    23750754.398    97255366.625        1780.874          38.000  
G31  22010084.538   115663774.386       -2105.552          47.000    22010073.905    90127568.479       -1640.869          44.000  
C06  36735311.185   191290389.727          38.560          46.000    36735293.498   147917805.240          29.781          48.000  
C32  26724345.038   139160596.611       -3564.740          38.000                                                                  
C37  22889967.753   119194072.530        -579.289          49.000                                                                  
C07  38345835.748   199676829.493         697.874          42.000    38345818.783   154402728.062         539.563          46.000  
C13  41812399.252   217728158.789       -2315.026          36.000    41812431.694   168361362.133       -1790.174          40.000  
C20  24662716.973   128425240.455       -2159.432          45.000                                                                  
G18  25342068.717   133173473.046         898.588          38.000    25342062.193   103771504.072         699.977          39.000  
G28  24212974.534   127240037.350       -2998.974          40.000    24212966.962    99148040.774       -2336.838          41.000  
G03  25729115.098   135207381.291       -3022.743          33.000    25729128.286   105356374.373       -2355.374          37.000  
G26  21804108.129   114581361.643       -2232.802          47.000    21804100.401    89284145.502       -1740.010          44.000  
C10  39409597.239   205216117.037         656.683          39.000    39409585.459   158686071.067         507.318          43.000  
C28  23852456.456   124206003.552        1369.971          46.000                                                                  
C23  25172821.218   131081489.846       -2288.762          43.000                                                                  
C16  37174414.352   193576931.480          37.802          48.000    37174402.211   149685914.222          29.117          48.000  
C27  25327663.723   131887796.781        2769.193          41.000                                                                  
C19  25723615.552   133949624.754         300.592          41.000                                                                  
C09  37802846.004   196849342.911         200.940          45.000    37802831.032   152216338.979         155.424          48.000  
C11                                                                  27174234.298   109419381.098       -1985.104          42.000  
> 2025 10 28 08 28 35.5620000  0 24                     
G04  21665667.695   113853852.500         302.358          45.000    21665658.144    88717250.474         235.625          45.000  
G27  21712861.595   114101858.581        2429.085          46.000    21712854.203    88910511.013        1892.815          44.000  
G16  20668084.606   108611518.802        -357.530          47.000                                                                  
G08  23790884.417   125021955.681        3444.858          39.000    23790883.719    97419718.900        2684.514          39.000  
G09  23750742.407   124811001.926        2285.374          38.000    23750736.996    97255295.402        1780.593          38.000  
G31  22010100.552   115663858.602       -2105.735          47.000    22010089.937    90127634.102       -1640.936          44.000  
C06  36735310.912   191290388.187          38.213          46.000    36735293.190   147917804.045          29.606          48.000  
C32  26724372.454   139160739.207       -3565.107          38.000                                                                  
C37  22889972.211   119194095.705        -579.625          49.000                                                                  
C07  38345830.382   199676801.569         697.778          42.000    38345813.460   154402706.475         539.418          46.000  
C13  41812417.044   217728251.364       -2314.850          36.000    41812449.491   168361433.750       -1790.615          40.000  
C20  24662733.562   128425326.846       -2159.938          45.000                                                                  
G18  25342061.896   133173437.108         898.263          38.000    25342055.364   103771476.070         699.766          39.000  
G28  24212997.354   127240157.315       -2999.408          40.000    24212989.814    99148134.252       -2337.136          41.000  
G03  25729138.122   135207502.201       -3022.893          33.000    25729151.304   105356468.615       -2356.045          37.000  
G26  21804125.125   114581450.962       -2233.200          47.000    21804117.400    89284215.100       -1740.193          44.000  
C10  39409592.210   205216090.788         656.152          39.000    39409580.425   158686050.765         507.239          43.000  
C28  23852445.955   124205948.757        1369.606          46.000                                                                  
C23  25172838.791   131081581.396       -2289.059          43.000                                                                  
C16  37174414.089   193576929.973          37.426          48.000    37174401.932   149685913.054          28.915          48.000  
C27  25327642.460   131887686.016        2768.870          41.000                                                                  
C19  25723613.235   133949612.747         300.117          41.000                                                                  
C09  37802844.445   196849334.871         200.717          45.000    37802829.488   152216332.758         155.316          48.000  
C11                                                                  27174253.992   109419460.529       -1985.841          42.000  
