     3.04           OBSERVATION DATA    M: Mixed            RINEX VERSION / TYPE
RTKCONV 2.4.3 b34                       20251028 084302 UTC PGM / RUN BY / DATE 
format: u-blox UBX                                          COMMENT             
log: D:\GPdata\10_28_2\fingure_up_place_2_10_28_3.ubx       COMMENT             
                                                            MARKER NAME         
                                                            MARKER NUMBER       
                                                            MARKER TYPE         
                                                            OBSERVER / AGENCY   
                                                            REC # / TYPE / VERS 
                                                            ANT # / TYPE        
        0.0000        0.0000        0.0000                  APPROX POSITION XYZ 
        0.0000        0.0000        0.0000                  ANTENNA: DELTA H/E/N
G    8 C1C L1C D1C S1C C2L L2L D2L S2L                      SYS / # / OBS TYPES 
C    8 C2I L2I D2I S2I C7I L7I D7I S7I                      SYS / # / OBS TYPES 
  2025    10    28    08    27   46.4420000     GPS         TIME OF FIRST OBS   
  2025    10    28    08    28   15.5620000     GPS         TIME OF LAST OBS    
G L1C                                                       SYS / PHASE SHIFT   
G L2L  0.00000                                              SYS / PHASE SHIFT   
C L2I                                                       SYS / PHASE SHIFT   
C L7I                                                       SYS / PHASE SHIFT   
  0                                                         GLONASS SLOT / FRQ #
 C1C    0.000 C1P    0.000 C2C    0.000 C2P    0.000        GLONASS COD/PHS/BIS 
                                                            END OF HEADER       
> 2025 10 28 08 27 46.4420000  0 24                     
G04  21668656.253                         330.770          45.000    21668646.690    88729488.1331        257.729          46.000  
G27  21735688.947                        2449.212          45.000    21735682.545    89003986.5671       1908.550          45.000  
G16  20664848.594   108594513.5111       -340.717          47.000                                                                  
G08  23823138.290                        3449.785          38.000    23823137.695    97551787.2011       2688.094          40.000  
G09  23772210.712                1       2302.413          38.000    23772205.069    97343202.3541       1793.940          38.000  
G31  21990500.512   115560860.5701      -2093.911          47.000    21990489.892    90047375.9381      -1631.403          44.000  
C06  36735677.997                          33.388          46.000    36735660.037   147919280.1991         25.828          49.000  
C32  26690735.330                       -3572.063          37.000                                                                  
C37  22884551.512                        -575.892          49.000                                                                  
C07  38352438.012                         697.678          41.000    38352421.053   154429313.4951        539.375          45.000  
C13  41790564.033                       -2324.719          35.000    41790596.275   168273431.6801      -1797.043          38.000  
C20  24642464.248                       -2143.773          46.000                                                                  
G18  25350561.802                         914.187          37.000    25350555.608   103806283.0691        712.736          40.000  
G28  24185024.519                       -2991.861          41.000    24185017.504    99033590.5891      -2331.119          42.000  
G03  25700884.176                       -3027.745          33.000    25700898.350   105240786.7771      -2358.906          37.000  
G26  21783305.973                       -2227.431          46.000    21783298.280    89198966.2361      -1735.623          44.000  
C10  39415803.864                         654.974          38.000    39415792.130   158711061.9221        506.647          43.000  
C28  23865470.936                        1385.909          47.000                                                                  
C23  25151272.177                       -2289.725          42.000                                                                  
C16  37174773.484                          32.583          48.000    37174761.097   149687359.7441         25.391          48.000  
C27  25353785.134                        2767.881          40.000                                                                  
C19  25726575.184                         322.305          41.000                                                                  
C09  37804734.322                         193.917          45.000    37804719.024   152223941.9001        150.081          48.000  
C11                                                                  27150126.294   109322305.5081      -1974.866          44.000  
> 2025 10 28 08 27 46.4820000  0 24                     
G04  21668653.736   113869544.236         331.108          45.000    21668644.176    88729477.786         258.010          46.000  
G27  21735670.265                        2449.674          45.000    21735663.888    89003910.187        1908.900          45.000  
G16  20664851.160   108594527.119        -340.716          47.000                                                                  
G08  23823112.011                        3450.154          38.000    23823111.438    97551679.645        2688.328          40.000  
G09  23772193.206                        2302.775          38.000    23772187.522    97343130.576        1793.855          38.000  
G31  21990516.442   115560944.290       -2093.673          47.000    21990505.806    90047441.182       -1631.515          44.000  
C06  36735677.730                          33.561          46.000    36735659.763   147919279.135          26.038          49.000  
C32  26690762.762                       -3572.007          37.000                                                                  
C37  22884555.946                        -575.539          49.000                                                                  
C07  38352432.668                         697.720          41.000    38352415.694   154429291.887         539.672          45.000  
C13  41790581.857                       -2323.729          35.000    41790614.100   168273503.545       -1796.913          38.000  
C20  24642480.709                       -2143.390          46.000                                                                  
G18  25350554.859                         914.707          37.000    25350548.628   103806254.546         712.557          40.000  
G28  24185047.285   127093279.043       -2991.707          41.000    24185040.266    99033683.827       -2331.152          42.000  
G03  25700907.215                       -3027.504          33.000    25700921.361   105240881.112       -2358.865          37.000  
G26  21783322.913   114472137.291       -2227.179          46.000    21783315.229    89199035.638       -1735.541          44.000  
C10  39415798.836                         655.280          38.000    39415787.104   158711041.641         506.683          43.000  
C28  23865460.319                        1386.091          47.000                                                                  
C23  25151289.735                       -2289.166          42.000                                                                  
C16  37174773.244                          32.940          48.000    37174760.837   149687358.701          25.583          48.000  
C27  25353763.881                        2767.982          40.000                                                                  
C19  25726572.688                         322.799          41.000                                                                  
C09  37804732.841                         194.105          45.000    37804717.518   152223935.870         150.249          48.000  
C11                                                                  27150145.900   109322384.474       -1974.615          44.000  
> 2025 10 28 08 27 46.5220000  0 24                     
G04  21668651.194   113869530.982         331.031          45.000    21668641.663    88729467.463         257.852          46.000  
G27  21735651.602   114221623.113        2449.472          45.000    21735645.243    89003833.835        1908.667          45.000  
G16  20664853.731   108594540.744        -340.919          47.000                                                                  
G08  23823085.729                        3449.810          38.000    23823085.168    97551572.099        2688.383          40.000  
G09  23772175.668                        2302.462          38.000    23772170.009    97343058.780        1794.279          38.000  
G31  21990532.368   115561028.040       -2093.965          47.000    21990521.762    90047506.447       -1631.833          44.000  
C06  36735677.475   191292294.486          33.496          46.000    36735659.495   147919278.086          25.979          49.000  
C32  26690790.203   138985878.291       -3572.188          37.000                                                                  
C37  22884560.350   119165913.042        -575.757          49.000                                                                  
C07  38352427.283                         697.623          41.000    38352410.330   154429270.303         539.449          45.000  
C13  41790599.678                       -2323.493          35.000    41790631.936   168273575.431       -1797.280          38.000  
C20  24642497.166                       -2143.345          46.000                                                                  
G18  25350547.919                         914.507          37.000    25350541.662   103806226.015         712.718          40.000  
G28  24185070.091   127093398.720       -2992.080          41.000    24185063.046    99033777.077       -2331.447          42.000  
G03  25700930.249                       -3027.782          33.000    25700944.427   105240975.468       -2359.080          37.000  
G26  21783339.876   114472226.361       -2227.159          46.000    21783332.196    89199105.040       -1735.467          44.000  
C10  39415793.803                         655.042          38.000    39415782.061   158711021.373         506.519          43.000  
C28  23865449.656   124273662.623        1385.997          47.000                                                                  
C23  25151307.316                       -2288.916          42.000                                                                  
C16  37174773.008                          32.796          48.000    37174760.583   149687357.682          25.348          48.000  
C27  25353742.618   132023596.225        2768.205          40.000                                                                  
C19  25726570.218                         322.368          41.000                                                                  
C09  37804731.337   196859159.675         194.070          45.000    37804715.985   152223929.864         149.997          48.000  
C11                                                                  27150165.526   109322463.458       -1974.786          44.000  
> 2025 10 28 08 27 46.5620000  0 24                     
G04  21668648.666   113869517.748         330.762          45.000    21668639.125    88729457.151         257.669          46.000  
G27  21735632.965   114221525.137        2449.284          45.000    21735626.619    89003757.498        1908.362          45.000  
G16  20664856.337   108594554.369        -340.858          47.000                                                                  
G08  23823059.477                        3449.780          38.000    23823058.907    97551464.566        2688.274          40.000  
G09  23772158.145   124923539.8551       2302.045          38.000    23772152.489    97342986.997        1794.406          38.000  
G31  21990548.299   115561111.798       -2094.154          47.000    21990537.691    90047571.714       -1631.937          44.000  
C06  36735677.222   191292293.143          33.377          46.000    36735659.266   147919277.047          25.872          49.000  
C32  26690817.635   138986021.163       -3571.963          37.000                                                                  
C37  22884564.761   119165936.066        -575.780          49.000                                                                  
C07  38352421.945   199711126.724         697.424          41.000    38352404.974   154429248.723         539.356          45.000  
C13  41790617.534                       -2323.922          35.000    41790649.789   168273647.315       -1797.325          38.000  
C20  24642513.621   128320035.481       -2143.665          46.000                                                                  
G18  25350540.947                         914.995          37.000    25350534.681   103806197.504         712.618          40.000  
G28  24185092.868   127093518.400       -2992.194          41.000    24185085.824    99033870.323       -2331.395          42.000  
G03  25700953.300                       -3027.713          33.000    25700967.478   105241069.819       -2358.959          37.000  
G26  21783356.830   114472315.449       -2227.347          46.000    21783349.159    89199174.459       -1735.638          44.000  
C10  39415788.761                         654.926          38.000    39415777.050   158711001.102         506.598          43.000  
C28  23865439.018   124273607.175        1386.015          47.000                                                                  
C23  25151324.886                       -2289.460          42.000                                                                  
C16  37174772.769   193578796.941          32.594          48.000    37174760.353   149687356.673          25.137          48.000  
C27  25353721.380   132023485.513        2767.765          40.000                                                                  
C19  25726567.745   133964992.306         322.226          41.000                                                                  
C09  37804729.838   196859151.907         194.026          45.000    37804714.504   152223923.855         150.017          48.000  
C11                                                                  27150185.147   109322542.447       -1974.845          44.000  
> 2025 10 28 08 27 46.6020000  0 24                     
G04  21668646.122   113869504.468         331.486          45.000    21668636.597    88729446.802         258.266          46.000  
G27  21735614.310   114221427.130        2449.810          45.000    21735607.968    89003681.127        1908.860          45.000  
G16  20664858.923   108594567.945        -339.808          47.000                                                                  
G08  23823033.215                        3451.181          38.000    23823032.657    97551356.999        2688.861          40.000  
G09  23772140.614   124923447.703        2303.217          38.000    23772134.977    97342915.216        1794.482          38.000  
G31  21990564.225   115561195.509       -2093.280          47.000    21990553.604    90047636.941       -1631.187          44.000  
C06  36735676.957   191292291.758          34.143          46.000    36735658.987   147919275.987          26.238          49.000  
C32  26690845.039   138986163.981       -3570.754          37.000                                                                  
C37  22884569.167   119165959.060        -575.148          49.000                                                                  
C07  38352416.593   199711098.781         698.196          41.000    38352399.588   154429227.122         539.789          45.000  
C13  41790635.384                       -2323.916          35.000    41790667.620   168273719.166       -1796.598          38.000  
C20  24642530.072   128320121.188       -2143.061          46.000                                                                  
G18  25350534.011                         915.388          37.000    25350527.688   103806168.968         713.116          40.000  
G28  24185115.623   127093638.028       -2991.118          41.000    24185108.581    99033963.545       -2330.795          42.000  
G03  25700976.347                       -3026.288          33.000    25700990.499   105241164.136       -2358.302          37.000  
G26  21783373.769   114472404.503       -2226.740          46.000    21783366.085    89199243.848       -1735.115          44.000  
C10  39415783.695                         655.768          38.000    39415772.012   158710980.800         507.288          43.000  
C28  23865428.383   124273551.688        1386.840          47.000                                                                  
C23  25151342.457   130969648.557       -2288.730          42.000                                                                  
C16  37174772.525   193578795.587          33.402          48.000    37174760.124   149687355.632          25.677          48.000  
C27  25353700.102   132023374.752        2768.544          40.000                                                                  
C19  25726565.257   133964979.385         322.753          41.000                                                                  
C09  37804728.362   196859144.100         194.832          45.000    37804713.007   152223917.820         150.562          48.000  
C11                                                                  27150204.760   109322621.413       -1974.382          44.000  
> 2025 10 28 08 27 46.6420000  0 24                     
G04  21668643.589   113869491.120         333.063          45.000    21668634.053    88729436.402         259.526          46.000  
G27  21735595.624   114221329.044        2451.468          45.000    21735589.283    89003604.709        1909.954          45.000  
G16  20664861.504   108594581.485        -338.702          47.000                                                                  
G08  23823006.937                        3451.916          38.000    23823006.399    97551249.399        2689.766          40.000  
G09  23772123.072                        2304.614          38.000    23772117.434    97342843.382        1795.426          38.000  
G31  21990580.158   115561279.163       -2091.843          47.000    21990569.480    90047702.126       -1630.114          44.000  
C06  36735676.683   191292290.321          35.459          46.000    36735658.697   147919274.868          27.446          49.000  
C32  26690872.460   138986306.777       -3569.944          37.000                                                                  
C37  22884573.576   119165981.989        -573.727          49.000                                                                  
C07  38352411.192   199711070.780         699.576          41.000    38352394.193   154429205.467         540.943          45.000  
C13  41790653.202                       -2322.980          35.000    41790685.468   168273791.000       -1795.962          38.000  
C20  24642546.518   128320206.832       -2141.661          46.000                                                                  
G18  25350527.031                         916.484          37.000    25350520.722   103806140.398         713.928          40.000  
G28  24185138.357   127093757.608       -2989.754          41.000    24185131.319    99034056.742       -2330.094          42.000  
G03  25700999.348                       -3024.674          33.000    25701013.511   105241258.401       -2357.078          37.000  
G26  21783390.720   114472493.492       -2225.292          46.000    21783383.011    89199313.189       -1733.987          44.000  
C10  39415778.617                         657.410          38.000    39415766.933   158710960.473         508.020          43.000  
C28  23865417.703   124273496.165        1387.848          47.000                                                                  
C23  25151360.002                       -2287.402          42.000                                                                  
C16  37174772.254   193578794.168          34.949          48.000    37174759.828   149687354.536          26.913          48.000  
C27  25353678.798   132023263.935        2769.948          40.000                                                                  
C19  25726562.749                         323.846          41.000                                                                  
C09  37804726.835   196859136.244         196.073          45.000    37804711.497   152223911.747         151.508          48.000  
C11                                                                  27150224.363   109322700.343       -1973.502          44.000  
> 2025 10 28 08 27 46.6820000  0 24                     
G04  21668641.080   113869477.892         331.657          45.000    21668631.557    88729426.085         258.618          46.000  
G27  21735576.953   114221231.076        2450.156          45.000    21735570.632    89003528.352        1909.381          45.000  
G16  20664864.112   108594595.133        -340.280          47.000                                                                  
G08  23822980.668                        3450.983          38.000    23822980.135    97551141.850        2689.191          40.000  
G09  23772105.530                        2302.628          38.000    23772099.922    97342771.631        1794.355          38.000  
G31  21990596.071   115561362.914       -2092.924          47.000    21990585.417    90047767.399       -1631.202          44.000  
C06  36735676.415   191292288.974          34.440          46.000    36735658.441   147919273.824          26.691          49.000  
C32  26690899.922                       -3571.368          37.000                                                                  
C37  22884578.011   119166005.021        -574.995          49.000                                                                  
C07  38352405.830                         698.319          41.000    38352388.855   154429183.892         539.991          45.000  
C13  41790671.054                       -2323.882          35.000    41790703.355   168273862.898       -1796.908          38.000  
C20  24642563.004                       -2142.774          46.000                                                                  
G18  25350520.051                         915.021          37.000    25350513.780   103806111.888         713.232          40.000  
G28  24185161.124   127093877.292       -2991.191          41.000    24185154.086    99034149.992       -2330.801          42.000  
G03  25701022.386                       -3026.996          33.000    25701036.569   105241352.784       -2358.623          37.000  
G26  21783407.630   114472582.576       -2226.311          46.000    21783399.961    89199382.604       -1734.768          44.000  
C10  39415773.587                         655.878          38.000    39415761.886   158710940.204         507.178          43.000  
C28  23865407.056   124273440.728        1386.630          47.000                                                                  
C23  25151377.603                       -2288.529          42.000                                                                  
C16  37174772.041                          33.535          48.000    37174759.578   149687353.512          26.184          48.000  
C27  25353657.514   132023153.216        2768.843          40.000                                                                  
C19  25726560.278                         322.841          41.000                                                                  
C09  37804725.358   196859128.487         194.740          45.000    37804710.026   152223905.738         150.741          48.000  
C11                                                                  27150243.992   109322779.341       -1974.437          44.000  
> 2025 10 28 08 27 46.7220000  0 24                     
G04  21668638.584   113869464.655         331.127          45.000    21668629.032    88729415.762         258.268          46.000  
G27  21735558.291   114221133.091        2449.795          45.000    21735551.984    89003451.998        1909.052          45.000  
G16  20664866.724   108594608.737        -340.232          47.000                                                                  
G08  23822954.418                        3450.184          38.000    23822953.875    97551034.310        2688.750          40.000  
G09  23772088.022                        2302.855          38.000    23772082.418    97342699.838        1794.609          38.000  
G31  21990612.022   115561446.670       -2093.551          47.000    21990601.352    90047832.648       -1631.290          44.000  
C06  36735676.183   191292287.616          34.104          46.000    36735658.185   147919272.778          26.338          49.000  
C32  26690927.398   138986592.537       -3571.811          37.000                                                                  
C37  22884582.437   119166028.032        -575.221          49.000                                                                  
C07  38352400.481   199711014.960         698.107          41.000    38352383.513   154429162.305         539.744          45.000  
C13  41790688.907                       -2323.788          35.000    41790721.223   168273934.776       -1796.979          38.000  
C20  24642579.476   128320378.320       -2143.431          46.000                                                                  
G18  25350513.079                         914.879          37.000    25350506.830   103806083.351         713.439          40.000  
G28  24185183.900   127093996.946       -2991.349          41.000    24185176.866    99034243.227       -2330.873          42.000  
G03  25701045.439                       -3027.219          33.000    25701059.630   105241447.108       -2358.357          37.000  
G26  21783424.594   114472671.655       -2226.755          46.000    21783416.937    89199452.023       -1735.225          44.000  
C10  39415768.530                         655.963          38.000    39415756.881   158710919.927         506.964          43.000  
C28  23865396.430   124273385.264        1386.579          47.000                                                                  
C23  25151395.201                       -2288.995          42.000                                                                  
C16  37174771.826   193578791.543          33.174          48.000    37174759.323   149687352.490          25.762          48.000  
C27  25353636.248   132023042.471        2768.736          40.000                                                                  
C19  25726557.820   133964940.611         322.774          41.000                                                                  
C09  37804723.875   196859120.701         194.643          45.000    37804708.544   152223899.721         150.535          48.000  
C11                                                                  27150263.626   109322858.315       -1974.441          44.000  
> 2025 10 28 08 27 46.7620000  0 24                     
G04  21668636.047   113869451.301         332.985          45.000    21668626.488    88729405.369         259.362          46.000  
G27  21735539.640   114221034.993        2451.635          45.000    21735533.318    89003375.566        1910.279          45.000  
G16  20664869.304   108594622.238        -338.217          47.000                                                                  
G08  23822928.136                        3451.833          38.000    23822927.588    97550926.685        2690.129          40.000  
G09  23772070.470                        2305.397          38.000    23772064.867    97342627.971        1796.190          38.000  
G31  21990627.944   115561530.296       -2091.576          47.000    21990617.257    90047897.803       -1629.585          44.000  
C06  36735675.905   191292286.162          35.660          46.000    36735657.939   147919271.656          27.534          49.000  
C32  26690954.818                       -3569.413          37.000                                                                  
C37  22884586.818   119166050.939        -573.388          49.000                                                                  
C07  38352395.082                         700.306          41.000    38352378.126   154429140.634         541.196          45.000  
C13  41790706.718                       -2320.681          35.000    41790739.010   168274006.560       -1795.278          38.000  
C20  24642595.877                       -2141.496          46.000                                                                  
G18  25350506.122                         917.369          38.000    25350499.851   103806054.776         714.249          40.000  
G28  24185206.653   127094116.515       -2989.782          41.000    24185199.615    99034336.392       -2329.572          42.000  
G03  25701068.475                       -3025.044          33.000    25701082.655   105241541.380       -2357.113          37.000  
G26  21783441.518   114472760.620       -2224.944          46.000    21783433.880    89199521.352       -1733.874          44.000  
C10  39415763.468                         657.544          38.000    39415751.816   158710899.564         508.490          43.000  
C28  23865385.731   124273329.713        1388.224          47.000                                                                  
C23  25151412.761                       -2287.010          42.000                                                                  
C16  37174771.553                          35.155          48.000    37174759.043   149687351.392          26.960          48.000  
C27  25353614.949   132022931.634        2770.373          40.000                                                                  
C19  25726555.292                         324.520          41.000                                                                  
C09  37804722.385   196859112.813         196.555          45.000    37804707.042   152223893.624         151.906          48.000  
C11                                                                  27150283.196   109322937.219       -1973.028          44.000  
> 2025 10 28 08 27 46.8020000  0 24                     
G04  21668633.513   113869437.893         334.860          45.000    21668623.948    88729394.924         260.805          46.000  
G27  21735520.982   114220936.859        2453.260          45.000    21735514.637    89003299.093        1911.639          45.000  
G16  20664871.861   108594635.714        -336.786          47.000                                                                  
G08  23822901.830                        3454.319          38.000    23822901.280    97550819.031        2691.320          40.000  
G09  23772052.927                        2306.282          38.000    23772047.312    97342556.091        1797.162          38.000  
G31  21990643.834   115561613.888       -2089.934          47.000    21990633.188    90047962.945       -1628.511          44.000  
C06  36735675.593   191292284.649          37.511          46.000    36735657.629   147919270.489          28.916          49.000  
C32  26690982.209                       -3567.735          37.000                                                                  
C37  22884591.209   119166073.810        -571.817          49.000                                                                  
C07  38352389.664                         701.602          41.000    38352372.732   154429118.935         542.433          45.000  
C13  41790724.516                       -2319.822          35.000    41790756.833   168274078.325       -1794.064          38.000  
C20  24642612.296                       -2139.620          46.000                                                                  
G18  25350499.139                         918.506          38.000    25350492.830   103806026.137         715.700          40.000  
G28  24185229.388   127094236.041       -2988.185          41.000    24185222.364    99034429.529       -2328.412          42.000  
G03  25701091.468                       -3022.859          33.000    25701105.663   105241635.596       -2355.531          37.000  
G26  21783458.436   114472849.548       -2223.334          46.000    21783450.804    89199590.634       -1732.329          44.000  
C10  39415758.378                         659.332          38.000    39415746.744   158710879.176         509.705          43.000  
C28  23865375.048   124273274.117        1389.837          47.000                                                                  
C23  25151430.299                       -2285.371          42.000                                                                  
C16  37174771.255                          36.918          48.000    37174758.763   149687350.251          28.324          48.000  
C27  25353593.646   132022820.745        2772.022          40.000                                                                  
C19  25726552.803   133964914.559         326.033          41.000                                                                  
C09  37804720.866   196859104.885         198.179          45.000    37804705.508   152223887.493         153.201          48.000  
C11                                                                  27150302.791   109323016.089       -1971.770          44.000  
> 2025 10 28 08 27 46.8420000  0 24                     
G04  21668630.953   113869424.450         336.350          45.000    21668621.391    88729384.453         261.971          46.000  
G27  21735502.293   114220838.687        2454.589          45.000    21735495.977    89003222.597        1912.620          45.000  
G16  20664874.411   108594649.154        -335.610          47.000                                                                  
G08  23822875.527                        3455.744          38.000    23822874.970    97550711.345        2692.325          40.000  
G09  23772035.354                        2307.526          38.000    23772029.754    97342484.159        1798.453          38.000  
G31  21990659.732   115561697.436       -2088.474          47.000    21990649.093    90048028.046       -1627.374          44.000  
C06  36735675.268   191292283.099          38.994          46.000    36735657.309   147919269.290          30.131          49.000  
C32  26691009.622                       -3566.670          37.000                                                                  
C37  22884595.589   119166096.641        -570.470          49.000                                                                  
C07  38352384.286   199710930.766         702.614          41.000    38352367.330   154429097.198         543.613          45.000  
C13  41790742.319                       -2319.301          35.000    41790774.622   168274150.069       -1793.285          38.000  
C20  24642628.717   128320635.054       -2138.210          46.000                                                                  
G18  25350492.128                         919.942          38.000    25350485.820   103805997.456         717.079          40.000  
G28  24185252.106   127094355.517       -2986.641          41.000    24185245.101    99034522.630       -2327.348          42.000  
G03  25701114.478                       -3022.084          33.000    25701128.658   105241729.799       -2354.634          37.000  
G26  21783475.336   114472938.426       -2221.778          46.000    21783467.710    89199659.892       -1731.171          44.000  
C10  39415753.285                         660.126          38.000    39415741.685   158710858.768         510.504          43.000  
C28  23865364.357   124273218.484        1391.142          47.000                                                                  
C23  25151447.847                       -2283.810          42.000                                                                  
C16  37174770.972   193578787.109          38.226          48.000    37174758.437   149687349.073          29.575          48.000  
C27  25353572.332   132022709.823        2773.350          40.000                                                                  
C19  25726550.281   133964901.485         327.172          41.000                                                                  
C09  37804719.324   196859096.918         199.496          45.000    37804703.985   152223881.334         154.219          48.000  
C11                                                                  27150322.350   109323094.931       -1970.774          44.000  
> 2025 10 28 08 27 46.8820000  0 24                     
G04  21668628.376   113869411.092         335.259          45.000    21668618.836    88729374.050         261.078          46.000  
G27  21735483.617   114220740.585        2453.733          45.000    21735477.294    89003146.146        1912.102          45.000  
G16  20664876.965   108594662.679        -336.976          47.000                                                                  
G08  23822849.279                        3453.464          38.000    23822848.674    97550603.724        2691.400          40.000  
G09  23772017.779                        2306.215          38.000    23772012.220    97342412.318        1797.069          38.000  
G31  21990675.620   115561781.074       -2089.688          47.000    21990665.006    90048093.233       -1628.597          44.000  
C06  36735674.986   191292281.629          37.978          46.000    36735657.033   147919268.150          29.430          49.000  
C32  26691037.059                       -3568.098          37.000                                                                  
C37  22884599.995   119166119.556        -571.703          49.000                                                                  
C07  38352378.901                         701.520          41.000    38352361.982   154429075.532         542.622          45.000  
C13  41790760.151                       -2320.318          35.000    41790792.464   168274221.864       -1794.079          38.000  
C20  24642645.170                       -2139.390          46.000                                                                  
G18  25350485.129                         918.479          37.000    25350478.834   103805968.851         716.185          40.000  
G28  24185274.840   127094475.082       -2987.973          41.000    24185267.826    99034615.789       -2328.158          42.000  
G03  25701137.481                       -3022.808          33.000    25701151.669   105241824.063       -2355.590          37.000  
G26  21783492.257   114473027.391       -2222.862          46.000    21783484.614    89199729.212       -1731.986          44.000  
C10  39415748.233                         659.106          38.000    39415736.651   158710838.420         509.442          43.000  
C28  23865353.725                        1389.743          47.000                                                                  
C23  25151465.430                       -2284.800          42.000                                                                  
C16  37174770.737                          37.154          48.000    37174758.154   149687347.960          28.762          48.000  
C27  25353551.056   132022598.986        2772.174          40.000                                                                  
C19  25726547.792                         326.170          41.000                                                                  
C09  37804717.812                         198.314          45.000    37804702.489   152223875.240         153.270          48.000  
C11                                                                  27150341.943   109323173.835       -1971.744          44.000  
> 2025 10 28 08 27 46.9220000  0 24                     
G04  21668625.856                         332.652          45.000    21668616.318    88729363.694         259.622          46.000  
G27  21735464.960                        2451.312          45.000    21735458.626    89003069.793        1909.935          45.000  
G16  20664879.543   108594676.267        -339.008          47.000                                                                  
G08  23822823.025                        3451.352          38.000    23822822.399    97550496.154        2689.727          40.000  
G09  23772000.241                        2303.898          38.000    23771994.690    97342340.518        1795.533          38.000  
G31  21990691.534                       -2092.147          47.000    21990680.922    90048158.451       -1629.941          44.000  
C06  36735674.759                          35.574          47.000    36735656.765   147919267.076          27.742          49.000  
C32  26691064.515                       -3569.897          37.000                                                                  
C37  22884604.462                        -573.823          49.000                                                                  
C07  38352373.551                         699.499          41.000    38352356.602   154429053.916         541.050          45.000  
C13  41790778.006                       -2321.658          35.000    41790810.313   168274293.720       -1795.762          38.000  
C20  24642661.652                       -2141.771          46.000                                                                  
G18  25350478.145                         916.957          37.000    25350471.875   103805940.328         714.102          40.000  
G28  24185297.622                       -2990.174          41.000    24185290.581    99034709.023       -2330.126          42.000  
G03  25701160.529                       -3024.836          33.000    25701174.681   105241918.404       -2357.678          37.000  
G26  21783509.170   114473116.453       -2225.333          46.000    21783501.551    89199798.609       -1733.945          44.000  
C10  39415743.226                         657.166          38.000    39415731.590   158710818.126         507.819          43.000  
C28  23865343.085                        1387.675          47.000                                                                  
C23  25151483.013                       -2287.614          42.000                                                                  
C16  37174770.532                          34.732          48.000    37174757.891   149687346.916          26.978          48.000  
C27  25353529.814                        2769.735          40.000                                                                  
C19  25726545.330                         324.071          41.000                                                                  
C09  37804716.333                         195.878          45.000    37804700.997   152223869.205         151.597          48.000  
C11                                                                  27150361.551   109323252.810       -1973.699          44.000  
> 2025 10 28 08 27 46.9620000  0 24                     
G04  21668623.366                         331.063          46.000    21668613.803    88729353.383         258.045          46.000  
G27  21735446.303   114220544.600        2449.676          45.000    21735439.987    89002993.446        1908.639          45.000  
G16  20664882.163   108594689.886        -340.596          47.000                                                                  
G08  23822796.759                        3450.399          38.000    23822796.153    97550388.614        2688.432          40.000  
G09  23771982.714                        2302.482          38.000    23771977.179    97342268.746        1794.257          38.000  
G31  21990707.484   115561948.547       -2093.661          47.000    21990696.868    90048223.717       -1631.443          44.000  
C06  36735674.483                          33.865          47.000    36735656.519   147919266.038          26.175          49.000  
C32  26691091.946                       -3571.734          37.000                                                                  
C37  22884608.906                        -575.377          49.000                                                                  
C07  38352368.196                         697.914          41.000    38352351.247   154429032.327         539.737          45.000  
C13  41790795.845                       -2323.726          35.000    41790828.167   168274365.600       -1797.045          38.000  
C20  24642678.122                       -2143.378          46.000                                                                  
G18  25350471.172                         914.835          38.000    25350464.918   103805911.815         712.807          40.000  
G28  24185320.374                       -2991.461          41.000    24185313.352    99034802.276       -2331.457          42.000  
G03  25701183.595                       -3027.093          34.000    25701197.755   105242012.757       -2358.958          37.000  
G26  21783526.127   114473205.528       -2226.884          46.000    21783518.483    89199868.025       -1735.324          44.000  
C10  39415738.201                         655.365          38.000    39415726.561   158710797.841         506.854          43.000  
C28  23865332.416                        1386.234          47.000                                                                  
C23  25151500.619                       -2289.156          42.000                                                                  
C16  37174770.319                          33.148          48.000    37174757.663   149687345.893          25.644          48.000  
C27  25353508.567                        2768.547          40.000                                                                  
C19  25726542.869                         322.471          41.000                                                                  
C09  37804714.841                         194.489          45.000    37804699.501   152223863.191         150.330          48.000  
C11                                                                  27150381.183   109323331.796       -1974.895          44.000  
> 2025 10 28 08 27 47.0020000  0 24                     
G04  21668620.873   113869371.375         330.067          46.000    21668611.289    88729343.098         256.873          46.000  
G27  21735427.670   114220446.642        2448.537          45.000    21735421.361    89002917.115        1907.873          45.000  
G16  20664884.757   108594703.528        -341.595          47.000                                                                  
G08  23822770.501                        3449.422          38.000    23822769.890    97550281.084        2687.733          40.000  
G09  23771965.238                        2301.783          38.000    23771959.671    97342196.994        1793.440          38.000  
G31  21990723.432   115562032.315       -2094.690          47.000    21990712.804    90048289.002       -1632.443          44.000  
C06  36735674.219   191292277.573          32.850          47.000    36735656.274   147919265.016          25.229          49.000  
C32  26691119.374                       -3572.745          37.000                                                                  
C37  22884613.338   119166188.602        -576.479          49.000                                                                  
C07  38352362.843                         697.131          41.000    38352345.904   154429010.755         538.920          45.000  
C13  41790813.717                       -2324.912          35.000    41790846.002   168274437.475       -1797.351          38.000  
C20  24642694.625                       -2144.456          46.000                                                                  
G18  25350464.242                         913.457          38.000    25350457.955   103805883.317         712.032          40.000  
G28  24185343.172   127094834.072       -2992.714          41.000    24185336.134    99034895.526       -2331.848          42.000  
G03  25701206.619                       -3027.818          34.000    25701220.827   105242107.115       -2359.442          37.000  
G26  21783543.081   114473294.627       -2227.948          46.000    21783535.442    89199937.448       -1736.010          44.000  
C10  39415733.168                         654.803          38.000    39415721.523   158710777.577         506.177          43.000  
C28  23865321.771   124272996.571        1385.346          47.000                                                                  
C23  25151518.241                       -2290.105          42.000                                                                  
C16  37174770.085                          32.080          48.000    37174757.414   149687344.889          24.756          48.000  
C27  25353487.310                        2767.413          40.000                                                                  
C19  25726540.411   133964849.775         321.472          41.000                                                                  
C09  37804713.358   196859065.697         193.394          45.000    37804698.019   152223857.197         149.488          48.000  
C11                                                                  27150400.817   109323410.790       -1975.366          44.000  
> 2025 10 28 08 27 47.0420000  0 24                     
G04  21668618.345   113869358.108         330.598          46.000    21668608.769    88729332.766         257.347          46.000  
G27  21735409.019   114220348.629        2449.236          45.000    21735402.708    89002840.737        1908.526          45.000  
G16  20664887.373   108594717.116        -340.739          47.000                                                                  
G08  23822744.232                        3450.506          38.000    23822743.651    97550173.509        2688.553          40.000  
G09  23771947.755                        2302.487          38.000    23771942.127    97342125.210        1793.893          38.000  
G31  21990739.385   115562116.035       -2094.059          47.000    21990728.741    90048354.235       -1631.832          44.000  
C06  36735673.950                          33.517          47.000    36735655.998   147919263.939          25.923          49.000  
C32  26691146.793                       -3572.146          37.000                                                                  
C37  22884617.720                        -575.650          49.000                                                                  
C07  38352357.481                         697.708          41.000    38352340.519   154428989.154         539.283          45.000  
C13  41790831.555                       -2323.718          35.000    41790863.843   168274509.326       -1796.891          38.000  
C20  24642711.084                       -2143.913          46.000                                                                  
G18  25350457.278                         914.685          38.000    25350450.989   103805854.782         712.549          40.000  
G28  24185365.933                       -2991.736          41.000    24185358.912    99034988.752       -2331.298          42.000  
G03  25701229.680                       -3027.598          34.000    25701243.869   105242201.430       -2358.693          37.000  
G26  21783560.033   114473383.670       -2227.188          46.000    21783552.378    89200006.849       -1735.729          44.000  
C10  39415728.125                         655.591          38.000    39415716.518   158710757.285         506.647          43.000  
C28  23865311.090                        1386.206          47.000                                                                  
C23  25151535.801                       -2288.929          42.000                                                                  
C16  37174769.842                          32.899          48.000    37174757.122   149687343.850          25.168          48.000  
C27  25353466.025                        2767.972          40.000                                                                  
C19  25726537.953                         322.071          41.000                                                                  
C09  37804711.840                         194.314          45.000    37804696.525   152223851.157         150.118          48.000  
C11                                                                  27150420.426   109323489.752       -1974.730          44.000  
> 2025 10 28 08 27 47.0820000  0 24                     
G04  21668615.822                         332.174          45.000    21668606.230    88729322.369         258.892          46.000  
G27  21735390.368   114220250.568        2450.636          45.000    21735384.042    89002764.318        1909.760          45.000  
G16  20664889.971   108594730.658        -339.299          47.000                                                                  
G08  23822717.951                        3452.094          38.000    23822717.381    97550065.894        2689.864          40.000  
G09  23771930.230                        2304.078          38.000    23771924.585    97342053.374        1795.180          38.000  
G31  21990755.300                       -2092.324          47.000    21990744.674    90048419.419       -1630.474          44.000  
C06  36735673.639                          35.293          47.000    36735655.729   147919262.825          27.109          49.000  
C32  26691174.200                       -3570.335          37.000                                                                  
C37  22884622.083                        -574.004          49.000                                                                  
C07  38352352.085                         699.229          41.000    38352335.155   154428967.508         540.457          45.000  
C13  41790849.387                       -2322.432          35.000    41790881.664   168274581.146       -1795.954          38.000  
C20  24642727.514                       -2142.088          46.000                                                                  
G18  25350450.323                         916.234          38.000    25350444.013   103805826.198         713.848          40.000  
G28  24185388.691                       -2990.139          41.000    24185381.674    99035081.943       -2330.236          42.000  
G03  25701252.711                       -3026.069          34.000    25701266.891   105242295.703       -2357.540          37.000  
G26  21783576.974   114473472.660       -2225.686          46.000    21783569.300    89200076.188       -1734.327          44.000  
C10  39415723.086                         656.659          38.000    39415711.461   158710736.940         508.020          43.000  
C28  23865300.410                        1387.454          47.000                                                                  
C23  25151553.360                       -2287.573          42.000                                                                  
C16  37174769.528                          34.564          48.000    37174756.826   149687342.746          26.664          48.000  
C27  25353444.712                        2769.651          40.000                                                                  
C19  25726535.431                         323.559          41.000                                                                  
C09  37804710.322                         195.930          45.000    37804695.003   152223845.068         151.480          48.000  
C11                                                                  27150440.030   109323568.676       -1973.625          44.000  
> 2025 10 28 08 27 47.1220000  0 24                     
G04  21668613.253   113869331.433         333.415          45.000    21668603.653    88729311.967         259.896          46.000  
G27  21735371.713   114220152.484        2451.857          45.000    21735365.365    89002687.886        1910.699          45.000  
G16  20664892.542   108594744.175        -338.040          47.000                                                                  
G08  23822691.662                        3453.012          38.000    23822691.098    97549958.294        2690.216          40.000  
G09  23771912.704                        2305.292          38.000    23771907.017    97341981.515        1796.421          38.000  
G31  21990771.225   115562283.327       -2091.152          47.000    21990760.576    90048484.594       -1629.534          44.000  
C06  36735673.345                          36.485          47.000    36735655.452   147919261.690          28.162          49.000  
C32  26691201.608                       -3568.751          37.000                                                                  
C37  22884626.481                        -572.909          49.000                                                                  
C07  38352346.704                         700.274          41.000    38352329.790   154428945.830         541.705          45.000  
C13  41790867.216                       -2320.880          35.000    41790899.494   168274652.950       -1795.137          38.000  
C20  24642743.956                       -2140.918          46.000                                                                  
G18  25350443.323                         917.388          38.000    25350437.016   103805797.600         714.797          40.000  
G28  24185411.449                       -2989.242          41.000    24185404.410    99035175.101       -2329.049          42.000  
G03  25701275.708                       -3024.133          34.000    25701289.917   105242389.962       -2356.580          37.000  
G26  21783593.908   114473561.632       -2224.524          46.000    21783586.202    89200145.519       -1733.387          44.000  
C10  39415718.012                         658.240          38.000    39415706.408   158710716.582         508.972          43.000  
C28  23865289.720                        1388.669          47.000                                                                  
C23  25151570.930                       -2286.547          42.000                                                                  
C16  37174769.270                          35.706          48.000    37174756.524   149687341.636          27.653          48.000  
C27  25353423.422                        2770.693          40.000                                                                  
C19  25726532.921                         324.790          41.000                                                                  
C09  37804708.830                         196.960          45.000    37804693.510   152223838.975         152.315          48.000  
C11                                                                  27150459.634   109323647.587       -1972.746          44.000  
> 2025 10 28 08 27 47.1620000  0 24                     
G04  21668610.680   113869318.022         335.140          46.000    21668601.110    88729301.516         261.194          46.000  
G27  21735353.038   114220054.323        2453.789          45.000    21735346.687    89002611.406        1911.966          45.000  
G16  20664895.118   108594757.622        -336.220          47.000                                                                  
G08  23822665.363                        3454.416          38.000    23822664.811    97549850.603        2692.020          40.000  
G09  23771895.161                        2306.652          38.000    23771889.427    97341909.593        1798.036          38.000  
G31  21990787.129   115562366.896       -2089.323          47.000    21990776.470    90048549.706       -1627.976          44.000  
C06  36735673.028                          38.167          47.000    36735655.160   147919260.501          29.589          49.000  
C32  26691229.015                       -3567.326          37.000                                                                  
C37  22884630.882                        -571.156          49.000                                                                  
C07  38352341.306                         702.201          41.000    38352324.383   154428924.099         543.246          45.000  
C13  41790885.023                       -2319.515          35.000    41790917.285   168274724.695       -1793.734          38.000  
C20  24642760.384                       -2139.177          46.000                                                                  
G18  25350436.317                         918.869          38.000    25350430.001   103805768.947         716.258          40.000  
G28  24185434.197                       -2987.376          41.000    24185427.136    99035268.211       -2327.681          42.000  
G03  25701298.716                       -3022.422          34.000    25701312.947   105242484.174       -2355.252          37.000  
G26  21783610.811   114473650.537       -2222.776          46.000    21783603.127    89200214.787       -1731.853          44.000  
C10  39415712.941                         659.943          38.000    39415701.344   158710696.183         510.071          43.000  
C28  23865279.025                        1390.546          47.000                                                                  
C23  25151588.484                       -2284.635          42.000                                                                  
C16  37174768.987                          37.510          48.000    37174756.229   149687340.468          29.134          48.000  
C27  25353402.107                        2772.587          40.000                                                                  
C19  25726530.419                         326.593          41.000                                                                  
C09  37804707.300                         198.664          45.000    37804691.959   152223832.818         153.806          48.000  
C11                                                                  27150479.222   109323726.446       -1971.421          44.000  
> 2025 10 28 08 27 47.2020000  0 24                     
G04  21668608.127   113869304.620         335.632          46.000    21668598.537    88729291.079         261.436          46.000  
G27  21735334.368   114219956.181        2454.228          45.000    21735327.997    89002534.932        1912.295          45.000  
G16  20664897.692   108594771.103        -336.232          47.000                                                                  
G08  23822639.067                        3454.407          38.000    23822638.510    97549742.952        2691.944          40.000  
G09  23771877.575                        2306.967          38.000    23771871.853    97341837.706        1797.927          38.000  
G31  21990803.032   115562450.493       -2089.181          47.000    21990792.350    90048614.839       -1627.777          44.000  
C06  36735672.708   191292270.228          38.496          47.000    36735654.885   147919259.330          29.839          49.000  
C32  26691256.413                       -3567.641          37.000                                                                  
C37  22884635.245   119166303.143        -571.088          49.000                                                                  
C07  38352335.879                         702.458          41.000    38352318.959   154428902.394         543.281          45.000  
C13  41790902.818                       -2319.115          35.000    41790935.085   168274796.464       -1793.671          38.000  
C20  24642776.811                       -2138.876          46.000                                                                  
G18  25350429.323                         919.527          38.000    25350423.009   103805740.346         715.834          40.000  
G28  24185456.938                       -2987.832          41.000    24185449.863    99035361.347       -2327.778          42.000  
G03  25701321.729                       -3022.385          34.000    25701335.952   105242578.403       -2355.207          37.000  
G26  21783627.732   114473739.459       -2222.424          46.000    21783620.025    89200284.066       -1731.462          44.000  
C10  39415707.874                         659.534          38.000    39415696.296   158710675.805         509.930          43.000  
C28  23865268.338                        1390.297          47.000                                                                  
C23  25151606.028                       -2284.336          42.000                                                                  
C16  37174768.725                          37.729          48.000    37174755.926   149687339.321          29.267          48.000  
C27  25353380.788                        2772.910          40.000                                                                  
C19  25726527.899                         326.535          41.000                                                                  
C09  37804705.762   196859026.249         198.978          45.000    37804690.410   152223826.690         153.823          48.000  
C11                                                                  27150498.813   109323805.323       -1971.375          44.000  
> 2025 10 28 08 27 47.2420000  0 24                     
G04  21668605.614                         332.854          46.000    21668595.989    88729280.750         259.432          46.000  
G27  21735315.722                        2451.390          45.000    21735309.305    89002458.566        1910.357          45.000  
G16  20664900.300                        -338.997          47.000                                                                  
G08  23822612.795                        3452.046          38.000    23822612.246    97549635.404        2689.672          40.000  
G09  23771860.047                        2304.458          38.000    23771854.344                        1795.283          39.000  
G31  21990818.962                       -2091.863          47.000    21990808.275    90048680.078       -1629.785          44.000  
C06  36735672.456                          35.969          47.000    36735654.614   147919258.260          27.939          49.000  
C32  26691283.857                       -3570.226          37.000                                                                  
C37  22884639.663                        -573.834          49.000                                                                  
C07  38352330.528                         699.872          41.000    38352313.599   154428880.796         541.060          45.000  
C13  41790920.675                       -2322.559          35.000    41790952.874   168274868.329       -1795.737          38.000  
C20  24642793.270                       -2141.747          46.000                                                                  
G18  25350422.360                         916.642          38.000    25350416.028   103805711.800         714.430          40.000  
G28  24185479.699                       -2990.233          41.000    24185472.628    99035454.578       -2329.873          42.000  
G03  25701344.780                       -3025.236          34.000    25701358.982                       -2357.208          37.000  
G26  21783644.680                       -2224.933          46.000    21783636.963    89200353.458       -1733.507          44.000  
C10  39415702.833                         656.848          38.000    39415691.237   158710655.507         508.221          43.000  
C28  23865257.730                        1387.697          47.000                                                                  
C23  25151623.638                       -2286.833          42.000                                                                  
C16  37174768.493                          34.959          48.000    37174755.647   149687338.284          27.121          48.000  
C27  25353359.517                        2770.605          40.000                                                                  
C19  25726525.431                         323.815          41.000                                                                  
C09  37804704.256                         196.188          45.000    37804688.907   152223820.657         151.868          48.000  
C11                                                                  27150518.404   109323884.294       -1973.384          44.000  
> 2025 10 28 08 27 47.2820000  0 24                     
G04  21668603.103                         330.772          46.000    21668593.476    88729270.446         257.907          46.000  
G27  21735297.067                        2449.431          45.000    21735290.665    89002382.244        1908.515          45.000  
G16  20664902.910                        -340.730          47.000                                                                  
G08  23822586.535                        3450.228          38.000    23822585.985    97549527.870        2688.265          40.000  
G09  23771842.561                        2302.471          38.000    23771836.847    97341694.174        1794.059          39.000  
G31  21990834.880                       -2093.829          47.000    21990824.214    90048745.356       -1631.589          44.000  
C06  36735672.220                          33.980          47.000    36735654.397   147919257.236          26.078          49.000  
C32  26691311.302                       -3571.444          37.000                                                                  
C37  22884644.101                        -575.678          49.000                                                                  
C07  38352325.192                         697.696          41.000    38352308.239   154428859.210         539.673          45.000  
C13  41790938.532                       -2323.985          35.000    41790970.741   168274940.218       -1797.277          38.000  
C20  24642809.759                       -2143.528          46.000                                                                  
G18  25350415.404                         914.648          38.000    25350409.047   103805683.304         712.746          40.000  
G28  24185502.463                       -2991.879          41.000    24185495.406    99035547.839       -2331.420          42.000  
G03  25701367.809                       -3026.574          34.000    25701382.037   105242767.078       -2358.575          37.000  
G26  21783661.619                       -2227.085          46.000    21783653.935    89200422.895       -1735.386          44.000  
C10  39415697.821                         655.463          38.000    39415686.218   158710635.235         506.903          43.000  
C28  23865247.110                        1385.975          47.000                                                                  
C23  25151641.277                       -2288.884          42.000                                                                  
C16  37174768.258                          32.973          48.000    37174755.391   149687337.279          25.407          48.000  
C27  25353338.281                        2768.538          40.000                                                                  
C19  25726522.946                         321.973          41.000                                                                  
C09  37804702.774                         194.533          45.000    37804687.416   152223814.655         150.270          48.000  
C11                                                                  27150538.006   109323963.303       -1975.042          44.000  
> 2025 10 28 08 27 47.3220000  0 24                     
G04  21668600.579                         330.200          46.000    21668590.977    88729260.141         257.222          46.000  
G27  21735278.427                        2448.839          45.000    21735272.002    89002305.900        1908.029          45.000  
G16  20664905.483                        -341.030          47.000                                                                  
G08  23822560.279                        3449.677          38.000    23822559.718    97549420.308        2688.360          40.000  
G09  23771825.049                        2302.139          38.000    23771819.321    97341622.410        1793.560          39.000  
G31  21990850.824                       -2094.060          47.000    21990840.164    90048810.618       -1632.090          44.000  
C06  36735671.948                          33.535          47.000    36735654.141   147919256.181          25.772          49.000  
C32  26691338.730                       -3571.955          37.000                                                                  
C37  22884648.552                        -575.886          49.000                                                                  
C07  38352319.846                         697.697          41.000    38352302.865   154428837.624         539.202          45.000  
C13  41790956.380                       -2324.137          35.000    41790988.573   168275012.071       -1797.109          38.000  
C20  24642826.237                       -2143.938          46.000                                                                  
G18  25350408.475                         914.611          38.000    25350402.082   103805654.773         712.627          40.000  
G28  24185525.240                       -2991.942          41.000    24185518.156    99035641.071       -2331.484          42.000  
G03  25701390.850                       -3027.213          34.000    25701405.079   105242861.417       -2358.911          37.000  
G26  21783678.569                       -2227.263          46.000    21783670.882    89200492.299       -1735.703          44.000  
C10  39415692.784                         655.658          38.000    39415681.189   158710614.949         506.610          43.000  
C28  23865236.488                        1385.878          47.000                                                                  
C23  25151658.869                       -2289.397          42.000                                                                  
C16  37174768.003                          32.836          48.000    37174755.155   149687336.247          25.138          48.000  
C27  25353317.017                        2767.901          40.000                                                                  
C19  25726520.493                         321.922          41.000                                                                  
C09  37804701.279                         194.246          45.000    37804685.920   152223808.630         150.026          48.000  
C11                                                                  27150557.662   109324042.274       -1974.971          44.000  
> 2025 10 28 08 27 47.3620000  0 24                     
G04  21668598.084                         331.716          46.000    21668588.430    88729249.772         258.221          46.000  
G27  21735259.790                        2450.078          45.000    21735253.372    89002229.499        1909.034          45.000  
G16  20664908.071                        -339.763          47.000                                                                  
G08  23822534.033                        3451.256          38.000    23822533.448    97549312.707        2689.385          40.000  
G09  23771807.526                        2302.993          38.000    23771801.772    97341550.579        1794.845          39.000  
G31  21990866.761                       -2092.887          47.000    21990856.099    90048875.824       -1631.134          44.000  
C06  36735671.634                          34.750          47.000    36735653.873   147919255.077          26.682          49.000  
C32  26691366.155                       -3570.975          37.000                                                                  
C37  22884652.908                        -574.394          49.000                                                                  
C07  38352314.466                         699.110          41.000    38352297.498   154428815.980         540.218          45.000  
C13  41790974.223                       -2322.243          35.000    41791006.397   168275083.888       -1796.103          38.000  
C20  24642842.666                       -2142.690          46.000                                                                  
G18  25350401.501                         915.345          38.000    25350395.129   103805626.208         713.383          40.000  
G28  24185547.989                       -2990.616          41.000    24185540.905    99035734.263       -2330.517          42.000  
G03  25701413.882                       -3026.208          34.000    25701428.114   105242955.713       -2358.185          37.000  
G26  21783695.515                       -2226.122          46.000    21783687.817    89200561.662       -1734.905          44.000  
C10  39415687.727                         656.769          38.000    39415676.122   158710594.625         507.458          43.000  
C28  23865225.802                        1387.106          47.000                                                                  
C23  25151676.422                       -2288.201          42.000                                                                  
C16  37174767.704                          34.130          48.000    37174754.859   149687335.163          26.177          48.000  
C27  25353295.736                        2768.967          40.000                                                                  
C19  25726517.988                         323.140          41.000                                                                  
C09  37804699.770                         195.506          45.000    37804684.449   152223802.551         151.121          48.000  
C11                                                                  27150577.258   109324121.202       -1973.936          44.000  
> 2025 10 28 08 27 47.4020000  0 24                     
G04  21668595.556                         333.703          46.000    21668585.894    88729239.343         259.958          46.000  
G27  21735241.125                        2452.142          45.000    21735234.704    89002153.031        1910.889          45.000  
G16  20664910.643                        -337.803          47.000                                                                  
G08  23822507.749                        3453.688          38.000    23822507.177    97549205.059        2690.877          40.000  
G09  23771790.001                        2305.577          38.000    23771784.202                        1796.959          39.000  
G31  21990882.695                       -2090.836          47.000    21990872.036    90048940.958       -1629.209          44.000  
C06  36735671.315                          36.694          47.000    36735653.598   147919253.905          28.489          49.000  
C32  26691393.545                       -3568.343          37.000                                                                  
C37  22884657.243                        -572.428          49.000                                                                  
C07  38352309.090                         700.865          41.000    38352292.080   154428794.289         541.768          45.000  
C13  41790992.031                       -2320.242          35.000    41791024.217   168275155.662       -1794.704          38.000  
C20  24642859.072                       -2140.598          46.000                                                                  
G18  25350394.521                         917.746          38.000    25350388.148   103805597.584         714.954          40.000  
G28  24185570.748                       -2988.953          41.000    24185563.639    99035827.408       -2329.082          42.000  
G03  25701436.886                       -3024.489          34.000    25701451.141                       -2356.586          37.000  
G26  21783712.441                       -2224.235          46.000    21783704.748    89200630.960       -1733.219          44.000  
C10  39415682.650                         658.551          38.000    39415671.070   158710574.238         509.167          43.000  
C28  23865215.107                        1388.885          47.000                                                                  
C23  25151693.945                       -2286.348          42.000                                                                  
C16  37174767.380                          36.164          48.000    37174754.573   149687334.017          27.959          48.000  
C27  25353274.415                        2771.253          40.000                                                                  
C19  25726515.470                         325.232          41.000                                                                  
C09  37804698.229                         197.631          45.000    37804682.922   152223796.423         152.680          48.000  
C11                                                                  27150596.867   109324200.094       -1972.649          44.000  
> 2025 10 28 08 27 47.4420000  0 24                     
G04  21668593.025                         334.765          46.000    21668583.327    88729228.901         261.053          46.000  
G27  21735222.433                        2453.431          45.000    21735216.020    89002076.566        1911.769          45.000  
G16  20664913.223                        -336.741          47.000                                                                  
G08  23822481.469                        3454.613          38.000    23822480.865    97549097.400        2691.672          40.000  
G09  23771772.417                        2306.455          38.000    23771766.639                        1797.353          39.000  
G31  21990898.601                       -2089.758          47.000    21990887.924    90049006.090       -1628.253          44.000  
C06  36735671.012                          37.946          47.000    36735653.321   147919252.726          29.512          49.000  
C32  26691420.939                       -3567.436          37.000                                                                  
C37  22884661.646                        -571.473          49.000                                                                  
C07  38352303.699                         701.729          41.000    38352286.670   154428772.588         542.651          45.000  
C13  41791009.825                       -2319.819          35.000    41791042.055   168275227.415       -1793.708          39.000  
C20  24642875.511                       -2139.597          46.000                                                                  
G18  25350387.522                         918.615          38.000    25350381.136   103805568.958         715.748          40.000  
G28  24185593.494                       -2987.747          41.000    24185586.384    99035920.543       -2328.293          42.000  
G03  25701459.881                       -3023.385          34.000    25701474.143   105243144.176       -2355.734          37.000  
G26  21783729.366                       -2223.096          46.000    21783721.637    89200700.252       -1732.290          44.000  
C10  39415677.590                         659.198          38.000    39415666.002   158710553.847         509.949          43.000  
C28  23865204.459                        1389.889          47.000                                                                  
C23  25151711.484                       -2285.029          42.000                                                                  
C16  37174767.084                          37.227          48.000    37174754.248   149687332.866          28.890          48.000  
C27  25353253.088                        2772.455          40.000                                                                  
C19  25726512.948                         326.236          41.000                                                                  
C09  37804696.706                         198.516          45.000    37804681.363   152223790.292         153.428          48.000  
C11                                                                  27150616.445   109324278.975       -1971.897          44.000  
> 2025 10 28 08 27 47.4820000  0 24                     
G04  21668590.485                         334.167          46.000    21668580.783    88729218.512         260.539          46.000  
G27  21735203.758                        2452.912          45.000    21735197.340    89002000.144        1911.278          45.000  
G16  20664915.801                        -337.553          47.000                                                                  
G08  23822455.196                        3453.455          38.000    23822454.586    97548989.780        2691.173          40.000  
G09  23771754.864                        2305.375          38.000    23771749.082                        1796.356          39.000  
G31  21990914.506                       -2090.396          47.000    21990903.822    90049071.283       -1628.972          44.000  
C06  36735670.721                          37.464          47.000    36735653.064   147919251.600          28.952          49.000  
C32  26691448.382                       -3568.730          37.000                                                                  
C37  22884666.074                        -572.275          49.000                                                                  
C07  38352298.311                         700.828          41.000    38352281.291   154428750.916         542.400          45.000  
C13  41791027.660                       -2321.196          35.000    41791059.892   168275299.204       -1794.040          38.000  
C20  24642891.944                       -2140.186          46.000                                                                  
G18  25350380.560                         917.576          37.000    25350374.144   103805540.361         715.502          40.000  
G28  24185616.246                       -2988.447          41.000    24185609.147    99036013.716       -2328.750          42.000  
G03  25701482.884                       -3023.294          34.000    25701497.162   105243238.426       -2355.779          37.000  
G26  21783746.287                       -2223.697          46.000    21783738.531    89200769.588       -1732.688          44.000  
C10  39415672.572                         658.282          38.000    39415660.953   158710533.492         509.497          43.000  
C28  23865193.800                        1389.182          47.000                                                                  
C23  25151729.058                       -2285.483          42.000                                                                  
C16  37174766.779                          36.589          48.000    37174753.954   149687331.758          28.397          48.000  
C27  25353231.796                        2771.740          40.000                                                                  
C19  25726510.458                         325.423          41.000                                                                  
C09  37804695.188                         197.865          45.000    37804679.839   152223784.198         152.985          48.000  
C11                                                                  27150636.051   109324357.888       -1972.273          44.000  
> 2025 10 28 08 27 47.5220000  0 24                     
G04  21668587.956                         333.729          46.000    21668578.244    88729208.127         260.107          46.000  
G27  21735185.088                        2452.268          45.000    21735178.690    89001923.726        1910.886          45.000  
G16  20664918.375                        -337.520          47.000                                                                  
G08  23822428.913                        3453.528          38.000    23822428.306    97548882.151        2690.962          40.000  
G09  23771737.327                        2305.777          38.000    23771731.543    97341263.133        1796.225          39.000  
G31  21990930.434                       -2090.675          47.000    21990919.742    90049136.462       -1629.177          44.000  
C06  36735670.427                          37.060          47.000    36735652.773   147919250.475          28.547          49.000  
C32  26691475.817                       -3568.761          37.000                                                                  
C37  22884670.496                        -572.453          49.000                                                                  
C07  38352292.948                         701.054          41.000    38352275.903   154428729.227         542.484          45.000  
C13  41791045.487                       -2320.633          35.000    41791077.734   168275370.995       -1794.337          38.000  
C20  24642908.389                       -2140.487          46.000                                                                  
G18  25350373.578                         917.882          37.000    25350367.169   103805511.770         715.150          40.000  
G28  24185638.996                       -2988.448          41.000    24185631.897    99036106.866       -2328.603          42.000  
G03  25701505.897                       -3023.460          34.000    25701520.181   105243332.685       -2356.042          37.000  
G26  21783763.231   114474451.500       -2223.990          46.000    21783755.467    89200838.914       -1732.814          44.000  
C10  39415667.515                         658.502          38.000    39415655.898   158710513.125         509.393          43.000  
C28  23865183.149                        1389.309          47.000                                                                  
C23  25151746.640                       -2285.663          42.000                                                                  
C16  37174766.494                          36.254          48.000    37174753.675   149687330.649          28.083          48.000  
C27  25353210.510                        2771.359          40.000                                                                  
C19  25726507.956                         325.179          41.000                                                                  
C09  37804693.672                         197.699          45.000    37804678.288   152223778.089         152.971          48.000  
C11                                                                  27150655.650   109324436.784       -1972.225          44.000  
> 2025 10 28 08 27 47.5620000  0 24                     
G04  21668585.424                         334.736          46.000    21668575.708    88729197.683         260.841          46.000  
G27  21735166.402                        2453.139          45.000    21735159.996    89001847.244        1911.722          45.000  
G16  20664920.948                        -336.514          47.000                                                                  
G08  23822402.622                        3454.353          38.000    23822402.000    97548774.480        2691.570          40.000  
G09  23771719.771                        2307.012          38.000    23771713.977    97341191.216        1797.457          39.000  
G31  21990946.333   115563203.467       -2089.722          47.000    21990935.648    90049201.575       -1628.168          44.000  
C06  36735670.123                          38.056          47.000    36735652.477   147919249.291          29.316          49.000  
C32  26691503.212                       -3567.230          38.000                                                                  
C37  22884674.853                        -571.355          49.000                                                                  
C07  38352287.541                         702.227          41.000    38352270.514   154428707.507         543.013          45.000  
C13  41791063.291                       -2319.194          35.000    41791095.564   168275442.748       -1793.910          38.000  
C20  24642924.837                       -2139.538          46.000                                                                  
G18  25350366.579                         919.202          37.000    25350360.180   103805483.127         715.851          40.000  
G28  24185661.745                       -2987.581          41.000    24185654.646    99036199.976       -2327.853          42.000  
G03  25701528.864                       -3023.023          34.000    25701543.193   105243426.897       -2355.398          37.000  
G26  21783780.155   114474540.401       -2222.887          46.000    21783772.387    89200908.194       -1732.151          44.000  
C10  39415662.441                         659.656          38.000    39415650.825   158710492.710         510.193          43.000  
C28  23865172.482                        1390.189          47.000                                                                  
C23  25151764.191                       -2284.844          42.000                                                                  
C16  37174766.175                          37.358          48.000    37174753.374   149687329.490          28.778          48.000  
C27  25353189.208                        2772.568          40.000                                                                  
C19  25726505.464                         326.237          41.000                                                                  
C09  37804692.157                         198.624          45.000    37804676.744   152223771.930         153.776          48.000  
C11                                                                  27150675.238   109324515.636       -1971.432          44.000  
> 2025 10 28 08 27 47.6020000  0 24                     
G04  21668582.865   113869171.354         335.476          46.000    21668573.146    88729187.231         261.311          46.000  
G27  21735147.710   114218975.495        2453.958          45.000    21735141.318    89001770.754        1912.304          45.000  
G16  20664923.513   108594906.431        -336.107          47.000                                                                  
G08  23822376.324                        3454.930          38.000    23822375.698    97548666.795        2692.081          40.000  
G09  23771702.195                        2307.186          38.000    23771696.396    97341119.320        1797.641          39.000  
G31  21990962.225   115563287.029       -2089.027          47.000    21990951.541    90049266.690       -1627.708          44.000  
C06  36735669.838   191292255.697          38.557          47.000    36735652.197   147919248.097          29.846          49.000  
C32  26691530.604                       -3566.584          38.000                                                                  
C37  22884679.238                        -570.796          50.000                                                                  
C07  38352282.120                         702.692          41.000    38352265.149   154428685.798         542.986          45.000  
C13  41791081.090                       -2318.796          35.000    41791113.392   168275514.493       -1793.675          38.000  
C20  24642941.272   128322262.498       -2139.024          46.000                                                                  
G18  25350359.583                         919.435          37.000    25350353.179   103805454.472         716.389          40.000  
G28  24185684.484   127096627.611       -2987.123          41.000    24185677.376    99036293.082       -2327.518          42.000  
G03  25701551.853                       -3022.649          34.000    25701566.193   105243521.097       -2354.899          37.000  
G26  21783797.062   114474629.297       -2222.285          46.000    21783789.289    89200977.455       -1731.538          44.000  
C10  39415657.403                         660.187          38.000    39415645.743   158710472.309         510.278          43.000  
C28  23865161.820   124272163.424        1390.659          47.000                                                                  
C23  25151781.733                       -2284.338          42.000                                                                  
C16  37174765.869                          37.892          48.000    37174753.058   149687328.321          29.265          48.000  
C27  25353167.891                        2773.097          40.000                                                                  
C19  25726502.949   133964654.944         326.973          41.000                                                                  
C09  37804690.618   196858947.482         199.126          45.000    37804675.218   152223765.780         153.973          48.000  
C11                                                                  27150694.826   109324594.495       -1971.251          44.000  
> 2025 10 28 08 27 47.6420000  0 24                     
G04  21668580.313   113869157.959         335.342          46.000    21668570.615    88729176.792         261.259          46.000  
G27  21735129.027   114218877.346        2454.042          45.000    21735122.643    89001694.283        1912.143          45.000  
G16  20664926.099   108594919.900        -336.315          47.000                                                                  
G08  23822350.027                        3455.026          38.000    23822349.380    97548559.124        2691.999          40.000  
G09  23771684.633                        2306.712          38.000    23771678.845    97341047.423        1797.647          39.000  
G31  21990978.142   115563370.617       -2089.220          47.000    21990967.429    90049331.826       -1627.953          44.000  
C06  36735669.535   191292254.169          38.533          47.000    36735651.920   147919246.906          29.997          49.000  
C32  26691558.013                       -3566.927          38.000                                                                  
C37  22884683.646   119166555.237        -570.885          50.000                                                                  
C07  38352276.732   199710370.639         702.640          41.000    38352259.727   154428664.082         542.977          45.000  
C13  41791098.898                       -2319.067          35.000    41791131.206   168275586.239       -1793.586          38.000  
C20  24642957.700   128322348.070       -2138.984          46.000                                                                  
G18  25350352.609                         919.469          37.000    25350346.179   103805425.830         716.363          40.000  
G28  24185707.217   127096747.114       -2987.195          41.000    24185700.104    99036386.211       -2327.811          42.000  
G03  25701574.850                       -3022.132          34.000    25701589.225   105243615.301       -2354.813          37.000  
G26  21783813.956   114474718.203       -2222.279          46.000    21783806.214    89201046.738       -1731.706          44.000  
C10  39415652.340                         660.016          38.000    39415640.689   158710451.911         510.187          43.000  
C28  23865151.116   124272107.820        1390.494          47.000                                                                  
C23  25151799.256   130972026.781       -2284.424          42.000                                                                  
C16  37174765.559   193578758.774          37.857          48.000    37174752.775   149687327.160          29.285          48.000  
C27  25353146.598   132020493.355        2773.142          40.000                                                                  
C19  25726500.440   133964641.907         326.539          41.000                                                                  
C09  37804689.105   196858939.529         199.162          45.000    37804673.682   152223759.643         153.733          48.000  
C11                                                                  27150714.447   109324673.361       -1971.396          44.000  
> 2025 10 28 08 27 47.6820000  0 24                     
G04  21668577.773   113869144.566         335.124          46.000    21668568.079    88729166.360         261.027          46.000  
G27  21735110.374   114218779.206        2453.797          45.000    21735103.977    89001617.814        1911.909          45.000  
G16  20664928.660   108594933.364        -336.454          47.000                                                                  
G08  23822323.735   125187163.692        3454.417          38.000    23822323.078    97548451.454        2691.877          40.000  
G09  23771667.036   124920958.429        2306.866          38.000    23771661.281    97340975.535        1797.388          39.000  
G31  21990994.042   115563454.202       -2089.404          47.000    21990983.326    90049396.960       -1628.159          44.000  
C06  36735669.243   191292252.637          38.514          47.000    36735651.610   147919245.728          29.779          49.000  
C32  26691585.438                       -3567.867          38.000                                                                  
C37  22884688.011   119166578.089        -571.053          50.000                                                                  
C07  38352271.333   199710342.573         702.064          41.000    38352254.331   154428642.375         542.775          45.000  
C13  41791116.700                       -2319.708          35.000    41791149.019   168275657.986       -1793.646          38.000  
C20  24642974.128   128322433.653       -2139.235          46.000                                                                  
G18  25350345.616                         919.090          37.000    25350339.198   103805397.204         716.010          40.000  
G28  24185729.964   127096866.618       -2987.420          41.000    24185722.865    99036479.339       -2328.071          42.000  
G03  25701597.832                       -3022.424          34.000    25701612.242   105243709.526       -2355.244          37.000  
G26  21783830.888   114474807.118       -2222.535          46.000    21783823.140    89201116.027       -1731.989          44.000  
C10  39415647.257                         659.802          38.000    39415635.605   158710431.509         510.156          43.000  
C28  23865140.420   124272052.224        1390.166          47.000                                                                  
C23  25151816.807   130972118.167       -2284.463          42.000                                                                  
C16  37174765.223   193578757.284          37.536          48.000    37174752.466   149687326.007          29.059          48.000  
C27  25353125.303   132020382.465        2772.704          40.000                                                                  
C19  25726497.929   133964628.859         326.372          41.000                                                                  
C09  37804687.586   196858931.580         198.986          45.000    37804672.173   152223753.492         153.811          48.000  
C11                                                                  27150734.033   109324752.235       -1971.725          44.000  
> 2025 10 28 08 27 47.7220000  0 24                     
G04  21668575.237   113869131.206         334.351          46.000    21668565.565    88729155.947         260.524          46.000  
G27  21735091.712   114218681.105        2452.930          45.000    21735085.330    89001541.369        1911.341          45.000  
G16  20664931.206   108594946.855        -337.072          47.000                                                                  
G08  23822297.448   125187025.551        3453.708          38.000    23822296.797    97548343.813        2691.236          40.000  
G09  23771649.497   124920866.196        2306.167          38.000    23771643.706    97340903.649        1797.226          39.000  
G31  21991009.957   115563537.818       -2090.110          47.000    21990999.240    90049462.111       -1628.610          44.000  
C06  36735668.935   191292251.147          37.703          47.000    36735651.350   147919244.579          29.046          49.000  
C32  26691612.844                       -3568.087          38.000                                                                  
C37  22884692.397   119166600.979        -571.884          50.000                                                                  
C07  38352265.944   199710314.522         701.470          41.000    38352248.943   154428620.685         542.331          45.000  
C13  41791134.545                       -2319.892          35.000    41791166.857   168275729.746       -1793.889          38.000  
C20  24642990.561   128322519.260       -2139.883          46.000                                                                  
G18  25350338.618                         917.729          37.000    25350332.216   103805368.594         715.490          40.000  
G28  24185752.713   127096986.162       -2988.296          41.000    24185745.604    99036572.481       -2328.447          42.000  
G03  25701620.844                       -3023.481          34.000    25701635.254   105243803.748       -2355.505          37.000  
G26  21783847.815   114474896.065       -2223.287          46.000    21783840.086    89201185.329       -1732.382          44.000  
C10  39415642.187   205247594.369         659.491          38.000    39415630.546   158710411.124         509.796          43.000  
C28  23865129.741   124271996.647        1389.600          47.000                                                                  
C23  25151834.380   130972209.589       -2285.192          42.000                                                                  
C16  37174764.933   193578755.821          36.853          48.000    37174752.162   149687324.875          28.506          48.000  
C27  25353104.039   132020271.613        2771.689          40.000                                                                  
C19  25726495.407   133964615.847         325.580          41.000                                                                  
C09  37804686.055   196858923.665         198.219          45.000    37804670.647   152223747.365         153.358          48.000  
C11                                                                  27150753.618   109324831.112       -1971.896          44.000  
> 2025 10 28 08 27 47.7620000  0 24                     
G04  21668572.697   113869117.826         334.328          46.000    21668563.030    88729145.523         260.460          46.000  
G27  21735073.031   114218582.985        2452.852          45.000    21735066.652    89001464.907        1911.394          45.000  
G16  20664933.772   108594960.331        -337.026          47.000                                                                  
G08  23822271.170   125186887.378        3454.031          38.000    23822270.493    97548236.144        2691.458          40.000  
G09  23771631.987   124920773.938        2306.334          38.000    23771626.153    97340831.747        1797.457          39.000  
G31  21991025.864   115563621.422       -2090.201          47.000    21991015.142    90049527.259       -1628.733          44.000  
C06  36735668.651   191292249.630          37.735          47.000    36735651.069   147919243.411          29.054          49.000  
C32  26691640.247                       -3567.513          38.000                                                                  
C37  22884696.814   119166623.843        -571.799          50.000                                                                  
C07  38352260.559   199710286.447         701.639          41.000    38352243.556   154428598.971         542.619          45.000  
C13  41791152.380                       -2319.615          35.000    41791184.673   168275801.481       -1793.564          38.000  
C20  24643006.997   128322604.859       -2140.078          46.000                                                                  
G18  25350331.623                         918.444          37.000    25350325.207   103805339.944         715.940          40.000  
G28  24185775.460   127097105.670       -2987.959          41.000    24185768.334    99036665.596       -2328.106          42.000  
G03  25701643.878                       -3023.276          34.000    25701658.286   105243897.971       -2355.649          38.000  
G26  21783864.736   114474984.994       -2223.386          46.000    21783857.009    89201254.628       -1732.551          44.000  
C10  39415637.138   205247567.994         659.375          38.000    39415625.460   158710390.722         509.961          43.000  
C28  23865119.064   124271941.045        1389.816          47.000                                                                  
C23  25151851.949   130972300.992       -2285.171          42.000                                                                  
C16  37174764.628   193578754.338          36.911          48.000    37174751.887   149687323.724          28.625          48.000  
C27  25353082.751   132020160.726        2771.881          40.000                                                                  
C19  25726492.917   133964602.815         325.598          41.000                                                                  
C09  37804684.543   196858915.720         198.424          45.000    37804669.100   152223741.225         153.384          48.000  
C11                                                                  27150773.219   109324909.980       -1971.771          44.000  
> 2025 10 28 08 27 47.8020000  0 24                     
G04  21668570.143   113869104.366         335.845          46.000    21668560.466    88729135.040         261.569          46.000  
G27  21735054.343   114218484.780        2454.411          45.000    21735047.972    89001388.373        1912.771          45.000  
G16  20664936.362   108594973.723        -335.363          47.000                                                                  
G08  23822244.858   125186749.104        3456.211          38.000    23822244.213    97548128.427        2692.637          40.000  
G09  23771614.421   124920681.589        2308.183          38.000    23771608.577    97340759.816        1798.103          39.000  
G31  21991041.759   115563704.934       -2088.531          47.000    21991031.039    90049592.329       -1627.366          44.000  
C06  36735668.324   191292248.033          39.292          47.000    36735650.777   147919242.172          30.397          49.000  
C32  26691667.616                       -3565.846          38.000                                                                  
C37  22884701.187   119166646.620        -570.062          50.000                                                                  
C07  38352255.155   199710258.298         703.179          41.000    38352238.140   154428577.201         543.851          45.000  
C13  41791170.178                       -2318.194          35.000    41791202.487   168275873.169       -1792.374          38.000  
C20  24643023.406   128322690.367       -2138.429          46.000                                                                  
G18  25350324.626                         920.192          37.000    25350318.201   103805311.263         716.783          40.000  
G28  24185798.183   127097225.078       -2985.714          41.000    24185791.043    99036758.657       -2326.806          42.000  
G03  25701666.855                       -3021.030          34.000    25701681.271   105243992.122       -2354.218          38.000  
G26  21783881.667   114475073.833       -2221.684          46.000    21783873.940    89201323.855       -1731.300          44.000  
C10  39415632.051   205247541.542         660.907          38.000    39415620.363   158710370.269         511.078          43.000  
C28  23865108.379   124271885.374        1391.337          47.000                                                                  
C23  25151869.494   130972392.324       -2283.837          42.000                                                                  
C16  37174764.306   193578752.769          38.566          48.000    37174751.567   149687322.508          29.930          48.000  
C27  25353061.418   132020049.744        2773.862          40.000                                                                  
C19  25726490.385   133964589.671         327.831          41.000                                                                  
C09  37804682.967   196858907.697         200.048          45.000    37804667.527   152223735.019         154.681          48.000  
C11                                                                  27150792.782   109324988.798       -1970.730          44.000  
> 2025 10 28 08 27 47.8420000  0 24                     
G04  21668567.572   113869090.825         337.997          46.000    21668557.888    88729124.486         263.357          46.000  
G27  21735035.670   114218386.494        2456.617          45.000    21735029.267    89001311.795        1914.265          45.000  
G16  20664938.934   108594987.048        -333.372          47.000                                                                  
G08  23822218.530   125186610.769        3458.234          38.000    23822217.881    97548020.639        2694.412          40.000  
G09  23771596.853   124920589.198        2309.888          38.000    23771590.977    97340687.816        1799.639          39.000  
G31  21991057.648   115563788.369       -2086.340          47.000    21991046.904    90049657.351       -1625.828          44.000  
C06  36735667.995   191292246.352          41.533          47.000    36735650.417   147919240.880          32.012          49.000  
C32  26691694.977                       -3563.782          38.000                                                                  
C37  22884705.534   119166669.329        -567.980          50.000                                                                  
C07  38352249.715   199710230.067         705.420          41.000    38352232.706   154428555.378         545.436          45.000  
C13  41791187.951                       -2316.093          35.000    41791220.262   168275944.812       -1791.041          38.000  
C20  24643039.793   128322775.789       -2136.135          46.000                                                                  
G18  25350317.621                         922.192          37.000    25350311.177   103805282.519         718.310          40.000  
G28  24185820.893   127097344.452       -2984.133          41.000    24185813.750    99036851.667       -2325.351          42.000  
G03  25701689.845                       -3019.805          34.000    25701704.230   105244086.219       -2352.600          38.000  
G26  21783898.553   114475162.599       -2219.563          46.000    21783890.831    89201393.012       -1729.403          44.000  
C10  39415626.934   205247515.011         663.049          38.000    39415615.236   158710349.752         512.708          43.000  
C28  23865097.645   124271829.630        1393.340          47.000                                                                  
C23  25151887.019   130972483.574       -2281.758          42.000                                                                  
C16  37174763.921   193578751.124          40.743          48.000    37174751.247   149687321.244          31.390          48.000  
C27  25353040.069                        2776.133          40.000                                                                  
C19  25726487.834   133964576.493         329.517          41.000                                                                  
C09  37804681.387   196858899.599         202.115          45.000    37804665.960   152223728.764         156.207          48.000  
C11                                                                  27150812.348   109325067.553       -1969.107          44.000  
> 2025 10 28 08 27 47.8820000  0 24                     
G04  21668564.975   113869077.299         338.715          46.000    21668555.294    88729113.943         263.982          46.000  
G27  21735016.979   114218288.232        2457.193          45.000    21735010.551    89001235.239        1914.471          45.000  
G16  20664941.462   108595000.391        -332.878          47.000                                                                  
G08  23822192.209   125186472.485        3458.084          38.000    23822191.560    97547912.877        2694.667          40.000  
G09  23771579.260   124920496.822        2310.202          38.000    23771573.413    97340615.834        1800.004          39.000  
G31  21991073.543   115563871.825       -2085.735          47.000    21991062.775    90049722.376       -1625.177          44.000  
C06  36735667.671   191292244.698          42.066          47.000    36735650.112   147919239.603          32.445          49.000  
C32  26691722.344                       -3563.665          38.000                                                                  
C37  22884709.885   119166692.060        -567.546          50.000                                                                  
C07  38352244.273   199710201.858         705.923          41.000    38352227.269   154428533.562         545.901          45.000  
C13  41791205.750                       -2315.357          35.000    41791238.058   168276016.464       -1790.798          38.000  
C20  24643056.230   128322861.242       -2135.621          46.000                                                                  
G18  25350310.599                         922.929          37.000    25350304.152   103805253.782         718.854          40.000  
G28  24185843.607   127097463.849       -2984.114          41.000    24185836.475    99036944.704       -2325.330          42.000  
G03  25701712.811                       -3019.007          34.000    25701727.229   105244180.349       -2352.560          38.000  
G26  21783915.448   114475251.389       -2219.076          46.000    21783907.733    89201462.194       -1729.018          44.000  
C10  39415621.837   205247488.509         663.330          38.000    39415610.123   158710329.254         513.007          43.000  
C28  23865086.937   124271773.909        1393.703          47.000                                                                  
C23  25151904.525   130972574.829       -2280.907          42.000                                                                  
C16  37174763.589   193578749.496          41.365          48.000    37174750.909   149687319.988          31.857          48.000  
C27  25353018.767   132019827.648        2776.718          40.000                                                                  
C19  25726485.279   133964563.331         329.851          41.000                                                                  
C09  37804679.805   196858891.531         202.441          45.000    37804664.393   152223722.522         156.567          48.000  
C11                                                                  27150831.924   109325146.321       -1968.654          44.000  
> 2025 10 28 08 27 47.9220000  0 24                     
G04  21668562.394   113869063.819         338.040          46.000    21668552.715    88729103.432         263.567          46.000  
G27  21734998.261   114218189.999        2456.713          45.000    21734991.868    89001158.682        1914.429          45.000  
G16  20664943.994   108595013.759        -333.394          47.000                                                                  
G08  23822165.894   125186334.210        3457.566          38.000    23822165.259    97547805.110        2694.641          40.000  
G09  23771561.703   124920404.462        2309.807          38.000    23771555.826    97340543.863        1799.781          39.000  
G31  21991089.409   115563955.314       -2086.283          47.000    21991078.668    90049787.429       -1625.568          44.000  
C06  36735667.373   191292243.077          41.494          47.000    36735649.787   147919238.338          32.277          49.000  
C32  26691749.756                       -3564.489          38.000                                                                  
C37  22884714.241   119166714.820        -568.102          50.000                                                                  
C07  38352238.877   199710173.668         705.583          41.000    38352221.851   154428511.765         545.606          45.000  
C13  41791223.536                       -2316.105          35.000    41791255.875   168276088.145       -1791.388          38.000  
C20  24643072.640   128322946.729       -2136.186          46.000                                                                  
G18  25350303.567                         922.108          37.000    25350297.145   103805225.053         718.829          40.000  
G28  24185866.331   127097583.262       -2984.608          41.000    24185859.175    99037037.764       -2325.908          42.000  
G03  25701735.806                       -3019.371          34.000    25701750.215   105244274.482       -2352.830          38.000  
G26  21783932.375   114475340.195       -2219.355          46.000    21783924.642    89201531.406       -1729.524          44.000  
C10  39415616.756   205247462.023         662.811          38.000    39415605.071   158710308.768         512.695          43.000  
C28  23865076.253   124271718.204        1393.326          47.000                                                                  
C23  25151922.064   130972666.119       -2281.312          42.000                                                                  
C16  37174763.315   193578747.899          40.874          48.000    37174750.597   149687318.753          31.495          48.000  
C27  25352997.480                        2775.732          40.000                                                                  
C19  25726482.742   133964550.185         329.512          41.000                                                                  
C09  37804678.275   196858883.485         201.966          45.000    37804662.846   152223716.297         156.246          48.000  
C11                                                                  27150851.506   109325225.115       -1969.191          44.000  
> 2025 10 28 08 27 47.9620000  0 24                     
G04  21668559.816   113869050.404         336.228          46.000    21668550.159    88729092.986         261.930          46.000  
G27  21734979.560   114218091.831        2455.067          45.000    21734973.188    89001082.195        1912.971          45.000  
G16  20664946.529   108595027.222        -335.726          47.000                                                                  
G08  23822139.599                        3455.290          38.000    23822138.952    97547697.433        2692.727          40.000  
G09  23771544.112                        2307.445          38.000    23771538.273    97340471.943        1798.510          39.000  
G31  21991105.305   115564038.877       -2088.207          47.000    21991094.576    90049852.537       -1626.967          44.000  
C06  36735667.044   191292241.538          39.461          47.000    36735649.479   147919237.132          30.906          49.000  
C32  26691777.166                       -3566.466          38.000                                                                  
C37  22884718.692   119166737.656        -570.095          50.000                                                                  
C07  38352233.508                         703.254          41.000    38352216.454   154428490.038         543.955          45.000  
C13  41791241.361                       -2318.900          35.000    41791273.702   168276159.861       -1792.468          38.000  
C20  24643089.100   128323032.284       -2138.000          46.000                                                                  
G18  25350296.539                         919.794          37.000    25350290.134   103805196.403         717.165          40.000  
G28  24185889.050   127097702.764       -2986.879          41.000    24185881.903    99037130.859       -2327.105          42.000  
G03  25701758.828                       -3021.359          34.000    25701773.217   105244368.682       -2354.382          38.000  
G26  21783949.263   114475429.091       -2221.403          46.000    21783941.551    89201600.671       -1730.929          44.000  
C10  39415611.693                         660.565          38.000    39415600.015   158710288.360         510.858          43.000  
C28  23865065.605   124271662.599        1391.003          47.000                                                                  
C23  25151939.631   130972757.484       -2283.129          42.000                                                                  
C16  37174763.051   193578746.386          38.805          48.000    37174750.285   149687317.573          30.114          48.000  
C27  25352976.171                        2773.385          40.000                                                                  
C19  25726480.247   133964537.126         327.443          41.000                                                                  
C09  37804676.751   196858875.514         200.077          45.000    37804661.316   152223710.130         154.787          48.000  
C11                                                                  27150871.093   109325303.972       -1970.827          44.000  
> 2025 10 28 08 27 48.0020000  0 24                     
G04  21668557.260   113869037.079         333.753          46.000    21668547.607    88729082.608         259.911          46.000  
G27  21734960.876   114217993.766        2452.425          45.000    21734954.537    89001005.779        1910.887          45.000  
G16  20664949.077   108595040.729        -337.574          47.000                                                                  
G08  23822113.325                        3453.458          38.000    23822112.697    97547589.803        2690.985          40.000  
G09  23771526.566                        2305.589          38.000    23771520.719    97340400.099        1796.579          39.000  
G31  21991121.228   115564122.524       -2090.608          47.000    21991110.514    90049917.721       -1629.086          44.000  
C06  36735666.760   191292240.062          37.323          47.000    36735649.193   147919235.996          28.957          49.000  
C32  26691804.608                       -3568.045          38.000                                                                  
C37  22884723.138   119166760.562        -572.263          50.000                                                                  
C07  38352228.143                         701.090          41.000    38352211.076   154428468.365         542.102          45.000  
C13  41791259.213                       -2320.448          35.000    41791291.546   168276231.637       -1794.122          38.000  
C20  24643105.557   128323117.931       -2140.501          46.000                                                                  
G18  25350289.561                         917.438          38.000    25350283.166   103805167.806         715.353          40.000  
G28  24185911.811   127097822.295       -2988.399          41.000    24185904.649    99037224.010       -2328.604          42.000  
G03  25701781.825                       -3023.514          34.000    25701796.247   105244462.931       -2356.049          37.000  
G26  21783966.206   114475518.073       -2223.878          46.000    21783958.490    89201669.995       -1732.728          44.000  
C10  39415606.654                         658.844          38.000    39415594.956   158710267.980         509.503          43.000  
C28  23865054.942   124271607.031        1389.245          47.000                                                                  
C23  25151957.233   130972848.930       -2285.507          42.000                                                                  
C16  37174762.810                          36.469          48.000    37174750.015   149687316.468          28.114          48.000  
C27  25352954.902                        2771.531          40.000                                                                  
C19  25726477.791   133964524.138         325.181          41.000                                                                  
C09  37804675.273   196858867.611         197.951          45.000    37804659.817   152223704.022         153.030          48.000  
C11                                                                  27150890.695   109325382.878       -1972.528          44.000  
> 2025 10 28 08 27 48.0420000  0 24                     
G04  21668554.725   113869023.703         333.538          46.000    21668545.088    88729072.176         259.973          46.000  
G27  21734942.244   114217895.643        2452.208          45.000    21734935.858    89000929.307        1910.978          45.000  
G16  20664951.635   108595054.184        -337.319          47.000                                                                  
G08  23822087.020                        3454.105          38.000    23822086.402    97547482.133        2691.043          40.000  
G09  23771509.024                        2306.236          38.000    23771503.153    97340328.198        1796.803          39.000  
G31  21991137.138   115564206.109       -2090.580          47.000    21991126.428    90049982.857       -1629.133          44.000  
C06  36735666.449   191292238.532          37.339          47.000    36735648.903   147919234.826          28.646          49.000  
C32  26691831.997                       -3567.526          38.000                                                                  
C37  22884727.523                        -572.083          50.000                                                                  
C07  38352222.751                         701.610          41.000    38352205.695   154428446.648         542.128          45.000  
C13  41791276.993                       -2319.797          35.000    41791309.389   168276303.361       -1793.761          38.000  
C20  24643121.995   128323203.519       -2140.603          46.000                                                                  
G18  25350282.631                         918.181          38.000    25350276.182   103805139.164         715.338          40.000  
G28  24185934.567   127097941.784       -2988.043          41.000    24185927.383    99037317.121       -2328.404          42.000  
G03  25701804.837                       -3023.254          34.000    25701819.262   105244557.157       -2356.288          37.000  
G26  21783983.140   114475606.979       -2223.671          46.000    21783975.441    89201739.293       -1733.044          44.000  
C10  39415601.553                         659.497          38.000    39415589.901   158710247.577         509.473          43.000  
C28  23865044.265   124271551.415        1389.523          47.000                                                                  
C23  25151974.787   130972940.321       -2285.625          42.000                                                                  
C16  37174762.511                          36.541          48.000    37174749.685   149687315.307          28.209          48.000  
C27  25352933.614                        2772.102          40.000                                                                  
C19  25726475.268   133964511.093         325.227          41.000                                                                  
C09  37804673.753   196858859.651         198.117          45.000    37804658.284   152223697.871         153.057          48.000  
C11                                                                  27150910.307   109325461.733       -1972.161          44.000  
> 2025 10 28 08 27 48.0820000  0 24                     
G04  21668552.186                         335.747          46.000    21668542.510    88729061.679         261.339          46.000  
G27  21734923.579                        2454.427          45.000    21734917.160    89000852.772        1912.374          45.000  
G16  20664954.215                        -335.417          47.000                                                                  
G08  23822060.692                        3456.173          38.000    23822060.072    97547374.395        2692.535          40.000  
G09  23771491.468                        2308.284          38.000    23771485.569    97340256.233        1798.312          39.000  
G31  21991153.046                       -2088.553          47.000    21991142.333    90050047.928       -1627.777          44.000  
C06  36735666.126                          39.398          47.000    36735648.582   147919233.585          29.977          49.000  
C32  26691859.349                       -3565.917          38.000                                                                  
C37  22884731.829                        -570.033          50.000                                                                  
C07  38352217.313                         703.694          41.000    38352200.270   154428424.863         543.682          45.000  
C13  41791294.804                       -2317.815          35.000    41791327.180   168276375.037       -1792.535          38.000  
C20  24643138.401                       -2138.638          46.000                                                                  
G18  25350275.626                         919.933          38.000    25350269.174   103805110.483         716.238          40.000  
G28  24185957.298                       -2986.084          41.000    24185950.112    99037410.179       -2327.124          42.000  
G03  25701827.824                       -3021.611          34.000    25701842.248   105244651.282       -2354.437          37.000  
G26  21784000.045   114475695.796       -2221.737          46.000    21783992.360    89201808.505       -1731.467          44.000  
C10  39415596.460                         661.157          38.000    39415584.805   158710227.095         511.206          43.000  
C28  23865033.534                        1391.283          47.000                                                                  
C23  25151992.297                       -2283.956          42.000                                                                  
C16  37174762.152                          38.494          48.000    37174749.381   149687314.081          29.644          48.000  
C27  25352912.292                        2773.841          40.000                                                                  
C19  25726472.721                         326.985          41.000                                                                  
C09  37804672.207                         199.786          45.000    37804656.737   152223691.656         154.487          48.000  
C11                                                                  27150929.876   109325540.544       -1970.979          44.000  
> 2025 10 28 08 27 48.1220000  0 24                     
G04  21668549.603                         337.662          46.000    21668539.949    88729051.136         262.995          46.000  
G27  21734904.873                        2456.433          45.000    21734898.468    89000776.202        1913.809          45.000  
G16  20664956.746                        -333.745          47.000                                                                  
G08  23822034.367                        3457.275          38.000    23822033.745    97547266.610        2694.202          40.000  
G09  23771473.896                        2309.388          38.000    23771467.988    97340184.236        1799.699          39.000  
G31  21991168.930                       -2086.777          47.000    21991158.206    90050112.949       -1626.078          44.000  
C06  36735665.800                          41.214          47.000    36735648.234   147919232.284          31.866          49.000  
C32  26691886.705                       -3564.458          38.000                                                                  
C37  22884736.170                        -568.377          50.000                                                                  
C07  38352211.877                         705.163          41.000    38352194.833   154428403.041         545.233          45.000  
C13  41791312.603                       -2315.921          35.000    41791344.953   168276446.702       -1791.738          38.000  
C20  24643154.771                       -2136.638          46.000                                                                  
G18  25350268.612                         922.086          38.000    25350262.159   103805081.757         717.573          40.000  
G28  24185980.018                       -2984.752          41.000    24185972.820    99037503.208       -2325.969          42.000  
G03  25701850.836                       -3019.513          34.000    25701865.220   105244745.396       -2353.184          38.000  
G26  21784016.953                       -2219.838          46.000    21784009.229    89201877.684       -1729.961          44.000  
C10  39415591.359                         662.585          38.000    39415579.726   158710206.592         512.463          43.000  
C28  23865022.797                        1392.936          47.000                                                                  
C23  25152009.812                       -2281.945          42.000                                                                  
C16  37174761.782                          40.515          48.000    37174749.046   149687312.810          31.294          48.000  
C27  25352890.954                        2775.720          40.000                                                                  
C19  25726470.155                         329.062          41.000                                                                  
C09  37804670.610                         202.134          45.000    37804655.180   152223685.400         155.999          48.000  
C11                                                                  27150949.420   109325619.309       -1969.484          44.000  
> 2025 10 28 08 27 48.1620000  0 24                     
G04  21668547.032                         337.175          46.000    21668537.359    88729040.637         262.955          46.000  
G27  21734886.176                        2456.157          45.000    21734879.783    89000699.665        1913.833          45.000  
G16  20664959.268                        -334.420          47.000                                                                  
G08  23822008.049                        3456.554          38.000    23822007.420    97547158.873        2694.005          40.000  
G09  23771456.298                        2308.737          38.000    23771450.405    97340112.298        1799.118          39.000  
G31  21991184.799                       -2087.114          47.000    21991174.067    90050178.020       -1626.252          44.000  
C06  36735665.502                          40.933          47.000    36735647.899   147919231.026          31.937          49.000  
C32  26691914.075                       -3565.084          38.000                                                                  
C37  22884740.549                        -568.712          50.000                                                                  
C07  38352206.441                         704.576          41.000    38352189.428   154428381.264         545.030          45.000  
C13  41791330.398                       -2317.100          35.000    41791362.769   168276518.405       -1792.153          38.000  
C20  24643171.195                       -2136.897          46.000                                                                  
G18  25350261.595                         921.256          38.000    25350255.146   103805053.054         717.803          40.000  
G28  24186002.752                       -2985.445          41.000    24185995.554    99037596.273       -2326.178          42.000  
G03  25701873.822                       -3020.091          34.000    25701888.204   105244839.541       -2353.192          37.000  
G26  21784033.855                       -2220.278          46.000    21784026.128    89201946.891       -1729.823          44.000  
C10  39415586.260                         661.951          38.000    39415574.642   158710186.138         511.945          43.000  
C28  23865012.123                        1392.277          47.000                                                                  
C23  25152027.351                       -2282.042          42.000                                                                  
C16  37174761.489                          40.218          48.000    37174748.746   149687311.587          31.154          48.000  
C27  25352869.633                        2775.060          40.000                                                                  
C19  25726467.637                         328.682          41.000                                                                  
C09  37804669.066                         201.617          45.000    37804653.620   152223679.178         156.024          48.000  
C11                                                                  27150969.018   109325698.122       -1969.850          44.000  
> 2025 10 28 08 27 48.2020000  0 24                     
G04  21668544.457                         335.307          46.000    21668534.792    88729030.212         261.490          46.000  
G27  21734867.505                        2453.863          45.000    21734861.099    89000623.206        1912.310          45.000  
G16  20664961.815                        -336.420          47.000                                                                  
G08  23821981.771                        3454.716          38.000    23821981.143                        2692.011          40.000  
G09  23771438.704                        2307.213          38.000    23771432.845    97340040.426        1797.395          39.000  
G31  21991200.716                       -2088.978          47.000    21991189.976    90050243.150       -1627.557          44.000  
C06  36735665.235                          39.011          47.000    36735647.606   147919229.853          30.281          49.000  
C32  26691941.503                       -3567.424          38.000                                                                  
C37  22884745.013                        -570.731          50.000                                                                  
C07  38352201.053                         702.416          41.000    38352184.024   154428359.548         543.599          45.000  
C13  41791348.214                       -2318.857          35.000    41791380.614   168276590.145       -1793.215          38.000  
C20  24643187.671                       -2138.819          47.000                                                                  
G18  25350254.589                         919.457          38.000    25350248.131   103805024.419         716.504          40.000  
G28  24186025.467                       -2987.106          41.000    24186018.299    99037689.386       -2327.408          42.000  
G03  25701896.813                       -3021.902          34.000    25701911.199   105244933.754       -2354.591          38.000  
G26  21784050.759                       -2222.036          46.000    21784043.038    89202016.180       -1731.349          44.000  
C10  39415581.207                         659.894          38.000    39415569.622   158710165.736         510.547          43.000  
C28  23865001.466                        1390.386          47.000                                                                  
C23  25152044.937                       -2283.981          42.000                                                                  
C16  37174761.204                          38.116          49.000    37174748.471   149687310.434          29.651          48.000  
C27  25352848.367                        2772.877          40.000                                                                  
C19  25726465.159                         326.532          41.000                                                                  
C09  37804667.570                         199.476          45.000    37804652.066   152223673.037         154.390          48.000  
C11                                                                  27150988.615   109325776.993       -1971.251          44.000  
> 2025 10 28 08 27 48.2420000  0 24                     
G04  21668541.947                         332.882          46.000    21668532.266    88729019.854         259.492          46.000  
G27  21734848.880                        2451.533          45.000    21734842.472    89000546.797        1910.601          45.000  
G16  20664964.400                        -338.284          47.000                                                                  
G08  23821955.482                        3453.105          38.000    23821954.886                        2690.181          40.000  
G09  23771421.154                        2305.014          38.000    23771415.303    97339968.584        1796.094          39.000  
G31  21991216.623                       -2091.459          47.000    21991205.915    90050308.351       -1629.523          44.000  
C06  36735664.982                          36.535          47.000    36735647.320   147919228.747          28.199          49.000  
C32  26691968.922                       -3569.039          38.000                                                                  
C37  22884749.437                        -572.969          51.000                                                                  
C07  38352195.698                         700.187          41.000    38352178.663   154428337.894         541.722          45.000  
C13  41791366.057                       -2321.066          35.000    41791398.410   168276661.905       -1794.016          38.000  
C20  24643204.177                       -2141.142          47.000                                                                  
G18  25350247.616                         917.237          38.000    25350241.152   103804995.836         714.928          40.000  
G28  24186048.235                       -2989.232          41.000    24186041.053    99037782.554       -2328.989          42.000  
G03  25701919.839                       -3023.987          34.000    25701934.241   105245028.013       -2356.141          38.000  
G26  21784067.681                       -2224.341          46.000    21784059.981    89202085.538       -1733.389          44.000  
C10  39415576.165                         658.087          38.000    39415564.540   158710145.381         508.978          43.000  
C28  23864990.832                        1388.394          48.000                                                                  
C23  25152062.510                       -2286.279          42.000                                                                  
C16  37174760.945                          35.872          50.000    37174748.237   149687309.341          27.764          48.000  
C27  25352827.136                        2770.882          40.000                                                                  
C19  25726462.663                         324.440          41.000                                                                  
C09  37804666.088                         197.201          46.000    37804650.592   152223666.946         152.583          48.000  
C11                                                                  27151008.218   109325855.916       -1972.886          44.000  
> 2025 10 28 08 27 48.2820000  0 24                     
G04  21668539.428                         332.036          46.000    21668529.731    88729009.483         258.784          46.000  
G27  21734830.241                        2450.791          45.000    21734823.836    89000470.393        1909.741          45.000  
G16  20664966.959                        -338.911          47.000                                                                  
G08  23821929.214                        3452.211          38.000    23821928.605    97546836.007        2689.698          40.000  
G09  23771403.620                        2303.991          38.000    23771397.755    97339896.747        1795.463          39.000  
G31  21991232.552                       -2092.028          47.000    21991221.819    90050373.550       -1630.411          44.000  
C06  36735664.714                          35.798          47.000    36735647.055   147919227.620          27.581          49.000  
C32  26691996.332                       -3569.583          38.000                                                                  
C37  22884753.834                        -573.606          51.000                                                                  
C07  38352190.306                         699.970          42.000    38352173.293   154428316.231         541.075          45.000  
C13  41791383.893                       -2321.934          35.000    41791416.251   168276733.692       -1794.813          38.000  
C20  24643220.631                       -2141.916          47.000                                                                  
G18  25350240.665                         915.919          38.000    25350234.162   103804967.262         714.079          40.000  
G28  24186070.992                       -2989.812          41.000    24186063.805    99037875.736       -2329.892          42.000  
G03  25701942.874                       -3024.891          34.000    25701957.268   105245122.272       -2356.872          37.000  
G26  21784084.628                       -2225.090          46.000    21784076.934    89202154.873       -1733.928          44.000  
C10  39415571.120                         657.666          38.000    39415559.504   158710125.028         508.344          43.000  
C28  23864980.194                        1387.646          48.000                                                                  
C23  25152080.063                       -2287.294          43.000                                                                  
C16  37174760.677                          35.288          50.000    37174747.970   149687308.237          27.118          48.000  
C27  25352805.849                        2770.304          40.000                                                                  
C19  25726460.185                         323.807          41.000                                                                  
C09  37804664.567                         196.313          46.000    37804649.083   152223660.857         151.797          48.000  
C11                                                                  27151027.822   109325934.839       -1973.543          44.000  
> 2025 10 28 08 27 48.3220000  0 24                     
G04  21668536.881                         332.821          46.000    21668527.207    88728999.083         259.168          46.000  
G27  21734811.558                        2451.706          45.000    21734805.176    89000393.953        1910.171          45.000  
G16  20664969.530                        -338.406          47.000                                                                  
G08  23821902.932                        3452.776          38.000    23821902.303                        2690.672          40.000  
G09  23771386.068                        2304.734          38.000    23771380.205    97339824.889        1795.714          39.000  
G31  21991248.480                       -2091.462          47.000    21991237.758    90050438.704       -1629.833          44.000  
C06  36735664.437                          36.511          47.000    36735646.729   147919226.451          28.248          49.000  
C32  26692023.733                       -3568.221          38.000                                                                  
C37  22884758.216                        -572.936          51.000                                                                  
C07  38352184.880                         701.013          42.000    38352167.916   154428294.537         541.571          45.000  
C13  41791401.718                       -2320.738          35.000    41791434.061   168276805.463       -1794.750          38.000  
C20  24643237.045                       -2141.333          47.000                                                                  
G18  25350233.680                         917.144          38.000    25350227.176   103804938.651         714.478          40.000  
G28  24186093.721                       -2989.341          41.000    24186086.559    99037968.873       -2329.261          42.000  
G03  25701965.894                       -3024.449          34.000    25701980.306   105245216.522       -2356.879          37.000  
G26  21784101.597                       -2224.675          46.000    21784093.878    89202224.174       -1733.444          44.000  
C10  39415566.046                         658.508          38.000    39415554.405   158710104.641         508.881          43.000  
C28  23864969.483                        1388.344          48.000                                                                  
C23  25152097.616                       -2286.499          43.000                                                                  
C16  37174760.380                          35.886          50.000    37174747.682   149687307.098          27.637          48.000  
C27  25352784.549                        2770.810          40.000                                                                  
C19  25726457.721                         324.180          41.000                                                                  
C09  37804663.018                         197.092          46.000    37804647.569   152223654.725         152.403          48.000  
C11                                                                  27151047.419   109326013.729       -1973.011          44.000  
> 2025 10 28 08 27 48.3620000  0 24                     
G04  21668534.301                         333.589          46.000    21668524.673    88728988.663         259.871          46.000  
G27  21734792.880                        2452.492          45.000    21734786.493    89000317.496        1910.805          45.000  
G16  20664972.120                        -337.656          47.000                                                                  
G08  23821876.662                        3453.660          38.000    23821875.999                        2691.208          40.000  
G09  23771368.502                        2305.480          38.000    23771362.651    97339753.004        1796.536          39.000  
G31  21991264.382                       -2090.505          47.000    21991253.674    90050503.835       -1628.951          44.000  
C06  36735664.162                          37.490          47.000    36735646.405   147919225.267          29.008          49.000  
C32  26692051.115                       -3567.649          38.000                                                                  
C37  22884762.592                        -572.179          51.000                                                                  
C07  38352179.452                         701.206          42.000    38352162.513   154428272.821         542.368          45.000  
C13  41791419.532                       -2320.319          35.000    41791451.897   168276877.222       -1794.396          38.000  
C20  24643253.448                       -2140.511          47.000                                                                  
G18  25350226.680                         917.847          38.000    25350220.173   103804910.027         715.018          40.000  
G28  24186116.473                       -2988.653          41.000    24186109.305    99038062.005       -2328.692          42.000  
G03  25701988.917                       -3023.405          34.000    25702003.312   105245310.750       -2356.376          37.000  
G26  21784118.503                       -2223.783          46.000    21784110.799    89202293.459       -1732.720          44.000  
C10  39415560.979                         658.734          38.000    39415549.353   158710084.246         509.467          43.000  
C28  23864958.795                        1389.065          48.000                                                                  
C23  25152115.146                       -2285.503          43.000                                                                  
C16  37174760.058                          36.724          50.000    37174747.402   149687305.943          28.329          48.000  
C27  25352763.223                        2771.624          40.000                                                                  
C19  25726455.217                         324.794          41.000                                                                  
C09  37804661.475                         198.208          46.000    37804646.061   152223648.579         153.128          48.000  
C11                                                                  27151067.021   109326092.606       -1972.380          44.000  
> 2025 10 28 08 27 48.4020000  0 24                     
G04  21668531.740                         333.239          46.000    21668522.144    88728978.276         259.677          46.000  
G27  21734774.219                        2451.908          45.000    21734767.813    89000241.078        1910.464          45.000  
G16  20664974.700   108595175.380        -338.320          47.000                                                                  
G08  23821850.382                        3453.171          38.000    23821849.692    97546513.050        2690.751          40.000  
G09  23771350.944                        2304.526          38.000    23771345.112    97339681.162        1796.154          39.000  
G31  21991280.286                       -2091.044          47.000    21991269.584    90050569.021       -1629.443          44.000  
C06  36735663.892                          37.059          47.000    36735646.105   147919224.125          28.686          49.000  
C32  26692078.552                       -3568.912          38.000                                                                  
C37  22884766.986                        -572.691          51.000                                                                  
C07  38352174.083                         700.638          42.000    38352157.117   154428251.152         541.899          45.000  
C13  41791437.353                       -2320.695          35.000    41791469.739   168276949.026       -1795.081          38.000  
C20  24643269.868                       -2140.926          47.000                                                                  
G18  25350219.717                         916.990          38.000    25350213.196   103804881.446         714.531          40.000  
G28  24186139.220   127099017.304       -2989.129          41.000    24186132.046    99038155.190       -2329.445          42.000  
G03  25702011.934                       -3024.205          34.000    25702026.339   105245405.003       -2356.453          37.000  
G26  21784135.432   114476407.132       -2223.997          46.000    21784127.722    89202362.778       -1732.912          44.000  
C10  39415555.943                         658.105          38.000    39415544.246   158710063.899         508.807          43.000  
C28  23864948.108                        1388.422          48.000                                                                  
C23  25152132.730                       -2286.025          43.000                                                                  
C16  37174759.754                          36.251          50.000    37174747.132   149687304.819          28.137          48.000  
C27  25352741.904                        2771.433          40.000                                                                  
C19  25726452.725                         324.628          41.000                                                                  
C09  37804659.947                         197.677          46.000    37804644.550   152223642.473         152.735          48.000  
C11                                                                  27151086.600   109326171.524       -1972.825          44.000  
> 2025 10 28 08 27 48.4420000  0 24                     
G04  21668529.229                         330.326          45.000    21668519.621    88728967.991         257.717          46.000  
G27  21734755.583                        2449.272          45.000    21734749.175    89000164.752        1908.597          45.000  
G16  20664977.289                        -340.902          47.000                                                                  
G08  23821824.134                        3449.994          38.000    23821823.440                        2688.600          40.000  
G09  23771333.398                        2302.144          38.000    23771327.592    97339609.416        1794.095          39.000  
G31  21991296.207                       -2093.783          47.000    21991285.520    90050634.298       -1631.421          44.000  
C06  36735663.679                          34.320          47.000    36735645.827   147919223.077          26.785          49.000  
C32  26692106.046                       -3571.978          38.000                                                                  
C37  22884771.423                        -575.350          51.000                                                                  
C07  38352168.734                         697.894          42.000    38352151.738   154428229.575         539.910          45.000  
C13  41791455.235                       -2323.039          35.000    41791487.590   168277020.898       -1796.649          38.000  
C20  24643286.339                       -2143.437          47.000                                                                  
G18  25350212.776                         914.838          38.000    25350206.243   103804852.968         712.382          40.000  
G28  24186161.968                       -2991.778          41.000    24186154.815    99038248.459       -2331.434          42.000  
G03  25702034.982                       -3026.629          34.000    25702049.380   105245499.353       -2358.374          37.000  
G26  21784152.382                       -2226.796          46.000    21784144.676    89202432.217       -1735.177          44.000  
C10  39415550.928                         655.463          38.000    39415539.200   158710043.618         507.208          43.000  
C28  23864937.515                        1385.836          48.000                                                                  
C23  25152150.336                       -2288.795          43.000                                                                  
C16  37174759.491                          33.539          50.000    37174746.881   149687303.800          26.102          48.000  
C27  25352720.661                        2768.854          40.000                                                                  
C19  25726450.268                         322.119          41.000                                                                  
C09  37804658.474                         194.614          46.000    37804643.039   152223636.461         150.792          48.000  
C11                                                                  27151106.203   109326250.539       -1974.926          44.000  
> 2025 10 28 08 27 48.4820000  0 24                     
G04  21668526.721                         328.830          45.000    21668517.105    88728957.736         256.288          46.000  
G27  21734736.950                        2447.505          45.000    21734730.537    89000088.465        1907.112          45.000  
G16  20664979.879                        -342.273          47.000                                                                  
G08  23821797.881                        3448.777          38.000    23821797.196    97546298.019        2687.368          40.000  
G09  23771315.909                        2300.413          38.000    23771310.084    97339537.699        1792.790          39.000  
G31  21991312.163                       -2095.543          47.000    21991301.470    90050699.601       -1632.738          44.000  
C06  36735663.474                          32.711          47.000    36735645.560   147919222.073          25.180          49.000  
C32  26692133.495                       -3572.521          38.000                                                                  
C37  22884775.871                        -576.768          51.000                                                                  
C07  38352163.379                         696.771          42.000    38352146.400   154428208.023         538.627          45.000  
C13  41791473.122                       -2324.714          35.000    41791505.450   168277092.787       -1797.483          38.000  
C20  24643302.838                       -2145.172          47.000                                                                  
G18  25350205.820                         913.570          38.000    25350199.294   103804824.481         711.696          40.000  
G28  24186184.762                       -2993.083          41.000    24186177.609    99038341.729       -2332.194          42.000  
G03  25702058.018                       -3028.324          34.000    25702072.456   105245593.731       -2359.660          37.000  
G26  21784169.351                       -2228.614          46.000    21784161.632    89202501.680       -1736.654          44.000  
C10  39415545.913                         654.553          38.000    39415534.181   158710023.374         505.933          43.000  
C28  23864926.903                        1384.567          48.000                                                                  
C23  25152167.938                       -2290.244          43.000                                                                  
C16  37174759.270                          31.839          50.000    37174746.681   149687302.811          24.642          48.000  
C27  25352699.426                        2767.270          40.000                                                                  
C19  25726447.815                         320.599          41.000                                                                  
C09  37804657.026                         193.272          46.000    37804641.554   152223630.465         149.670          48.000  
C11                                                                  27151125.860   109326329.564       -1975.970          44.000  
> 2025 10 28 08 27 48.5220000  0 24                     
G04  21668524.237                         329.691          45.000    21668514.602    88728947.427         256.679          46.000  
G27  21734718.348                        2448.413          45.000    21734711.898    89000012.104        1907.859          45.000  
G16  20664982.515                        -341.129          47.000                                                                  
G08  23821771.616                        3450.091          38.000    23821770.938                        2688.275          40.000  
G09  23771298.366                        2302.742          38.000    23771292.571    97339465.904        1793.876          39.000  
G31  21991328.134                       -2094.335          47.000    21991317.419    90050764.837       -1631.991          44.000  
C06  36735663.202                          33.678          47.000    36735645.265   147919220.998          25.801          49.000  
C32  26692160.913                       -3571.703          38.000                                                                  
C37  22884780.268                        -575.752          51.000                                                                  
C07  38352158.017                         698.074          42.000    38352141.015   154428186.404         539.449          45.000  
C13  41791490.955                       -2323.639          35.000    41791523.298   168277164.609       -1796.388          38.000  
C20  24643319.302                       -2144.441          47.000                                                                  
G18  25350198.853                         913.993          38.000    25350192.320   103804795.961         712.127          40.000  
G28  24186207.518                       -2991.747          41.000    24186200.395    99038434.957       -2331.457          42.000  
G03  25702081.069                       -3027.168          34.000    25702095.505   105245688.021       -2358.413          37.000  
G26  21784186.328                       -2227.486          46.000    21784178.596    89202571.064       -1735.804          44.000  
C10  39415540.882                         655.518          38.000    39415529.138   158710003.067         506.738          43.000  
C28  23864916.217                        1385.687          48.000                                                                  
C23  25152185.502                       -2289.298          43.000                                                                  
C16  37174758.997                          33.072          50.000    37174746.445   149687301.753          25.376          48.000  
C27  25352678.152                        2768.096          40.000                                                                  
C19  25726445.304                         321.305          41.000                                                                  
C09  37804655.509                         194.688          46.000    37804640.035   152223624.418         150.255          48.000  
C11                                                                  27151145.437   109326408.542       -1975.350          44.000  
> 2025 10 28 08 27 48.5620000  0 24                     
G04  21668521.712                         331.344          45.000    21668512.074    88728937.069         257.971          46.000  
G27  21734699.704                        2450.027          45.000    21734693.245    88999935.712        1908.994          45.000  
G16  20664985.102                        -339.846          47.000                                                                  
G08  23821745.338                        3451.613          38.000    23821744.648                        2689.101          40.000  
G09  23771280.835                        2303.700          38.000    23771275.017                        1795.260          39.000  
G31  21991344.081                       -2092.716          47.000    21991333.359    90050830.044       -1630.870          44.000  
C06  36735662.922                          35.185          47.000    36735644.948   147919219.870          27.204          49.000  
C32  26692188.305                       -3570.014          38.000                                                                  
C37  22884784.630                        -574.303          51.000                                                                  
C07  38352152.623                         699.236          42.000    38352135.632   154428164.756         540.569          45.000  
C13  41791508.773                       -2322.072          35.000    41791541.150   168277236.428       -1795.723          38.000  
C20  24643335.712                       -2142.860          47.000                                                                  
G18  25350191.894                         915.420          38.000    25350185.357   103804767.394         713.338          40.000  
G28  24186230.296                       -2990.426          41.000    24186223.151    99038528.158       -2330.487          42.000  
G03  25702104.094                       -3025.643          34.000    25702118.509   105245782.291       -2357.241          37.000  
G26  21784203.282                       -2225.963          46.000    21784195.542    89202640.412       -1734.554          44.000  
C10  39415535.826                         656.610          38.000    39415524.056   158709982.737         507.733          43.000  
C28  23864905.547                        1386.905          48.000                                                                  
C23  25152203.043                       -2287.693          43.000                                                                  
C16  37174758.706                          34.604          50.000    37174746.164   149687300.658          26.584          48.000  
C27  25352656.841                        2769.049          40.000                                                                  
C19  25726442.785                         322.946          41.000                                                                  
C09  37804653.975                         195.883          46.000    37804638.522   152223618.332         151.411          48.000  
C11                                                                  27151165.015   109326487.476       -1974.034          44.000  
> 2025 10 28 08 27 48.6020000  0 24                     
G04  21668519.162                         332.938          45.000    21668509.532    88728926.673         259.476          46.000  
G27  21734681.050                        2451.776          45.000    21734674.568    88999859.274        1910.508          45.000  
G16  20664987.699                        -338.101          47.000                                                                  
G08  23821719.040                        3453.510          38.000    23821718.355                        2690.872          40.000  
G09  23771263.295                        2305.281          38.000    23771257.462                        1796.535          39.000  
G31  21991360.022                       -2091.244          47.000    21991349.290    90050895.211       -1629.523          44.000  
C06  36735662.638                          36.787          47.000    36735644.651   147919218.716          28.541          49.000  
C32  26692215.746                       -3568.376          38.000                                                                  
C37  22884788.967                        -572.632          50.000                                                                  
C07  38352147.244                         700.958          42.000    38352130.254   154428143.061         542.069          45.000  
C13  41791526.590                       -2320.194          35.000    41791558.998   168277308.204       -1794.557          38.000  
C20  24643352.148                       -2140.989          47.000                                                                  
G18  25350184.908                         917.021          38.000    25350178.356   103804738.792         714.686          40.000  
G28  24186253.048                       -2988.894          41.000    24186245.893    99038621.296       -2328.764          42.000  
G03  25702127.136                       -3024.322          34.000    25702141.517   105245876.544       -2356.270          37.000  
G26  21784220.197                       -2224.242          46.000    21784212.476    89202709.725       -1733.134          44.000  
C10  39415530.765                         658.984          38.000    39415518.952   158709962.351         509.369          43.000  
C28  23864894.852                        1388.711          48.000                                                                  
C23  25152220.601                       -2286.064          43.000                                                                  
C16  37174758.407                          36.363          50.000    37174745.877   149687299.518          28.097          48.000  
C27  25352635.551                        2771.423          40.000                                                                  
C19  25726440.308                         324.362          41.000                                                                  
C09  37804652.431                         197.792          46.000    37804636.996   152223612.201         152.951          48.000  
C11                                                                  27151184.583   109326566.368       -1972.484          44.000  
> 2025 10 28 08 27 48.6420000  0 24                     
G04  21668516.605                         334.446          45.000    21668506.975    88728916.241         260.783          46.000  
G27  21734662.370                        2453.503          45.000    21734655.900    88999782.801        1911.806          45.000  
G16  20664990.281                        -336.747          47.000                                                                  
G08  23821692.753                        3454.497          38.000    23821692.046                        2691.789          40.000  
G09  23771245.747                        2306.232          38.000    23771239.903    97339250.340        1797.141          39.000  
G31  21991375.926                       -2089.598          47.000    21991365.216    90050960.331       -1628.126          44.000  
C06  36735662.319                          38.526          47.000    36735644.325   147919217.518          29.907          49.000  
C32  26692243.160                       -3567.194          38.000                                                                  
C37  22884793.334                        -571.211          50.000                                                                  
C07  38352141.844                         701.973          42.000    38352124.863   154428121.345         543.058          45.000  
C13  41791544.411                       -2319.655          35.000    41791576.798   168277379.951       -1793.619          38.000  
C20  24643368.534                       -2139.240          47.000                                                                  
G18  25350177.920                         918.596          38.000    25350171.352   103804710.156         715.863          40.000  
G28  24186275.773                       -2987.659          41.000    24186268.629    99038714.421       -2327.811          42.000  
G03  25702150.143                       -3022.518          34.000    25702164.521   105245970.748       -2355.018          37.000  
G26  21784237.097                       -2222.711          46.000    21784229.389    89202778.997       -1731.854          44.000  
C10  39415525.677                         660.040          38.000    39415513.887   158709941.950         510.254          43.000  
C28  23864884.171                        1389.917          48.000                                                                  
C23  25152238.128                       -2284.375          43.000                                                                  
C16  37174758.120                          37.894          50.000    37174745.609   149687298.349          29.285          48.000  
C27  25352614.201                        2773.098          41.000                                                                  
C19  25726437.789                         325.964          41.000                                                                  
C09  37804650.912                         199.214          46.000    37804635.439   152223606.049         153.969          48.000  
C11                                                                  27151204.164   109326645.247       -1971.660          44.000  
> 2025 10 28 08 27 48.6820000  0 24                     
G04  21668514.071                         334.233          45.000    21668504.416    88728905.846         260.663          46.000  
G27  21734643.714                        2453.167          45.000    21734637.230    88999706.372        1911.521          45.000  
G16  20664992.854                        -337.199          47.000                                                                  
G08  23821666.447                        3454.322          38.000    23821665.766    97545759.906        2691.947          40.000  
G09  23771228.186                        2306.052          38.000    23771222.371    97339178.500        1796.654          39.000  
G31  21991391.816                       -2089.744          47.000    21991381.122    90051025.500       -1628.422          44.000  
C06  36735662.055                          38.328          47.000    36735644.027   147919216.361          29.705          49.000  
C32  26692270.568                       -3567.688          38.000                                                                  
C37  22884797.778                        -571.411          50.000                                                                  
C07  38352136.484                         701.802          42.000    38352119.457   154428099.667         542.684          45.000  
C13  41791562.249                       -2320.503          35.000    41791594.627   168277451.709       -1793.464          38.000  
C20  24643384.999                       -2139.809          47.000                                                                  
G18  25350170.972                         918.560          38.000    25350164.365   103804681.559         715.630          40.000  
G28  24186298.533                       -2988.014          41.000    24186291.379    99038807.579       -2328.158          42.000  
G03  25702173.162                       -3023.044          34.000    25702187.521   105246064.993       -2355.345          37.000  
G26  21784254.025                       -2223.007          46.000    21784246.310    89202848.316       -1732.159          44.000  
C10  39415520.642                         659.143          38.000    39415508.818   158709921.579         509.943          43.000  
C28  23864873.526                        1389.573          48.000                                                                  
C23  25152255.659                       -2284.866          43.000                                                                  
C16  37174757.843                          37.381          50.000    37174745.364   149687297.219          29.028          48.000  
C27  25352592.917                        2772.662          41.000                                                                  
C19  25726435.271                         325.505          41.000                                                                  
C09  37804649.405                         198.708          46.000    37804633.899   152223599.926         153.801          48.000  
C11                                                                  27151223.754   109326724.154       -1971.976          44.000  
> 2025 10 28 08 27 48.7220000  0 24                     
G04  21668511.551                         332.550          45.000    21668501.883    88728895.512         259.243          46.000  
G27  21734625.052                        2451.503          45.000    21734618.586    88999629.998        1910.203          45.000  
G16  20664995.424                        -338.879          47.000                                                                  
G08  23821640.172                        3452.188          38.000    23821639.475                        2690.160          40.000  
G09  23771210.678                        2304.100          38.000    23771204.838    97339106.699        1795.529          39.000  
G31  21991407.740                       -2091.460          47.000    21991397.057    90051090.724       -1629.818          44.000  
C06  36735661.799                          36.656          47.000    36735643.718   147919215.264          28.329          49.000  
C32  26692298.008                       -3568.948          38.000                                                                  
C37  22884802.214                        -573.254          50.000                                                                  
C07  38352131.117                         700.330          42.000    38352114.094   154428078.029         541.545          45.000  
C13  41791580.097                       -2321.211          35.000    41791612.461   168277523.518       -1794.609          38.000  
C20  24643401.460                       -2141.402          47.000                                                                  
G18  25350163.994                         916.971          38.000    25350157.403   103804653.021         714.223          40.000  
G28  24186321.302                       -2989.714          41.000    24186314.129    99038900.793       -2329.648          42.000  
G03  25702196.191                       -3024.035          34.000    25702210.557   105246159.282       -2356.459          37.000  
G26  21784270.939                       -2224.497          46.000    21784263.241    89202917.677       -1733.329          44.000  
C10  39415515.603                         657.318          38.000    39415503.805   158709901.258         508.667          43.000  
C28  23864862.879                        1387.808          48.000                                                                  
C23  25152273.235                       -2286.483          43.000                                                                  
C16  37174757.598                          35.778          50.000    37174745.106   149687296.143          27.716          48.000  
C27  25352571.673                        2770.241          41.000                                                                  
C19  25726432.833                         323.853          41.000                                                                  
C09  37804647.920                         196.965          46.000    37804632.393   152223593.854         152.547          48.000  
C11                                                                  27151243.384   109326803.105       -1973.207          44.000  
> 2025 10 28 08 27 48.7620000  0 24                     
G04  21668509.057                         330.451          45.000    21668499.386    88728885.241         257.323          46.000  
G27  21734606.397                        2449.202          45.000    21734599.930    88999553.674        1908.562          45.000  
G16  20664997.986                        -340.770          47.000                                                                  
G08  23821613.914                        3450.332          38.000    23821613.214                        2688.618          40.000  
G09  23771193.147                        2302.300          38.000    23771187.323    97339034.956        1793.829          39.000  
G31  21991423.683                       -2093.728          47.000    21991412.980    90051155.991       -1631.335          44.000  
C06  36735661.571                          34.549          47.000    36735643.481   147919214.219          26.593          49.000  
C32  26692325.450                       -3570.472          38.000                                                                  
C37  22884806.633                        -575.230          50.000                                                                  
C07  38352125.771                         698.304          42.000    38352108.769   154428056.437         540.103          45.000  
C13  41791597.960                       -2323.030          35.000    41791630.330   168277595.380       -1796.147          38.000  
C20  24643417.992                       -2143.562          47.000                                                                  
G18  25350157.046                         914.552          38.000    25350150.448   103804624.537         712.482          40.000  
G28  24186344.083                       -2991.509          41.000    24186336.910    99038994.044       -2331.130          42.000  
G03  25702219.260                       -3026.252          34.000    25702233.604   105246253.632       -2358.205          37.000  
G26  21784287.889                       -2226.816          46.000    21784280.201    89202987.117       -1735.357          44.000  
C10  39415510.580                         656.000          38.000    39415498.779   158709880.979         507.153          43.000  
C28  23864852.250                        1386.105          48.000                                                                  
C23  25152290.829                       -2288.431          43.000                                                                  
C16  37174757.358                          33.582          49.000    37174744.853   149687295.116          26.083          48.000  
C27  25352550.413                        2768.618          41.000                                                                  
C19  25726430.364                         321.905          41.000                                                                  
C09  37804646.451                         194.961          46.000    37804630.889   152223587.840         150.798          48.000  
C11                                                                  27151263.024   109326882.118       -1974.998          44.000  
> 2025 10 28 08 27 48.8020000  0 24                     
G04  21668506.549                         330.456          45.000    21668496.867    88728874.923         257.326          46.000  
G27  21734587.767                        2449.121          45.000    21734581.290    88999477.323        1908.320          45.000  
G16  20665000.584                        -340.343          47.000                                                                  
G08  23821587.634                        3450.833          38.000    23821586.958                        2688.679          40.000  
G09  23771175.607                        2302.776          38.000    23771169.805    97338963.151        1794.339          39.000  
G31  21991439.631                       -2093.657          47.000    21991428.931    90051221.234       -1631.515          44.000  
C06  36735661.289                          34.570          47.000    36735643.218   147919213.138          26.467          49.000  
C32  26692352.878                       -3570.935          38.000                                                                  
C37  22884811.053                        -574.967          50.000                                                                  
C07  38352120.395                         698.683          42.000    38352103.359   154428034.820         539.987          45.000  
C13  41791615.815                       -2322.336          35.000    41791648.194   168277667.219       -1796.369          38.000  
C20  24643434.454                       -2143.595          47.000                                                                  
G18  25350150.084                         914.805          38.000    25350143.497   103804596.005         712.622          40.000  
G28  24186366.876                       -2991.073          41.000    24186359.669    99039087.249       -2330.751          42.000  
G03  25702242.281                       -3025.760          34.000    25702256.672   105246347.919       -2357.834          37.000  
G26  21784304.854                       -2226.755          46.000    21784297.168    89203056.500       -1735.281          44.000  
C10  39415505.555                         656.262          38.000    39415493.769   158709860.665         507.318          43.000  
C28  23864841.602                        1386.486          48.000                                                                  
C23  25152308.417                       -2288.248          43.000                                                                  
C16  37174757.110                          33.913          49.000    37174744.588   149687294.056          26.009          48.000  
C27  25352529.127                        2769.308          41.000                                                                  
C19  25726427.893                         321.946          41.000                                                                  
C09  37804644.943                         195.290          46.000    37804629.400   152223581.781         150.885          48.000  
C11                                                                  27151282.653   109326961.074       -1974.594          44.000  
> 2025 10 28 08 27 48.8420000  0 24                     
G04  21668504.006                         333.571          45.000    21668494.344                         259.724          46.000  
G27  21734569.065                        2452.470          45.000    21734562.625                        1910.833          45.000  
G16  20665003.137                        -337.371          47.000                                                                  
G08  23821561.338                        3454.014          38.000    23821560.636                        2691.239          40.000  
G09  23771158.003                        2306.218          38.000    23771152.244                        1796.798          39.000  
G31  21991455.504                       -2090.422          47.000    21991444.871                       -1629.379          44.000  
C06  36735660.985                          37.589          47.000    36735642.894                          28.859          49.000  
C32  26692380.297                       -3567.717          38.000                                                                  
C37  22884815.498                        -571.690          50.000                                                                  
C07  38352114.997                         701.753          42.000    38352097.966   154428013.086         542.225          45.000  
C13  41791633.630                       -2318.952          35.000    41791666.003   168277738.941       -1794.017          38.000  
C20  24643450.857                       -2140.741          47.000                                                                  
G18  25350143.059                         917.723          38.000    25350136.498                         715.333          40.000  
G28  24186389.605                       -2987.927          41.000    24186382.407                       -2328.499          42.000  
G03  25702265.292                       -3023.225          33.000    25702279.679                       -2355.719          37.000  
G26  21784321.758                       -2223.590          46.000    21784314.082                       -1732.964          44.000  
C10  39415500.482                         659.686          38.000    39415488.694                         509.802          43.000  
C28  23864830.945                        1389.351          48.000                                                                  
C23  25152325.949                       -2285.359          44.000                                                                  
C16  37174756.809                          37.114          49.000    37174744.303                          28.450          48.000  
C27  25352507.831                        2772.148          41.000                                                                  
C19  25726425.387                         325.612          41.000                                                                  
C09  37804643.413                         198.788          46.000    37804627.849   152223575.606         153.232          48.000  
C11                                                                  27151302.241                       -1972.187          44.000  
> 2025 10 28 08 27 48.8820000  0 24                     
G04  21668501.457                         335.022          45.000    21668491.773                         261.224          46.000  
G27  21734550.370                        2453.798          45.000    21734543.922    88999324.350        1912.095          45.000  
G16  20665005.697                        -336.370          47.000                                                                  
G08  23821535.058                        3454.990          38.000    23821534.318                        2692.362          40.000  
G09  23771140.409                        2307.034          38.000    23771134.661                        1797.765          39.000  
G31  21991471.415                       -2089.065          47.000    21991460.787    90051351.473       -1627.988          44.000  
C06  36735660.670                          39.060          47.000    36735642.560   147919210.712          30.276          49.000  
C32  26692407.657                       -3566.461          38.000                                                                  
C37  22884819.883                        -570.699          50.000                                                                  
C07  38352109.574                         702.758          42.000    38352092.545   154427991.353         543.295          45.000  
C13  41791651.441                       -2318.454          35.000    41791683.801   168277810.667       -1793.023          38.000  
C20  24643467.248                       -2139.069          47.000                                                                  
G18  25350136.074                         919.289          38.000    25350129.477   103804538.690         716.418          40.000  
G28  24186412.327                       -2987.217          41.000    24186405.132    99039273.471       -2327.761          42.000  
G03  25702288.287                       -3022.155          34.000    25702302.668   105246536.298       -2354.537          37.000  
G26  21784338.668                       -2222.210          46.000    21784330.973                       -1731.610          44.000  
C10  39415495.414                         660.419          38.000    39415483.624   158709819.814         510.718          43.000  
C28  23864820.245                        1390.383          48.000                                                                  
C23  25152343.481                       -2284.136          44.000                                                                  
C16  37174756.500                          38.393          49.000    37174743.999   149687291.680          29.647          48.000  
C27  25352486.496                        2773.357          41.000                                                                  
C19  25726422.860                         326.636          41.000                                                                  
C09  37804641.853                         199.831          46.000    37804626.316   152223569.433         154.350          48.000  
C11                                                                  27151321.859   109327118.785       -1971.307          44.000  
> 2025 10 28 08 27 48.9220000  0 24                     
G04  21668498.904                         334.817          45.000    21668489.225    88728843.622         260.967          46.000  
G27  21734531.676                        2453.585          45.000    21734525.253    88999247.897        1912.042          45.000  
G16  20665008.269                        -336.335          47.000                                                                  
G08  23821508.763                        3455.065          38.000    23821508.033                        2692.416          40.000  
G09  23771122.876                        2306.294          38.000    23771117.114                        1797.606          39.000  
G31  21991487.337                       -2089.235          47.000    21991476.706    90051416.611       -1627.814          44.000  
C06  36735660.379                          38.866          47.000    36735642.279   147919209.532          30.226          49.000  
C32  26692435.080                       -3566.979          38.000                                                                  
C37  22884824.256                        -570.918          50.000                                                                  
C07  38352104.184                         702.443          42.000    38352087.165   154427969.637         543.386          45.000  
C13  41791669.271                       -2318.975          35.000    41791701.638   168277882.393       -1792.659          38.000  
C20  24643483.698                       -2139.244          47.000                                                                  
G18  25350129.068                         919.313          38.000    25350122.473   103804510.054         716.546          40.000  
G28  24186435.085                       -2987.225          41.000    24186427.876    99039366.601       -2327.730          42.000  
G03  25702311.286                       -3021.886          34.000    25702325.681   105246630.517       -2354.694          37.000  
G26  21784355.592                       -2222.324          46.000    21784347.880    89203264.302       -1731.413          44.000  
C10  39415490.371                         660.315          38.000    39415478.562   158709799.411         510.669          43.000  
C28  23864809.589                        1390.347          48.000                                                                  
C23  25152361.029                       -2283.975          43.000                                                                  
C16  37174756.230                          38.070          49.000    37174743.707   149687290.528          29.501          48.000  
C27  25352465.200                        2773.254          41.000                                                                  
C19  25726420.388                         326.377          41.000                                                                  
C09  37804640.326                         199.399          46.000    37804624.813   152223563.285         154.330          48.000  
C11                                                                  27151341.476   109327197.673       -1971.567          44.000  
> 2025 10 28 08 27 48.9620000  0 24                     
G04  21668496.359                         333.666          46.000    21668486.688    88728833.244         260.122          46.000  
G27  21734512.995                        2452.601          45.000    21734506.604    88999171.478        1911.169          45.000  
G16  20665010.845                        -337.590          47.000                                                                  
G08  23821482.475                        3453.633          38.000    23821481.739                        2691.340          40.000  
G09  23771105.343                        2305.330          38.000    23771099.565                        1796.706          39.000  
G31  21991503.252                       -2090.291          47.000    21991492.604    90051481.780       -1628.606          44.000  
C06  36735660.089                          37.875          47.000    36735641.960   147919208.381          29.451          49.000  
C32  26692462.494                       -3567.711          38.000                                                                  
C37  22884828.676                        -572.009          50.000                                                                  
C07  38352098.813                         701.622          42.000    38352081.776   154427947.951         542.706          45.000  
C13  41791687.114                       -2320.800          35.000    41791719.432   168277954.168       -1793.630          38.000  
C20  24643500.163                       -2140.052          47.000                                                                  
G18  25350122.084                         917.712          38.000    25350115.474   103804481.465         715.470          40.000  
G28  24186457.803                       -2988.531          41.000    24186450.626    99039459.762       -2328.536          42.000  
G03  25702334.305                       -3022.966          34.000    25702348.696                       -2355.840          37.000  
G26  21784372.505                       -2223.351          46.000    21784364.807    89203333.617       -1732.159          44.000  
C10  39415485.300                         659.210          38.000    39415473.523   158709779.052         509.534          43.000  
C28  23864798.942                        1389.021          48.000                                                                  
C23  25152378.606                       -2285.156          43.000                                                                  
C16  37174755.991                          37.019          49.000    37174743.458   149687289.404          28.703          48.000  
C27  25352443.921                        2772.133          41.000                                                                  
C19  25726417.913                         325.162          41.000                                                                  
C09  37804638.813                         198.271          46.000    37804623.286   152223557.165         153.573          48.000  
C11                                                                  27151361.054   109327276.582       -1972.317          44.000  
> 2025 10 28 08 27 49.0020000  0 24                     
G04  21668493.814                         331.306          45.000    21668484.170                         258.200          46.000  
G27  21734494.326                        2449.899          45.000    21734487.963    88999095.135        1909.253          45.000  
G16  20665013.439                        -340.215          47.000                                                                  
G08  23821456.228                        3450.866          38.000    23821455.463                        2689.406          40.000  
G09  23771087.791                        2303.178          38.000    23771082.053                        1794.199          39.000  
G31  21991519.167                       -2092.627          47.000    21991508.528                       -1630.543          44.000  
C06  36735659.850                          35.531          47.000    36735641.680                          27.544          49.000  
C32  26692489.957                       -3570.593          38.000                                                                  
C37  22884833.147                        -574.465          50.000                                                                  
C07  38352093.465                         698.778          42.000    38352076.427   154427926.344         540.729          45.000  
C13  41791704.976                       -2322.599          35.000    41791737.257   168278026.020       -1795.721          38.000  
C20  24643516.666                       -2142.649          47.000                                                                  
G18  25350115.099                         915.434          38.000    25350108.533                         712.979          40.000  
G28  24186480.555                       -2991.168          41.000    24186473.395    99039552.996       -2330.441          42.000  
G03  25702357.345                       -3026.343          33.000    25702371.733                       -2358.058          37.000  
G26  21784389.445                       -2225.728          46.000    21784381.775                       -1734.455          44.000  
C10  39415480.284                         656.354          38.000    39415468.487                         507.507          43.000  
C28  23864788.327                        1386.491          48.000                                                                  
C23  25152396.214                       -2287.590          43.000                                                                  
C16  37174755.759                          34.647          49.000    37174743.216   149687288.343          27.050          48.000  
C27  25352422.689                        2769.714          41.000                                                                  
C19  25726415.454                         322.511          41.000                                                                  
C09  37804637.333                         195.946          46.000    37804621.793   152223551.124         151.598          48.000  
C11                                                                  27151380.673                       -1974.246          44.000  
> 2025 10 28 08 27 49.0420000  0 24                     
G04  21668491.323                         328.880          45.000    21668481.688                         256.170          46.000  
G27  21734475.704                        2447.420          45.000    21734469.345                        1907.112          45.000  
G16  20665016.060                        -342.246          47.000                                                                  
G08  23821429.982                        3449.498          38.000    23821429.229                        2687.630          40.000  
G09  23771070.251                        2301.135          38.000    23771064.562                        1792.746          39.000  
G31  21991535.120                       -2095.228          47.000    21991524.469                       -1632.686          44.000  
C06  36735659.619                          33.200          47.000    36735641.437   147919206.290          25.631          49.000  
C32  26692517.423                       -3572.390          38.000                                                                  
C37  22884837.617                        -576.664          50.000                                                                  
C07  38352088.129                         696.969          42.000    38352071.091   154427904.798         538.744          45.000  
C13  41791722.859                       -2324.222          35.000    41791755.136   168278097.946       -1797.955          38.000  
C20  24643533.203                       -2145.211          47.000                                                                  
G18  25350108.162                         913.146          38.000    25350101.603                         711.360          40.000  
G28  24186503.346                       -2993.072          41.000    24186496.174                       -2332.182          42.000  
G03  25702380.390                       -3028.172          33.000    25702394.786                       -2359.184          37.000  
G26  21784406.417                       -2228.276          46.000    21784398.755                       -1736.407          44.000  
C10  39415475.268                         654.193          38.000    39415463.478   158709738.502         506.262          43.000  
C28  23864777.730                        1384.549          48.000                                                                  
C23  25152413.832                       -2289.860          43.000                                                                  
C16  37174755.557                          32.373          49.000    37174743.001   149687287.355          24.939          48.000  
C27  25352401.458                        2767.452          41.000                                                                  
C19  25726413.020                         320.477          41.000                                                                  
C09  37804635.848                         194.005          46.000    37804620.304   152223545.136         149.791          48.000  
C11                                                                  27151400.298                       -1975.828          44.000  
> 2025 10 28 08 27 49.0820000  0 24                     
G04  21668488.835                         328.789          45.000    21668479.176                         256.112          46.000  
G27  21734457.088                        2447.906          45.000    21734450.705                        1907.227          45.000  
G16  20665018.668                        -341.857          47.000                                                                  
G08  23821403.732                        3449.835          38.000    23821402.974                        2687.404          40.000  
G09  23771052.722                        2301.418          38.000    23771047.050                        1793.703          39.000  
G31  21991551.047                       -2094.921          47.000    21991540.409                       -1632.765          44.000  
C06  36735659.337                          33.241          47.000    36735641.160   147919205.226          25.660          49.000  
C32  26692544.852                       -3571.354          38.000                                                                  
C37  22884841.998                        -576.226          50.000                                                                  
C07  38352082.792                         697.917          42.000    38352065.749   154427883.202         538.876          45.000  
C13  41791740.725                       -2323.605          35.000    41791772.988                       -1797.105          38.000  
C20  24643549.651                       -2144.983          47.000                                                                  
G18  25350101.240                         913.448          38.000    25350094.642                         711.637          40.000  
G28  24186526.121                       -2992.188          41.000    24186518.944                       -2331.856          42.000  
G03  25702403.429                       -3026.790          33.000    25702417.836                       -2358.438          37.000  
G26  21784423.379                       -2227.992          46.000    21784415.713                       -1736.346          44.000  
C10  39415470.236                         655.792          38.000    39415458.427                         506.525          43.000  
C28  23864767.075                        1385.175          48.000                                                                  
C23  25152431.399                       -2289.816          43.000                                                                  
C16  37174755.300                          32.638          49.000    37174742.810   149687286.312          25.076          48.000  
C27  25352380.181                        2767.855          41.000                                                                  
C19  25726410.564                         320.685          41.000                                                                  
C09  37804634.354                         194.069          46.000    37804618.816   152223539.096         150.048          48.000  
C11                                                                  27151419.930                       -1975.496          44.000  
> 2025 10 28 08 27 49.1220000  0 24                     
G04  21668486.324                         331.444          45.000    21668476.646                         257.953          46.000  
G27  21734438.440                        2450.395          45.000    21734432.039                        1909.250          45.000  
G16  20665021.240                        -339.296          47.000                                                                  
G08  23821377.443                        3452.056          38.000    23821376.685                        2689.729          40.000  
G09  23771035.178                        2303.952          38.000    23771029.507                        1795.330          39.000  
G31  21991566.998                       -2092.627          47.000    21991556.322                       -1630.807          44.000  
C06  36735659.041                          35.769          47.000    36735640.848                          27.240          49.000  
C32  26692572.223                       -3569.734          38.000                                                                  
C37  22884846.318                        -573.884          50.000                                                                  
C07  38352077.413                         699.434          42.000    38352060.363                         540.942          45.000  
C13  41791758.556                       -2321.300          35.000    41791790.791                       -1794.878          38.000  
C20  24643566.082                       -2142.412          47.000                                                                  
G18  25350094.238                         916.453          38.000    25350087.651                         713.516          40.000  
G28  24186548.895                       -2990.223          41.000    24186541.694                       -2330.193          42.000  
G03  25702426.447                       -3025.094          34.000    25702440.864                       -2357.018          37.000  
G26  21784440.311                       -2225.790          46.000    21784432.668                       -1734.415          44.000  
C10  39415465.136                         657.928          38.000    39415453.350                         507.977          43.000  
C28  23864756.377                        1387.497          48.000                                                                  
C23  25152448.938                       -2287.754          43.000                                                                  
C16  37174754.993                          35.039          49.000    37174742.546                          26.823          48.000  
C27  25352358.894                        2769.920          41.000                                                                  
C19  25726408.061                         322.885          41.000                                                                  
C09  37804632.809                         196.605          46.000    37804617.300                         151.859          48.000  
C11                                                                  27151439.522                       -1973.832          44.000  
> 2025 10 28 08 27 49.1620000  0 24                     
G04  21668483.753                         333.986          45.000    21668474.098                         260.222          46.000  
G27  21734419.772                        2452.792          45.000    21734413.363                        1911.311          45.000  
G16  20665023.807                        -337.278          47.000                                                                  
G08  23821351.134                        3454.438          38.000    23821350.382                        2691.798          40.000  
G09  23771017.649                        2306.332          38.000    23771011.945                        1797.150          39.000  
G31  21991582.922                       -2089.957          47.000    21991572.240                       -1628.342          44.000  
C06  36735658.737                          38.197          47.000    36735640.520                          29.432          49.000  
C32  26692599.608                       -3567.439          38.000                                                                  
C37  22884850.669                        -571.526          50.000                                                                  
C07  38352071.959                         702.083          42.000    38352054.933                         542.823          45.000  
C13  41791776.373                       -2319.463          35.000    41791808.582                       -1793.675          38.000  
C20  24643582.493                       -2140.016          46.000                                                                  
G18  25350087.237                         918.371          38.000    25350080.648                         715.508          40.000  
G28  24186571.654                       -2987.793          41.000    24186564.445                       -2328.292          42.000  
G03  25702449.422                       -3023.109          34.000    25702463.871                       -2355.344          37.000  
G26  21784457.232                       -2223.005          46.000    21784449.617                       -1732.229          44.000  
C10  39415460.050                         659.332          38.000    39415448.276                         510.107          43.000  
C28  23864745.655                        1389.726          47.000                                                                  
C23  25152466.437                       -2284.928          43.000                                                                  
C16  37174754.672                          37.377          49.000    37174742.267                          28.944          48.000  
C27  25352337.576                        2772.172          40.000                                                                  
C19  25726405.546                         325.372          41.000                                                                  
C09  37804631.262                         198.949          45.000    37804615.766                         153.896          48.000  
C11                                                                  27151459.126                       -1971.962          44.000  
> 2025 10 28 08 27 49.2020000  0 24                     
G04  21668481.212                         335.262          46.000    21668471.543                         261.244          46.000  
G27  21734401.077                        2454.015          45.000    21734394.676                        1912.429          45.000  
G16  20665026.322                        -335.992          47.000                                                                  
G08  23821324.810                        3455.665          38.000    23821324.092                        2692.660          40.000  
G09  23771000.099                        2307.208          37.000    23770994.377                        1797.878          39.000  
G31  21991598.805                       -2088.657          47.000    21991588.150                       -1627.360          44.000  
C06  36735658.441                          39.487          47.000    36735640.217                          30.777          49.000  
C32  26692626.999                       -3565.948          38.000                                                                  
C37  22884855.075                        -570.200          50.000                                                                  
C07  38352066.547                         703.278          42.000    38352049.481                         544.085          45.000  
C13  41791794.167                       -2317.977          34.000    41791826.376                       -1792.713          38.000  
C20  24643598.933                       -2138.750          46.000                                                                  
G18  25350080.227                         919.373          38.000    25350073.654                         716.412          40.000  
G28  24186594.378                       -2986.604          41.000    24186587.177                       -2327.136          42.000  
G03  25702472.415                       -3021.165          34.000    25702486.867                       -2354.672          37.000  
G26  21784474.126                       -2221.710          46.000    21784466.510                       -1731.163          44.000  
C10  39415454.992                         660.742          38.000    39415443.180                         511.139          43.000  
C28  23864734.994                        1390.785          47.000                                                                  
C23  25152483.980                       -2283.390          43.000                                                                  
C16  37174754.362                          38.789          49.000    37174741.980                          30.247          48.000  
C27  25352316.272                        2773.705          40.000                                                                  
C19  25726403.015                         326.648          41.000                                                                  
C09  37804629.730                         200.010          45.000    37804614.229                         154.924          48.000  
C11                                                                  27151478.718                       -1971.140          44.000  
> 2025 10 28 08 27 49.2420000  0 24                     
G04  21668478.673                         335.827          46.000    21668468.979                         261.730          46.000  
G27  21734382.428                        2454.604          45.000    21734375.991                        1912.804          45.000  
G16  20665028.906                        -335.242          47.000                                                                  
G08  23821298.492                        3456.137          38.000    23821297.791                        2692.798          40.000  
G09  23770982.557                        2307.584          37.000    23770976.807                        1798.376          39.000  
G31  21991614.694                       -2087.977          47.000    21991604.049                       -1627.013          44.000  
C06  36735658.139                          40.276          47.000    36735639.914   147919200.429          31.366          49.000  
C32  26692654.377                       -3565.526          38.000                                                                  
C37  22884859.408                        -569.404          50.000                                                                  
C07  38352061.122                         704.004          42.000    38352044.087   154427796.280         544.646          45.000  
C13  41791811.959                       -2317.485          35.000    41791844.193   168278456.691       -1791.971          38.000  
C20  24643615.364                       -2137.965          46.000                                                                  
G18  25350073.247                         920.017          38.000    25350066.645                         717.288          40.000  
G28  24186617.128                       -2986.043          41.000    24186609.892                       -2326.512          42.000  
G03  25702495.414                       -3020.443          34.000    25702509.853                       -2354.012          37.000  
G26  21784491.046                       -2220.924          46.000    21784483.409                       -1730.726          44.000  
C10  39415449.903                         661.426          38.000    39415438.091   158709636.558         511.694          43.000  
C28  23864724.307                        1391.396          47.000                                                                  
C23  25152501.496                       -2282.676          43.000                                                                  
C16  37174754.044                          39.538          49.000    37174741.685                          30.747          48.000  
C27  25352294.957                        2774.467          40.000                                                                  
C19  25726400.498                         327.575          41.000                                                                  
C09  37804628.182                         200.644          45.000    37804612.698   152223514.434         155.394          48.000  
C11                                                                  27151498.291   109327829.060       -1970.440          44.000  
> 2025 10 28 08 27 49.2820000  0 24                     
G04  21668476.115                         335.361          45.000    21668466.433                         261.188          46.000  
G27  21734363.744                        2454.193          45.000    21734357.334                        1912.252          45.000  
G16  20665031.477                        -336.010          47.000                                                                  
G08  23821272.197                        3455.244          38.000    23821271.479                        2692.223          40.000  
G09  23770965.017                        2307.262          37.000    23770959.248                        1797.656          39.000  
G31  21991630.565                       -2088.632          47.000    21991619.945                       -1627.571          44.000  
C06  36735657.850                          39.617          47.000    36735639.603                          30.786          49.000  
C32  26692681.774                       -3566.118          38.000                                                                  
C37  22884863.804                        -570.274          50.000                                                                  
C07  38352055.753                         702.963          42.000    38352038.684                         543.867          45.000  
C13  41791829.764                       -2318.881          35.000    41791861.996   168278528.418       -1792.487          38.000  
C20  24643631.803                       -2138.653          46.000                                                                  
G18  25350066.250                         919.210          38.000    25350059.654                         716.844          40.000  
G28  24186639.866                       -2986.688          41.000    24186632.624                       -2327.260          42.000  
G03  25702518.414                       -3021.555          34.000    25702532.830                       -2354.109          37.000  
G26  21784507.967                       -2221.756          46.000    21784500.312                       -1730.972          44.000  
C10  39415444.848                         660.480          38.000    39415432.994                         510.889          43.000  
C28  23864713.656                        1390.599          47.000                                                                  
C23  25152519.071                       -2283.396          43.000                                                                  
C16  37174753.789                          38.908          49.000    37174741.394                          30.044          48.000  
C27  25352273.670                        2774.146          40.000                                                                  
C19  25726397.996                         326.597          41.000                                                                  
C09  37804626.641                         200.100          45.000    37804611.192   152223508.276         154.716          48.000  
C11                                                                  27151517.834   109327907.938       -1971.200          44.000  
> 2025 10 28 08 27 49.3220000  0 24                     
G04  21668473.545                         333.333          45.000    21668463.877                         259.963          46.000  
G27  21734345.045                        2452.325          45.000    21734338.678                        1910.988          45.000  
G16  20665034.029                        -337.513          47.000                                                                  
G08  23821245.886                        3453.679          38.000    23821245.205                        2691.447          40.000  
G09  23770947.460                        2305.525          37.000    23770941.711                        1796.405          39.000  
G31  21991646.473                       -2090.474          47.000    21991635.867                       -1628.818          44.000  
C06  36735657.595                          37.980          47.000    36735639.305                          29.339          49.000  
C32  26692709.183                       -3567.599          38.000                                                                  
C37  22884868.265                        -571.932          50.000                                                                  
C07  38352050.387                         701.751          42.000    38352033.337                         542.275          45.000  
C13  41791847.606                       -2320.117          34.000    41791879.828                       -1793.923          38.000  
C20  24643648.285                       -2140.324          46.000                                                                  
G18  25350059.258                         917.992          38.000    25350052.689                         715.045          40.000  
G28  24186662.612                       -2988.119          41.000    24186655.381                       -2328.403          42.000  
G03  25702541.436                       -3023.153          34.000    25702555.841                       -2355.067          37.000  
G26  21784524.879                       -2223.509          46.000    21784517.246                       -1732.527          44.000  
C10  39415439.793                         659.552          38.000    39415427.945                         509.753          43.000  
C28  23864703.031                        1389.027          47.000                                                                  
C23  25152536.661                       -2285.259          43.000                                                                  
C16  37174753.558                          37.104          49.000    37174741.138                          28.712          48.000  
C27  25352252.399                        2772.221          40.000                                                                  
C19  25726395.535                         325.084          41.000                                                                  
C09  37804625.115                         198.534          45.000    37804609.655   152223502.160         153.523          48.000  
C11                                                                  27151537.427   109327986.848       -1972.274          44.000  
> 2025 10 28 08 27 49.3620000  0 24                     
G04  21668471.029                         332.684          45.000    21668461.353    88728729.569         259.326          46.000  
G27  21734326.387                        2451.564          45.000    21734320.005    88998407.387        1910.290          45.000  
G16  20665036.619                        -338.310          47.000                                                                  
G08  23821219.617                        3453.721          38.000    23821218.936                        2690.688          40.000  
G09  23770929.892                        2304.870          37.000    23770924.156                        1795.883          39.000  
G31  21991662.389                       -2091.156          47.000    21991651.806    90052133.620       -1629.567          44.000  
C06  36735657.299                          37.227          47.000    36735639.031   147919196.949          28.664          49.000  
C32  26692736.598                       -3568.200          38.000                                                                  
C37  22884872.691                        -572.556          50.000                                                                  
C07  38352045.005                         700.947          41.000    38352027.972   154427731.215         541.914          45.000  
C13  41791865.439                       -2319.813          34.000    41791897.645   168278671.967       -1794.364          38.000  
C20  24643664.744                       -2141.228          46.000                                                                  
G18  25350052.283                         917.554          38.000    25350045.721                         714.588          40.000  
G28  24186685.384                       -2988.936          41.000    24186678.144                       -2329.311          42.000  
G03  25702564.459                       -3023.421          34.000    25702578.859   105247667.270       -2355.726          37.000  
G26  21784541.833                       -2224.056          46.000    21784534.183                       -1733.238          44.000  
C10  39415434.716                         658.752          38.000    39415422.897   158709575.408         509.265          43.000  
C28  23864692.376                        1388.451          47.000                                                                  
C23  25152554.240                       -2285.809          43.000                                                                  
C16  37174753.270                          36.527          49.000    37174740.852   149687278.201          28.031          48.000  
C27  25352231.123                        2771.401          40.000                                                                  
C19  25726393.090                         324.288          41.000                                                                  
C09  37804623.591                         197.939          45.000    37804608.133   152223496.036         153.020          48.000  
C11                                                                  27151557.061   109328065.762       -1972.881          44.000  
> 2025 10 28 08 27 49.4020000  0 24                     
G04  21668468.483                         332.332          45.000    21668458.826    88728719.206         258.896          46.000  
G27  21734307.712                        2451.455          45.000    21734301.358    88998330.980        1909.926          45.000  
G16  20665039.193                        -338.703          47.000                                                                  
G08  23821193.341                        3452.924          38.000    23821192.633                        2690.753          40.000  
G09  23770912.327                        2304.810          37.000    23770906.625                        1795.990          39.000  
G31  21991678.283                       -2091.466          47.000    21991667.698    90052198.798       -1629.797          44.000  
C06  36735657.031                          36.909          47.000    36735638.783   147919195.796          28.488          49.000  
C32  26692764.010                       -3568.302          38.000                                                                  
C37  22884877.104                        -572.839          50.000                                                                  
C07  38352039.624                         700.593          41.000    38352022.583   154427709.529         541.814          45.000  
C13  41791883.267                       -2319.870          34.000    41791915.474   168278743.728       -1794.387          38.000  
C20  24643681.221                       -2141.545          46.000                                                                  
G18  25350045.287                         917.291          38.000    25350038.735   103804167.092         714.138          40.000  
G28  24186708.119                       -2989.109          41.000    24186700.883    99040484.607       -2329.503          42.000  
G03  25702587.465                       -3024.198          33.000    25702601.893   105247761.527       -2356.379          37.000  
G26  21784558.774                       -2224.427          46.000    21784551.132    89204096.255       -1733.213          44.000  
C10  39415429.655                         658.429          38.000    39415417.832   158709555.030         509.204          43.000  
C28  23864681.706                        1388.180          47.000                                                                  
C23  25152571.799                       -2286.052          43.000                                                                  
C16  37174753.026                          36.232          49.000    37174740.563   149687277.067          27.944          48.000  
C27  25352209.845                        2770.917          40.000                                                                  
C19  25726390.608                         324.080          41.000                                                                  
C09  37804622.085                         197.629          45.000    37804606.637   152223489.917         152.740          48.000  
C11                                                                  27151576.664   109328144.674       -1973.092          44.000  
> 2025 10 28 08 27 49.4420000  0 24                     
G04  21668465.946                         333.313          45.000    21668456.270    88728708.800         259.545          46.000  
G27  21734289.042                        2452.310          45.000    21734282.652    88998254.525        1910.693          45.000  
G16  20665041.740                        -337.652          47.000                                                                  
G08  23821167.072                        3453.513          38.000    23821166.345                        2691.323          40.000  
G09  23770894.773                        2305.757          37.000    23770889.050                        1796.679          39.000  
G31  21991694.215                       -2090.471          47.000    21991683.608    90052263.939       -1629.106          44.000  
C06  36735656.707                          37.876          47.000    36735638.469   147919194.614          29.062          49.000  
C32  26692791.431                       -3567.673          38.000                                                                  
C37  22884881.429                        -571.970          50.000                                                                  
C07  38352034.242                         701.563          41.000    38352017.216   154427687.804         542.620          45.000  
C13  41791901.062                       -2319.042          34.000    41791933.286   168278815.445       -1793.423          38.000  
C20  24643697.684                       -2140.588          46.000                                                                  
G18  25350038.308                         917.577          38.000    25350031.742   103804138.456         715.142          40.000  
G28  24186730.873                       -2988.347          41.000    24186723.620    99040577.729       -2328.636          42.000  
G03  25702610.490                       -3023.232          33.000    25702624.917   105247855.715       -2355.433          37.000  
G26  21784575.717                       -2223.507          46.000    21784568.044    89204165.548       -1732.735          44.000  
C10  39415424.588                         659.393          38.000    39415412.767   158709534.627         509.790          43.000  
C28  23864671.036                        1389.160          47.000                                                                  
C23  25152589.348                       -2285.326          43.000                                                                  
C16  37174752.743                          37.025          49.000    37174740.278   149687275.900          28.694          48.000  
C27  25352188.544                        2772.027          40.000                                                                  
C19  25726388.116                         324.938          41.000                                                                  
C09  37804620.563                         198.714          45.000    37804605.120   152223483.755         153.552          48.000  
C11                                                                  27151596.273   109328223.547       -1972.294          44.000  
> 2025 10 28 08 27 49.4820000  0 24                     
G04  21668463.381                         333.713          45.000    21668453.725    88728698.392         259.948          46.000  
G27  21734270.370                        2452.594          45.000    21734263.973    88998178.069        1911.122          45.000  
G16  20665044.323                        -337.727          47.000                                                                  
G08  23821140.774                        3453.805          38.000    23821140.063    97543607.352        2691.016          40.000  
G09  23770877.202                        2305.485          37.000    23770871.512                        1796.387          39.000  
G31  21991710.118                       -2090.198          47.000    21991699.517    90052329.087       -1628.856          44.000  
C06  36735656.408                          38.180          47.000    36735638.198   147919193.429          29.401          49.000  
C32  26692818.836                       -3567.385          38.000                                                                  
C37  22884885.812                        -571.709          50.000                                                                  
C07  38352028.836                         701.846          41.000    38352011.793   154427666.096         542.682          45.000  
C13  41791918.880                       -2319.486          34.000    41791951.124   168278887.205       -1793.770          38.000  
C20  24643714.103                       -2140.212          46.000                                                                  
G18  25350031.308                         917.791          38.000    25350024.737   103804109.830         715.441          40.000  
G28  24186753.629                       -2988.293          41.000    24186746.353    99040670.866       -2328.446          42.000  
G03  25702633.490                       -3022.983          33.000    25702647.940   105247949.954       -2355.809          37.000  
G26  21784592.630                       -2223.136          46.000    21784584.966    89204234.833       -1732.385          44.000  
C10  39415419.504                         659.027          38.000    39415407.696   158709514.240         509.698          43.000  
C28  23864660.380                        1389.156          47.000                                                                  
C23  25152606.875                       -2284.816          43.000                                                                  
C16  37174752.433                          37.459          49.000    37174740.005   149687274.743          28.831          48.000  
C27  25352167.226                        2771.988          40.000                                                                  
C19  25726385.640                         325.128          41.000                                                                  
C09  37804619.000                         198.636          45.000    37804603.580   152223477.601         153.760          48.000  
C11                                                                  27151615.832   109328302.439       -1972.327          44.000  
> 2025 10 28 08 27 49.5220000  0 24                     
G04  21668460.845                         331.742          45.000    21668451.175    88728688.065         258.718          46.000  
G27  21734251.707                        2450.714          45.000    21734245.318    88998101.713        1909.523          45.000  
G16  20665046.923                        -339.355          47.000                                                                  
G08  23821114.505                        3452.149          38.000    23821113.795    97543499.763        2689.878          40.000  
G09  23770859.658                        2303.430          37.000    23770854.001                        1794.908          39.000  
G31  21991726.030                       -2092.141          47.000    21991715.460    90052394.306       -1630.004          44.000  
C06  36735656.146                          36.118          47.000    36735637.949   147919192.320          28.207          49.000  
C32  26692846.289                       -3569.173          38.000                                                                  
C37  22884890.255                        -573.490          50.000                                                                  
C07  38352023.478                         699.800          41.000    38352006.436   154427644.458         541.396          45.000  
C13  41791936.691                       -2322.066          34.000    41791968.955   168278959.032       -1795.328          38.000  
C20  24643730.578                       -2142.016          46.000                                                                  
G18  25350024.345                         915.989          38.000    25350017.779   103804081.299         713.899          40.000  
G28  24186776.373                       -2990.179          41.000    24186769.114    99040764.071       -2329.692          42.000  
G03  25702656.505                       -3024.974          33.000    25702670.981   105248044.250       -2357.064          37.000  
G26  21784609.562                       -2225.147          46.000    21784601.884    89204304.203       -1733.685          44.000  
C10  39415414.479                         657.385          38.000    39415402.655   158709493.907         508.612          43.000  
C28  23864649.737                        1387.456          47.000                                                                  
C23  25152624.470                       -2286.921          43.000                                                                  
C16  37174752.213                          35.554          49.000    37174739.748   149687273.667          27.401          48.000  
C27  25352145.959                        2770.713          40.000                                                                  
C19  25726383.187                         323.312          41.000                                                                  
C09  37804617.492                         196.813          45.000    37804602.078   152223471.533         152.268          48.000  
C11                                                                  27151635.452   109328381.401       -1973.708          44.000  
> 2025 10 28 08 27 49.5620000  0 24                     
G04  21668458.326                         330.525          45.000    21668448.658    88728677.767         257.556          46.000  
G27  21734233.094                        2449.322          45.000    21734226.673    88998025.365        1908.608          45.000  
G16  20665049.539                        -340.416          47.000                                                                  
G08  23821088.251                        3451.027          38.000    23821087.520    97543392.185        2689.241          40.000  
G09  23770842.131                        2302.451          37.000    23770836.498    97337598.128        1794.216          39.000  
G31  21991741.947                       -2093.484          47.000    21991731.399    90052459.550       -1631.069          44.000  
C06  36735655.849                          35.123          47.000    36735637.696   147919191.234          27.210          49.000  
C32  26692873.708                       -3570.567          38.000                                                                  
C37  22884894.657                        -574.637          50.000                                                                  
C07  38352018.127                         698.959          41.000    38352001.084   154427622.843         540.355          45.000  
C13  41791954.521                       -2322.456          34.000    41791986.837   168279030.878       -1796.405          38.000  
C20  24643747.038                       -2143.491          46.000                                                                  
G18  25350017.383                         914.546          38.000    25350010.832   103804052.791         712.714          40.000  
G28  24186799.128                       -2991.263          41.000    24186791.888    99040857.295       -2330.612          42.000  
G03  25702679.531                       -3025.352          33.000    25702694.004   105248138.547       -2357.693          37.000  
G26  21784626.522                       -2226.396          46.000    21784618.873    89204373.597       -1734.775          44.000  
C10  39415409.456                         656.531          38.000    39415397.596   158709473.593         507.782          43.000  
C28  23864639.067                        1386.311          47.000                                                                  
C23  25152642.081                       -2287.990          43.000                                                                  
C16  37174751.963                          34.319          49.000    37174739.502   149687272.605          26.478          48.000  
C27  25352124.702                        2769.476          40.000                                                                  
C19  25726380.728                         322.193          41.000                                                                  
C09  37804615.994                         195.498          45.000    37804600.577   152223465.479         151.295          48.000  
C11                                                                  27151655.075   109328460.381       -1974.645          44.000  
> 2025 10 28 08 27 49.6020000  0 24                     
G04  21668455.821                         330.585          45.000    21668446.129    88728667.446         257.492          46.000  
G27  21734214.447                        2449.292          45.000    21734208.031    88997949.001        1908.589          45.000  
G16  20665052.133   108595581.827        -340.253          47.000                                                                  
G08  23821061.970                        3451.424          38.000    23821061.235    97543284.591        2689.390          40.000  
G09  23770824.603                        2302.675          37.000    23770818.987    97337526.335        1794.299          39.000  
G31  21991757.887                       -2093.285          47.000    21991747.360    90052524.781       -1631.227          44.000  
C06  36735655.576                          35.256          47.000    36735637.429   147919190.122          27.275          49.000  
C32  26692901.148                       -3570.180          38.000                                                                  
C37  22884899.045                        -574.532          50.000                                                                  
C07  38352012.780                         699.264          41.000    38351995.726   154427601.197         540.568          45.000  
C13  41791972.331                       -2321.975          34.000    41792004.653   168279102.654       -1795.462          38.000  
C20  24643763.489                       -2143.398          46.000                                                                  
G18  25350010.428                         915.062          38.000    25350003.870   103804024.256         712.736          40.000  
G28  24186821.883                       -2990.471          41.000    24186814.653    99040950.511       -2330.772          42.000  
G03  25702702.552                       -3025.199          33.000    25702717.029   105248232.832       -2357.619          37.000  
G26  21784643.455                       -2226.070          46.000    21784635.794    89204442.971       -1734.861          44.000  
C10  39415404.413                         656.976          38.000    39415392.554   158709453.269         507.721          43.000  
C28  23864628.425                        1386.597          47.000                                                                  
C23  25152659.667                       -2287.904          43.000                                                                  
C16  37174751.747                          34.459          49.000    37174739.235   149687271.519          26.583          48.000  
C27  25352103.426                        2769.664          40.000                                                                  
C19  25726378.261                         322.268          41.000                                                                  
C09  37804614.507                         196.023          45.000    37804599.060   152223459.394         151.521          48.000  
C11                                                                  27151674.684   109328539.339       -1974.471          44.000  
> 2025 10 28 08 27 49.6420000  0 24                     
G04  21668453.312                         332.512          46.000    21668443.609    88728657.065         258.695          46.000  
G27  21734195.793                        2451.448          45.000    21734189.355    88997872.561        1910.091          45.000  
G16  20665054.704                        -338.153          47.000                                                                  
G08  23821035.698                        3453.580          38.000    23821034.959    97543176.951        2690.447          40.000  
G09  23770807.038                        2305.536          37.000    23770801.431                        1795.993          39.000  
G31  21991773.841                       -2091.202          47.000    21991763.305    90052589.944       -1629.889          44.000  
C06  36735655.259                          37.138          47.000    36735637.155   147919188.957          28.412          49.000  
C32  26692928.537                       -3567.695          38.000                                                                  
C37  22884903.384                        -572.515          50.000                                                                  
C07  38352007.363                         701.183          41.000    38351990.321   154427579.491         541.991          45.000  
C13  41791990.145                       -2319.799          35.000    41792022.477   168279174.389       -1793.965          38.000  
C20  24643779.920                       -2141.460          46.000                                                                  
G18  25350003.441                         917.373          38.000    25349996.905                         714.676          40.000  
G28  24186844.621                       -2988.281          41.000    24186837.388    99041043.645       -2329.079          42.000  
G03  25702725.577                       -3023.238          34.000    25702740.046   105248327.042       -2356.027          37.000  
G26  21784660.401                       -2224.139          46.000    21784652.746    89204512.275       -1733.437          44.000  
C10  39415399.328                         658.728          38.000    39415387.493   158709432.871         509.259          43.000  
C28  23864617.720                        1388.566          47.000                                                                  
C23  25152677.211                       -2286.097          43.000                                                                  
C16  37174751.451                          36.514          49.000    37174738.942   149687270.363          28.107          48.000  
C27  25352082.114                        2771.323          40.000                                                                  
C19  25726375.746                         324.096          41.000                                                                  
C09  37804612.951                         198.235          45.000    37804597.527   152223453.249         152.935          48.000  
C11                                                                  27151694.257   109328618.211       -1972.570          44.000  
> 2025 10 28 08 27 49.6820000  0 24                     
G04  21668450.759                         335.690          46.000    21668441.058    88728646.562         261.567          46.000  
G27  21734177.072                        2454.835          45.000    21734170.673    88997796.018        1912.770          45.000  
G16  20665057.260                        -334.884          47.000                                                                  
G08  23821009.344                        3456.602          38.000    23821008.627    97543069.196        2693.193          40.000  
G09  23770789.458                        2308.618          37.000    23770783.836                        1799.387          39.000  
G31  21991789.735                       -2087.765          47.000    21991779.204    90052654.982       -1626.939          44.000  
C06  36735654.912                          40.569          47.000    36735636.863   147919187.674          31.194          49.000  
C32  26692955.897                       -3564.722          38.000                                                                  
C37  22884907.703                        -569.339          50.000                                                                  
C07  38352001.948                         704.119          41.000    38351984.863   154427557.686         544.524          45.000  
C13  41792007.901                       -2315.905          34.000    41792040.273                       -1791.752          38.000  
C20  24643796.282                       -2137.945          46.000                                                                  
G18  25349996.425                         920.407          38.000    25349989.880                         717.106          40.000  
G28  24186867.352                       -2985.700          41.000    24186860.109                       -2326.434          42.000  
G03  25702748.561                       -3020.709          33.000    25702763.040   105248421.170       -2353.732          37.000  
G26  21784677.315                       -2220.995          46.000    21784669.656    89204581.465       -1730.625          44.000  
C10  39415394.233                         662.244          38.000    39415382.390   158709412.368         512.048          43.000  
C28  23864606.991                        1391.915          47.000                                                                  
C23  25152694.732                       -2282.760          43.000                                                                  
C16  37174751.122                          39.972          49.000    37174738.641   149687269.097          30.918          48.000  
C27  25352060.772                        2774.641          40.000                                                                  
C19  25726373.203                         327.601          41.000                                                                  
C09  37804611.405                         201.223          45.000    37804595.977   152223447.000         155.594          48.000  
C11                                                                  27151713.813   109328697.007       -1970.252          44.000  
> 2025 10 28 08 27 49.7220000  0 24                     
G04  21668448.182                         337.765          46.000    21668438.460    88728636.042         263.250          46.000  
G27  21734158.397                        2456.650          45.000    21734151.957    88997719.440        1914.655          45.000  
G16  20665059.782                        -333.256          47.000                                                                  
G08  23820983.039                        3458.300          38.000    23820982.295    97542961.416        2694.879          40.000  
G09  23770771.866                        2310.500          37.000    23770766.244                        1799.979          39.000  
G31  21991805.627                       -2085.864          47.000    21991795.079    90052720.017       -1625.438          44.000  
C06  36735654.534                          42.543          47.000    36735636.530   147919186.359          33.059          49.000  
C32  26692983.243                       -3563.262          38.000                                                                  
C37  22884912.046                        -567.323          50.000                                                                  
C07  38351996.525                         706.224          41.000    38351979.444   154427535.860         546.064          45.000  
C13  41792025.679                       -2314.728          34.000    41792058.057                       -1790.352          38.000  
C20  24643812.656                       -2136.051          46.000                                                                  
G18  25349989.389                         922.204          38.000    25349982.847                         718.814          40.000  
G28  24186890.060                       -2983.742          41.000    24186882.809    99041229.697       -2324.986          42.000  
G03  25702771.540                       -3018.532          33.000    25702786.030   105248515.256       -2351.999          37.000  
G26  21784694.204                       -2219.028          46.000    21784686.542    89204650.629       -1728.806          44.000  
C10  39415389.135                         663.318          38.000    39415377.294   158709391.859         513.287          43.000  
C28  23864596.283                        1393.556          47.000                                                                  
C23  25152712.262                       -2280.563          43.000                                                                  
C16  37174750.821                          41.772          49.000    37174738.311   149687267.819          32.413          48.000  
C27  25352039.428                        2776.795          40.000                                                                  
C19  25726370.668                         329.430          41.000                                                                  
C09  37804609.828                         203.068          45.000    37804594.411   152223440.728         157.198          48.000  
C11                                                                  27151733.347   109328775.788       -1969.026          44.000  
> 2025 10 28 08 27 49.7620000  0 24                     
G04  21668445.601                         337.726          46.000    21668435.892    88728625.549         263.346          46.000  
G27  21734139.696                        2456.759          45.000    21734133.274    88997642.906        1914.532          45.000  
G16  20665062.314                        -333.448          47.000                                                                  
G08  23820956.735                        3458.113          38.000    23820955.989    97542853.678        2694.476          40.000  
G09  23770754.280                        2309.027          37.000    23770748.680                        1799.469          39.000  
G31  21991821.495                       -2086.119          47.000    21991810.964    90052785.075       -1625.421          44.000  
C06  36735654.168                          42.442          47.000    36735636.243   147919185.084          33.037          49.000  
C32  26693010.629                       -3563.406          38.000                                                                  
C37  22884916.461                        -567.581          50.000                                                                  
C07  38351991.089                         706.033          41.000    38351974.021   154427514.056         546.099          45.000  
C13  41792043.485                       -2316.084          34.000    41792075.846   168279389.310       -1790.034          38.000  
C20  24643829.068                       -2136.198          46.000                                                                  
G18  25349982.365                         922.073          38.000    25349975.851                         718.519          40.000  
G28  24186912.787                       -2984.363          41.000    24186905.524    99041322.749       -2325.271          42.000  
G03  25702794.526                       -3019.073          33.000    25702809.020   105248609.381       -2352.129          37.000  
G26  21784711.099                       -2219.032          46.000    21784703.436    89204719.819       -1728.658          44.000  
C10  39415384.063                         663.446          38.000    39415372.233   158709371.372         513.135          43.000  
C28  23864585.631                        1393.105          47.000                                                                  
C23  25152729.805                       -2280.463          43.000                                                                  
C16  37174750.537                          41.627          49.000    37174737.998   149687266.581          32.094          48.000  
C27  25352018.104                        2776.558          40.000                                                                  
C19  25726368.130                         329.041          41.000                                                                  
C09  37804608.273                         202.979          45.000    37804592.883   152223434.491         157.026          48.000  
C11                                                                  27151752.915   109328854.587       -1969.094          44.000  
> 2025 10 28 08 27 49.8020000  0 24                     
G04  21668443.027                         336.359          46.000    21668433.347    88728615.106         262.196          46.000  
G27  21734121.000                        2455.294          45.000    21734114.591                        1913.174          45.000  
G16  20665064.874                        -334.928          47.000                                                                  
G08  23820930.420                        3456.712          38.000    23820929.675                        2693.436          40.000  
G09  23770736.709                        2308.151          37.000    23770731.129                        1798.494          39.000  
G31  21991837.363                       -2087.440          47.000    21991826.862    90052850.183       -1626.636          44.000  
C06  36735653.866                          40.900          47.000    36735635.965   147919183.863          31.781          49.000  
C32  26693038.039                       -3565.498          38.000                                                                  
C37  22884920.852                        -569.024          50.000                                                                  
C07  38351985.714                         704.240          41.000    38351968.620   154427492.283         545.229          45.000  
C13  41792061.298                       -2317.521          34.000    41792093.634                       -1791.128          38.000  
C20  24643845.494                       -2137.537          46.000                                                                  
G18  25349975.353                         920.736          38.000    25349968.860                         717.548          40.000  
G28  24186935.505                       -2985.498          41.000    24186928.252                       -2326.295          42.000  
G03  25702817.521                       -3019.918          33.000    25702832.022                       -2352.911          37.000  
G26  21784727.993                       -2220.284          46.000    21784720.346                       -1730.072          44.000  
C10  39415378.968                         662.238          38.000    39415367.214   158709350.927         511.951          43.000  
C28  23864574.966                        1391.670          47.000                                                                  
C23  25152747.360                       -2282.000          43.000                                                                  
C16  37174750.276                          40.039          49.000    37174737.704   149687265.372          31.152          48.000  
C27  25351996.820                        2774.927          40.000                                                                  
C19  25726365.655                         327.516          41.000                                                                  
C09  37804606.761                         201.729          45.000    37804591.377   152223428.290         155.995          48.000  
C11                                                                  27151772.477   109328933.424       -1970.124          44.000  
> 2025 10 28 08 27 49.8420000  0 24                     
G04  21668440.466                         334.246          45.000    21668430.807    88728604.724         260.310          46.000  
G27  21734102.327                        2453.282          45.000    21734095.937                        1911.289          45.000  
G16  20665067.434                        -337.178          47.000                                                                  
G08  23820904.117                        3454.102          38.000    23820903.380                        2691.985          40.000  
G09  23770719.153                        2306.290          37.000    23770713.569                        1797.181          39.000  
G31  21991853.251                       -2089.562          47.000    21991842.760    90052915.317       -1627.909          44.000  
C06  36735653.578                          39.024          47.000    36735635.667   147919182.681          30.215          49.000  
C32  26693065.420                       -3567.059          38.000                                                                  
C37  22884925.282                        -571.044          50.000                                                                  
C07  38351980.338                         702.621          41.000    38351963.246                         543.090          45.000  
C13  41792079.101                       -2318.171          34.000    41792111.458                       -1793.053          38.000  
C20  24643861.969                       -2139.465          46.000                                                                  
G18  25349968.338                         918.376          38.000    25349961.858                         715.839          40.000  
G28  24186958.259                       -2987.681          41.000    24186951.007                       -2328.052          42.000  
G03  25702840.512                       -3021.948          33.000    25702855.027                       -2354.388          37.000  
G26  21784744.900                       -2222.394          46.000    21784737.275                       -1731.802          44.000  
C10  39415373.900                         659.723          38.000    39415362.171                         510.107          43.000  
C28  23864564.318                        1389.716          47.000                                                                  
C23  25152764.916                       -2284.033          43.000                                                                  
C16  37174749.984                          38.058          49.000    37174737.435   149687264.220          29.419          48.000  
C27  25351975.536                        2773.127          40.000                                                                  
C19  25726363.166                         326.041          41.000                                                                  
C09  37804605.250                         199.467          45.000    37804589.870                         154.099          48.000  
C11                                                                  27151792.092   109329012.312       -1971.782          44.000  
> 2025 10 28 08 27 49.8820000  0 24                     
G04  21668437.947                         331.522          45.000    21668428.281                         258.172          46.000  
G27  21734083.669                        2450.284          45.000    21734077.287                        1909.271          45.000  
G16  20665070.033                        -339.595          47.000                                                                  
G08  23820877.864                        3451.627          38.000    23820877.111                        2689.706          40.000  
G09  23770701.604                        2303.529          37.000    23770696.050                        1794.643          39.000  
G31  21991869.156                       -2092.195          47.000    21991858.707                       -1630.447          44.000  
C06  36735653.301                          36.422          47.000    36735635.396                          28.007          49.000  
C32  26693092.827                       -3568.804          38.000                                                                  
C37  22884929.761                        -573.627          50.000                                                                  
C07  38351974.987                         700.015          41.000    38351957.893                         540.885          45.000  
C13  41792096.933                       -2321.584          34.000    41792129.272                       -1794.705          38.000  
C20  24643878.454                       -2142.499          46.000                                                                  
G18  25349961.354                         915.740          38.000    25349954.885                         713.564          40.000  
G28  24186981.022                       -2990.372          41.000    24186973.790                       -2330.152          42.000  
G03  25702863.545                       -3024.248          33.000    25702878.067                       -2357.361          37.000  
G26  21784761.833                       -2225.093          46.000    21784754.224                       -1733.957          44.000  
C10  39415368.868                         657.562          38.000    39415357.132                         508.185          43.000  
C28  23864553.689                        1387.205          47.000                                                                  
C23  25152782.554                       -2287.141          43.000                                                                  
C16  37174749.708                          35.595          49.000    37174737.190                          27.359          48.000  
C27  25351954.274                        2770.408          40.000                                                                  
C19  25726360.726                         322.979          41.000                                                                  
C09  37804603.778                         196.946          45.000    37804588.390                         152.135          48.000  
C11                                                                  27151811.683                       -1974.026          44.000  
> 2025 10 28 08 27 49.9220000  0 24                     
G04  21668435.441                         329.867          45.000    21668425.773    88728584.118         256.815          46.000  
G27  21734065.036                        2448.736          45.000    21734058.644    88997337.286        1908.222          45.000  
G16  20665072.614                        -340.857          47.000                                                                  
G08  23820851.609                        3451.044          38.000    23820850.865                        2688.625          40.000  
G09  23770684.075                        2302.073          37.000    23770678.533                        1794.029          39.000  
G31  21991885.093                       -2093.817          47.000    21991874.630    90053045.797       -1631.584          44.000  
C06  36735653.024                          34.734          47.000    36735635.131   147919180.489          26.732          49.000  
C32  26693120.266                       -3570.833          38.000                                                                  
C37  22884934.185                        -575.045          50.000                                                                  
C07  38351969.597                         698.514          41.000    38351952.529   154427427.337         539.904          45.000  
C13  41792114.779                       -2323.207          34.000    41792147.104                       -1796.421          38.000  
C20  24643894.920                       -2143.958          46.000                                                                  
G18  25349954.405                         914.498          38.000    25349947.936                         712.414          40.000  
G28  24187003.782                       -2991.329          41.000    24186996.563                       -2330.798          42.000  
G03  25702886.602                       -3026.271          33.000    25702901.091                       -2358.092          37.000  
G26  21784778.785                       -2226.770          46.000    21784771.166    89204997.142       -1735.359          44.000  
C10  39415363.810                         656.415          38.000    39415352.100   158709289.888         507.330          43.000  
C28  23864543.071                        1385.847          47.000                                                                  
C23  25152800.144                       -2288.411          43.000                                                                  
C16  37174749.435                          34.019          49.000    37174736.902   149687262.067          26.184          48.000  
C27  25351933.013                        2769.155          40.000                                                                  
C19  25726358.290                         321.586          41.000                                                                  
C09  37804602.304                         195.369          45.000    37804586.906   152223410.002         151.113          48.000  
C11                                                                  27151831.318   109329170.253       -1975.010          44.000  
> 2025 10 28 08 27 49.9620000  0 24                     
G04  21668432.937                         330.953          45.000    21668423.234                         257.841          46.000  
G27  21734046.391                        2449.909          45.000    21734040.010                        1908.712          45.000  
G16  20665075.207                        -339.653          47.000                                                                  
G08  23820825.338                        3452.214          38.000    23820824.566                        2690.013          40.000  
G09  23770666.544                        2303.735          37.000    23770660.990                        1795.375          39.000  
G31  21991901.042                       -2092.695          47.000    21991890.559                       -1630.931          44.000  
C06  36735652.713                          35.840          47.000    36735634.848                          27.553          49.000  
C32  26693147.673                       -3568.667          38.000                                                                  
C37  22884938.570                        -573.700          50.000                                                                  
C07  38351964.208                         700.246          41.000    38351947.130                         541.189          45.000  
C13  41792132.581                       -2320.560          35.000    41792164.951                       -1795.661          38.000  
C20  24643911.352                       -2142.725          46.000                                                                  
G18  25349947.421                         916.218          38.000    25349940.963                         713.615          40.000  
G28  24187026.540                       -2989.694          41.000    24187019.305                       -2329.827          42.000  
G03  25702909.613                       -3024.780          33.000    25702924.145                       -2356.893          37.000  
G26  21784795.734                       -2225.568          46.000    21784788.103                       -1734.445          44.000  
C10  39415358.753                         657.520          38.000    39415347.066                         508.496          43.000  
C28  23864532.409                        1387.384          47.000                                                                  
C23  25152817.696                       -2287.078          43.000                                                                  
C16  37174749.161                          35.392          49.000    37174736.601                          27.141          48.000  
C27  25351911.701                        2770.000          40.000                                                                  
C19  25726355.780                         322.734          41.000                                                                  
C09  37804600.785                         196.554          45.000    37804585.353                         151.926          48.000  
C11                                                                  27151850.937                       -1973.741          44.000  
> 2025 10 28 08 27 50.0020000  0 24                     
G04  21668430.396                         333.700          45.000    21668420.700                         260.079          46.000  
G27  21734027.694                        2452.602          45.000    21734021.337                        1911.124          45.000  
G16  20665077.749                        -337.069          47.000                                                                  
G08  23820799.027                        3454.451          38.000    23820798.275                        2691.789          40.000  
G09  23770648.944                        2306.563          37.000    23770643.423                        1796.833          39.000  
G31  21991916.926                       -2089.895          47.000    21991906.453                       -1628.585          44.000  
C06  36735652.384                          38.677          47.000    36735634.556                          29.849          49.000  
C32  26693175.047                       -3566.572          38.000                                                                  
C37  22884942.959                        -571.172          50.000                                                                  
C07  38351958.778                         702.450          41.000    38351941.731                         543.002          45.000  
C13  41792150.400                       -2318.962          34.000    41792182.736                       -1792.822          38.000  
C20  24643927.775                       -2139.668          46.000                                                                  
G18  25349940.393                         918.283          38.000    25349933.950                         715.512          40.000  
G28  24187049.267                       -2987.512          41.000    24187042.055                       -2328.155          42.000  
G03  25702932.610                       -3021.268          33.000    25702947.139                       -2354.779          37.000  
G26  21784812.644                       -2222.703          46.000    21784805.044                       -1732.294          44.000  
C10  39415353.666                         659.924          38.000    39415341.995                         510.315          43.000  
C28  23864521.692                        1389.783          47.000                                                                  
C23  25152835.222                       -2284.232          43.000                                                                  
C16  37174748.845                          37.937          49.000    37174736.252                          29.303          48.000  
C27  25351890.387                        2772.846          40.000                                                                  
C19  25726353.239                         325.515          41.000                                                                  
C09  37804599.249                         199.689          45.000    37804583.800                         154.117          48.000  
C11                                                                  27151870.492                       -1971.669          44.000  
> 2025 10 28 08 27 50.0420000  0 24                     
G04  21668427.841                         334.994          45.000    21668418.138                         261.156          46.000  
G27  21734009.011                        2453.932          45.000    21734002.643                        1912.415          45.000  
G16  20665080.302                        -335.985          47.000                                                                  
G08  23820772.685                        3455.737          38.000    23820771.967                        2692.922          40.000  
G09  23770631.345                        2307.317          37.000    23770625.843                        1798.055          39.000  
G31  21991932.815                       -2088.690          47.000    21991922.333                       -1627.293          44.000  
C06  36735652.068                          39.913          47.000    36735634.237                          31.058          49.000  
C32  26693202.423                       -3565.623          38.000                                                                  
C37  22884947.331                        -570.100          50.000                                                                  
C07  38351953.373                         703.672          41.000    38351936.303                         544.076          45.000  
C13  41792168.173                       -2317.554          34.000    41792200.498                       -1791.780          38.000  
C20  24643944.178                       -2138.596          46.000                                                                  
G18  25349933.405                         919.145          37.000    25349926.958                         716.797          40.000  
G28  24187072.000                       -2986.595          41.000    24187064.776                       -2327.076          42.000  
G03  25702955.585                       -3020.824          33.000    25702970.124                       -2353.730          37.000  
G26  21784829.558                       -2221.655          46.000    21784821.957                       -1730.954          44.000  
C10  39415348.582                         661.176          38.000    39415336.899                         511.646          43.000  
C28  23864511.004                        1390.732          47.000                                                                  
C23  25152852.781                       -2283.348          43.000                                                                  
C16  37174748.542                          39.099          49.000    37174735.920                          30.343          48.000  
C27  25351869.088                        2773.932          40.000                                                                  
C19  25726350.703                         326.697          41.000                                                                  
C09  37804597.734                         200.758          45.000    37804582.231                         155.163          48.000  
C11                                                                  27151890.086                       -1970.789          44.000  
> 2025 10 28 08 27 50.0820000  0 24                     
G04  21668425.308                         334.764          45.000    21668415.605                         261.103          46.000  
G27  21733990.353                        2453.891          45.000    21733983.984                        1912.318          45.000  
G16  20665082.883                        -336.150          47.000                                                                  
G08  23820746.383                        3455.064          38.000    23820745.672                        2692.626          40.000  
G09  23770613.775                        2306.733          37.000    23770608.265                        1797.591          39.000  
G31  21991948.732                       -2088.751          47.000    21991938.213                       -1627.402          44.000  
C06  36735651.734                          39.821          47.000    36735633.939                          31.040          49.000  
C32  26693229.816                       -3566.274          38.000                                                                  
C37  22884951.736                        -570.239          49.000                                                                  
C07  38351947.986                         703.679          41.000    38351930.905                         543.918          45.000  
C13  41792185.994                       -2318.185          34.000    41792218.307                       -1792.706          38.000  
C20  24643960.614                       -2139.037          46.000                                                                  
G18  25349926.418                         919.068          37.000    25349919.954                         716.785          40.000  
G28  24187094.714                       -2986.678          41.000    24187087.511                       -2327.121          42.000  
G03  25702978.576                       -3021.338          33.000    25702993.113                       -2353.743          37.000  
G26  21784846.472                       -2221.802          46.000    21784838.864                       -1730.884          44.000  
C10  39415343.512                         660.895          38.000    39415331.799                         511.298          43.000  
C28  23864500.317                        1390.615          47.000                                                                  
C23  25152870.347                       -2283.510          43.000                                                                  
C16  37174748.228                          38.888          49.000    37174735.611                          30.314          48.000  
C27  25351847.782                        2773.788          40.000                                                                  
C19  25726348.185                         326.407          41.000                                                                  
C09  37804596.187                         200.323          45.000    37804580.723                         155.065          48.000  
C11                                                                  27151909.669                       -1971.062          44.000  
