     3.04           OBSERVATION DATA    M: Mixed            RINEX VERSION / TYPE
RTKCONV 2.4.3 b34                       20251028 084244 UTC PGM / RUN BY / DATE 
format: u-blox UBX                                          COMMENT             
log: D:\GPdata\10_28_2\fingure_up_place_2_10_28_1.ubx       COMMENT             
                                                            MARKER NAME         
                                                            MARKER NUMBER       
                                                            MARKER TYPE         
                                                            OBSERVER / AGENCY   
                                                            REC # / TYPE / VERS 
                                                            ANT # / TYPE        
        0.0000        0.0000        0.0000                  APPROX POSITION XYZ 
        0.0000        0.0000        0.0000                  ANTENNA: DELTA H/E/N
G    8 C1C L1C D1C S1C C2L L2L D2L S2L                      SYS / # / OBS TYPES 
C    8 C2I L2I D2I S2I C7I L7I D7I S7I                      SYS / # / OBS TYPES 
  2025    10    28    08    25   22.8820000     GPS         TIME OF FIRST OBS   
  2025    10    28    08    26   04.4020000     GPS         TIME OF LAST OBS    
G L1C                                                       SYS / PHASE SHIFT   
G L2L  0.00000                                              SYS / PHASE SHIFT   
C L2I                                                       SYS / PHASE SHIFT   
C L7I                                                       SYS / PHASE SHIFT   
  0                                                         GLONASS SLOT / FRQ #
 C1C    0.000 C1P    0.000 C2C    0.000 C2P    0.000        GLONASS COD/PHS/BIS 
                                                            END OF HEADER       
> 2025 10 28 08 25 22.8820000  0 24                     
G04  21679080.017   113924331.9091        429.879          45.000    21679070.759    88772170.9001        334.982          46.000  
G27  21803653.842   114578982.2721       2523.883          45.000    21803646.366    89282287.9421       1966.621          44.000  
G16  20656466.118   108550461.9211       -274.962          47.000                                                                  
G08  23917824.205   125689013.3561       3478.862          37.000    23917824.082    97939500.1551       2710.934          38.000  
G09  23836047.386   125259279.0981       2368.397          38.000    23836041.788    97604605.5351       1845.317          36.000  
G31  21934024.615   115264082.5671      -2042.679          46.000    21934014.398    89816118.8511      -1591.736          44.000  
C06  36736656.726   191297393.4161         35.385          47.000    36736638.905   147923220.6911         27.268          49.000  
C32  26592229.962   138472681.1671      -3575.331          38.000                                                                  
C37  22869079.105   119085284.0651       -548.738          50.000                                                                  
C07  38371917.842   199812638.3331        713.646          41.000    38371900.852   154507746.6221        551.642          45.000  
C13  41726379.350   217280200.4251      -2334.346          37.000    41726410.850   168014967.3771      -1804.967          38.000  
C20  24584284.649   128016808.5521      -2078.641          46.000                                                                  
G18  25376448.581   133354132.5441        978.076          38.000    25376441.875   103912278.2891        762.061          40.000  
G28  24103827.342   126666466.1881      -2954.360          41.000    24103819.539    98701104.3151      -2302.165          42.000  
G03  25618281.953   134624956.2781      -3021.531          34.000    25618292.444   104902563.6341      -2354.485          36.000  
G26  21722957.119   114154910.8471      -2192.876          46.000    21722950.113    88951847.7781      -1708.822          45.000  
C10  39434079.963   205343600.9031        668.695          38.000    39434068.168   158784649.5291        516.882          43.000  
C28  23904580.157   124477422.6191       1448.748          47.000                                                                  
C23  25088396.156   130641864.4871      -2274.016          43.000                                                                  
C16  37175733.410   193583785.4561         34.708          49.000    37175721.317   149691225.4711         26.931          49.000  
C27  25430296.481   132422232.7521       2779.882          40.000                                                                  
C19  25736608.640   134017261.7271        403.269          41.000                                                                  
C09  37810064.917   196886915.6801        190.725          45.000    37810049.604   152245404.7021        147.374          48.000  
C11                                                                  27080530.776   109042075.2601      -1930.627          43.000  
> 2025 10 28 08 25 22.9220000  0 24                     
G04  21679076.761   113924314.710         429.993          45.000    21679067.481    88772157.505         334.933          46.000  
G27  21803634.629   114578881.329        2523.713          45.000    21803627.155    89282209.282        1966.564          44.000  
G16  20656468.254   108550472.921        -274.941          47.000                                                                  
G08  23917797.734   125688874.192        3478.913          37.000    23917797.603    97939391.708        2711.052          38.000  
G09  23836029.357   125259184.346        2368.708          38.000    23836023.767    97604531.712        1845.441          36.000  
G31  21934040.179   115264164.285       -2042.780          46.000    21934029.954    89816182.520       -1591.693          44.000  
C06  36736656.474   191297392.007          35.354          47.000    36736638.585   147923219.601          27.255          49.000  
C32  26592257.431   138472824.175       -3575.108          38.000                                                                  
C37  22869083.290   119085306.020        -548.766          50.000                                                                  
C07  38371912.338   199812609.800         713.453          41.000    38371895.353   154507724.562         551.549          45.000  
C13  41726397.263   217280293.794       -2334.288          37.000    41726428.777   168015039.581       -1804.969          38.000  
C20  24584300.608   128016891.721       -2078.961          45.000                                                                  
G18  25376441.145   133354093.438         977.906          38.000    25376434.415   103912247.804         762.153          40.000  
G28  24103849.852   126666584.376       -2954.541          41.000    24103842.040    98701196.407       -2302.246          42.000  
G03  25618304.948   134625077.129       -3021.358          34.000    25618315.464   104902657.816       -2354.511          36.000  
G26  21722973.821   114154998.563       -2192.822          46.000    21722966.801    88951916.123       -1708.659          45.000  
C10  39434074.798   205343574.162         668.646          38.000    39434063.040   158784628.855         516.846          43.000  
C28  23904568.992   124477364.673        1448.726          47.000                                                                  
C23  25088413.603   130641955.463       -2274.156          43.000                                                                  
C16  37175733.134   193583784.061          34.871          49.000    37175721.081   149691224.401          26.882          49.000  
C27  25430275.139   132422121.560        2779.850          40.000                                                                  
C19  25736605.562   134017245.592         403.273          41.000                                                                  
C09  37810063.458   196886908.068         190.507          45.000    37810048.146   152245398.810         147.378          48.000  
C11                                                                  27080549.947   109042152.492       -1930.769          43.000  
> 2025 10 28 08 25 22.9620000  0 24                     
G04  21679073.508   113924297.529         429.685          45.000    21679064.214    88772144.122         334.672          46.000  
G27  21803615.450   114578780.387        2523.599          45.000    21803607.948    89282130.626        1966.424          44.000  
G16  20656470.360   108550483.935        -275.207          47.000                                                                  
G08  23917771.264   125688735.020        3479.107          37.000    23917771.116    97939283.269        2711.035          38.000  
G09  23836011.318   125259089.623        2368.268          38.000    23836005.738    97604457.887        1845.615          36.000  
G31  21934055.723   115264246.015       -2043.062          46.000    21934045.487    89816246.211       -1592.037          44.000  
C06  36736656.209   191297390.610          35.074          47.000    36736638.254   147923218.519          27.104          49.000  
C32  26592284.885   138472967.189       -3575.139          38.000                                                                  
C37  22869087.479   119085327.992        -549.121          50.000                                                                  
C07  38371906.870   199812581.282         713.070          41.000    38371889.875   154507702.504         551.460          45.000  
C13  41726415.189   217280387.176       -2334.508          37.000    41726446.681   168015111.761       -1804.587          38.000  
C20  24584316.588   128016974.895       -2079.268          46.000                                                                  
G18  25376433.698   133354054.333         977.684          38.000    25376426.987   103912217.327         762.056          40.000  
G28  24103872.349   126666702.572       -2954.806          41.000    24103864.557    98701288.517       -2302.628          42.000  
G03  25618327.948   134625198.001       -3021.691          34.000    25618338.480   104902752.010       -2354.868          36.000  
G26  21722990.524   114155086.297       -2193.141          46.000    21722983.508    88951984.478       -1708.805          45.000  
C10  39434069.678   205343547.446         668.115          38.000    39434057.935   158784608.199         516.492          43.000  
C28  23904557.835   124477306.744        1448.352          47.000                                                                  
C23  25088431.091   130642046.449       -2274.473          43.000                                                                  
C16  37175732.880   193583782.685          34.602          49.000    37175720.826   149691223.339          26.662          49.000  
C27  25430253.761   132422010.373        2779.724          40.000                                                                  
C19  25736602.485   134017229.468         403.151          41.000                                                                  
C09  37810061.992   196886900.462         190.241          45.000    37810046.691   152245392.933         147.066          48.000  
C11                                                                  27080569.127   109042229.731       -1930.935          43.000  
> 2025 10 28 08 25 23.0020000  0 24                     
G04  21679070.250   113924280.358         429.365          45.000    21679060.970    88772130.745         334.417          46.000  
G27  21803596.264   114578679.459        2523.289          45.000    21803588.755    89282051.973        1966.342          44.000  
G16  20656472.463   108550494.953        -275.450          47.000                                                                  
G08  23917744.761   125688595.860        3478.969          37.000    23917744.639    97939174.837        2710.854          38.000  
G09  23835993.295   125258994.906        2367.947          38.000    23835987.724    97604384.085        1845.310          36.000  
G31  21934071.295   115264327.755       -2043.435          46.000    21934061.035    89816309.911       -1592.413          44.000  
C06  36736655.968   191297389.222          34.765          47.000    36736637.964   147923217.446          26.883          49.000  
C32  26592312.345   138473110.223       -3575.607          38.000                                                                  
C37  22869091.671   119085349.969        -549.425          50.000                                                                  
C07  38371901.402   199812552.780         712.594          41.000    38371884.401   154507680.461         551.163          45.000  
C13  41726433.125   217280480.588       -2335.210          37.000    41726464.648   168015183.991       -1805.375          38.000  
C20  24584332.564   128017058.074       -2079.517          45.000                                                                  
G18  25376426.243   133354015.226         977.602          38.000    25376419.545   103912186.868         761.672          40.000  
G28  24103894.869   126666820.780       -2955.193          41.000    24103887.045    98701380.628       -2302.861          42.000  
G03  25618350.963   134625318.883       -3022.076          34.000    25618361.481   104902846.181       -2354.583          36.000  
G26  21723007.242   114155174.037       -2193.437          47.000    21723000.202    88952052.849       -1709.137          45.000  
C10  39434064.543   205343520.730         667.853          38.000    39434052.806   158784587.530         516.559          43.000  
C28  23904546.717   124477248.815        1448.167          47.000                                                                  
C23  25088448.574   130642137.449       -2274.867          43.000                                                                  
C16  37175732.639   193583781.321          34.211          49.000    37175720.568   149691222.289          26.319          49.000  
C27  25430232.387   132421899.206        2779.300          40.000                                                                  
C19  25736599.386   134017213.355         402.897          41.000                                                                  
C09  37810060.518   196886892.861         190.014          45.000    37810045.241   152245387.060         146.825          48.000  
C11                                                                  27080588.308   109042306.969       -1930.983          43.000  
> 2025 10 28 08 25 23.0420000  0 24                     
G04  21679067.022   113924263.207         428.860          45.000    21679057.705    88772117.366         334.349          46.000  
G27  21803577.070   114578578.539        2522.987          45.000    21803569.559    89281973.334        1966.056          44.000  
G16  20656474.544   108550505.976        -275.628          47.000                                                                  
G08  23917718.286   125688456.704        3478.890          37.000    23917718.154    97939066.396        2710.969          38.000  
G09  23835975.275   125258900.190        2367.808          38.000    23835969.700    97604310.271        1845.349          36.000  
G31  21934086.874   115264409.498       -2043.693          46.000    21934076.600    89816373.604       -1592.488          44.000  
C06  36736655.700   191297387.824          34.807          47.000    36736637.656   147923216.369          26.832          49.000  
C32  26592339.837   138473253.263       -3575.929          38.000                                                                  
C37  22869095.936   119085371.948        -549.558          50.000                                                                  
C07  38371895.929   199812524.271         712.502          41.000    38371878.946   154507658.398         551.384          45.000  
C13  41726451.062   217280573.963       -2334.800          37.000    41726482.596   168015256.218       -1805.726          38.000  
C20  24584348.560   128017141.254       -2079.643          45.000                                                                  
G18  25376418.820   133353976.140         977.237          38.000    25376412.118   103912156.424         761.170          40.000  
G28  24103917.357   126666938.987       -2955.315          41.000    24103909.548    98701472.731       -2302.736          42.000  
G03  25618373.978   134625439.740       -3021.773          34.000    25618384.500   104902940.352       -2354.387          36.000  
G26  21723023.919   114155261.782       -2193.671          47.000    21723016.891    88952121.231       -1709.490          45.000  
C10  39434059.411   205343494.023         667.603          38.000    39434047.715   158784566.863         516.614          43.000  
C28  23904535.613   124477190.893        1447.990          47.000                                                                  
C23  25088466.066   130642228.438       -2274.886          43.000                                                                  
C16  37175732.384   193583779.954          34.064          49.000    37175720.363   149691221.228          26.375          49.000  
C27  25430211.045   132421788.023        2779.412          40.000                                                                  
C19  25736596.279   134017197.250         402.600          41.000                                                                  
C09  37810059.041   196886885.267         189.803          45.000    37810043.778   152245381.179         146.890          48.000  
C11                                                                  27080607.486   109042384.216       -1931.143          43.000  
> 2025 10 28 08 25 23.0820000  0 24                     
G04  21679063.737   113924246.029         429.111          45.000    21679054.454    88772103.985         334.344          46.000  
G27  21803557.851   114578477.611        2522.997          45.000    21803550.376    89281894.688        1966.006          44.000  
G16  20656476.623   108550517.005        -275.800          47.000                                                                  
G08  23917691.809   125688317.551        3478.842          37.000    23917691.659    97938957.965        2710.793          38.000  
G09  23835957.240   125258805.482        2367.573          38.000    23835951.666    97604236.470        1845.119          36.000  
G31  21934102.449   115264491.233       -2043.610          46.000    21934092.176    89816437.296       -1592.457          44.000  
C06  36736655.423   191297386.431          34.739          47.000    36736637.387   147923215.292          26.807          49.000  
C32  26592367.326   138473396.311       -3576.284          38.000                                                                  
C37  22869100.134   119085393.920        -549.513          50.000                                                                  
C07  38371890.428   199812495.760         712.573          41.000    38371873.466   154507636.351         551.206          45.000  
C13  41726468.975   217280667.359       -2334.930          37.000    41726500.547   168015328.446       -1805.845          38.000  
C20  24584364.526   128017224.428       -2079.556          46.000                                                                  
G18  25376411.374   133353937.048         977.192          38.000    25376404.681   103912125.961         761.277          40.000  
G28  24103939.839   126667057.187       -2955.221          41.000    24103932.034    98701564.835       -2302.656          42.000  
G03  25618396.981   134625560.613       -3021.870          34.000    25618407.499   104903034.574       -2355.303          36.000  
G26  21723040.617   114155349.516       -2193.578          47.000    21723033.588    88952189.590       -1709.267          45.000  
C10  39434054.282   205343467.305         667.682          38.000    39434042.599   158784546.207         516.425          43.000  
C28  23904524.494   124477132.969        1447.949          47.000                                                                  
C23  25088483.549   130642319.423       -2274.821          43.000                                                                  
C16  37175732.155   193583778.584          34.080          49.000    37175720.113   149691220.165          26.438          49.000  
C27  25430189.697   132421676.853        2779.191          40.000                                                                  
C19  25736593.178   134017181.139         402.619          41.000                                                                  
C09  37810057.605   196886877.674         189.669          45.000    37810042.322   152245375.304         146.809          48.000  
C11                                                                  27080626.682   109042461.453       -1931.130          43.000  
> 2025 10 28 08 25 23.1220000  0 24                     
G04  21679060.480   113924228.873         428.893          45.000    21679051.197    88772090.626         333.992          46.000  
G27  21803538.667   114578376.694        2522.834          45.000    21803531.172    89281816.064        1965.650          44.000  
G16  20656478.721   108550528.052        -276.192          47.000                                                                  
G08  23917665.312   125688178.403        3478.694          37.000    23917665.168    97938849.547        2710.521          38.000  
G09  23835939.207   125258710.777        2367.452          38.000    23835933.675    97604162.701        1844.481          36.000  
G31  21934117.999   115264572.982       -2043.767          46.000    21934107.716    89816500.989       -1592.390          44.000  
C06  36736655.178   191297385.056          34.428          47.000    36736637.113   147923214.228          26.599          49.000  
C32  26592394.794   138473539.349       -3576.155          38.000                                                                  
C37  22869104.319   119085415.907        -549.708          50.000                                                                  
C07  38371884.955   199812467.247         712.692          41.000    38371868.003   154507614.317         550.885          45.000  
C13  41726486.913   217280760.756       -2335.003          37.000    41726518.492   168015400.675       -1805.936          38.000  
C20  24584380.495   128017307.626       -2079.894          45.000                                                                  
G18  25376403.916   133353897.961         977.131          38.000    25376397.228   103912095.510         761.148          40.000  
G28  24103962.347   126667175.406       -2955.448          41.000    24103954.504    98701656.942       -2302.686          42.000  
G03  25618420.003   134625681.536       -3022.789          34.000    25618430.519   104903128.769       -2355.218          36.000  
G26  21723057.320   114155437.267       -2193.804          47.000    21723050.283    88952257.962       -1709.335          45.000  
C10  39434049.140   205343440.587         667.792          38.000    39434037.490   158784525.556         516.248          43.000  
C28  23904513.357   124477075.061        1447.683          47.000                                                                  
C23  25088501.013   130642410.436       -2275.243          43.000                                                                  
C16  37175731.880   193583777.241          33.644          49.000    37175719.884   149691219.118          26.218          49.000  
C27  25430168.334   132421565.683        2779.079          40.000                                                                  
C19  25736590.102   134017165.032         402.564          41.000                                                                  
C09  37810056.167   196886870.082         189.644          45.000    37810040.882   152245369.442         146.596          48.000  
C11                                                                  27080645.848   109042538.715       -1931.512          43.000  
> 2025 10 28 08 25 23.1620000  0 24                     
G04  21679057.225   113924211.707         429.011          45.000    21679047.929    88772077.245         334.243          46.000  
G27  21803519.477   114578275.768        2522.958          45.000    21803511.947    89281737.417        1965.881          44.000  
G16  20656480.809   108550539.074        -275.851          47.000                                                                  
G08  23917638.839   125688039.258        3478.583          37.000    23917638.686    97938741.130        2710.362          38.000  
G09  23835921.168   125258616.067        2367.549          38.000    23835915.633    97604088.883        1845.053          36.000  
G31  21934133.552   115264654.728       -2043.768          46.000    21934123.246    89816564.691       -1592.548          44.000  
C06  36736654.950   191297383.668          34.514          47.000    36736636.828   147923213.155          26.660          49.000  
C32  26592422.268   138473682.371       -3575.725          38.000                                                                  
C37  22869108.595   119085437.885        -549.593          50.000                                                                  
C07  38371879.472   199812438.732         712.787          41.000    38371862.532   154507592.276         550.905          45.000  
C13  41726504.847   217280854.150       -2334.952          37.000    41726536.447   168015472.883       -1805.516          38.000  
C20  24584396.470   128017390.819       -2079.958          45.000                                                                  
G18  25376396.471   133353858.870         977.176          38.000    25376389.785   103912065.021         761.780          40.000  
G28  24103984.848   126667293.608       -2955.231          41.000    24103977.015    98701749.059       -2302.908          42.000  
G03  25618443.020   134625802.404       -3022.242          34.000    25618453.530   104903222.956       -2354.976          36.000  
G26  21723074.021   114155525.007       -2193.693          47.000    21723066.974    88952326.337       -1709.417          45.000  
C10  39434043.997   205343413.858         668.073          38.000    39434032.309   158784504.895         516.357          43.000  
C28  23904502.239   124477017.128        1448.079          47.000                                                                  
C23  25088518.480   130642501.426       -2274.995          43.000                                                                  
C16  37175731.656   193583775.874          33.888          49.000    37175719.638   149691218.062          26.278          49.000  
C27  25430146.989   132421454.512        2779.164          40.000                                                                  
C19  25736587.020   134017148.921         402.635          41.000                                                                  
C09  37810054.714   196886862.484         189.777          45.000    37810039.437   152245363.565         146.769          48.000  
C11                                                                  27080665.068   109042615.961       -1931.331          43.000  
> 2025 10 28 08 25 23.2020000  0 24                     
G04  21679053.965   113924194.531         429.253          45.000    21679044.638    88772063.860         334.499          46.000  
G27  21803500.253   114578174.827        2523.286          45.000    21803492.732    89281658.760        1966.244          44.000  
G16  20656482.924   108550550.071        -275.172          47.000                                                                  
G08  23917612.360   125687900.097        3478.898          37.000    23917612.212    97938632.690        2710.763          38.000  
G09  23835903.144   125258521.334        2368.168          38.000    23835897.617    97604015.054        1845.637          36.000  
G31  21934149.096   115264736.447       -2043.227          46.000    21934138.806    89816628.362       -1592.069          44.000  
C06  36736654.693   191297382.264          34.865          47.000    36736636.552   147923212.067          27.006          49.000  
C32  26592449.722   138473825.408       -3575.772          38.000                                                                  
C37  22869112.834   119085459.840        -549.103          50.000                                                                  
C07  38371873.969   199812410.205         713.012          41.000    38371857.036   154507570.211         551.404          45.000  
C13  41726522.796   217280947.519       -2334.460          37.000    41726554.385   168015545.093       -1805.229          38.000  
C20  24584412.437   128017473.977       -2079.322          45.000                                                                  
G18  25376389.031   133353819.781         977.235          38.000    25376382.344   103912034.558         761.750          40.000  
G28  24104007.360   126667411.797       -2954.843          41.000    24103999.514    98701841.158       -2302.655          42.000  
G03  25618466.007   134625923.279       -3021.934          34.000    25618476.544   104903317.135       -2354.618          36.000  
G26  21723090.701   114155612.731       -2193.301          47.000    21723083.650    88952394.691       -1709.024          45.000  
C10  39434038.858   205343387.126         668.298          38.000    39434027.180   158784484.228         516.559          43.000  
C28  23904491.123   124476959.193        1448.327          47.000                                                                  
C23  25088535.987   130642592.399       -2274.526          43.000                                                                  
C16  37175731.383   193583774.480          34.557          49.000    37175719.362   149691216.989          26.633          49.000  
C27  25430125.631   132421343.331        2779.375          40.000                                                                  
C19  25736583.920   134017132.793         403.046          41.000                                                                  
C09  37810053.231   196886854.867         190.240          45.000    37810037.976   152245357.676         147.116          48.000  
C11                                                                  27080684.279   109042693.190       -1930.893          43.000  
> 2025 10 28 08 25 23.2420000  0 24                     
G04  21679050.675   113924177.348         429.475          45.000    21679041.356    88772050.476         334.560          46.000  
G27  21803481.044   114578073.893        2523.298          45.000    21803473.501    89281580.105        1966.379          44.000  
G16  20656485.003   108550561.093        -275.389          47.000                                                                  
G08  23917585.870   125687760.945        3478.795          37.000    23917585.722    97938524.256        2710.830          38.000  
G09  23835885.111   125258426.604        2368.306          38.000    23835879.589    97603941.248        1845.464          36.000  
G31  21934164.645   115264818.173       -2043.160          46.000    21934154.332    89816692.052       -1592.189          44.000  
C06  36736654.448   191297380.859          35.023          47.000    36736636.256   147923210.975          27.210          49.000  
C32  26592477.187   138473968.435       -3575.828          38.000                                                                  
C37  22869117.064   119085481.807        -549.101          50.000                                                                  
C07  38371868.491   199812381.697         712.759          41.000    38371851.581   154507548.161         551.327          45.000  
C13  41726540.722   217281040.921       -2334.945          37.000    41726572.311   168015617.296       -1805.034          38.000  
C20  24584428.412   128017557.141       -2079.126          45.000                                                                  
G18  25376381.610   133353780.671         977.477          38.000    25376374.921   103912004.094         761.671          40.000  
G28  24104029.860   126667530.005       -2955.079          41.000    24104021.994    98701933.273       -2302.859          42.000  
G03  25618488.989   134626044.158       -3022.004          34.000    25618499.544   104903411.326       -2354.656          36.000  
G26  21723107.399   114155700.458       -2193.224          47.000    21723100.344    88952463.052       -1709.004          45.000  
C10  39434033.734   205343360.408         668.109          38.000    39434022.038   158784463.572         516.443          43.000  
C28  23904479.997   124476901.263        1448.299          47.000                                                                  
C23  25088553.485   130642683.376       -2274.404          43.000                                                                  
C16  37175731.120   193583773.098          34.629          48.000    37175719.131   149691215.928          26.591          49.000  
C27  25430104.265   132421232.127        2779.841          40.000                                                                  
C19  25736580.847   134017116.683         402.846          41.000                                                                  
C09  37810051.739   196886847.260         190.249          45.000    37810036.494   152245351.796         147.063          48.000  
C11                                                                  27080703.443   109042770.434       -1931.062          43.000  
> 2025 10 28 08 25 23.2820000  0 24                     
G04  21679047.423   113924160.252         427.978          45.000    21679038.101    88772037.148         333.576          46.000  
G27  21803461.840   114577973.037        2521.888          45.000    21803454.314    89281501.507        1965.376          44.000  
G16  20656487.090   108550572.192        -276.961          47.000                                                                  
G08  23917559.419   125687621.852        3477.663          37.000    23917559.270    97938415.887        2709.621          38.000  
G09  23835867.138   125258331.959        2366.797          38.000    23835861.603    97603867.500        1844.198          36.000  
G31  21934180.202   115264899.981       -2044.606          46.000    21934169.925    89816755.801       -1593.309          44.000  
C06  36736654.172   191297379.521          33.883          47.000    36736635.996   147923209.950          26.102          49.000  
C32  26592504.687   138474111.543       -3577.201          38.000                                                                  
C37  22869121.293   119085503.854        -550.624          50.000                                                                  
C07  38371863.028   199812353.246         711.569          41.000    38371846.139   154507526.160         550.341          45.000  
C13  41726558.681   217281134.374       -2336.150          37.000    41726590.259   168015689.565       -1806.251          38.000  
C20  24584444.412   128017640.389       -2080.573          45.000                                                                  
G18  25376374.200   133353741.640         976.225          38.000    25376367.488   103911973.689         760.539          40.000  
G28  24104052.365   126667648.270       -2956.368          41.000    24104044.497    98702025.428       -2303.771          42.000  
G03  25618512.003   134626165.101       -3023.278          34.000    25618522.562   104903505.568       -2355.640          36.000  
G26  21723124.097   114155788.280       -2194.867          47.000    21723117.044    88952531.470       -1710.056          45.000  
C10  39434028.604   205343333.779         666.235          38.000    39434016.896   158784442.960         515.515          43.000  
C28  23904468.902   124476843.414        1446.729          47.000                                                                  
C23  25088570.980   130642774.428       -2275.747          43.000                                                                  
C16  37175730.885   193583771.799          33.110          48.000    37175718.891   149691214.924          25.518          49.000  
C27  25430082.943   132421121.027        2778.253          40.000                                                                  
C19  25736577.773   134017100.655         401.168          41.000                                                                  
C09  37810050.303   196886839.730         188.764          45.000    37810035.042   152245345.968         146.061          48.000  
C11                                                                  27080722.630   109042847.732       -1932.165          43.000  
> 2025 10 28 08 25 23.3220000  0 24                     
G04  21679044.177   113924143.196         426.523          45.000    21679034.854    88772023.857         332.433          46.000  
G27  21803442.674   114577872.213        2520.636          45.000    21803435.145    89281422.959        1963.996          44.000  
G16  20656489.201   108550583.317        -278.187          47.000                                                                  
G08  23917532.954   125687482.805        3476.316          37.000    23917532.817    97938307.529        2708.865          38.000  
G09  23835849.133   125258237.333        2365.643          38.000    23835843.603    97603793.787        1843.021          36.000  
G31  21934195.784   115264981.824       -2045.968          46.000    21934185.499    89816819.575       -1594.325          44.000  
C06  36736653.925   191297378.238          32.385          47.000    36736635.732   147923208.963          24.888          49.000  
C32  26592532.167   138474254.656       -3578.003          38.000                                                                  
C37  22869125.530   119085525.926        -551.813          50.000                                                                  
C07  38371857.568   199812324.807         710.815          41.000    38371840.702   154507504.180         549.493          45.000  
C13  41726576.641   217281227.884       -2337.656          37.000    41726608.225   168015761.858       -1807.219          38.000  
C20  24584460.425   128017723.684       -2082.147          45.000                                                                  
G18  25376366.778   133353702.646         974.947          38.000    25376360.060   103911943.298         759.749          40.000  
G28  24104074.872   126667766.574       -2957.607          41.000    24104067.024    98702117.598       -2304.364          42.000  
G03  25618535.049   134626286.082       -3024.500          34.000    25618545.583   104903599.813       -2356.202          36.000  
G26  21723140.811   114155876.116       -2195.930          47.000    21723133.760    88952599.928       -1711.257          45.000  
C10  39434023.498   205343307.135         665.698          38.000    39434011.796   158784422.356         514.984          43.000  
C28  23904457.805   124476785.585        1445.608          47.000                                                                  
C23  25088588.486   130642865.534       -2277.371          43.000                                                                  
C16  37175730.635   193583770.537          31.692          48.000    37175718.667   149691213.937          24.671          49.000  
C27  25430061.625   132421009.948        2777.014          40.000                                                                  
C19  25736574.701   134017084.645         400.131          41.000                                                                  
C09  37810048.869   196886832.234         187.466          45.000    37810033.623   152245340.169         145.061          48.000  
C11                                                                  27080741.858   109042925.050       -1933.005          43.000  
> 2025 10 28 08 25 23.3620000  0 24                     
G04  21679040.897   113924126.097         426.729          45.000    21679031.606    88772010.535         332.515          46.000  
G27  21803423.481   114577771.357        2520.713          45.000    21803415.960    89281344.372        1964.101          44.000  
G16  20656491.301   108550594.397        -277.708          47.000                                                                  
G08  23917506.489   125687343.710        3476.680          37.000    23917506.336    97938199.145        2709.151          38.000  
G09  23835831.142   125258142.669        2366.071          38.000    23835825.584    97603720.021        1843.501          36.000  
G31  21934211.352   115265063.627       -2045.777          46.000    21934201.074    89816883.319       -1594.181          44.000  
C06  36736653.690   191297376.912          32.470          47.000    36736635.423   147923207.933          25.122          49.000  
C32  26592559.643   138474397.750       -3577.883          38.000                                                                  
C37  22869129.772   119085547.966        -551.644          50.000                                                                  
C07  38371852.128   199812296.347         710.947          41.000    38371835.269   154507482.188         549.421          45.000  
C13  41726594.597   217281321.307       -2336.605          37.000    41726626.184   168015834.117       -1806.952          38.000  
C20  24584476.418   128017806.925       -2081.855          45.000                                                                  
G18  25376359.358   133353663.612         975.234          38.000    25376352.623   103911912.890         759.713          40.000  
G28  24104097.392   126667884.835       -2957.198          41.000    24104089.523    98702209.757       -2304.341          42.000  
G03  25618558.094   134626407.030       -3024.322          34.000    25618568.605   104903694.066       -2356.548          36.000  
G26  21723157.513   114155963.922       -2195.789          46.000    21723150.471    88952668.356       -1711.251          45.000  
C10  39434018.353   205343280.460         666.284          38.000    39434006.665   158784401.740         515.131          43.000  
C28  23904446.700   124476727.714        1446.086          47.000                                                                  
C23  25088605.983   130642956.591       -2277.201          43.000                                                                  
C16  37175730.411   193583769.234          31.862          48.000    37175718.405   149691212.933          24.685          49.000  
C27  25430040.299   132420898.823        2777.353          40.000                                                                  
C19  25736571.617   134017068.588         400.667          41.000                                                                  
C09  37810047.429   196886824.696         187.746          45.000    37810032.173   152245334.340         145.212          48.000  
C11                                                                  27080761.029   109043002.337       -1932.734          43.000  
> 2025 10 28 08 25 23.4020000  0 24                     
G04  21679037.650   113924108.929         428.209          45.000    21679028.372    88771997.159         333.644          46.000  
G27  21803404.269   114577670.426        2522.276          45.000    21803396.766    89281265.731        1965.203          44.000  
G16  20656493.428   108550605.422        -276.311          47.000                                                                  
G08  23917480.014   125687204.559        3478.106          37.000    23917479.844    97938090.724        2710.050          38.000  
G09  23835813.102   125258047.966        2367.096          38.000    23835807.552    97603646.223        1844.450          36.000  
G31  21934226.902   115265145.365       -2044.376          46.000    21934216.614    89816947.004       -1592.894          44.000  
C06  36736653.405   191297375.514          33.952          47.000    36736635.134   147923206.847          26.366          49.000  
C32  26592587.109   138474540.771       -3576.321          38.000                                                                  
C37  22869133.954   119085569.938        -550.166          50.000                                                                  
C07  38371846.668   199812267.855         711.765          41.000    38371829.780   154507460.140         550.466          45.000  
C13  41726612.512   217281414.677       -2334.846          37.000    41726644.113   168015906.336       -1805.970          38.000  
C20  24584492.383   128017890.106       -2080.425          45.000                                                                  
G18  25376351.915   133353624.508         976.799          38.000    25376345.160   103911882.430         760.753          40.000  
G28  24104119.873   126668003.038       -2955.771          41.000    24104112.013    98702301.876       -2303.476          42.000  
G03  25618581.099   134626527.873       -3022.219          34.000    25618591.615   104903788.242       -2355.097          36.000  
G26  21723174.229   114156051.656       -2194.305          46.000    21723167.190    88952736.708       -1709.747          45.000  
C10  39434013.224   205343253.737         667.548          38.000    39434001.538   158784381.081         516.016          43.000  
C28  23904435.578   124476669.791        1447.397          47.000                                                                  
C23  25088623.421   130643047.573       -2275.563          43.000                                                                  
C16  37175730.128   193583767.848          33.621          48.000    37175718.138   149691211.874          25.804          49.000  
C27  25430018.935   132420787.642        2778.743          40.000                                                                  
C19  25736568.534   134017052.476         402.065          41.000                                                                  
C09  37810045.928   196886817.089         189.320          45.000    37810030.704   152245328.465         146.251          48.000  
C11                                                                  27080780.206   109043079.586       -1931.733          43.000  
> 2025 10 28 08 25 23.4420000  0 24                     
G04  21679034.404   113924091.745         429.348          45.000    21679025.077    88771983.770         334.531          46.000  
G27  21803385.071   114577569.479        2523.426          45.000    21803377.549    89281187.066        1966.312          44.000  
G16  20656495.494   108550616.426        -275.210          47.000                                                                  
G08  23917453.512   125687065.369        3479.567          37.000    23917453.365    97937982.281        2710.980          38.000  
G09  23835795.075   125257953.242        2368.031          38.000    23835789.523    97603572.411        1845.255          36.000  
G31  21934242.438   115265227.086       -2043.248          46.000    21934232.157    89817010.678       -1592.002          44.000  
C06  36736653.125   191297374.083          35.397          47.000    36736634.858   147923205.749          27.263          49.000  
C32  26592614.551   138474683.786       -3575.359          38.000                                                                  
C37  22869138.157   119085591.891        -549.003          50.000                                                                  
C07  38371841.185   199812239.316         713.132          41.000    38371824.278   154507438.065         551.581          45.000  
C13  41726630.421   217281508.052       -2334.187          37.000    41726662.043   168015978.525       -1804.956          38.000  
C20  24584508.326   128017973.266       -2079.277          45.000                                                                  
G18  25376344.491   133353585.402         977.574          38.000    25376337.707   103911851.959         761.563          40.000  
G28  24104142.352   126668121.225       -2954.727          41.000    24104134.497    98702393.967       -2302.497          42.000  
G03  25618604.097   134626648.736       -3021.464          34.000    25618614.600   104903882.416       -2354.216          36.000  
G26  21723190.915   114156139.369       -2193.121          46.000    21723183.893    88952805.056       -1708.831          45.000  
C10  39434008.081   205343226.998         668.536          38.000    39433996.427   158784360.411         516.699          43.000  
C28  23904424.439   124476611.861        1448.262          47.000                                                                  
C23  25088640.875   130643138.529       -2274.178          43.000                                                                  
C16  37175729.898   193583766.458          34.670          48.000    37175717.879   149691210.796          26.756          49.000  
C27  25429997.555   132420676.457        2779.548          40.000                                                                  
C19  25736565.441   134017036.347         403.095          41.000                                                                  
C09  37810044.440   196886809.465         190.493          45.000    37810029.221   152245322.568         147.240          48.000  
C11                                                                  27080799.383   109043156.812       -1930.786          43.000  
> 2025 10 28 08 25 23.4820000  0 24                     
G04  21679031.117   113924074.549         430.093          45.000    21679021.788    88771970.368         335.147          46.000  
G27  21803365.844   114577468.516        2524.241          45.000    21803358.317    89281108.388        1967.074          44.000  
G16  20656497.568   108550627.423        -274.652          47.000                                                                  
G08  23917427.026   125686926.193        3479.932          37.000    23917426.851    97937873.819        2711.641          38.000  
G09  23835777.046   125257858.490        2368.942          38.000    23835771.489    97603498.585        1845.780          36.000  
G31  21934257.959   115265308.787       -2042.380          46.000    21934247.726    89817074.344       -1591.482          44.000  
C06  36736652.870   191297372.660          35.942          47.000    36736634.591   147923204.645          27.769          49.000  
C32  26592642.012   138474826.778       -3574.560          38.000                                                                  
C37  22869142.367   119085613.831        -548.286          50.000                                                                  
C07  38371835.681   199812210.759         714.085          41.000    38371818.801   154507415.987         552.150          45.000  
C13  41726648.340   217281601.426       -2333.988          37.000    41726679.990   168016050.723       -1804.642          38.000  
C20  24584524.293   128018056.410       -2078.439          45.000                                                                  
G18  25376337.047   133353546.276         978.227          38.000    25376330.248   103911821.457         762.495          40.000  
G28  24104164.827   126668239.399       -2954.080          41.000    24104156.987    98702486.045       -2301.818          42.000  
G03  25618627.112   134626769.586       -3020.944          34.000    25618637.592   104903976.585       -2353.823          36.000  
G26  21723207.612   114156227.072       -2192.385          46.000    21723200.573    88952873.392       -1708.203          45.000  
C10  39434002.954   205343200.261         668.750          38.000    39433991.288   158784339.723         517.291          43.000  
C28  23904413.329   124476553.906        1449.035          47.000                                                                  
C23  25088658.313   130643229.480       -2273.451          43.000                                                                  
C16  37175729.638   193583765.055          35.310          48.000    37175717.628   149691209.704          27.451          49.000  
C27  25429976.188   132420565.233        2780.569          40.000                                                                  
C19  25736562.337   134017020.209         403.700          41.000                                                                  
C09  37810042.995   196886801.826         191.227          45.000    37810027.745   152245316.656         147.951          48.000  
C11                                                                  27080818.558   109043234.031       -1930.286          43.000  
> 2025 10 28 08 25 23.5220000  0 24                     
G04  21679027.837   113924057.362         430.154          45.000    21679018.514    88771956.968         335.314          46.000  
G27  21803346.622   114577367.563        2524.334          45.000    21803339.095    89281029.719        1967.199          44.000  
G16  20656499.656   108550638.425        -274.620          47.000                                                                  
G08  23917400.532   125686787.014        3479.912          37.000    23917400.368    97937765.349        2711.990          38.000  
G09  23835759.000   125257763.764        2368.722          38.000    23835753.445    97603424.756        1845.957          36.000  
G31  21934273.517   115265390.489       -2042.125          46.000    21934263.273    89817138.020       -1591.503          44.000  
C06  36736652.610   191297371.243          35.937          47.000    36736634.307   147923203.541          27.896          49.000  
C32  26592669.472   138474969.791       -3574.802          38.000                                                                  
C37  22869146.569   119085635.774        -548.128          50.000                                                                  
C07  38371830.223   199812182.206         714.322          41.000    38371813.280   154507393.914         552.205          45.000  
C13  41726666.265   217281694.781       -2333.693          36.000    41726697.934   168016122.900       -1804.177          38.000  
C20  24584540.225   128018139.564       -2078.324          45.000                                                                  
G18  25376329.603   133353507.153         978.396          38.000    25376322.812   103911790.972         762.530          40.000  
G28  24104187.315   126668357.572       -2953.939          41.000    24104179.472    98702578.122       -2301.621          42.000  
G03  25618650.099   134626890.464       -3021.402          34.000    25618660.578   104904070.758       -2353.867          36.000  
G26  21723224.292   114156314.783       -2192.317          46.000    21723217.254    88952941.740       -1708.227          45.000  
C10  39433997.825   205343173.510         668.958          38.000    39433986.152   158784319.037         517.444          43.000  
C28  23904402.186   124476495.956        1449.172          47.000                                                                  
C23  25088675.790   130643320.444       -2273.489          43.000                                                                  
C16  37175729.383   193583763.648          35.559          48.000    37175717.355   149691208.618          27.563          49.000  
C27  25429954.837   132420454.024        2780.706          40.000                                                                  
C19  25736559.212   134017004.065         403.981          41.000                                                                  
C09  37810041.523   196886794.191         191.372          45.000    37810026.283   152245310.755         147.954          48.000  
C11                                                                  27080837.728   109043311.255       -1930.267          43.000  
> 2025 10 28 08 25 23.5620000  0 24                     
G04  21679024.570   113924040.194         429.681          45.000    21679015.260    88771943.587         334.938          46.000  
G27  21803327.415   114577266.632        2523.820          45.000    21803319.880    89280951.080        1966.569          44.000  
G16  20656501.773   108550649.443        -275.040          47.000                                                                  
G08  23917374.052   125686647.855        3479.395          37.000    23917373.885    97937656.913        2711.396          38.000  
G09  23835740.987   125257669.036        2368.498          38.000    23835735.430    97603350.933        1845.781          36.000  
G31  21934289.105   115265472.226       -2042.759          46.000    21934278.832    89817201.705       -1591.813          44.000  
C06  36736652.325   191297369.830          35.713          47.000    36736634.036   147923202.457          27.485          49.000  
C32  26592696.921   138475112.800       -3574.981          38.000                                                                  
C37  22869150.817   119085657.742        -548.688          50.000                                                                  
C07  38371824.732   199812153.680         713.722          41.000    38371807.806   154507371.846         552.007          45.000  
C13  41726684.189   217281788.148       -2333.855          36.000    41726715.854   168016195.118       -1804.877          38.000  
C20  24584556.191   128018222.733       -2078.720          45.000                                                                  
G18  25376322.172   133353468.054         977.924          38.000    25376315.373   103911760.499         762.161          40.000  
G28  24104209.829   126668475.779       -2954.702          41.000    24104201.959    98702670.223       -2302.105          42.000  
G03  25618673.095   134627011.342       -3021.805          34.000    25618683.574   104904164.927       -2353.883          36.000  
G26  21723240.989   114156402.516       -2192.815          46.000    21723233.956    88953010.109       -1708.714          45.000  
C10  39433992.688   205343146.783         668.506          38.000    39433981.045   158784298.369         517.096          43.000  
C28  23904391.069   124476438.025        1448.683          47.000                                                                  
C23  25088693.264   130643411.426       -2273.998          43.000                                                                  
C16  37175729.152   193583762.272          34.976          48.000    37175717.086   149691207.552          27.138          49.000  
C27  25429933.476   132420342.842        2780.096          40.000                                                                  
C19  25736556.112   134016987.961         403.212          41.000                                                                  
C09  37810040.068   196886786.584         190.751          45.000    37810024.845   152245304.878         147.352          48.000  
C11                                                                  27080856.912   109043388.493       -1930.627          43.000  
> 2025 10 28 08 25 23.6020000  0 24                     
G04  21679021.331   113924023.032         429.254          45.000    21679012.005    88771930.226         334.335          46.000  
G27  21803308.215   114577165.721        2523.101          45.000    21803300.717    89280872.449        1966.014          44.000  
G16  20656503.882   108550660.469        -275.494          47.000                                                                  
G08  23917347.555   125686508.696        3479.089          37.000    23917347.418    97937548.502        2710.606          38.000  
G09  23835722.955   125257574.313        2368.247          38.000    23835717.409    97603277.158        1844.720          36.000  
G31  21934304.687   115265553.969       -2043.293          46.000    21934294.392    89817265.396       -1592.106          44.000  
C06  36736652.046   191297368.437          35.161          47.000    36736633.792   147923201.377          27.162          49.000  
C32  26592724.389   138475255.835       -3575.639          38.000                                                                  
C37  22869155.054   119085679.720        -549.236          50.000                                                                  
C07  38371819.267   199812125.180         712.803          41.000    38371802.325   154507349.803         551.367          45.000  
C13  41726702.120   217281881.547       -2334.580          36.000    41726733.803   168016267.334       -1805.269          38.000  
C20  24584572.197   128018305.927       -2079.427          45.000                                                                  
G18  25376314.751   133353428.974         977.317          38.000    25376307.936   103911730.047         761.597          40.000  
G28  24104232.311   126668593.977       -2954.923          41.000    24104224.454    98702762.331       -2302.506          42.000  
G03  25618696.081   134627132.202       -3021.632          34.000    25618706.594   104904259.124       -2354.495          36.000  
G26  21723257.692   114156490.267       -2193.460          46.000    21723250.649    88953078.480       -1709.093          45.000  
C10  39433987.529   205343120.062         668.060          38.000    39433975.897   158784277.706         516.724          43.000  
C28  23904379.968   124476380.102        1448.260          47.000                                                                  
C23  25088710.733   130643502.420       -2274.607          43.000                                                                  
C16  37175728.908   193583760.910          34.333          48.000    37175716.855   149691206.501          26.592          49.000  
C27  25429912.146   132420231.666        2779.580          40.000                                                                  
C19  25736553.013   134016971.863         402.651          41.000                                                                  
C09  37810038.610   196886778.994         190.031          45.000    37810023.408   152245299.010         146.828          48.000  
C11                                                                  27080876.108   109043465.740       -1931.028          43.000  
> 2025 10 28 08 25 23.6420000  0 24                     
G04  21679018.098   113924005.882         428.828          45.000    21679008.752    88771916.867         333.942          46.000  
G27  21803289.043   114577064.806        2522.821          45.000    21803281.532    89280793.804        1965.948          44.000  
G16  20656506.016   108550671.500        -275.778          47.000                                                                  
G08  23917321.078   125686369.552        3478.681          37.000    23917320.953    97937440.091        2710.182          38.000  
G09  23835704.916   125257479.619        2367.487          38.000    23835699.382    97603203.364        1844.590          36.000  
G31  21934320.253   115265635.709       -2043.545          46.000    21934309.968    89817329.095       -1592.395          44.000  
C06  36736651.770   191297367.045          34.832          47.000    36736633.514   147923200.303          26.899          49.000  
C32  26592751.864   138475398.870       -3575.934          38.000                                                                  
C37  22869159.282   119085701.696        -549.458          50.000                                                                  
C07  38371813.823   199812096.663         712.675          41.000    38371796.879   154507327.757         551.107          45.000  
C13  41726720.053   217281974.951       -2335.163          36.000    41726751.734   168016339.543       -1805.328          38.000  
C20  24584588.176   128018389.120       -2079.782          45.000                                                                  
G18  25376307.328   133353389.900         976.866          38.000    25376300.490   103911699.607         761.075          40.000  
G28  24104254.822   126668712.179       -2955.119          41.000    24104246.949    98702854.446       -2302.868          42.000  
G03  25618719.085   134627253.069       -3021.657          34.000    25618729.595   104904353.305       -2354.595          36.000  
G26  21723274.387   114156578.007       -2193.601          46.000    21723267.365    88953146.855       -1709.366          45.000  
C10  39433982.399   205343093.320         668.311          38.000    39433970.779   158784257.040         516.589          43.000  
C28  23904368.814   124476322.184        1447.938          47.000                                                                  
C23  25088728.191   130643593.414       -2274.935          43.000                                                                  
C16  37175728.679   193583759.545          34.073          48.000    37175716.614   149691205.439          26.485          49.000  
C27  25429890.784   132420120.481        2779.474          40.000                                                                  
C19  25736549.917   134016955.748         402.649          41.000                                                                  
C09  37810037.129   196886771.387         189.979          45.000    37810021.953   152245293.136         146.717          48.000  
C11                                                                  27080895.281   109043542.983       -1931.175          43.000  
> 2025 10 28 08 25 23.6820000  0 24                     
G04  21679014.837   113923988.713         428.997          45.000    21679005.463    88771903.492         334.090          46.000  
G27  21803269.834   114576963.869        2523.087          45.000    21803262.327    89280715.159        1965.968          44.000  
G16  20656508.103   108550682.517        -275.660          47.000                                                                  
G08  23917294.591   125686230.396        3478.716          37.000    23917294.481    97937331.638        2710.905          38.000  
G09  23835686.887   125257384.903        2367.594          38.000    23835681.357    97603129.547        1845.069          36.000  
G31  21934335.810   115265717.437       -2043.398          46.000    21934325.525    89817392.783       -1592.336          44.000  
C06  36736651.531   191297365.646          34.813          47.000    36736633.241   147923199.218          26.957          49.000  
C32  26592779.318   138475541.889       -3575.765          38.000                                                                  
C37  22869163.504   119085723.660        -549.313          50.000                                                                  
C07  38371808.340   199812068.141         712.813          41.000    38371791.411   154507305.703         551.174          45.000  
C13  41726737.987   217282068.304       -2334.371          36.000    41726769.664   168016411.750       -1805.270          38.000  
C20  24584604.168   128018472.292       -2079.585          45.000                                                                  
G18  25376299.871   133353350.796         977.197          38.000    25376293.036   103911669.131         761.485          40.000  
G28  24104277.337   126668830.370       -2954.914          41.000    24104269.452    98702946.551       -2302.842          42.000  
G03  25618742.082   134627373.921       -3021.468          34.000    25618752.598   104904447.497       -2354.815          36.000  
G26  21723291.056   114156665.733       -2193.387          46.000    21723284.068    88953215.215       -1709.225          45.000  
C10  39433977.265   205343066.591         668.201          38.000    39433965.648   158784236.367         516.687          43.000  
C28  23904357.703   124476264.250        1448.141          47.000                                                                  
C23  25088745.662   130643684.388       -2274.673          43.000                                                                  
C16  37175728.418   193583758.163          34.291          48.000    37175716.388   149691204.367          26.636          49.000  
C27  25429869.432   132420009.293        2779.523          40.000                                                                  
C19  25736546.821   134016939.634         402.725          41.000                                                                  
C09  37810035.692   196886763.772         190.173          45.000    37810020.514   152245287.248         146.976          48.000  
C11                                                                  27080914.467   109043620.228       -1931.210          43.000  
> 2025 10 28 08 25 23.7220000  0 24                     
G04  21679011.557   113923971.547         429.057          45.000    21679002.207    88771890.102         334.486          46.000  
G27  21803250.618   114576862.934        2523.280          45.000    21803243.113    89280636.510        1966.082          44.000  
G16  20656510.188   108550693.533        -275.533          47.000                                                                  
G08  23917268.111   125686091.222        3479.111          37.000    23917267.994    97937223.186        2711.220          38.000  
G09  23835668.864   125257290.175        2367.945          38.000    23835663.331    97603055.722        1845.498          36.000  
G31  21934351.343   115265799.163       -2043.248          46.000    21934341.078    89817456.452       -1591.952          44.000  
C06  36736651.265   191297364.232          35.088          47.000    36736632.939   147923198.119          27.260          49.000  
C32  26592806.795   138475684.891       -3575.265          38.000                                                                  
C37  22869167.743   119085745.614        -549.003          50.000                                                                  
C07  38371802.833   199812039.609         713.101          41.000    38371785.922   154507283.636         551.475          45.000  
C13  41726755.922   217282161.657       -2333.900          36.000    41726787.577   168016483.937       -1804.859          38.000  
C20  24584620.162   128018555.456       -2079.338          45.000                                                                  
G18  25376292.431   133353311.680         977.622          38.000    25376285.603   103911638.652         761.833          40.000  
G28  24104299.831   126668948.561       -2954.827          41.000    24104291.926    98703038.639       -2302.434          42.000  
G03  25618765.067   134627494.767       -3021.287          34.000    25618775.610   104904541.662       -2354.337          36.000  
G26  21723307.740   114156753.451       -2193.121          46.000    21723300.787    88953283.565       -1708.915          45.000  
C10  39433972.114   205343039.842         668.488          38.000    39433960.494   158784215.692         516.840          43.000  
C28  23904346.592   124476206.317        1448.267          47.000                                                                  
C23  25088763.140   130643775.349       -2274.233          43.000                                                                  
C16  37175728.154   193583756.761          34.802          48.000    37175716.125   149691203.288          26.865          49.000  
C27  25429848.088   132419898.101        2779.638          40.000                                                                  
C19  25736543.754   134016923.518         402.859          41.000                                                                  
C09  37810034.235   196886756.145         190.500          45.000    37810019.052   152245281.345         147.385          48.000  
C11                                                                  27080933.637   109043697.461       -1930.969          43.000  
> 2025 10 28 08 25 23.7620000  0 24                     
G04  21679008.267   113923954.361         429.414          45.000    21678998.935    88771876.707         334.812          46.000  
G27  21803231.421   114576761.983        2523.632          45.000    21803223.915    89280557.843        1966.445          44.000  
G16  20656512.266   108550704.540        -275.288          47.000                                                                  
G08  23917241.646   125685952.047        3479.282          37.000    23917241.489    97937114.743        2711.185          38.000  
G09  23835650.847   125257195.422        2368.654          38.000    23835645.318    97602981.909        1845.469          36.000  
G31  21934366.875   115265880.882       -2043.025          46.000    21934356.635    89817520.127       -1591.868          44.000  
C06  36736650.997   191297362.807          35.464          47.000    36736632.663   147923197.022          27.400          49.000  
C32  26592834.250   138475827.898       -3575.048          38.000                                                                  
C37  22869171.971   119085767.564        -548.790          50.000                                                                  
C07  38371797.336   199812011.070         713.351          41.000    38371780.424   154507261.562         551.777          45.000  
C13  41726773.841   217282255.025       -2334.024          36.000    41726805.500   168016556.137       -1804.937          38.000  
C20  24584636.139   128018638.631       -2079.403          45.000                                                                  
G18  25376284.959   133353272.564         977.882          38.000    25376278.161   103911608.168         762.073          40.000  
G28  24104322.319   126669066.751       -2954.773          41.000    24104314.408    98703130.723       -2302.151          42.000  
G03  25618788.041   134627615.630       -3021.424          34.000    25618798.620   104904635.842       -2354.471          36.000  
G26  21723324.432   114156841.164       -2192.883          46.000    21723317.469    88953351.913       -1708.722          45.000  
C10  39433966.978   205343013.104         668.475          38.000    39433955.357   158784195.016         516.907          43.000  
C28  23904335.475   124476148.381        1448.373          47.000                                                                  
C23  25088780.592   130643866.317       -2274.166          43.000                                                                  
C16  37175727.912   193583755.355          35.151          48.000    37175715.861   149691202.210          26.937          49.000  
C27  25429826.763   132419786.896        2779.993          40.000                                                                  
C19  25736540.667   134016907.397         402.980          41.000                                                                  
C09  37810032.804   196886748.516         190.700          45.000    37810017.583   152245275.447         147.485          48.000  
C11                                                                  27080952.813   109043774.691       -1930.822          43.000  
> 2025 10 28 08 25 23.8020000  0 24                     
G04  21679005.005   113923937.190         429.335          45.000    21678995.690    88771863.323         334.764          46.000  
G27  21803212.215   114576661.045        2523.578          45.000    21803204.701    89280479.199        1966.226          44.000  
G16  20656514.344   108550715.551        -275.228          47.000                                                                  
G08  23917215.142   125685812.875        3479.253          37.000    23917214.993    97937006.287        2711.338          38.000  
G09  23835632.814   125257100.697        2368.469          38.000    23835627.288    97602908.076        1845.791          36.000  
G31  21934382.430   115265962.609       -2043.073          46.000    21934372.199    89817583.819       -1592.111          44.000  
C06  36736650.746   191297361.382          35.658          47.000    36736632.390   147923195.930          27.353          49.000  
C32  26592861.708   138475970.900       -3574.967          38.000                                                                  
C37  22869176.141   119085789.526        -548.911          50.000                                                                  
C07  38371791.856   199811982.525         713.573          41.000    38371774.927   154507239.501         551.682          45.000  
C13  41726791.769   217282348.404       -2334.330          36.000    41726823.437   168016628.338       -1804.962          38.000  
C20  24584652.129   128018721.796       -2079.244          45.000                                                                  
G18  25376277.514   133353233.457         977.791          38.000    25376270.714   103911577.712         761.682          40.000  
G28  24104344.793   126669184.938       -2954.668          41.000    24104336.903    98703222.809       -2302.079          42.000  
G03  25618811.036   134627736.496       -3021.669          34.000    25618821.628   104904730.018       -2354.452          36.000  
G26  21723341.136   114156928.887       -2192.969          46.000    21723334.154    88953420.270       -1708.816          45.000  
C10  39433961.835   205342986.374         668.329          38.000    39433950.206   158784174.337         516.949          43.000  
C28  23904324.329   124476090.450        1448.309          47.000                                                                  
C23  25088798.038   130643957.290       -2274.233          43.000                                                                  
C16  37175727.652   193583753.969          34.899          48.000    37175715.633   149691201.139          26.832          49.000  
C27  25429805.384   132419675.697        2780.034          40.000                                                                  
C19  25736537.584   134016891.285         402.878          41.000                                                                  
C09  37810031.358   196886740.893         190.681          45.000    37810016.119   152245269.548         147.530          48.000  
C11                                                                  27080972.001   109043851.927       -1930.897          43.000  
> 2025 10 28 08 25 23.8420000  0 24                     
G04  21679001.782   113923920.027         429.138          45.000    21678992.428    88771849.957         334.364          46.000  
G27  21803193.016   114576560.127        2523.139          45.000    21803185.496    89280400.564        1965.922          44.000  
G16  20656516.446   108550726.577        -275.513          47.000                                                                  
G08  23917188.668   125685673.719        3479.005          37.000    23917188.535    97936897.850        2711.094          38.000  
G09  23835614.761   125257005.972        2368.267          38.000    23835609.271    97602834.276        1845.302          36.000  
G31  21934397.994   115266044.349       -2043.379          46.000    21934387.761    89817647.525       -1592.522          44.000  
C06  36736650.483   191297359.979          35.310          47.000    36736632.147   147923194.848          27.136          49.000  
C32  26592889.168   138476113.930       -3575.487          38.000                                                                  
C37  22869180.330   119085811.494        -549.138          50.000                                                                  
C07  38371786.362   199811953.996         713.365          41.000    38371769.446   154507217.449         551.400          45.000  
C13  41726809.715   217282441.782       -2334.491          36.000    41726841.373   168016700.548       -1805.187          38.000  
C20  24584668.104   128018804.979       -2079.460          45.000                                                                  
G18  25376270.090   133353194.372         977.329          38.000    25376263.260   103911547.253         761.490          40.000  
G28  24104367.285   126669303.136       -2954.891          41.000    24104359.411    98703314.929       -2302.734          42.000  
G03  25618834.053   134627857.363       -3021.671          34.000    25618844.616   104904824.179       -2354.122          36.000  
G26  21723357.840   114157016.630       -2193.392          46.000    21723350.854    88953488.640       -1709.155          45.000  
C10  39433956.722   205342959.649         668.134          38.000    39433945.068   158784153.671         516.724          43.000  
C28  23904313.177   124476032.520        1448.252          47.000                                                                  
C23  25088815.516   130644048.275       -2274.492          43.000                                                                  
C16  37175727.382   193583752.599          34.438          48.000    37175715.371   149691200.074          26.662          49.000  
C27  25429784.034   132419564.508        2779.867          40.000                                                                  
C19  25736534.490   134016875.179         402.697          41.000                                                                  
C09  37810029.904   196886733.290         190.240          45.000    37810014.678   152245263.668         147.161          48.000  
C11                                                                  27080991.202   109043929.168       -1931.014          43.000  
> 2025 10 28 08 25 23.8820000  0 24                     
G04  21678998.537   113923902.871         428.932          45.000    21678989.172    88771836.595         334.088          46.000  
G27  21803173.808   114576459.208        2522.987          45.000    21803166.292    89280321.928        1965.821          44.000  
G16  20656518.545   108550737.599        -275.573          47.000                                                                  
G08  23917162.201   125685534.561        3478.901          37.000    23917162.074    97936789.431        2710.622          38.000  
G09  23835596.744   125256911.275        2367.658          38.000    23835591.235    97602760.492        1844.712          36.000  
G31  21934413.544   115266126.086       -2043.435          46.000    21934403.314    89817711.204       -1592.218          44.000  
C06  36736650.195   191297358.587          34.907          47.000    36736631.889   147923193.762          27.110          49.000  
C32  26592916.607   138476256.952       -3575.615          38.000                                                                  
C37  22869184.550   119085833.464        -549.261          50.000                                                                  
C07  38371780.887   199811925.482         713.038          41.000    38371763.980   154507195.400         551.200          45.000  
C13  41726827.655   217282535.179       -2334.995          36.000    41726859.325   168016772.771       -1805.590          38.000  
C20  24584684.079   128018888.165       -2079.597          45.000                                                                  
G18  25376262.643   133353155.283         977.163          38.000    25376255.823   103911516.789         761.464          40.000  
G28  24104389.779   126669421.334       -2954.946          41.000    24104381.915    98703407.027       -2302.621          42.000  
G03  25618857.049   134627978.234       -3021.756          34.000    25618867.618   104904918.374       -2354.615          36.000  
G26  21723374.533   114157104.371       -2193.587          46.000    21723367.549    88953557.004       -1709.212          45.000  
C10  39433951.578   205342932.925         668.005          38.000    39433939.928   158784132.999         516.705          43.000  
C28  23904302.065   124475974.589        1448.278          47.000                                                                  
C23  25088833.007   130644139.258       -2274.569          43.000                                                                  
C16  37175727.137   193583751.226          34.286          48.000    37175715.123   149691199.010          26.564          49.000  
C27  25429762.672   132419453.325        2779.680          40.000                                                                  
C19  25736531.400   134016859.067         402.740          41.000                                                                  
C09  37810028.442   196886725.687         190.021          45.000    37810013.240   152245257.785         147.010          48.000  
C11                                                                  27081010.390   109044006.412       -1931.137          43.000  
> 2025 10 28 08 25 23.9220000  0 24                     
G04  21678995.266   113923885.712         428.860          45.000    21678985.903    88771823.224         334.120          46.000  
G27  21803154.608   114576358.283        2522.976          45.000    21803147.081    89280243.273        1966.137          44.000  
G16  20656520.627   108550748.624        -275.654          47.000                                                                  
G08  23917135.711   125685395.388        3479.164          37.000    23917135.595    97936680.994        2710.725          38.000  
G09  23835578.730   125256816.572        2367.412          38.000    23835573.211    97602686.679        1845.016          36.000  
G31  21934429.083   115266207.819       -2043.378          46.000    21934418.872    89817774.894       -1592.246          44.000  
C06  36736649.937   191297357.183          34.935          47.000    36736631.625   147923192.672          27.173          49.000  
C32  26592944.074   138476399.977       -3575.712          38.000                                                                  
C37  22869188.824   119085855.431        -549.259          50.000                                                                  
C07  38371775.400   199811896.962         712.934          41.000    38371758.503   154507173.346         551.198          45.000  
C13  41726845.597   217282628.540       -2334.435          37.000    41726877.252   168016844.975       -1805.382          38.000  
C20  24584700.072   128018971.328       -2079.293          45.000                                                                  
G18  25376255.203   133353116.182         977.358          38.000    25376248.394   103911486.327         761.441          40.000  
G28  24104412.274   126669539.541       -2955.155          41.000    24104404.412    98703499.129       -2302.607          42.000  
G03  25618880.055   134628099.090       -3021.465          34.000    25618890.624   104905012.568       -2354.819          36.000  
G26  21723391.230   114157192.099       -2193.449          46.000    21723384.228    88953625.369       -1709.232          45.000  
C10  39433946.446   205342906.187         668.298          38.000    39433934.812   158784112.334         516.614          43.000  
C28  23904290.931   124475916.667        1448.085          47.000                                                                  
C23  25088850.495   130644230.243       -2274.650          43.000                                                                  
C16  37175726.903   193583749.842          34.386          48.000    37175714.849   149691197.937          26.680          49.000  
C27  25429741.326   132419342.142        2779.520          40.000                                                                  
C19  25736528.309   134016842.952         402.780          41.000                                                                  
C09  37810026.991   196886718.064         190.298          45.000    37810011.796   152245251.896         147.074          48.000  
C11                                                                  27081029.577   109044083.645       -1930.982          43.000  
> 2025 10 28 08 25 23.9620000  0 24                     
G04  21678991.997   113923868.566         428.637          45.000    21678982.635    88771809.852         334.167          46.000  
G27  21803135.420   114576257.362        2522.936          45.000    21803127.866    89280164.639        1965.933          44.000  
G16  20656522.726   108550759.650        -275.688          47.000                                                                  
G08  23917109.239   125685256.237        3478.889          37.000    23917109.090    97936572.565        2710.658          38.000  
G09  23835560.713   125256721.864        2367.423          38.000    23835555.175    97602612.862        1845.272          36.000  
G31  21934444.643   115266289.558       -2043.481          46.000    21934434.437    89817838.583       -1592.273          44.000  
C06  36736649.665   191297355.780          34.978          47.000    36736631.360   147923191.586          27.133          49.000  
C32  26592971.562   138476542.992       -3575.533          38.000                                                                  
C37  22869193.040   119085877.400        -549.295          50.000                                                                  
C07  38371769.921   199811868.433         713.044          41.000    38371753.002   154507151.287         551.315          45.000  
C13  41726863.527   217282721.932       -2334.685          37.000    41726895.183   168016917.161       -1804.953          38.000  
C20  24584716.028   128019054.523       -2079.647          45.000                                                                  
G18  25376247.744   133353077.082         977.415          38.000    25376240.958   103911455.871         761.389          40.000  
G28  24104434.756   126669657.741       -2955.079          41.000    24104426.910    98703591.243       -2302.860          42.000  
G03  25618903.031   134628219.945       -3021.370          34.000    25618913.628   104905106.744       -2354.632          36.000  
G26  21723407.917   114157279.832       -2193.406          47.000    21723400.897    88953693.726       -1709.080          45.000  
C10  39433941.313   205342879.450         668.384          38.000    39433929.696   158784091.665         516.656          43.000  
C28  23904279.791   124475858.755        1447.793          47.000                                                                  
C23  25088867.953   130644321.221       -2274.537          43.000                                                                  
C16  37175726.647   193583748.461          34.449          48.000    37175714.574   149691196.873          26.594          49.000  
C27  25429719.980   132419230.952        2779.632          40.000                                                                  
C19  25736525.181   134016826.861         402.405          41.000                                                                  
C09  37810025.538   196886710.448         190.335          45.000    37810010.334   152245246.009         147.109          48.000  
C11                                                                  27081048.734   109044160.889       -1931.105          43.000  
> 2025 10 28 08 25 24.0020000  0 24                     
G04  21678988.716   113923851.416         428.595          45.000    21678979.356    88771796.485         334.135          46.000  
G27  21803116.217   114576156.442        2522.913          45.000    21803108.683    89280086.003        1965.836          44.000  
G16  20656524.847   108550770.690        -275.964          47.000                                                                  
G08  23917082.763   125685117.090        3478.699          37.000    23917082.617    97936464.130        2710.772          38.000  
G09  23835542.688   125256627.153        2367.543          38.000    23835537.162    97602539.072        1844.840          36.000  
G31  21934460.197   115266371.301       -2043.597          46.000    21934450.003    89817902.278       -1592.351          44.000  
C06  36736649.394   191297354.373          35.067          47.000    36736631.099   147923190.501          27.072          49.000  
C32  26592999.036   138476686.035       -3575.973          38.000                                                                  
C37  22869197.238   119085899.378        -549.478          50.000                                                                  
C07  38371764.446   199811839.929         712.671          41.000    38371747.520   154507129.233         551.294          45.000  
C13  41726881.474   217282815.289       -2334.205          37.000    41726913.103   168016989.367       -1805.117          38.000  
C20  24584731.981   128019137.715       -2079.849          45.000                                                                  
G18  25376240.310   133353038.014         976.836          38.000    25376233.518   103911425.408         761.456          40.000  
G28  24104457.252   126669775.945       -2955.203          41.000    24104449.411    98703683.359       -2302.982          42.000  
G03  25618926.033   134628340.839       -3022.115          34.000    25618936.639   104905200.936       -2354.683          36.000  
G26  21723424.625   114157367.572       -2193.518          47.000    21723417.580    88953762.098       -1709.303          45.000  
C10  39433936.162   205342852.730         668.036          38.000    39433924.576   158784070.995         516.681          43.000  
C28  23904268.653   124475800.839        1447.740          47.000                                                                  
C23  25088885.431   130644412.209       -2274.657          43.000                                                                  
C16  37175726.429   193583747.084          34.389          49.000    37175714.338   149691195.808          26.557          49.000  
C27  25429698.607   132419119.784        2779.309          40.000                                                                  
C19  25736522.116   134016810.763         402.323          41.000                                                                  
C09  37810024.084   196886702.844         190.102          45.000    37810008.888   152245240.134         146.897          48.000  
C11                                                                  27081067.946   109044238.145       -1931.395          43.000  
> 2025 10 28 08 25 24.0420000  0 24                     
G04  21678985.488   113923834.295         428.049          45.000    21678976.092    88771783.153         333.471          46.000  
G27  21803097.010   114576055.566        2522.120          45.000    21803089.485    89280007.391        1965.340          44.000  
G16  20656526.955   108550781.767        -276.815          47.000                                                                  
G08  23917056.303   125684977.994        3477.630          37.000    23917056.140    97936355.739        2710.013          38.000  
G09  23835524.672   125256532.476        2366.990          38.000    23835519.150    97602465.324        1843.828          36.000  
G31  21934475.766   115266453.084       -2044.397          46.000    21934465.571    89817965.996       -1592.857          44.000  
C06  36736649.118   191297353.016          34.185          47.000    36736630.826   147923189.454          26.364          49.000  
C32  26593026.509   138476829.083       -3576.289          38.000                                                                  
C37  22869201.439   119085921.392        -550.231          50.000                                                                  
C07  38371758.963   199811811.451         711.945          41.000    38371742.057   154507107.209         550.712          45.000  
C13  41726899.416   217282908.707       -2335.040          37.000    41726931.014   168017061.612       -1805.932          38.000  
C20  24584747.944   128019220.929       -2080.318          45.000                                                                  
G18  25376232.871   133352998.972         976.046          38.000    25376226.107   103911394.972         761.006          40.000  
G28  24104479.759   126669894.193       -2956.059          41.000    24104471.894    98703775.484       -2303.259          42.000  
G03  25618949.055   134628461.774       -3023.234          34.000    25618959.668   104905295.158       -2355.317          37.000  
G26  21723441.325   114157455.360       -2194.445          47.000    21723434.286    88953830.509       -1710.086          45.000  
C10  39433931.052   205342826.061         666.907          38.000    39433919.451   158784050.364         515.930          43.000  
C28  23904257.555   124475742.959        1447.032          47.000                                                                  
C23  25088902.905   130644503.236       -2275.431          43.000                                                                  
C16  37175726.186   193583745.749          33.566          49.000    37175714.094   149691194.774          25.985          49.000  
C27  25429677.232   132419008.640        2778.677          40.000                                                                  
C19  25736519.042   134016794.706         401.560          41.000                                                                  
C09  37810022.613   196886695.272         189.409          45.000    37810007.436   152245234.280         146.388          48.000  
C11                                                                  27081087.159   109044315.426       -1931.991          43.000  
> 2025 10 28 08 25 24.0820000  0 24                     
G04  21678982.257   113923817.214         427.104          45.000    21678972.839    88771769.848         332.687          46.000  
G27  21803077.832   114575954.721        2521.208          45.000    21803070.297    89279928.805        1964.662          44.000  
G16  20656529.082   108550792.864        -277.538          47.000                                                                  
G08  23917029.818   125684838.900        3477.142          37.000    23917029.666    97936247.361        2709.345          38.000  
G09  23835506.653   125256437.828        2366.167          38.000    23835501.135    97602391.588        1843.165          36.000  
G31  21934491.341   115266534.899       -2045.309          46.000    21934481.133    89818029.761       -1593.906          44.000  
C06  36736648.833   191297351.691          33.206          47.000    36736630.593   147923188.422          25.766          49.000  
C32  26593053.990   138476972.185       -3577.387          38.000                                                                  
C37  22869205.662   119085943.432        -551.045          50.000                                                                  
C07  38371753.492   199811783.001         711.194          41.000    38371736.589   154507085.212         549.980          45.000  
C13  41726917.380   217283002.148       -2335.894          37.000    41726948.953   168017133.862       -1806.392          38.000  
C20  24584763.901   128019304.190       -2081.330          45.000                                                                  
G18  25376225.440   133352959.956         975.353          38.000    25376218.673   103911364.563         760.266          40.000  
G28  24104502.282   126670012.474       -2957.066          41.000    24104494.405    98703867.647       -2304.059          42.000  
G03  25618972.084   134628582.717       -3023.879          34.000    25618982.698   104905389.390       -2355.833          37.000  
G26  21723458.026   114157543.171       -2195.310          47.000    21723451.003    88953898.937       -1710.773          45.000  
C10  39433925.956   205342799.392         666.479          38.000    39433914.347   158784029.761         515.106          43.000  
C28  23904246.443   124475685.114        1446.106          47.000                                                                  
C23  25088920.403   130644594.293       -2276.348          43.000                                                                  
C16  37175725.954   193583744.441          32.704          49.000    37175713.826   149691193.767          25.239          49.000  
C27  25429655.863   132418897.525        2777.862          40.000                                                                  
C19  25736515.954   134016778.669         400.839          41.000                                                                  
C09  37810021.183   196886687.744         188.300          45.000    37810005.989   152245228.455         145.659          48.000  
C11                                                                  27081106.372   109044392.723       -1932.524          43.000  
> 2025 10 28 08 25 24.1220000  0 24                     
G04  21678979.030   113923800.136         426.619          45.000    21678969.587    88771756.543         332.343          46.000  
G27  21803058.629   114575853.878        2520.771          45.000    21803051.106    89279850.228        1964.235          44.000  
G16  20656531.176   108550803.965        -277.867          47.000                                                                  
G08  23917003.345   125684699.795        3477.251          37.000    23917003.201    97936138.990        2709.006          38.000  
G09  23835488.643   125256343.193        2365.623          38.000    23835483.139    97602317.851        1843.110          36.000  
G31  21934506.896   115266616.712       -2045.660          46.000    21934496.695    89818093.515       -1594.178          44.000  
C06  36736648.567   191297350.363          32.818          47.000    36736630.354   147923187.399          25.364          49.000  
C32  26593081.474   138477115.260       -3577.385          38.000                                                                  
C37  22869209.933   119085965.475        -551.396          50.000                                                                  
C07  38371748.022   199811754.548         710.936          41.000    38371731.120   154507063.216         549.655          45.000  
C13  41726935.331   217283095.610       -2336.675          37.000    41726966.919   168017206.125       -1806.783          38.000  
C20  24584779.871   128019387.459       -2081.944          45.000                                                                  
G18  25376218.018   133352920.933         975.180          38.000    25376211.247   103911334.162         759.804          40.000  
G28  24104524.791   126670130.749       -2957.262          41.000    24104516.920    98703959.810       -2304.344          42.000  
G03  25618995.056   134628703.636       -3023.565          34.000    25619005.730   104905483.629       -2356.183          37.000  
G26  21723474.712   114157630.979       -2195.591          47.000    21723467.710    88953967.358       -1710.904          45.000  
C10  39433920.802   205342772.746         665.973          38.000    39433909.179   158784009.148         514.984          43.000  
C28  23904235.350   124475627.265        1445.844          47.000                                                                  
C23  25088937.923   130644685.347       -2276.715          43.000                                                                  
C16  37175725.731   193583743.132          32.384          49.000    37175713.516   149691192.758          24.950          49.000  
C27  25429634.508   132418786.410        2777.560          40.000                                                                  
C19  25736512.884   134016762.640         400.475          41.000                                                                  
C09  37810019.756   196886680.199         188.151          45.000    37810004.561   152245222.618         145.598          48.000  
C11                                                                  27081125.572   109044470.029       -1932.890          43.000  
> 2025 10 28 08 25 24.1620000  0 24                     
G04  21678975.750   113923783.033         426.998          45.000    21678966.333    88771743.219         332.620          46.000  
G27  21803039.450   114575753.005        2521.253          45.000    21803031.908    89279771.638        1964.359          44.000  
G16  20656533.276   108550815.039        -277.338          47.000                                                                  
G08  23916976.893   125684560.695        3477.357          37.000    23916976.727    97936030.597        2709.387          38.000  
G09  23835470.622   125256248.535        2365.906          38.000    23835465.110    97602244.044        1844.543          36.000  
G31  21934522.480   115266698.504       -2045.311          46.000    21934512.269    89818157.251       -1593.860          44.000  
C06  36736648.293   191297349.000          33.422          47.000    36736630.117   147923186.352          25.701          49.000  
C32  26593108.951   138477258.333       -3577.191          38.000                                                                  
C37  22869214.151   119085987.493        -550.975          50.000                                                                  
C07  38371742.560   199811726.069         711.462          41.000    38371725.651   154507041.197         550.045          45.000  
C13  41726953.290   217283189.034       -2336.139          37.000    41726984.885   168017278.362       -1806.333          38.000  
C20  24584795.871   128019470.695       -2081.506          45.000                                                                  
G18  25376210.578   133352881.873         975.962          38.000    25376203.809   103911303.740         760.096          40.000  
G28  24104547.299   126670248.985       -2956.450          41.000    24104539.416    98704051.962       -2304.148          42.000  
G03  25619018.038   134628824.566       -3023.573          34.000    25619028.751   104905577.849       -2355.876          37.000  
G26  21723491.407   114157718.760       -2195.087          47.000    21723484.403    88954035.757       -1710.461          45.000  
C10  39433915.667   205342746.052         666.748          38.000    39433904.046   158783988.513         515.442          43.000  
C28  23904224.238   124475569.389        1446.370          47.000                                                                  
C23  25088955.402   130644776.384       -2276.398          43.000                                                                  
C16  37175725.508   193583741.807          32.672          49.000    37175713.238   149691191.732          25.217          49.000  
C27  25429613.115   132418675.283        2777.769          40.000                                                                  
C19  25736509.784   134016746.589         400.807          41.000                                                                  
C09  37810018.335   196886672.639         188.546          45.000    37810003.123   152245216.769         145.882          48.000  
C11                                                                  27081144.748   109044547.315       -1932.541          43.000  
> 2025 10 28 08 25 24.2020000  0 24                     
G04  21678972.490   113923765.879         428.177          45.000    21678963.054    88771729.848         333.689          46.000  
G27  21803020.245   114575652.080        2522.507          45.000    21803012.703    89279693.001        1965.348          44.000  
G16  20656535.378   108550826.069        -276.198          47.000                                                                  
G08  23916950.415   125684421.539        3478.478          37.000    23916950.239    97935922.151        2710.678          38.000  
G09  23835452.589   125256153.819        2367.318          38.000    23835447.073    97602170.249        1845.072          36.000  
G31  21934538.062   115266780.233       -2043.901          46.000    21934527.827    89818220.939       -1592.749          44.000  
C06  36736648.001   191297347.585          34.776          47.000    36736629.870   147923185.263          26.716          49.000  
C32  26593136.428   138477401.360       -3576.144          38.000                                                                  
C37  22869218.330   119086009.461        -549.721          50.000                                                                  
C07  38371737.093   199811697.554         712.479          41.000    38371720.147   154507019.138         551.077          45.000  
C13  41726971.210   217283282.428       -2335.267          37.000    41727002.807   168017350.577       -1805.583          38.000  
C20  24584811.842   128019553.881       -2080.288          45.000                                                                  
G18  25376203.132   133352842.783         976.992          38.000    25376196.379   103911273.312         760.482          40.000  
G28  24104569.790   126670367.190       -2955.434          41.000    24104561.909    98704144.059       -2302.871          42.000  
G03  25619041.038   134628945.430       -3022.318          34.000    25619051.736   104905672.013       -2354.697          37.000  
G26  21723508.093   114157806.505       -2194.081          47.000    21723501.093    88954104.121       -1709.545          45.000  
C10  39433910.521   205342719.322         667.932          38.000    39433898.916   158783967.844         516.351          43.000  
C28  23904213.106   124475511.472        1447.523          47.000                                                                  
C23  25088972.861   130644867.356       -2275.007          43.000                                                                  
C16  37175725.232   193583740.419          34.048          49.000    37175712.967   149691190.660          26.304          49.000  
C27  25429591.737   132418564.071        2779.531          40.000                                                                  
C19  25736506.670   134016730.479         402.146          41.000                                                                  
C09  37810016.846   196886665.017         189.940          45.000    37810001.673   152245210.883         146.782          48.000  
C11                                                                  27081163.932   109044624.554       -1931.399          43.000  
> 2025 10 28 08 25 24.2420000  0 24                     
G04  21678969.196   113923748.695         429.400          45.000    21678959.770    88771716.450         334.746          46.000  
G27  21803001.044   114575551.125        2523.749          45.000    21802993.478    89279614.333        1966.401          44.000  
G16  20656537.477   108550837.066        -275.023          47.000                                                                  
G08  23916923.906   125684282.349        3479.628          37.000    23916923.751    97935813.689        2711.609          38.000  
G09  23835434.555   125256059.075        2368.542          38.000    23835429.023    97602096.428        1845.672          36.000  
G31  21934553.619   115266861.941       -2042.783          46.000    21934543.342    89818284.599       -1591.664          44.000  
C06  36736647.703   191297346.150          35.795          47.000    36736629.598   147923184.142          27.812          49.000  
C32  26593163.866   138477544.341       -3574.785          38.000                                                                  
C37  22869222.523   119086031.393        -548.460          50.000                                                                  
C07  38371731.601   199811669.004         713.619          41.000    38371714.665   154506997.055         552.027          45.000  
C13  41726989.136   217283375.725       -2333.007          37.000    41727020.727   168017422.755       -1804.512          38.000  
C20  24584827.788   128019637.036       -2079.109          45.000                                                                  
G18  25376195.683   133352803.678         977.731          38.000    25376188.923   103911242.827         761.653          40.000  
G28  24104592.293   126670485.359       -2954.280          41.000    24104584.390    98704236.141       -2301.975          42.000  
G03  25619064.020   134629066.281       -3021.347          34.000    25619074.739   104905766.164       -2353.801          37.000  
G26  21723524.772   114157894.204       -2192.783          47.000    21723517.778    88954172.459       -1708.596          45.000  
C10  39433905.396   205342692.565         668.903          38.000    39433893.764   158783947.141         517.462          43.000  
C28  23904201.949   124475453.515        1448.809          47.000                                                                  
C23  25088990.308   130644958.306       -2273.899          43.000                                                                  
C16  37175724.963   193583738.999          35.355          49.000    37175712.671   149691189.563          27.298          49.000  
C27  25429570.394   132418452.854        2780.523          40.000                                                                  
C19  25736503.536   134016714.342         403.337          41.000                                                                  
C09  37810015.375   196886657.366         191.192          45.000    37810000.189   152245204.965         147.810          48.000  
C11                                                                  27081183.105   109044701.769       -1930.381          43.000  
> 2025 10 28 08 25 24.2820000  0 24                     
G04  21678965.937   113923731.506         430.006          45.000    21678956.518    88771703.056         335.134          46.000  
G27  21802981.837   114575450.176        2524.158          45.000    21802974.260    89279535.665        1966.905          44.000  
G16  20656539.562   108550848.063        -274.560          47.000                                                                  
G08  23916897.437   125684143.174        3479.788          37.000    23916897.262    97935705.230        2711.819          38.000  
G09  23835416.500   125255964.338        2368.849          38.000    23835410.996    97602022.609        1845.723          36.000  
G31  21934569.177   115266943.641       -2042.200          46.000    21934558.895    89818348.277       -1591.542          44.000  
C06  36736647.421   191297344.711          36.260          47.000    36736629.338   147923183.022          28.262          49.000  
C32  26593191.333   138477687.331       -3574.438          38.000                                                                  
C37  22869226.757   119086053.328        -548.005          50.000                                                                  
C07  38371726.096   199811640.445         714.245          41.000    38371709.203   154506974.978         552.250          45.000  
C13  41727007.072   217283469.061       -2332.818          37.000    41727038.634   168017494.921       -1803.915          38.000  
C20  24584843.749   128019720.173       -2078.282          45.000                                                                  
G18  25376188.219   133352764.556         978.236          38.000    25376181.471   103911212.315         762.703          40.000  
G28  24104614.772   126670603.535       -2953.998          41.000    24104606.871    98704328.212       -2301.520          42.000  
G03  25619086.997   134629187.087       -3020.167          34.000    25619097.733   104905860.331       -2353.737          37.000  
G26  21723541.445   114157981.903       -2192.193          47.000    21723534.471    88954240.794       -1708.161          45.000  
C10  39433900.227   205342665.806         669.177          38.000    39433888.603   158783926.449         517.694          43.000  
C28  23904190.812   124475395.563        1449.224          47.000                                                                  
C23  25089007.780   130645049.251       -2273.312          43.000                                                                  
C16  37175724.705   193583737.584          35.785          49.000    37175712.393   149691188.462          27.765          49.000  
C27  25429549.028   132418341.636        2780.840          40.000                                                                  
C19  25736500.447   134016698.222         403.466          41.000                                                                  
C09  37810013.881   196886649.727         191.453          45.000    37809998.707   152245199.048         148.190          48.000  
C11                                                                  27081202.264   109044778.990       -1930.196          43.000  
> 2025 10 28 08 25 24.3220000  0 24                     
G04  21678962.675   113923714.374         429.108          45.000    21678953.265    88771689.700         334.494          46.000  
G27  21802962.636   114575349.282        2523.163          45.000    21802955.066    89279457.042        1966.234          44.000  
G16  20656541.649   108550859.122        -275.723          47.000                                                                  
G08  23916870.959   125684004.025        3479.181          37.000    23916870.777    97935596.825        2710.739          38.000  
G09  23835398.473   125255869.649        2367.879          38.000    23835392.963    97601948.832        1844.889          36.000  
G31  21934584.734   115267025.407       -2043.287          46.000    21934574.461    89818411.972       -1591.926          44.000  
C06  36736647.171   191297343.321          35.461          47.000    36736629.102   147923181.950          27.487          49.000  
C32  26593218.810   138477830.359       -3575.166          38.000                                                                  
C37  22869230.985   119086075.318        -548.997          50.000                                                                  
C07  38371720.632   199811611.932         713.488          41.000    38371703.735   154506952.943         551.439          45.000  
C13  41727025.016   217283562.452       -2334.022          37.000    41727056.594   168017567.157       -1805.166          38.000  
C20  24584859.740   128019803.380       -2079.306          45.000                                                                  
G18  25376180.779   133352725.472         977.675          38.000    25376174.044   103911181.868         761.979          40.000  
G28  24104637.263   126670721.756       -2954.922          41.000    24104629.382    98704420.346       -2302.678          42.000  
G03  25619109.970   134629307.988       -3021.470          34.000    25619120.728   104905954.532       -2354.485          37.000  
G26  21723558.137   114158069.653       -2192.983          47.000    21723551.169    88954309.176       -1708.920          45.000  
C10  39433895.113   205342639.110         668.024          38.000    39433883.451   158783905.799         516.821          43.000  
C28  23904179.705   124475337.671        1448.084          47.000                                                                  
C23  25089025.260   130645140.253       -2274.254          43.000                                                                  
C16  37175724.457   193583736.226          34.780          49.000    37175712.096   149691187.409          26.990          49.000  
C27  25429527.676   132418230.465        2779.978          40.000                                                                  
C19  25736497.370   134016682.143         402.630          41.000                                                                  
C09  37810012.458   196886642.120         190.777          45.000    37809997.242   152245193.170         147.504          48.000  
C11                                                                  27081221.454   109044856.268       -1931.347          43.000  
> 2025 10 28 08 25 24.3620000  0 24                     
G04  21678959.416   113923697.296         427.611          45.000    21678950.013    88771676.406         333.008          46.000  
G27  21802943.431   114575248.426        2521.932          45.000    21802935.894    89279378.460        1965.058          44.000  
G16  20656543.773   108550870.216        -276.995          47.000                                                                  
G08  23916844.504   125683864.944        3477.512          37.000    23916844.309    97935488.452        2709.598          38.000  
G09  23835380.476   125255775.012        2366.356          38.000    23835374.964    97601875.080        1843.953          36.000  
G31  21934600.304   115267107.222       -2044.794          46.000    21934590.033    89818475.719       -1593.175          44.000  
C06  36736646.903   191297341.987          34.005          47.000    36736628.848   147923180.920          26.263          49.000  
C32  26593246.297   138477973.452       -3576.786          38.000                                                                  
C37  22869235.223   119086097.354        -550.391          50.000                                                                  
C07  38371715.157   199811583.483         711.836          41.000    38371698.268   154506930.933         550.497          45.000  
C13  41727042.964   217283655.905       -2335.823          37.000    41727074.544   168017639.413       -1806.170          38.000  
C20  24584875.774   128019886.634       -2080.763          45.000                                                                  
G18  25376173.357   133352686.455         976.097          38.000    25376166.615   103911151.467         760.687          40.000  
G28  24104659.778   126670840.020       -2956.258          41.000    24104651.886    98704512.502       -2303.705          42.000  
G03  25619132.972   134629428.907       -3022.602          34.000    25619143.746   104906048.757       -2355.381          37.000  
G26  21723574.828   114158157.453       -2194.358          47.000    21723567.893    88954377.593       -1709.989          45.000  
C10  39433889.994   205342612.431         667.096          38.000    39433878.336   158783885.180         515.729          43.000  
C28  23904168.616   124475279.821        1446.655          47.000                                                                  
C23  25089042.776   130645231.296       -2275.566          43.000                                                                  
C16  37175724.211   193583734.914          33.325          49.000    37175711.868   149691186.399          25.737          49.000  
C27  25429506.353   132418119.344        2778.605          40.000                                                                  
C19  25736494.303   134016666.104         401.405          41.000                                                                  
C09  37810011.035   196886634.581         189.123          45.000    37809995.786   152245187.341         146.210          48.000  
C11                                                                  27081240.630   109044933.564       -1932.338          43.000  
> 2025 10 28 08 25 24.4020000  0 24                     
G04  21678956.156   113923680.221         426.781          45.000    21678946.759    88771663.096         332.518          46.000  
G27  21802924.244   114575147.585        2521.030          45.000    21802916.712    89279299.878        1964.435          44.000  
G16  20656545.902   108550881.307        -277.531          47.000                                                                  
G08  23916818.051   125683725.836        3477.270          37.000    23916817.851    97935380.060        2709.441          38.000  
G09  23835362.464   125255680.353        2366.089          38.000    23835356.956    97601801.331        1843.584          36.000  
G31  21934615.883   115267189.024       -2045.311          46.000    21934605.604    89818539.468       -1593.833          44.000  
C06  36736646.627   191297340.647          33.362          47.000    36736628.595   147923179.886          25.698          49.000  
C32  26593273.788   138478116.533       -3577.359          38.000                                                                  
C37  22869239.463   119086119.385        -550.964          50.000                                                                  
C07  38371709.691   199811555.006         711.490          41.000    38371692.816   154506908.922         550.113          45.000  
C13  41727060.919   217283749.363       -2336.722          37.000    41727092.461   168017711.658       -1806.467          38.000  
C20  24584891.757   128019969.895       -2081.604          45.000                                                                  
G18  25376165.931   133352647.431         975.429          38.000    25376159.191   103911121.064         760.050          40.000  
G28  24104682.291   126670958.283       -2956.826          41.000    24104674.390    98704604.651       -2303.990          42.000  
G03  25619156.008   134629549.891       -3024.305          34.000    25619166.773   104906143.007       -2356.202          37.000  
G26  21723591.549   114158245.256       -2195.147          47.000    21723584.602    88954446.017       -1710.657          45.000  
C10  39433884.903   205342585.763         666.547          38.000    39433873.216   158783864.558         515.314          43.000  
C28  23904157.500   124475221.964        1446.126          47.000                                                                  
C23  25089060.265   130645322.354       -2276.460          43.000                                                                  
C16  37175723.954   193583733.597          32.713          49.000    37175711.584   149691185.386          25.177          49.000  
C27  25429485.024   132418008.235        2777.674          40.000                                                                  
C19  25736491.247   134016650.072         400.725          41.000                                                                  
C09  37810009.594   196886627.038         188.358          45.000    37809994.340   152245181.502         145.767          48.000  
C11                                                                  27081259.820   109045010.862       -1932.733          43.000  
> 2025 10 28 08 25 24.4420000  0 24                     
G04  21678952.878   113923663.113         427.057          45.000    21678943.504    88771649.767         332.734          46.000  
G27  21802905.037   114575046.709        2521.275          45.000    21802897.505    89279221.279        1964.518          44.000  
G16  20656548.006   108550892.379        -277.295          47.000                                                                  
G08  23916791.580   125683586.705        3477.740          37.000    23916791.373    97935271.638        2710.052          38.000  
G09  23835344.465   125255585.682        2366.342          38.000    23835338.944    97601727.566        1843.823          36.000  
G31  21934631.438   115267270.806       -2045.099          46.000    21934621.143    89818603.199       -1593.770          44.000  
C06  36736646.339   191297339.265          33.925          47.000    36736628.365   147923178.830          25.913          49.000  
C32  26593301.291   138478259.588       -3576.984          38.000                                                                  
C37  22869243.676   119086141.394        -550.713          50.000                                                                  
C07  38371704.219   199811526.524         711.586          41.000    38371687.350   154506886.896         550.320          45.000  
C13  41727078.854   217283842.781       -2336.208          37.000    41727110.390   168017783.877       -1805.948          38.000  
C20  24584907.743   128020053.125       -2081.363          45.000                                                                  
G18  25376158.506   133352608.380         975.713          38.000    25376151.743   103911090.641         760.128          40.000  
G28  24104704.793   126671076.519       -2956.450          41.000    24104696.895    98704696.778       -2303.629          42.000  
G03  25619179.025   134629670.780       -3023.321          34.000    25619189.777   104906237.204       -2355.548          36.000  
G26  21723608.259   114158333.032       -2194.929          47.000    21723601.309    88954514.407       -1710.316          45.000  
C10  39433879.758   205342559.058         667.084          38.000    39433868.082   158783843.911         515.704          43.000  
C28  23904146.380   124475164.079        1446.548          47.000                                                                  
C23  25089077.744   130645413.373       -2276.072          43.000                                                                  
C16  37175723.703   193583732.243          33.201          49.000    37175711.288   149691184.338          25.642          49.000  
C27  25429463.684   132417897.082        2778.118          40.000                                                                  
C19  25736488.171   134016634.022         400.824          41.000                                                                  
C09  37810008.139   196886619.456         188.844          45.000    37809992.866   152245175.642         146.074          48.000  
C11                                                                  27081278.986   109045088.131       -1932.267          43.000  
> 2025 10 28 08 25 24.4820000  0 24                     
G04  21678949.608   113923645.992         427.517          45.000    21678940.257    88771636.424         333.143          46.000  
G27  21802885.846   114574945.818        2521.806          45.000    21802878.291    89279142.656        1965.048          44.000  
G16  20656550.088   108550903.443        -276.963          47.000                                                                  
G08  23916765.104   125683447.595        3477.636          37.000    23916764.881    97935163.232        2710.063          38.000  
G09  23835326.434   125255491.012        2366.557          38.000    23835320.931    97601653.786        1844.331          36.000  
G31  21934647.007   115267352.574       -2044.618          46.000    21934636.711    89818666.918       -1593.405          44.000  
C06  36736646.040   191297337.887          34.201          47.000    36736628.113   147923177.762          26.331          49.000  
C32  26593328.774   138478402.626       -3576.413          38.000                                                                  
C37  22869247.903   119086163.393        -550.351          50.000                                                                  
C07  38371698.745   199811498.036         711.849          41.000    38371681.861   154506864.874         550.389          45.000  
C13  41727096.793   217283936.180       -2335.418          37.000    41727128.303   168017856.103       -1805.754          38.000  
C20  24584923.710   128020136.348       -2080.998          45.000                                                                  
G18  25376151.071   133352569.326         976.072          38.000    25376144.306   103911060.222         760.188          40.000  
G28  24104727.282   126671194.764       -2956.331          41.000    24104719.392    98704788.917       -2303.572          42.000  
G03  25619202.052   134629791.653       -3022.306          34.000    25619212.779   104906331.390       -2354.950          36.000  
G26  21723624.941   114158420.803       -2194.677          47.000    21723617.997    88954582.803       -1710.184          45.000  
C10  39433874.615   205342532.358         667.328          38.000    39433862.961   158783823.278         515.710          43.000  
C28  23904135.275   124475106.196        1446.837          47.000                                                                  
C23  25089095.204   130645504.375       -2275.497          43.000                                                                  
C16  37175723.432   193583730.893          33.473          49.000    37175711.013   149691183.288          25.968          49.000  
C27  25429442.322   132417785.919        2778.661          40.000                                                                  
C19  25736485.100   134016617.954         401.230          41.000                                                                  
C09  37810006.666   196886611.868         189.302          45.000    37809991.410   152245169.777         146.361          48.000  
C11                                                                  27081298.166   109045165.404       -1932.025          43.000  
> 2025 10 28 08 25 24.5220000  0 24                     
G04  21678946.340   113923628.877         427.744          45.000    21678936.983    88771623.095         333.155          46.000  
G27  21802866.635   114574844.938        2521.938          45.000    21802859.094    89279064.059        1964.913          44.000  
G16  20656552.158   108550914.505        -276.673          47.000                                                                  
G08  23916738.621   125683308.493        3477.546          37.000    23916738.398    97935054.825        2710.170          38.000  
G09  23835308.427   125255396.341        2366.694          38.000    23835302.907    97601580.020        1844.303          36.000  
G31  21934662.580   115267434.353       -2044.506          46.000    21934652.244    89818730.629       -1592.970          44.000  
C06  36736645.758   191297336.516          34.272          47.000    36736627.831   147923176.693          26.607          49.000  
C32  26593356.256   138478545.687       -3576.498          38.000                                                                  
C37  22869252.150   119086185.402        -550.262          50.000                                                                  
C07  38371693.243   199811469.548         712.075          41.000    38371676.364   154506842.846         550.589          45.000  
C13  41727114.720   217284029.545       -2334.382          37.000    41727146.235   168017928.328       -1805.637          38.000  
C20  24584939.686   128020219.563       -2080.593          46.000                                                                  
G18  25376143.642   133352530.280         976.075          38.000    25376136.879   103911029.778         760.747          40.000  
G28  24104749.773   126671313.004       -2956.115          41.000    24104741.893    98704881.059       -2303.596          42.000  
G03  25619225.053   134629912.565       -3022.449          34.000    25619235.789   104906425.615       -2355.334          36.000  
G26  21723641.645   114158508.576       -2194.496          47.000    21723634.688    88954651.194       -1709.943          45.000  
C10  39433869.484   205342505.660         667.450          38.000    39433857.864   158783802.628         516.107          43.000  
C28  23904124.175   124475048.316        1446.950          47.000                                                                  
C23  25089112.685   130645595.387       -2275.330          43.000                                                                  
C16  37175723.179   193583729.543          33.686          49.000    37175710.757   149691182.247          26.015          49.000  
C27  25429420.974   132417674.754        2779.004          40.000                                                                  
C19  25736482.013   134016601.881         401.592          41.000                                                                  
C09  37810005.234   196886604.277         189.646          45.000    37809989.950   152245163.919         146.432          48.000  
C11                                                                  27081317.342   109045242.683       -1931.976          43.000  
> 2025 10 28 08 25 24.5620000  0 24                     
G04  21678943.068   113923611.748         428.125          45.000    21678933.698    88771609.745         333.566          46.000  
G27  21802847.396   114574744.037        2522.350          45.000    21802839.881    89278985.434        1965.382          44.000  
G16  20656554.232   108550925.548        -276.135          47.000                                                                  
G08  23916712.144   125683169.329        3478.674          37.000    23916711.911    97934946.411        2710.401          38.000  
G09  23835290.416   125255301.647        2367.178          38.000    23835284.868    97601506.213        1844.992          36.000  
G31  21934678.143   115267516.109       -2044.027          46.000    21934667.798    89818794.333       -1592.589          44.000  
C06  36736645.488   191297335.124          34.679          47.000    36736627.572   147923175.609          27.031          49.000  
C32  26593383.723   138478688.706       -3575.724          38.000                                                                  
C37  22869256.382   119086207.384        -549.725          50.000                                                                  
C07  38371687.791   199811441.040         712.635          41.000    38371670.910   154506820.793         551.158          45.000  
C13  41727132.671   217284122.950       -2334.590          37.000    41727164.167   168018000.539       -1805.295          38.000  
C20  24584955.696   128020302.762       -2080.048          46.000                                                                  
G18  25376136.212   133352491.205         976.615          38.000    25376129.442   103910999.324         761.212          40.000  
G28  24104772.252   126671431.200       -2955.147          41.000    24104764.375    98704973.165       -2302.850          42.000  
G03  25619248.076   134630033.440       -3021.891          34.000    25619258.783   104906519.804       -2354.824          36.000  
G26  21723658.320   114158596.328       -2193.984          47.000    21723651.389    88954719.572       -1709.546          45.000  
C10  39433864.341   205342478.952         667.657          38.000    39433852.736   158783781.970         516.425          43.000  
C28  23904113.051   124474990.409        1447.546          47.000                                                                  
C23  25089130.165   130645686.375       -2274.819          43.000                                                                  
C16  37175722.914   193583728.172          34.184          49.000    37175710.471   149691181.187          26.365          49.000  
C27  25429399.642   132417563.561        2779.677          40.000                                                                  
C19  25736478.934   134016585.802         401.931          41.000                                                                  
C09  37810003.788   196886596.668         190.191          45.000    37809988.514   152245158.037         146.897          48.000  
C11                                                                  27081336.527   109045319.942       -1931.601          43.000  
> 2025 10 28 08 25 24.6020000  0 24                     
G04  21678939.772   113923594.591         428.794          45.000    21678930.421    88771596.380         334.053          46.000  
G27  21802828.182   114574643.120        2522.873          45.000    21802820.686    89278906.780        1966.162          44.000  
G16  20656556.314   108550936.570        -275.533          47.000                                                                  
G08  23916685.680   125683030.158        3479.357          37.000    23916685.410    97934837.967        2710.963          38.000  
G09  23835272.391   125255206.930        2367.865          38.000    23835266.844    97601432.415        1845.141          36.000  
G31  21934693.697   115267597.845       -2043.439          46.000    21934683.340    89818858.023       -1592.207          44.000  
C06  36736645.180   191297333.705          35.348          47.000    36736627.332   147923174.516          27.375          49.000  
C32  26593411.181   138478831.707       -3575.010          38.000                                                                  
C37  22869260.640   119086229.343        -549.063          50.000                                                                  
C07  38371682.310   199811412.505         713.361          41.000    38371665.415   154506798.723         551.738          45.000  
C13  41727150.607   217284216.313       -2334.072          37.000    41727182.094   168018072.730       -1804.814          38.000  
C20  24584971.673   128020385.939       -2079.480          46.000                                                                  
G18  25376128.764   133352452.092         977.566          38.000    25376122.021   103910968.862         761.546          40.000  
G28  24104794.753   126671549.404       -2954.881          41.000    24104786.855    98705065.262       -2302.360          42.000  
G03  25619271.089   134630154.301       -3021.500          34.000    25619281.786   104906613.965       -2354.098          36.000  
G26  21723675.007   114158684.048       -2193.171          47.000    21723668.087    88954787.928       -1708.983          45.000  
C10  39433859.202   205342452.217         668.262          38.000    39433847.601   158783761.293         516.931          43.000  
C28  23904101.942   124474932.485        1448.107          47.000                                                                  
C23  25089147.662   130645777.347       -2274.313          43.000                                                                  
C16  37175722.655   193583726.777          34.851          49.000    37175710.196   149691180.107          26.908          49.000  
C27  25429378.281   132417452.370        2779.939          40.000                                                                  
C19  25736475.862   134016569.699         402.492          41.000                                                                  
C09  37810002.333   196886589.037         190.803          45.000    37809987.025   152245152.136         147.449          48.000  
C11                                                                  27081355.709   109045397.179       -1931.035          43.000  
> 2025 10 28 08 25 24.6420000  0 24                     
G04  21678936.501   113923577.429         429.178          45.000    21678927.134    88771582.998         334.539          46.000  
G27  21802808.963   114574542.179        2523.495          45.000    21802801.469    89278828.131        1966.398          44.000  
G16  20656558.426   108550947.597        -275.426          47.000                                                                  
G08  23916659.226   125682890.991        3479.535          37.000    23916658.927    97934729.522        2711.262          38.000  
G09  23835254.369   125255112.214        2368.087          38.000    23835248.824    97601358.601        1845.409          36.000  
G31  21934709.250   115267679.564       -2042.943          46.000    21934698.904    89818921.709       -1591.992          44.000  
C06  36736644.917   191297332.286          35.647          47.000    36736627.066   147923173.420          27.522          49.000  
C32  26593438.657   138478974.724       -3575.100          38.000                                                                  
C37  22869264.880   119086251.295        -548.647          50.000                                                                  
C07  38371676.819   199811383.959         713.844          41.000    38371659.930   154506776.653         551.997          45.000  
C13  41727168.522   217284309.668       -2333.750          37.000    41727200.025   168018144.922       -1804.653          38.000  
C20  24584987.630   128020469.117       -2079.263          46.000                                                                  
G18  25376121.314   133352412.993         977.686          38.000    25376114.602   103910938.402         761.623          40.000  
G28  24104817.242   126671667.598       -2954.656          41.000    24104809.344    98705157.358       -2302.216          42.000  
G03  25619294.094   134630275.131       -3020.804          34.000    25619304.790   104906708.145       -2354.148          36.000  
G26  21723691.703   114158771.772       -2192.877          47.000    21723684.753    88954856.276       -1708.587          45.000  
C10  39433854.054   205342425.460         668.933          38.000    39433842.484   158783740.600         517.413          43.000  
C28  23904090.813   124474874.556        1448.405          47.000                                                                  
C23  25089165.164   130645868.313       -2273.977          43.000                                                                  
C16  37175722.361   193583725.375          35.207          49.000    37175709.892   149691179.024          27.159          49.000  
C27  25429356.910   132417341.179        2780.017          40.000                                                                  
C19  25736472.767   134016553.579         403.027          41.000                                                                  
C09  37810000.850   196886581.403         191.096          45.000    37809985.557   152245146.229         147.792          48.000  
C11                                                                  27081374.927   109045474.415       -1930.755          43.000  
> 2025 10 28 08 25 24.6820000  0 24                     
G04  21678933.232   113923560.287         428.940          45.000    21678923.888    88771569.639         334.313          46.000  
G27  21802789.757   114574441.264        2523.297          45.000    21802782.262    89278749.503        1966.056          44.000  
G16  20656560.536   108550958.632        -275.662          47.000                                                                  
G08  23916632.751   125682751.835        3479.215          37.000    23916632.461    97934621.107        2710.727          38.000  
G09  23835236.354   125255017.515        2367.756          38.000    23835230.801    97601284.822        1844.749          36.000  
G31  21934724.807   115267761.301       -2043.097          46.000    21934714.478    89818985.401       -1592.067          44.000  
C06  36736644.618   191297330.878          35.475          47.000    36736626.804   147923172.332          27.394          49.000  
C32  26593466.121   138479117.749       -3575.436          38.000                                                                  
C37  22869269.080   119086273.269        -548.976          50.000                                                                  
C07  38371671.313   199811355.438         713.482          41.000    38371654.447   154506754.601         551.653          45.000  
C13  41727186.439   217284403.037       -2333.899          37.000    41727217.985   168018217.129       -1804.919          38.000  
C20  24585003.607   128020552.310       -2079.482          46.000                                                                  
G18  25376113.872   133352373.912         977.363          38.000    25376107.158   103910907.953         761.415          40.000  
G28  24104839.717   126671785.806       -2954.937          41.000    24104831.833    98705249.464       -2302.434          42.000  
G03  25619317.086   134630395.997       -3021.270          34.000    25619327.810   104906802.341       -2354.659          36.000  
G26  21723708.399   114158859.510       -2193.114          47.000    21723701.441    88954924.645       -1708.820          45.000  
C10  39433848.917   205342398.736         668.561          38.000    39433837.346   158783719.935         517.017          43.000  
C28  23904079.667   124474816.647        1448.005          47.000                                                                  
C23  25089182.622   130645959.296       -2274.222          43.000                                                                  
C16  37175722.059   193583723.991          34.963          49.000    37175709.636   149691177.957          26.931          49.000  
C27  25429335.572   132417229.992        2779.889          40.000                                                                  
C19  25736469.681   134016537.505         402.364          41.000                                                                  
C09  37809999.401   196886573.789         190.744          45.000    37809984.101   152245140.339         147.564          48.000  
C11                                                                  27081394.112   109045551.664       -1930.980          43.000  
> 2025 10 28 08 25 24.7220000  0 24                     
G04  21678929.998   113923543.190         427.938          45.000    21678920.645    88771556.315         333.490          46.000  
G27  21802770.545   114574340.399        2522.212          45.000    21802763.065    89278670.908        1965.246          44.000  
G16  20656562.647   108550969.717        -276.707          47.000                                                                  
G08  23916606.297   125682612.704        3478.560          37.000    23916605.995    97934512.702        2710.312          38.000  
G09  23835218.338   125254922.836        2367.196          38.000    23835212.778    97601211.079        1843.851          36.000  
G31  21934740.372   115267843.092       -2044.222          46.000    21934730.022    89819049.127       -1592.781          44.000  
C06  36736644.341   191297329.506          34.704          47.000    36736626.551   147923171.280          26.649          49.000  
C32  26593493.606   138479260.813       -3576.379          38.000                                                                  
C37  22869273.305   119086295.278        -549.873          50.000                                                                  
C07  38371665.856   199811326.959         712.424          41.000    38371649.008   154506732.585         550.750          45.000  
C13  41727204.388   217284496.461       -2335.134          37.000    41727235.914   168018289.367       -1805.665          38.000  
C20  24585019.569   128020635.546       -2080.442          46.000                                                                  
G18  25376106.459   133352334.875         976.349          38.000    25376099.744   103910877.533         760.747          40.000  
G28  24104862.215   126671904.036       -2955.542          41.000    24104854.338    98705341.598       -2303.107          42.000  
G03  25619340.097   134630516.914       -3022.435          34.000    25619350.832   104906896.546       -2355.083          36.000  
G26  21723725.115   114158947.292       -2194.062          47.000    21723718.120    88954993.045       -1709.593          45.000  
C10  39433843.796   205342372.043         667.664          38.000    39433832.191   158783699.301         516.156          43.000  
C28  23904068.531   124474758.773        1447.165          47.000                                                                  
C23  25089200.121   130646050.312       -2274.965          44.000                                                                  
C16  37175721.808   193583722.655          33.891          49.000    37175709.350   149691176.920          26.228          49.000  
C27  25429314.229   132417118.852        2778.945          40.000                                                                  
C19  25736466.615   134016521.457         401.486          41.000                                                                  
C09  37809997.976   196886566.229         189.510          45.000    37809982.662   152245134.480         146.809          48.000  
C11                                                                  27081413.305   109045628.944       -1931.727          43.000  
> 2025 10 28 08 25 24.7620000  0 24                     
G04  21678926.777   113923526.081         427.626          45.000    21678917.389    88771542.993         333.019          46.000  
G27  21802751.366   114574239.515        2521.967          45.000    21802743.869    89278592.291        1965.204          44.000  
G16  20656564.731   108550980.772        -276.651          47.000                                                                  
G08  23916579.829   125682473.564        3478.453          37.000    23916579.508    97934404.280        2710.397          38.000  
G09  23835200.340   125254828.166        2366.733          38.000    23835194.767    97601137.314        1843.841          36.000  
G31  21934755.943   115267924.864       -2044.440          46.000    21934745.573    89819112.842       -1592.950          44.000  
C06  36736644.039   191297328.121          34.517          47.000    36736626.305   147923170.209          26.612          49.000  
C32  26593521.080   138479403.837       -3575.996          38.000                                                                  
C37  22869277.533   119086317.277        -550.108          50.000                                                                  
C07  38371660.374   199811298.458         712.316          41.000    38371643.529   154506710.544         550.775          45.000  
C13  41727222.321   217284589.859       -2335.206          37.000    41727253.844   168018361.574       -1805.531          38.000  
C20  24585035.548   128020718.767       -2080.647          46.000                                                                  
G18  25376099.011   133352295.833         975.978          38.000    25376092.307   103910847.079         761.066          40.000  
G28  24104884.683   126672022.267       -2955.816          41.000    24104876.841    98705433.727       -2303.301          42.000  
G03  25619363.103   134630637.825       -3022.855          34.000    25619373.846   104906990.741       -2355.070          36.000  
G26  21723741.841   114159035.058       -2194.305          47.000    21723734.840    88955061.441       -1709.935          45.000  
C10  39433838.667   205342345.334         667.572          38.000    39433827.071   158783678.651         516.077          43.000  
C28  23904057.405   124474700.880        1447.133          47.000                                                                  
C23  25089217.587   130646141.321       -2275.232          44.000                                                                  
C16  37175721.574   193583721.297          33.751          49.000    37175709.067   149691175.871          26.088          49.000  
C27  25429292.882   132417007.691        2778.859          40.000                                                                  
C19  25736463.516   134016505.380         401.596          41.000                                                                  
C09  37809996.509   196886558.639         189.441          45.000    37809981.209   152245128.612         146.596          48.000  
C11                                                                  27081432.506   109045706.219       -1931.970          43.000  
> 2025 10 28 08 25 24.8020000  0 24                     
G04  21678923.517   113923508.945         428.025          45.000    21678914.131    88771529.641         333.373          46.000  
G27  21802732.175   114574138.600        2522.464          45.000    21802724.638    89278513.657        1965.522          44.000  
G16  20656566.811   108550991.805        -276.130          47.000                                                                  
G08  23916553.338   125682334.426        3478.426          37.000    23916553.024    97934295.838        2710.839          38.000  
G09  23835182.336   125254733.450        2367.461          38.000    23835176.732    97601063.479        1845.195          36.000  
G31  21934771.490   115268006.608       -2043.992          46.000    21934761.110    89819176.545       -1592.764          44.000  
C06  36736643.762   191297326.708          34.995          47.000    36736626.052   147923169.113          27.063          49.000  
C32  26593548.524   138479546.827       -3575.153          38.000                                                                  
C37  22869281.774   119086339.246        -549.608          50.000                                                                  
C07  38371654.880   199811269.932         712.782          41.000    38371638.079   154506688.482         551.226          45.000  
C13  41727240.221   217284683.217       -2334.487          37.000    41727271.788   168018433.778       -1805.299          38.000  
C20  24585051.532   128020801.952       -2080.096          46.000                                                                  
G18  25376091.569   133352256.733         976.853          38.000    25376084.853   103910816.625         761.278          40.000  
G28  24104907.164   126672140.474       -2955.450          41.000    24104899.325    98705525.840       -2303.034          42.000  
G03  25619386.108   134630758.665       -3021.761          34.000    25619396.832   104907084.924       -2354.791          37.000  
G26  21723758.534   114159122.788       -2193.711          47.000    21723751.530    88955129.806       -1709.529          45.000  
C10  39433833.542   205342318.610         667.871          38.000    39433821.965   158783657.985         516.370          43.000  
C28  23904046.293   124474642.964        1447.629          47.000                                                                  
C23  25089235.056   130646232.305       -2274.948          44.000                                                                  
C16  37175721.317   193583719.909          34.303          49.000    37175708.790   149691174.795          26.551          49.000  
C27  25429271.534   132416896.482        2779.775          40.000                                                                  
C19  25736460.422   134016489.292         401.936          41.000                                                                  
C09  37809995.038   196886551.011         190.204          45.000    37809979.734   152245122.720         146.978          48.000  
C11                                                                  27081451.701   109045783.466       -1931.500          43.000  
> 2025 10 28 08 25 24.8420000  0 24                     
G04  21678920.231   113923491.791         428.556          45.000    21678910.871    88771516.265         334.050          46.000  
G27  21802712.947   114574037.677        2522.927          45.000    21802705.438    89278435.021        1965.761          44.000  
G16  20656568.910   108551002.829        -275.706          47.000                                                                  
G08  23916526.852   125682195.247        3479.181          37.000    23916526.537    97934187.392        2711.078          38.000  
G09  23835164.292   125254638.746        2367.658          38.000    23835158.720    97600989.664        1845.556          36.000  
G31  21934787.042   115268088.337       -2043.451          46.000    21934776.674    89819240.229       -1592.312          44.000  
C06  36736643.489   191297325.290          35.321          47.000    36736625.784   147923168.010          27.432          49.000  
C32  26593575.982   138479689.833       -3575.023          38.000                                                                  
C37  22869285.999   119086361.203        -549.124          50.000                                                                  
C07  38371649.396   199811241.396         713.204          41.000    38371632.638   154506666.422         551.450          45.000  
C13  41727258.137   217284776.578       -2334.142          37.000    41727289.699   168018505.970       -1804.932          38.000  
C20  24585067.505   128020885.133       -2079.669          46.000                                                                  
G18  25376084.130   133352217.638         977.239          38.000    25376077.418   103910786.168         761.408          40.000  
G28  24104929.638   126672258.675       -2955.130          41.000    24104921.820    98705617.930       -2302.443          42.000  
G03  25619409.097   134630879.537       -3021.700          34.000    25619419.816   104907179.089       -2354.329          37.000  
G26  21723775.230   114159210.510       -2193.259          47.000    21723768.217    88955198.169       -1709.256          45.000  
C10  39433828.391   205342291.871         668.292          38.000    39433816.831   158783637.304         516.833          43.000  
C28  23904035.207   124474585.037        1448.037          47.000                                                                  
C23  25089252.537   130646323.275       -2274.480          44.000                                                                  
C16  37175721.030   193583718.515          34.735          49.000    37175708.508   149691173.720          26.807          49.000  
C27  25429250.186   132416785.277        2780.176          40.000                                                                  
C19  25736457.326   134016473.183         402.448          41.000                                                                  
C09  37809993.574   196886543.375         190.788          45.000    37809978.291   152245116.823         147.297          48.000  
C11                                                                  27081470.889   109045860.719       -1931.340          43.000  
> 2025 10 28 08 25 24.8820000  0 24                     
G04  21678916.937   113923474.631         428.963          45.000    21678907.630    88771502.900         334.196          46.000  
G27  21802693.737   114573936.771        2522.823          45.000    21802686.225    89278356.389        1965.798          44.000  
G16  20656571.008   108551013.858        -275.650          47.000                                                                  
G08  23916500.364   125682056.094        3479.038          37.000    23916500.070    97934078.950        2711.118          38.000  
G09  23835146.290   125254544.047        2367.580          38.000    23835140.718    97600915.873        1845.182          36.000  
G31  21934802.586   115268170.072       -2043.297          46.000    21934792.232    89819303.926       -1592.291          44.000  
C06  36736643.232   191297323.871          35.507          47.000    36736625.529   147923166.917          27.444          49.000  
C32  26593603.460   138479832.852       -3575.352          38.000                                                                  
C37  22869290.200   119086383.166        -549.006          50.000                                                                  
C07  38371643.923   199811212.865         713.317          41.000    38371627.146   154506644.357         551.629          45.000  
C13  41727276.071   217284869.946       -2334.121          37.000    41727307.620   168018578.161       -1804.799          38.000  
C20  24585083.507   128020968.312       -2079.399          46.000                                                                  
G18  25376076.689   133352178.547         977.383          38.000    25376069.979   103910755.710         761.473          40.000  
G28  24104952.121   126672376.867       -2954.848          41.000    24104944.330    98705710.040       -2302.549          42.000  
G03  25619432.099   134631000.381       -3021.204          34.000    25619442.793   104907273.258       -2354.310          37.000  
G26  21723791.932   114159298.237       -2193.093          47.000    21723784.905    88955266.518       -1708.847          45.000  
C10  39433823.254   205342265.121         668.689          38.000    39433811.695   158783616.626         517.035          43.000  
C28  23904024.077   124474527.121        1448.033          47.000                                                                  
C23  25089270.031   130646414.245       -2274.235          44.000                                                                  
C16  37175720.768   193583717.121          34.896          49.000    37175708.214   149691172.639          27.006          49.000  
C27  25429228.833   132416674.080        2780.127          40.000                                                                  
C19  25736454.223   134016457.089         402.475          41.000                                                                  
C09  37809992.114   196886535.754         190.726          45.000    37809976.830   152245110.930         147.333          48.000  
C11                                                                  27081490.077   109045937.965       -1931.168          43.000  
> 2025 10 28 08 25 24.9220000  0 24                     
G04  21678913.660   113923457.496         428.682          45.000    21678904.376    88771489.550         333.967          46.000  
G27  21802674.533   114573835.864        2522.740          45.000    21802667.022    89278277.758        1965.807          44.000  
G16  20656573.108   108551024.898        -275.818          47.000                                                                  
G08  23916473.889   125681916.945        3478.831          37.000    23916473.600    97933970.532        2710.650          38.000  
G09  23835128.277   125254449.339        2367.672          38.000    23835122.709    97600842.103        1844.489          36.000  
G31  21934818.119   115268251.817       -2043.464          46.000    21934807.784    89819367.622       -1592.335          44.000  
C06  36736642.951   191297322.462          35.398          47.000    36736625.252   147923165.830          27.314          49.000  
C32  26593630.945   138479975.887       -3575.778          38.000                                                                  
C37  22869294.387   119086405.136        -549.098          50.000                                                                  
C07  38371638.467   199811184.337         713.298          41.000    38371621.654   154506622.301         551.542          45.000  
C13  41727294.033   217284963.304       -2333.943          37.000    41727325.540   168018650.357       -1804.858          38.000  
C20  24585099.460   128021051.517       -2079.797          46.000                                                                  
G18  25376069.240   133352139.468         977.134          38.000    25376062.532   103910725.252         761.478          40.000  
G28  24104974.603   126672495.060       -2954.770          41.000    24104966.817    98705802.148       -2302.643          42.000  
G03  25619455.093   134631121.220       -3020.869          34.000    25619465.791   104907367.439       -2354.511          37.000  
G26  21723808.613   114159385.980       -2193.353          47.000    21723801.609    88955334.878       -1708.866          45.000  
C10  39433818.123   205342238.379         668.659          38.000    39433806.552   158783595.954         516.943          43.000  
C28  23904012.930   124474469.206        1447.975          47.000                                                                  
C23  25089287.499   130646505.224       -2274.330          44.000                                                                  
C16  37175720.482   193583715.737          34.780          49.000    37175707.928   149691171.574          26.805          49.000  
C27  25429207.482   132416562.911        2779.526          40.000                                                                  
C19  25736451.116   134016441.003         402.293          41.000                                                                  
C09  37809990.656   196886528.132         190.667          45.000    37809975.338   152245105.037         147.349          48.000  
C11                                                                  27081509.263   109046015.208       -1931.040          43.000  
> 2025 10 28 08 25 24.9620000  0 24                     
G04  21678910.397   113923440.385         428.039          45.000    21678901.116    88771476.209         333.659          46.000  
G27  21802655.312   114573734.955        2522.704          45.000    21802647.801    89278199.139        1965.583          44.000  
G16  20656575.233   108551035.949        -276.177          47.000                                                                  
G08  23916447.424   125681777.791        3478.901          37.000    23916447.131    97933862.116        2710.379          38.000  
G09  23835110.238   125254354.637        2367.595          38.000    23835104.680    97600768.336        1844.024          36.000  
G31  21934833.685   115268333.572       -2043.738          46.000    21934823.355    89819431.320       -1592.428          44.000  
C06  36736642.666   191297321.065          35.067          47.000    36736624.970   147923164.749          27.100          49.000  
C32  26593658.411   138480118.896       -3575.458          38.000                                                                  
C37  22869298.579   119086427.118        -549.402          50.000                                                                  
C07  38371632.997   199811155.823         712.991          41.000    38371616.181   154506600.254         551.287          45.000  
C13  41727311.957   217285056.680       -2334.206          37.000    41727343.477   168018722.562       -1805.045          38.000  
C20  24585115.438   128021134.719       -2080.010          46.000                                                                  
G18  25376061.798   133352100.399         976.791          38.000    25376055.105   103910694.808         761.208          40.000  
G28  24104997.105   126672613.272       -2955.141          41.000    24104989.325    98705894.255       -2302.680          42.000  
G03  25619478.088   134631242.109       -3021.701          34.000    25619488.810   104907461.627       -2354.695          37.000  
G26  21723825.337   114159473.729       -2193.615          47.000    21723818.309    88955403.255       -1709.222          45.000  
C10  39433812.969   205342211.656         668.256          38.000    39433801.438   158783575.297         516.553          43.000  
C28  23904001.787   124474411.306        1447.638          47.000                                                                  
C23  25089304.944   130646596.207       -2274.489          44.000                                                                  
C16  37175720.198   193583714.362          34.501          49.000    37175707.663   149691170.513          26.589          49.000  
C27  25429186.124   132416451.728        2779.504          40.000                                                                  
C19  25736448.008   134016424.922         402.106          41.000                                                                  
C09  37809989.178   196886520.521         190.380          45.000    37809973.883   152245099.152         147.199          48.000  
C11                                                                  27081528.458   109046092.469       -1931.349          43.000  
> 2025 10 28 08 25 25.0020000  0 24                     
G04  21678907.159   113923423.267         427.824          45.000    21678897.872    88771462.874         333.390          46.000  
G27  21802636.110   114573634.057        2522.499          45.000    21802628.619    89278120.524        1965.367          44.000  
G16  20656577.356   108551047.000        -276.323          47.000                                                                  
G08  23916420.959   125681638.646        3478.726          37.000    23916420.627    97933753.683        2710.562          38.000  
G09  23835092.243   125254259.948        2367.341          38.000    23835086.665    97600694.528        1844.691          36.000  
G31  21934849.249   115268415.329       -2043.915          46.000    21934838.929    89819495.036       -1592.794          44.000  
C06  36736642.414   191297319.670          34.876          47.000    36736624.676   147923163.668          26.985          49.000  
C32  26593685.883   138480261.923       -3575.609          38.000                                                                  
C37  22869302.821   119086449.102        -549.602          50.000                                                                  
C07  38371627.530   199811127.308         712.841          41.000    38371610.714   154506578.205         551.187          45.000  
C13  41727329.891   217285150.063       -2334.549          37.000    41727361.401   168018794.772       -1805.250          38.000  
C20  24585131.417   128021217.924       -2080.161          46.000                                                                  
G18  25376054.349   133352061.327         976.639          38.000    25376047.675   103910664.374         760.873          40.000  
G28  24105019.599   126672731.496       -2955.529          41.000    24105011.827    98705986.377       -2302.970          42.000  
G03  25619501.073   134631362.992       -3021.905          34.000    25619511.826   104907555.823       -2354.962          37.000  
G26  21723842.045   114159561.483       -2193.859          47.000    21723835.008    88955471.635       -1709.462          45.000  
C10  39433807.835   205342184.947         667.804          38.000    39433796.313   158783554.641         516.376          43.000  
C28  23903990.658   124474353.414        1447.317          47.000                                                                  
C23  25089322.387   130646687.199       -2274.729          44.000                                                                  
C16  37175719.913   193583712.987          34.362          49.000    37175707.396   149691169.452          26.510          49.000  
C27  25429164.762   132416340.552        2779.368          40.000                                                                  
C19  25736444.939   134016408.855         401.721          41.000                                                                  
C09  37809987.703   196886512.915         190.127          45.000    37809972.432   152245093.269         147.066          48.000  
C11                                                                  27081547.678   109046169.732       -1931.571          43.000  
> 2025 10 28 08 25 25.0420000  0 24                     
G04  21678903.919   113923406.138         427.981          45.000    21678894.604    88771449.526         333.510          46.000  
G27  21802616.917   114573533.168        2522.271          45.000    21802609.421    89278041.902        1965.389          44.000  
G16  20656579.460   108551058.055        -276.445          47.000                                                                  
G08  23916394.498   125681499.499        3478.766          37.000    23916394.134    97933645.249        2710.712          38.000  
G09  23835074.205   125254165.262        2367.150          38.000    23835068.648    97600620.736        1844.751          36.000  
G31  21934864.817   115268497.084       -2043.972          46.000    21934854.494    89819558.743       -1592.821          44.000  
C06  36736642.137   191297318.279          34.714          47.000    36736624.432   147923162.587          26.922          49.000  
C32  26593713.354   138480404.939       -3575.456          38.000                                                                  
C37  22869307.069   119086471.081        -549.596          50.000                                                                  
C07  38371622.042   199811098.804         712.599          41.000    38371605.227   154506556.162         551.024          45.000  
C13  41727347.820   217285243.435       -2334.477          37.000    41727379.340   168018866.982       -1805.360          38.000  
C20  24585147.398   128021301.131       -2080.230          46.000                                                                  
G18  25376046.911   133352022.269         976.391          39.000    25376040.244   103910633.921         761.089          40.000  
G28  24105042.091   126672849.724       -2955.773          41.000    24105034.322    98706078.499       -2303.104          42.000  
G03  25619524.086   134631483.896       -3022.424          34.000    25619534.833   104907649.994       -2354.520          37.000  
G26  21723858.749   114159649.234       -2193.879          47.000    21723851.704    88955540.023       -1709.732          45.000  
C10  39433802.679   205342158.239         667.560          38.000    39433791.165   158783533.970         516.608          43.000  
C28  23903979.532   124474295.513        1447.371          47.000                                                                  
C23  25089339.841   130646778.196       -2274.932          44.000                                                                  
C16  37175719.640   193583711.616          34.218          49.000    37175707.108   149691168.390          26.468          49.000  
C27  25429143.422   132416229.371        2779.407          40.000                                                                  
C19  25736441.874   134016392.769         401.927          41.000                                                                  
C09  37809986.263   196886505.311         190.008          45.000    37809970.957   152245087.384         147.049          48.000  
C11                                                                  27081566.872   109046247.006       -1931.872          43.000  
> 2025 10 28 08 25 25.0820000  0 24                     
G04  21678900.660   113923389.043         427.418          45.000    21678891.339    88771436.205         333.065          46.000  
G27  21802597.719   114573432.302        2521.694          45.000    21802590.229    89277963.302        1965.003          44.000  
G16  20656581.558   108551069.137        -277.052          47.000                                                                  
G08  23916368.030   125681360.378        3478.161          37.000    23916367.665    97933536.851        2710.076          38.000  
G09  23835056.171   125254070.605        2366.448          38.000    23835050.651    97600546.966        1844.327          36.000  
G31  21934880.392   115268578.867       -2044.551          46.000    21934870.053    89819622.463       -1593.060          44.000  
C06  36736641.888   191297316.895          34.481          47.000    36736624.190   147923161.525          26.541          49.000  
C32  26593740.806   138480547.993       -3576.156          38.000                                                                  
C37  22869311.276   119086493.091        -550.197          50.000                                                                  
C07  38371616.570   199811070.317         712.160          41.000    38371599.765   154506534.135         550.654          45.000  
C13  41727365.756   217285336.852       -2335.323          37.000    41727397.256   168018939.212       -1805.750          38.000  
C20  24585163.394   128021384.371       -2080.876          46.000                                                                  
G18  25376039.475   133351983.222         976.090          39.000    25376032.817   103910603.481         760.944          40.000  
G28  24105064.600   126672967.978       -2956.425          41.000    24105056.824    98706170.637       -2303.479          42.000  
G03  25619547.087   134631604.798       -3022.725          34.000    25619557.844   104907744.197       -2354.928          37.000  
G26  21723875.458   114159737.008       -2194.354          47.000    21723868.408    88955608.420       -1710.044          45.000  
C10  39433797.551   205342131.545         667.181          38.000    39433786.009   158783513.331         516.119          43.000  
C28  23903968.419   124474237.645        1446.761          47.000                                                                  
C23  25089357.299   130646869.219       -2275.538          44.000                                                                  
C16  37175719.349   193583710.271          33.669          49.000    37175706.834   149691167.339          26.234          49.000  
C27  25429122.083   132416118.230        2778.656          40.000                                                                  
C19  25736438.807   134016376.702         401.688          41.000                                                                  
C09  37809984.789   196886497.729         189.531          45.000    37809969.502   152245081.515         146.736          48.000  
C11                                                                  27081586.063   109046324.282       -1932.055          43.000  
> 2025 10 28 08 25 25.1220000  0 24                     
G04  21678897.380   113923371.997         426.304          45.000    21678888.125    88771422.918         332.316          46.000  
G27  21802578.527   114573331.491        2520.492          45.000    21802571.025    89277884.735        1964.291          44.000  
G16  20656583.673   108551080.256        -277.953          47.000                                                                  
G08  23916341.549   125681221.320        3476.830          37.000    23916341.194    97933428.480        2709.315          38.000  
G09  23835038.159   125253975.985        2365.478          38.000    23835032.663    97600473.239        1843.334          36.000  
G31  21934895.953   115268660.704       -2045.726          46.000    21934885.639    89819686.231       -1594.016          44.000  
C06  36736641.636   191297315.573          33.322          47.000    36736623.924   147923160.507          25.609          49.000  
C32  26593768.283   138480691.089       -3577.208          38.000                                                                  
C37  22869315.497   119086515.153        -551.379          50.000                                                                  
C07  38371611.097   199811041.890         710.897          41.000    38371594.305   154506512.140         549.952          45.000  
C13  41727383.690   217285430.293       -2336.137          37.000    41727415.199   168019011.485       -1806.697          38.000  
C20  24585179.394   128021467.659       -2082.016          46.000                                                                  
G18  25376032.067   133351944.244         974.730          38.000    25376025.402   103910573.131         759.280          40.000  
G28  24105087.122   126673086.264       -2957.241          41.000    24105079.342    98706262.820       -2304.444          42.000  
G03  25619570.116   134631725.737       -3023.491          34.000    25619580.873   104907838.456       -2356.148          37.000  
G26  21723892.179   114159824.838       -2195.543          47.000    21723885.109    88955676.857       -1710.847          45.000  
C10  39433792.452   205342104.889         666.364          38.000    39433780.890   158783492.726         515.253          43.000  
C28  23903957.300   124474179.829        1445.529          47.000                                                                  
C23  25089374.805   130646960.286       -2276.592          44.000                                                                  
C16  37175719.090   193583708.968          32.686          49.000    37175706.576   149691166.337          25.252          49.000  
C27  25429100.742   132416007.112        2777.908          40.000                                                                  
C19  25736435.735   134016360.704         400.332          41.000                                                                  
C09  37809983.341   196886490.204         188.303          45.000    37809968.035   152245075.690         145.783          48.000  
C11                                                                  27081605.253   109046401.601       -1932.885          43.000  
> 2025 10 28 08 25 25.1620000  0 24                     
G04  21678894.129   113923354.956         425.697          45.000    21678884.869    88771409.655         331.550          46.000  
G27  21802559.339   114573230.683        2519.877          45.000    21802551.853    89277806.181        1963.720          44.000  
G16  20656585.798   108551091.396        -278.691          47.000                                                                  
G08  23916315.067   125681082.262        3476.177          37.000    23916314.740    97933320.124        2708.777          38.000  
G09  23835020.176   125253881.384        2364.768          38.000    23835014.665    97600399.538        1842.378          36.000  
G31  21934911.531   115268742.559       -2046.570          46.000    21934901.226    89819750.003       -1594.512          44.000  
C06  36736641.361   191297314.263          32.560          47.000    36736623.674   147923159.490          25.145          49.000  
C32  26593795.770   138480834.188       -3577.707          38.000                                                                  
C37  22869319.744   119086537.220        -552.009          50.000                                                                  
C07  38371605.633   199811013.465         710.320          41.000    38371588.801   154506490.149         549.583          45.000  
C13  41727401.655   217285523.764       -2336.966          37.000    41727433.153   168019083.773       -1807.403          38.000  
C20  24585195.401   128021550.955       -2082.646          46.000                                                                  
G18  25376024.655   133351905.253         974.288          38.000    25376017.987   103910542.743         759.192          40.000  
G28  24105109.631   126673204.564       -2957.790          41.000    24105101.872    98706354.999       -2304.778          42.000  
G03  25619593.129   134631846.697       -3024.183          34.000    25619603.895   104907932.711       -2356.640          37.000  
G26  21723908.901   114159912.683       -2196.345          47.000    21723901.837    88955745.305       -1711.392          45.000  
C10  39433787.315   205342078.244         665.887          38.000    39433775.758   158783472.131         514.722          43.000  
C28  23903946.228   124474122.010        1445.101          47.000                                                                  
C23  25089392.280   130647051.362       -2277.170          44.000                                                                  
C16  37175718.840   193583707.680          32.000          49.000    37175706.328   149691165.343          24.672          49.000  
C27  25429079.398   132415896.015        2777.175          40.000                                                                  
C19  25736432.677   134016344.730         399.256          41.000                                                                  
C09  37809981.871   196886482.680         187.746          45.000    37809966.575   152245069.876         145.166          48.000  
C11                                                                  27081624.449   109046478.920       -1933.251          43.000  
> 2025 10 28 08 25 25.2020000  0 24                     
G04  21678890.880   113923337.919         425.510          45.000    21678881.617    88771396.377         331.520          46.000  
G27  21802540.170   114573129.860        2519.974          45.000    21802532.677    89277727.623        1963.595          44.000  
G16  20656587.901   108551102.518        -278.553          47.000                                                                  
G08  23916288.583   125680943.174        3476.569          37.000    23916288.273    97933211.762        2708.725          38.000  
G09  23835002.193   125253786.775        2364.681          38.000    23834996.662    97600325.825        1842.305          36.000  
G31  21934927.115   115268824.396       -2046.527          46.000    21934916.802    89819813.776       -1594.657          44.000  
C06  36736641.095   191297312.940          32.581          47.000    36736623.413   147923158.465          25.216          49.000  
C32  26593823.269   138480977.305       -3578.163          38.000                                                                  
C37  22869323.975   119086559.268        -551.791          50.000                                                                  
C07  38371600.137   199810985.008         710.815          41.000    38371583.326   154506468.160         549.458          45.000  
C13  41727419.607   217285617.212       -2336.817          37.000    41727451.123   168019156.012       -1806.619          38.000  
C20  24585211.405   128021634.241       -2082.655          46.000                                                                  
G18  25376017.213   133351866.254         974.380          38.000    25376010.581   103910512.369         759.074          40.000  
G28  24105132.118   126673322.844       -2957.514          41.000    24105124.392    98706447.163       -2304.509          42.000  
G03  25619616.147   134631967.619       -3023.744          34.000    25619626.900   104908026.930       -2356.063          37.000  
G26  21723925.612   114160000.509       -2196.243          47.000    21723918.544    88955813.730       -1711.169          45.000  
C10  39433782.170   205342051.584         666.052          38.000    39433770.667   158783451.515         514.941          43.000  
C28  23903935.113   124474064.178        1445.317          47.000                                                                  
C23  25089409.769   130647142.426       -2277.117          44.000                                                                  
C16  37175718.572   193583706.376          32.073          49.000    37175706.054   149691164.339          24.703          49.000  
C27  25429058.073   132415784.925        2776.880          40.000                                                                  
C19  25736429.598   134016328.757         398.897          41.000                                                                  
C09  37809980.430   196886475.139         187.949          45.000    37809965.122   152245064.046         145.302          48.000  
C11                                                                  27081643.675   109046556.232       -1933.160          43.000  
> 2025 10 28 08 25 25.2420000  0 24                     
G04  21678887.641   113923320.843         426.220          45.000    21678878.354    88771383.064         332.241          46.000  
G27  21802520.966   114573029.010        2520.648          45.000    21802513.494    89277649.048        1963.958          44.000  
G16  20656589.989   108551113.614        -277.910          47.000                                                                  
G08  23916262.109   125680804.075        3477.083          37.000    23916261.811    97933103.378        2709.222          38.000  
G09  23834984.187   125253692.146        2365.187          38.000    23834978.657    97600252.084        1842.935          36.000  
G31  21934942.689   115268906.182       -2045.470          46.000    21934932.372    89819877.515       -1594.032          44.000  
C06  36736640.848   191297311.577          33.388          47.000    36736623.139   147923157.414          25.785          49.000  
C32  26593850.729   138481120.368       -3577.276          38.000                                                                  
C37  22869328.172   119086581.294        -551.156          50.000                                                                  
C07  38371594.648   199810956.534         711.495          41.000    38371577.852   154506446.152         549.856          45.000  
C13  41727437.522   217285710.624       -2335.934          37.000    41727469.028   168019228.235       -1805.891          38.000  
C20  24585227.381   128021717.485       -2081.772          46.000                                                                  
G18  25376009.771   133351827.225         975.108          38.000    25376003.153   103910481.954         759.799          40.000  
G28  24105154.628   126673441.110       -2957.000          41.000    24105146.892    98706539.313       -2304.058          42.000  
G03  25619639.182   134632088.570       -3023.908          34.000    25619649.902   104908121.164       -2355.942          37.000  
G26  21723942.346   114160088.292       -2195.306          47.000    21723935.271    88955882.135       -1710.580          45.000  
C10  39433777.059   205342024.927         666.168          38.000    39433765.534   158783430.892         515.295          43.000  
C28  23903923.966   124474006.322        1445.956          47.000                                                                  
C23  25089427.253   130647233.452       -2276.295          44.000                                                                  
C16  37175718.303   193583705.040          32.799          49.000    37175705.762   149691163.307          25.324          49.000  
C27  25429036.730   132415673.794        2777.541          40.000                                                                  
C19  25736426.484   134016312.713         400.132          41.000                                                                  
C09  37809978.983   196886467.564         188.795          45.000    37809963.681   152245058.191         145.909          48.000  
C11                                                                  27081662.847   109046633.530       -1932.764          43.000  
> 2025 10 28 08 25 25.2820000  0 24                     
G04  21678884.384   113923303.805         425.948          45.000    21678875.111    88771369.786         331.991          46.000  
G27  21802501.771   114572928.182        2520.614          45.000    21802494.292    89277570.476        1964.097          44.000  
G16  20656592.111   108551124.758        -278.498          47.000                                                                  
G08  23916235.652   125680665.008        3476.777          37.000    23916235.347    97932995.019        2709.022          38.000  
G09  23834966.176   125253597.524        2365.304          38.000    23834960.651    97600178.350        1843.197          36.000  
G31  21934958.275   115268988.015       -2045.758          46.000    21934947.955    89819941.278       -1594.137          44.000  
C06  36736640.603   191297310.250          33.197          47.000    36736622.893   147923156.385          25.704          49.000  
C32  26593878.219   138481263.476       -3577.649          38.000                                                                  
C37  22869332.407   119086603.355        -551.489          50.000                                                                  
C07  38371589.204   199810928.104         710.927          41.000    38371572.393   154506424.171         549.525          45.000  
C13  41727455.450   217285804.082       -2336.430          37.000    41727486.976   168019300.513       -1806.619          38.000  
C20  24585243.390   128021800.764       -2081.952          46.000                                                                  
G18  25376002.334   133351788.250         974.561          38.000    25375995.728   103910451.573         759.602          40.000  
G28  24105177.132   126673559.411       -2957.414          41.000    24105169.372    98706631.492       -2304.423          42.000  
G03  25619662.209   134632209.497       -3023.655          34.000    25619672.932   104908215.421       -2356.338          37.000  
G26  21723959.050   114160176.109       -2195.407          47.000    21723951.962    88955950.567       -1710.755          45.000  
C10  39433771.947   205341998.313         665.417          38.000    39433760.414   158783410.299         514.850          43.000  
C28  23903912.839   124473948.512        1445.375          47.000                                                                  
C23  25089444.743   130647324.522       -2276.683          44.000                                                                  
C16  37175718.030   193583703.743          32.463          49.000    37175705.491   149691162.297          25.245          49.000  
C27  25429015.398   132415562.687        2777.501          40.000                                                                  
C19  25736423.401   134016296.714         399.959          41.000                                                                  
C09  37809977.529   196886460.024         188.574          45.000    37809962.234   152245052.365         145.652          48.000  
C11                                                                  27081682.067   109046710.867       -1933.288          43.000  
> 2025 10 28 08 25 25.3220000  0 24                     
G04  21678881.161   113923286.802         425.245          45.000    21678871.885    88771356.541         331.307          46.000  
G27  21802482.591   114572827.416        2519.570          45.000    21802475.124    89277491.959        1963.280          44.000  
G16  20656594.235   108551135.924        -279.099          47.000                                                                  
G08  23916209.185   125680525.998        3475.578          37.000    23916208.892    97932886.684        2708.477          38.000  
G09  23834948.180   125253502.950        2364.597          38.000    23834942.659    97600104.678        1842.137          36.000  
G31  21934973.854   115269069.896       -2046.669          46.000    21934963.555    89820005.096       -1595.083          44.000  
C06  36736640.384   191297308.973          32.277          47.000    36736622.650   147923155.393          25.058          49.000  
C32  26593905.697   138481406.613       -3578.297          38.000                                                                  
C37  22869336.670   119086625.454        -552.242          50.000                                                                  
C07  38371583.730   199810899.693         710.336          41.000    38371566.936   154506402.200         549.240          45.000  
C13  41727473.446   217285897.594       -2337.540          37.000    41727504.964   168019372.816       -1807.342          38.000  
C20  24585259.402   128021884.093       -2082.841          46.000                                                                  
G18  25375994.945   133351749.302         973.877          38.000    25375988.306   103910421.221         759.022          40.000  
G28  24105199.653   126673677.741       -2958.121          41.000    24105191.902    98706723.701       -2305.080          42.000  
G03  25619685.213   134632330.485       -3024.393          34.000    25619695.959   104908309.697       -2356.788          37.000  
G26  21723975.782   114160263.986       -2196.422          47.000    21723968.666    88956019.046       -1711.632          45.000  
C10  39433766.847   205341971.683         665.417          38.000    39433755.297   158783389.715         514.557          43.000  
C28  23903901.767   124473890.724        1444.770          47.000                                                                  
C23  25089462.233   130647415.633       -2277.526          44.000                                                                  
C16  37175717.766   193583702.484          31.685          49.000    37175705.250   149691161.318          24.665          49.000  
C27  25428994.080   132415451.613        2777.002          40.000                                                                  
C19  25736420.345   134016280.745         399.422          41.000                                                                  
C09  37809976.073   196886452.534         187.598          45.000    37809960.816   152245046.571         145.012          48.000  
C11                                                                  27081701.288   109046788.212       -1933.643          43.000  
> 2025 10 28 08 25 25.3620000  0 24                     
G04  21678877.898   113923269.741         425.969          45.000    21678868.659    88771343.247         331.901          46.000  
G27  21802463.403   114572726.584        2520.260          45.000    21802455.933    89277413.391        1963.788          44.000  
G16  20656596.364   108551147.022        -278.005          47.000                                                                  
G08  23916182.702   125680386.865        3477.419          37.000    23916182.431    97932778.280        2709.590          38.000  
G09  23834930.192   125253408.287        2366.062          38.000    23834924.650    97600030.934        1843.048          36.000  
G31  21934989.430   115269151.710       -2045.912          46.000    21934979.130    89820068.836       -1594.143          44.000  
C06  36736640.141   191297307.616          33.270          47.000    36736622.392   147923154.355          25.588          49.000  
C32  26593933.173   138481549.666       -3576.986          38.000                                                                  
C37  22869340.929   119086647.480        -551.229          50.000                                                                  
C07  38371578.263   199810871.223         711.272          41.000    38371561.471   154506380.191         549.890          45.000  
C13  41727491.398   217285991.005       -2336.039          37.000    41727522.910   168019445.059       -1806.563          38.000  
C20  24585275.378   128021967.358       -2082.078          46.000                                                                  
G18  25375987.546   133351710.291         974.737          38.000    25375980.885   103910390.826         759.506          40.000  
G28  24105222.173   126673796.004       -2957.112          41.000    24105214.406    98706815.856       -2304.319          42.000  
G03  25619708.221   134632451.394       -3023.313          34.000    25619718.970   104908403.924       -2356.107          37.000  
G26  21723992.510   114160351.786       -2195.535          47.000    21723985.369    88956087.464       -1710.954          45.000  
C10  39433761.723   205341944.996         666.754          38.000    39433750.170   158783369.091         515.259          43.000  
C28  23903890.656   124473832.872        1445.773          47.000                                                                  
C23  25089479.708   130647506.668       -2276.481          44.000                                                                  
C16  37175717.494   193583701.153          32.666          49.000    37175705.016   149691160.295          25.219          49.000  
C27  25428972.744   132415340.482        2777.831          40.000                                                                  
C19  25736417.266   134016264.738         399.864          41.000                                                                  
C09  37809974.623   196886444.974         188.425          45.000    37809959.363   152245040.728         145.676          48.000  
C11                                                                  27081720.477   109046865.506       -1932.759          43.000  
> 2025 10 28 08 25 25.4020000  0 24                     
G04  21678874.621   113923252.596         427.924          45.000    21678865.388    88771329.889         333.410          46.000  
G27  21802444.192   114572625.668        2522.172          45.000    21802436.727    89277334.751        1965.386          44.000  
G16  20656598.483   108551158.056        -276.247          47.000                                                                  
G08  23916156.212   125680247.705        3478.841          37.000    23916155.937    97932669.838        2710.860          38.000  
G09  23834912.147   125253313.591        2367.347          38.000    23834906.611    97599957.090        1845.422          36.000  
G31  21935005.028   115269233.446       -2044.027          46.000    21934994.691    89820132.515       -1592.500          44.000  
C06  36736639.856   191297306.196          34.944          47.000    36736622.112   147923153.247          27.117          49.000  
C32  26593960.615   138481692.666       -3575.325          38.000                                                                  
C37  22869345.112   119086669.440        -549.452          50.000                                                                  
C07  38371572.754   199810842.697         712.820          41.000    38371555.982   154506358.116         551.445          45.000  
C13  41727509.288   217286084.340       -2333.887          37.000    41727540.847   168019517.246       -1804.976          38.000  
C20  24585291.328   128022050.538       -2080.197          46.000                                                                  
G18  25375980.096   133351671.182         976.980          38.000    25375973.469   103910360.367         761.002          40.000  
G28  24105244.661   126673914.192       -2955.123          41.000    24105236.896    98706907.968       -2303.075          42.000  
G03  25619731.212   134632572.254       -3021.875          34.000    25619741.967   104908498.068       -2354.208          37.000  
G26  21724009.206   114160439.512       -2193.762          47.000    21724002.072    88956155.827       -1709.613          45.000  
C10  39433756.597   205341918.240         668.646          38.000    39433745.004   158783348.405         516.791          43.000  
C28  23903879.529   124473774.953        1447.530          47.000                                                                  
C23  25089497.148   130647597.620       -2274.427          44.000                                                                  
C16  37175717.169   193583699.743          34.638          49.000    37175704.748   149691159.213          26.617          49.000  
C27  25428951.395   132415229.281        2779.546          40.000                                                                  
C19  25736414.141   134016248.636         401.816          41.000                                                                  
C09  37809973.137   196886437.337         190.342          45.000    37809957.927   152245034.820         147.200          48.000  
C11                                                                  27081739.665   109046942.751       -1931.418          43.000  
> 2025 10 28 08 25 25.4420000  0 24                     
G04  21678871.345   113923235.426         429.317          45.000    21678862.129    88771316.509         334.524          46.000  
G27  21802424.976   114572524.721        2523.667          45.000    21802417.508    89277256.089        1966.562          44.000  
G16  20656600.565   108551169.058        -274.883          47.000                                                                  
G08  23916129.729   125680108.533        3479.691          37.000    23916129.435    97932561.390        2711.469          38.000  
G09  23834894.119   125253218.882        2368.135          38.000    23834888.573    97599883.262        1846.249          36.000  
G31  21935020.562   115269315.153       -2042.633          46.000    21935010.218    89820196.186       -1591.560          44.000  
C06  36736639.573   191297304.746          36.278          47.000    36736621.822   147923152.121          28.178          49.000  
C32  26593988.092   138481835.640       -3574.079          38.000                                                                  
C37  22869349.303   119086691.371        -548.122          50.000                                                                  
C07  38371567.288   199810814.125         714.272          41.000    38371550.470   154506336.030         552.364          45.000  
C13  41727527.214   217286177.662       -2332.745          37.000    41727558.757   168019589.406       -1803.827          38.000  
C20  24585307.301   128022133.705       -2079.051          46.000                                                                  
G18  25375972.642   133351632.067         978.209          38.000    25375965.992   103910329.894         761.943          40.000  
G28  24105267.150   126674032.359       -2953.869          41.000    24105259.358    98707000.046       -2301.904          42.000  
G03  25619754.217   134632693.071       -3020.360          34.000    25619764.947   104908592.220       -2353.495          37.000  
G26  21724025.884   114160527.214       -2192.465          47.000    21724018.732    88956224.163       -1708.428          45.000  
C10  39433751.450   205341891.481         669.507          38.000    39433739.885   158783327.719         517.468          43.000  
C28  23903868.414   124473717.015        1448.703          47.000                                                                  
C23  25089514.627   130647688.566       -2273.344          44.000                                                                  
C16  37175716.877   193583698.318          35.844          49.000    37175704.479   149691158.110          27.645          49.000  
C27  25428930.015   132415118.043        2780.966          40.000                                                                  
C19  25736411.054   134016232.518         403.083          41.000                                                                  
C09  37809971.658   196886429.682         191.537          45.000    37809956.418   152245028.893         148.276          48.000  
C11                                                                  27081758.836   109047019.988       -1930.684          43.000  
> 2025 10 28 08 25 25.4820000  0 24                     
G04  21678868.084   113923218.262         429.731          45.000    21678858.864    88771303.137         334.811          46.000  
G27  21802405.773   114572423.784        2524.060          45.000    21802398.310    89277177.434        1966.916          44.000  
G16  20656602.648   108551180.083        -274.889          47.000                                                                  
G08  23916103.259   125679969.352        3479.971          37.000    23916102.959    97932452.939        2711.673          38.000  
G09  23834876.090   125253124.148        2368.722          38.000    23834870.545    97599809.458        1845.976          36.000  
G31  21935036.089   115269396.860       -2042.129          46.000    21935025.737    89820259.859       -1591.295          44.000  
C06  36736639.300   191297303.295          36.792          47.000    36736621.530   147923151.009          28.341          49.000  
C32  26594015.540   138481978.612       -3573.663          38.000                                                                  
C37  22869353.537   119086713.314        -547.924          50.000                                                                  
C07  38371561.820   199810785.575         714.450          41.000    38371544.982   154506313.950         552.476          45.000  
C13  41727545.137   217286271.017       -2332.950          37.000    41727576.645   168019661.580       -1803.771          38.000  
C20  24585323.298   128022216.878       -2078.769          46.000                                                                  
G18  25375965.208   133351592.953         978.562          38.000    25375958.537   103910299.407         762.469          40.000  
G28  24105289.635   126674150.557       -2954.138          41.000    24105281.842    98707092.124       -2301.493          42.000  
G03  25619777.194   134632813.943       -3020.733          34.000    25619787.944   104908686.400       -2353.803          37.000  
G26  21724042.556   114160614.924       -2192.140          47.000    21724035.402    88956292.501       -1708.029          45.000  
C10  39433746.313   205341864.751         668.988          38.000    39433734.727   158783307.037         517.480          43.000  
C28  23903857.291   124473659.093        1448.702          47.000                                                                  
C23  25089532.086   130647779.526       -2273.278          44.000                                                                  
C16  37175716.559   193583696.907          35.978          49.000    37175704.201   149691157.012          27.897          49.000  
C27  25428908.649   132415006.835        2781.008          40.000                                                                  
C19  25736407.920   134016216.409         403.322          41.000                                                                  
C09  37809970.179   196886422.027         191.924          45.000    37809954.911   152245022.978         148.415          48.000  
C11                                                                  27081778.015   109047097.228       -1930.543          43.000  
> 2025 10 28 08 25 25.5220000  0 24                     
G04  21678864.828   113923201.225         427.406          45.000    21678855.620    88771289.838         333.427          46.000  
G27  21802386.563   114572322.956        2522.053          45.000    21802379.114    89277098.866        1965.308          44.000  
G16  20656604.739   108551191.196        -276.748          47.000                                                                  
G08  23916076.757   125679830.270        3477.941          37.000    23916076.481    97932344.553        2710.414          38.000  
G09  23834858.068   125253029.529        2366.579          38.000    23834852.546    97599735.769        1843.491          36.000  
G31  21935051.639   115269478.683       -2044.216          46.000    21935041.291    89820323.609       -1592.802          44.000  
C06  36736639.076   191297301.949          34.938          47.000    36736621.254   147923149.957          27.170          49.000  
C32  26594043.028   138482121.710       -3576.014          38.000                                                                  
C37  22869357.832   119086735.358        -549.918          50.000                                                                  
C07  38371556.372   199810757.131         712.291          41.000    38371539.516   154506291.942         551.061          45.000  
C13  41727563.071   217286364.459       -2335.047          37.000    41727594.563   168019733.821       -1805.302          38.000  
C20  24585339.314   128022300.142       -2080.472          46.000                                                                  
G18  25375957.773   133351553.967         976.187          38.000    25375951.109   103910269.006         761.002          40.000  
G28  24105312.114   126674268.840       -2956.109          41.000    24105304.349    98707184.303       -2303.384          42.000  
G03  25619800.221   134632934.896       -3022.846          34.000    25619810.967   104908780.634       -2355.103          37.000  
G26  21724059.256   114160702.732       -2193.974          47.000    21724052.102    88956360.919       -1709.420          45.000  
C10  39433741.195   205341838.075         667.554          38.000    39433729.602   158783286.408         516.327          43.000  
C28  23903846.182   124473601.253        1446.961          47.000                                                                  
C23  25089549.602   130647870.568       -2274.940          44.000                                                                  
C16  37175716.294   193583695.582          34.242          49.000    37175703.916   149691155.980          26.637          49.000  
C27  25428887.320   132414895.703        2779.328          40.000                                                                  
C19  25736404.861   134016200.393         401.531          41.000                                                                  
C09  37809968.745   196886414.473         190.051          45.000    37809953.471   152245017.131         147.024          48.000  
C11                                                                  27081797.209   109047174.530       -1931.874          43.000  
> 2025 10 28 08 25 25.5620000  0 24                     
G04  21678861.580   113923184.180         426.253          45.000    21678852.391    88771276.568         332.156          46.000  
G27  21802367.379   114572222.131        2520.865          45.000    21802359.928    89277020.304        1964.313          44.000  
G16  20656606.854   108551202.314        -277.804          47.000                                                                  
G08  23916050.306   125679691.166        3477.366          37.000    23916050.018    97932236.188        2709.329          38.000  
G09  23834840.035   125252934.907        2365.536          38.000    23834834.550    97599662.027        1843.086          36.000  
G31  21935067.217   115269560.515       -2045.476          46.000    21935056.854    89820387.378       -1593.912          44.000  
C06  36736638.861   191297300.610          33.791          47.000    36736620.998   147923148.935          25.968          49.000  
C32  26594070.507   138482264.782       -3576.843          38.000                                                                  
C37  22869362.084   119086757.405        -551.051          50.000                                                                  
C07  38371550.930   199810728.666         711.521          41.000    38371534.057   154506269.945         550.102          45.000  
C13  41727581.015   217286457.914       -2336.274          37.000    41727612.544   168019806.087       -1806.478          38.000  
C20  24585355.347   128022383.429       -2081.814          46.000                                                                  
G18  25375950.375   133351514.973         975.017          38.000    25375943.663   103910238.629         759.741          40.000  
G28  24105334.610   126674387.106       -2956.764          41.000    24105326.862    98707276.451       -2303.806          42.000  
G03  25619823.245   134633055.818       -3023.278          34.000    25619833.989   104908874.863       -2355.754          37.000  
G26  21724075.965   114160790.557       -2195.292          47.000    21724068.830    88956429.355       -1710.572          45.000  
C10  39433736.077   205341811.402         666.779          38.000    39433724.512   158783265.782         515.692          43.000  
C28  23903835.091   124473543.408        1446.153          47.000                                                                  
C23  25089567.080   130647961.620       -2276.016          44.000                                                                  
C16  37175716.040   193583694.275          32.992          49.000    37175703.664   149691154.970          25.568          49.000  
C27  25428865.966   132414784.584        2778.200          40.000                                                                  
C19  25736401.817   134016184.396         400.233          41.000                                                                  
C09  37809967.294   196886406.921         189.006          45.000    37809952.009   152245011.302         145.953          48.000  
C11                                                                  27081816.434   109047251.831       -1932.480          43.000  
> 2025 10 28 08 25 25.6020000  0 24                     
G04  21678858.302   113923167.092         426.511          45.000    21678849.143    88771263.257         332.265          46.000  
G27  21802348.189   114572121.278        2520.832          45.000    21802340.761    89276941.720        1964.230          44.000  
G16  20656608.934   108551213.397        -277.630          47.000                                                                  
G08  23916023.840   125679552.052        3477.458          37.000    23916023.555    97932127.788        2709.521          38.000  
G09  23834822.024   125252840.244        2365.884          38.000    23834816.532    97599588.263        1843.470          36.000  
G31  21935082.773   115269642.301       -2045.295          46.000    21935072.426    89820451.130       -1594.166          44.000  
C06  36736638.615   191297299.234          33.888          47.000    36736620.722   147923147.876          26.018          49.000  
C32  26594097.986   138482407.841       -3576.902          38.000                                                                  
C37  22869366.292   119086779.412        -550.776          50.000                                                                  
C07  38371545.465   199810700.175         711.740          41.000    38371528.585   154506247.914         550.285          45.000  
C13  41727598.936   217286551.293       -2335.370          37.000    41727630.470   168019878.311       -1806.185          38.000  
C20  24585371.309   128022466.675       -2081.747          46.000                                                                  
G18  25375942.960   133351475.937         975.183          38.000    25375936.226   103910208.230         759.533          40.000  
G28  24105357.123   126674505.349       -2956.574          41.000    24105349.350    98707368.586       -2303.698          42.000  
G03  25619846.253   134633176.718       -3023.073          34.000    25619857.010   104908969.065       -2355.573          37.000  
G26  21724092.664   114160878.333       -2195.029          47.000    21724085.540    88956497.754       -1710.490          45.000  
C10  39433730.973   205341784.710         666.827          38.000    39433719.363   158783245.142         515.729          43.000  
C28  23903824.005   124473485.548        1446.126          47.000                                                                  
C23  25089584.569   130648052.636       -2275.896          44.000                                                                  
C16  37175715.781   193583692.926          33.173          49.000    37175703.436   149691153.936          25.463          49.000  
C27  25428844.631   132414673.441        2778.083          40.000                                                                  
C19  25736398.735   134016168.353         400.432          41.000                                                                  
C09  37809965.827   196886399.335         189.155          45.000    37809950.546   152245005.437         146.126          48.000  
C11                                                                  27081835.633   109047329.124       -1932.588          43.000  
> 2025 10 28 08 25 25.6420000  0 24                     
G04  21678855.036   113923150.028         426.336          45.000    21678845.864    88771249.960         332.166          46.000  
G27  21802329.008   114572020.433        2520.756          45.000    21802321.572    89276863.148        1964.008          44.000  
G16  20656611.062   108551224.513        -278.037          47.000                                                                  
G08  23915997.354   125679412.972        3476.928          37.000    23915997.079    97932019.394        2709.498          38.000  
G09  23834804.021   125252745.622        2365.423          38.000    23834798.507    97599514.527        1843.192          36.000  
G31  21935098.337   115269724.106       -2045.424          46.000    21935087.983    89820514.875       -1594.099          44.000  
C06  36736638.370   191297297.882          33.573          47.000    36736620.428   147923146.829          25.916          49.000  
C32  26594125.486   138482550.908       -3576.980          38.000                                                                  
C37  22869370.478   119086801.443        -551.014          50.000                                                                  
C07  38371539.990   199810671.704         711.511          41.000    38371523.153   154506225.900         550.148          45.000  
C13  41727616.877   217286644.691       -2335.252          37.000    41727648.409   168019950.545       -1806.080          38.000  
C20  24585387.293   128022549.927       -2081.733          46.000                                                                  
G18  25375935.532   133351436.918         975.142          38.000    25375928.788   103910177.820         759.723          40.000  
G28  24105379.618   126674623.618       -2956.911          41.000    24105371.855    98707460.766       -2304.473          42.000  
G03  25619869.236   134633297.631       -3023.192          34.000    25619880.040   104909063.288       -2355.733          37.000  
G26  21724109.370   114160966.127       -2195.146          47.000    21724102.234    88956566.177       -1710.771          45.000  
C10  39433725.872   205341758.052         666.339          38.000    39433714.231   158783224.524         515.332          43.000  
C28  23903812.921   124473427.708        1445.809          47.000                                                                  
C23  25089602.046   130648143.676       -2276.199          44.000                                                                  
C16  37175715.504   193583691.589          33.139          49.000    37175703.177   149691152.905          25.444          49.000  
C27  25428823.281   132414562.314        2777.840          40.000                                                                  
C19  25736395.689   134016152.330         400.286          41.000                                                                  
C09  37809964.393   196886391.772         188.897          45.000    37809949.072   152244999.590         145.958          48.000  
C11                                                                  27081854.823   109047406.433       -1932.863          43.000  
> 2025 10 28 08 25 25.6820000  0 24                     
G04  21678851.803   113923132.980         426.042          45.000    21678842.626    88771236.677         331.974          46.000  
G27  21802309.826   114571919.605        2520.533          45.000    21802302.369    89276784.584        1963.862          44.000  
G16  20656613.189   108551235.624        -278.064          47.000                                                                  
G08  23915970.889   125679273.892        3476.723          37.000    23915970.606    97931911.016        2709.296          38.000  
G09  23834786.013   125252650.996        2365.368          38.000    23834780.533    97599440.801        1842.923          36.000  
G31  21935113.897   115269805.940       -2045.889          46.000    21935103.541    89820578.621       -1593.945          44.000  
C06  36736638.087   191297296.543          33.302          47.000    36736620.178   147923145.791          25.783          49.000  
C32  26594152.979   138482693.977       -3576.960          38.000                                                                  
C37  22869374.736   119086823.482        -551.166          50.000                                                                  
C07  38371534.530   199810643.254         711.130          41.000    38371517.670   154506203.899         549.909          45.000  
C13  41727634.817   217286738.115       -2335.543          37.000    41727666.358   168020022.787       -1806.108          38.000  
C20  24585403.289   128022633.208       -2082.115          46.000                                                                  
G18  25375928.114   133351397.912         974.991          38.000    25375921.370   103910147.415         759.856          40.000  
G28  24105402.117   126674741.894       -2957.087          41.000    24105394.376    98707552.928       -2304.395          42.000  
G03  25619892.248   134633418.571       -3023.604          34.000    25619903.055   104909157.523       -2355.933          37.000  
G26  21724126.077   114161053.938       -2195.381          47.000    21724118.922    88956634.606       -1710.945          45.000  
C10  39433720.759   205341731.379         666.504          38.000    39433709.130   158783203.910         515.204          43.000  
C28  23903801.828   124473369.873        1445.659          47.000                                                                  
C23  25089619.516   130648234.721       -2276.317          44.000                                                                  
C16  37175715.253   193583690.267          32.933          49.000    37175702.921   149691151.885          25.338          49.000  
C27  25428801.919   132414451.188        2777.844          40.000                                                                  
C19  25736392.610   134016136.330         399.908          41.000                                                                  
C09  37809962.935   196886384.214         188.778          45.000    37809947.640   152244993.745         145.932          48.000  
C11                                                                  27081873.990   109047483.744       -1932.940          43.000  
> 2025 10 28 08 25 25.7220000  0 24                     
G04  21678848.595   113923115.921         426.162          45.000    21678839.386    88771223.389         331.979          46.000  
G27  21802290.637   114571818.765        2520.737          45.000    21802283.176    89276706.003        1964.192          44.000  
G16  20656615.324   108551246.728        -277.862          47.000                                                                  
G08  23915944.412   125679134.779        3477.307          37.000    23915944.157    97931802.642        2709.144          38.000  
G09  23834768.015   125252556.362        2365.578          38.000    23834762.531    97599367.072        1842.852          36.000  
G31  21935129.453   115269887.751       -2045.637          46.000    21935119.114    89820642.375       -1593.929          44.000  
C06  36736637.828   191297295.187          33.549          47.000    36736619.872   147923144.746          25.906          49.000  
C32  26594180.469   138482837.047       -3576.892          38.000                                                                  
C37  22869378.991   119086845.511        -550.949          50.000                                                                  
C07  38371529.068   199810614.796         711.148          41.000    38371512.216   154506181.892         549.956          45.000  
C13  41727652.749   217286831.545       -2335.770          37.000    41727684.294   168020095.027       -1806.075          38.000  
C20  24585419.287   128022716.472       -2081.920          46.000                                                                  
G18  25375920.689   133351358.904         974.985          38.000    25375913.942   103910117.025         759.692          40.000  
G28  24105424.605   126674860.160       -2956.893          41.000    24105416.875    98707645.077       -2304.054          42.000  
G03  25619915.277   134633539.496       -3023.408          34.000    25619926.059   104909251.740       -2355.807          37.000  
G26  21724142.776   114161141.742       -2195.362          47.000    21724135.626    88956703.011       -1710.551          45.000  
C10  39433715.633   205341704.704         666.687          38.000    39433703.986   158783183.286         515.363          43.000  
C28  23903790.734   124473312.028        1445.845          47.000                                                                  
C23  25089637.049   130648325.764       -2276.265          44.000                                                                  
C16  37175714.986   193583688.930          33.176          49.000    37175702.654   149691150.845          25.690          49.000  
C27  25428780.605   132414340.067        2777.807          40.000                                                                  
C19  25736389.526   134016120.316         400.064          41.000                                                                  
C09  37809961.496   196886376.647         188.936          45.000    37809946.176   152244987.890         146.163          48.000  
C11                                                                  27081893.172   109047561.050       -1932.858          43.000  
> 2025 10 28 08 25 25.7620000  0 24                     
G04  21678845.349   113923098.859         426.332          45.000    21678836.147    88771210.093         332.169          46.000  
G27  21802271.415   114571717.934        2520.699          45.000    21802263.968    89276627.424        1964.375          44.000  
G16  20656617.437   108551257.838        -277.803          47.000                                                                  
G08  23915917.942   125678995.684        3477.387          37.000    23915917.707    97931694.252        2709.440          38.000  
G09  23834749.997   125252461.729        2365.704          38.000    23834744.522    97599293.314        1843.459          36.000  
G31  21935144.989   115269969.564       -2045.511          46.000    21935134.668    89820706.116       -1593.682          44.000  
C06  36736637.598   191297293.839          33.592          47.000    36736619.595   147923143.691          26.186          49.000  
C32  26594207.931   138482980.105       -3576.588          38.000                                                                  
C37  22869383.227   119086867.544        -550.907          50.000                                                                  
C07  38371523.589   199810586.338         711.244          41.000    38371506.718   154506159.884         550.049          45.000  
C13  41727670.682   217286924.982       -2336.035          37.000    41727702.234   168020167.262       -1805.887          38.000  
C20  24585435.290   128022799.730       -2081.686          46.000                                                                  
G18  25375913.262   133351319.882         975.252          38.000    25375906.526   103910086.612         760.031          40.000  
G28  24105447.117   126674978.433       -2956.886          41.000    24105439.363    98707737.223       -2303.807          42.000  
G03  25619938.274   134633660.403       -3022.964          34.000    25619949.065   104909345.953       -2355.603          37.000  
G26  21724159.476   114161229.549       -2195.328          47.000    21724152.313    88956771.429       -1710.515          45.000  
C10  39433710.525   205341678.025         666.895          38.000    39433698.884   158783162.655         515.601          43.000  
C28  23903779.645   124473254.190        1445.871          47.000                                                                  
C23  25089654.549   130648416.805       -2276.171          44.000                                                                  
C16  37175714.738   193583687.607          33.067          49.000    37175702.428   149691149.810          25.845          49.000  
C27  25428759.251   132414228.923        2778.239          40.000                                                                  
C19  25736386.442   134016104.301         400.235          41.000                                                                  
C09  37809960.033   196886369.086         188.945          45.000    37809944.732   152244982.041         146.182          48.000  
C11                                                                  27081912.363   109047638.347       -1932.573          43.000  
> 2025 10 28 08 25 25.8020000  0 24                     
G04  21678842.070   113923081.800         426.394          45.000    21678832.892    88771196.796         332.316          46.000  
G27  21802252.202   114571617.094        2520.877          45.000    21802244.766    89276548.844        1964.484          44.000  
G16  20656619.563   108551268.947        -277.753          47.000                                                                  
G08  23915891.486   125678856.583        3477.574          37.000    23915891.246    97931585.867        2709.616          38.000  
G09  23834732.001   125252367.093        2365.884          38.000    23834726.518    97599219.576        1843.457          36.000  
G31  21935160.539   115270051.369       -2045.258          46.000    21935150.233    89820769.866       -1593.706          44.000  
C06  36736637.336   191297292.472          33.961          47.000    36736619.309   147923142.640          26.267          49.000  
C32  26594235.401   138483123.161       -3576.408          38.000                                                                  
C37  22869387.476   119086889.569        -550.727          50.000                                                                  
C07  38371518.098   199810557.852         711.837          41.000    38371501.270   154506137.874         550.159          45.000  
C13  41727688.601   217287018.380       -2335.339          37.000    41727720.162   168020239.506       -1806.019          38.000  
C20  24585451.293   128022882.993       -2081.627          46.000                                                                  
G18  25375905.844   133351280.862         975.437          38.000    25375899.095   103910056.224         759.757          40.000  
G28  24105469.621   126675096.691       -2956.578          41.000    24105461.876    98707829.382       -2303.882          42.000  
G03  25619961.286   134633781.294       -3022.474          34.000    25619972.081   104909440.182       -2355.719          37.000  
G26  21724176.171   114161317.349       -2195.157          47.000    21724169.020    88956839.846       -1710.447          45.000  
C10  39433705.378   205341651.341         667.090          38.000    39433693.785   158783142.020         515.814          43.000  
C28  23903768.555   124473196.344        1446.053          47.000                                                                  
C23  25089672.032   130648507.833       -2275.885          44.000                                                                  
C16  37175714.531   193583686.276          33.169          49.000    37175702.182   149691148.788          25.678          49.000  
C27  25428737.901   132414117.765        2778.779          40.000                                                                  
C19  25736383.354   134016088.285         400.339          41.000                                                                  
C09  37809958.602   196886361.518         189.081          45.000    37809943.279   152244976.188         146.272          48.000  
C11                                                                  27081931.560   109047715.643       -1932.389          43.000  
> 2025 10 28 08 25 25.8420000  0 24                     
G04  21678838.804   113923064.721         426.821          45.000    21678829.631    88771183.486         332.645          46.000  
G27  21802232.996   114571516.236        2521.315          45.000    21802225.579    89276470.257        1964.648          44.000  
G16  20656621.663   108551280.031        -277.238          47.000                                                                  
G08  23915865.003   125678717.459        3478.020          37.000    23915864.781    97931477.465        2710.026          38.000  
G09  23834713.983   125252272.429        2366.525          38.000    23834708.512    97599145.837        1843.450          36.000  
G31  21935176.104   115270133.153       -2044.736          46.000    21935165.785    89820833.589       -1593.268          44.000  
C06  36736637.105   191297291.086          34.502          47.000    36736619.022   147923141.572          26.608          49.000  
C32  26594262.879   138483266.220       -3576.328          38.000                                                                  
C37  22869391.730   119086911.575        -550.216          50.000                                                                  
C07  38371512.616   199810529.350         712.445          41.000    38371495.759   154506115.833         550.831          45.000  
C13  41727706.518   217287111.794       -2335.242          37.000    41727738.091   168020311.728       -1805.633          38.000  
C20  24585467.298   128022966.244       -2081.334          46.000                                                                  
G18  25375898.409   133351241.835         975.697          38.000    25375891.696   103910025.817         760.029          40.000  
G28  24105492.117   126675214.933       -2956.123          41.000    24105484.379    98707921.518       -2303.481          42.000  
G03  25619984.291   134633902.166       -3021.736          34.000    25619995.121   104909534.385       -2355.247          37.000  
G26  21724192.868   114161405.122       -2194.557          47.000    21724185.724    88956908.236       -1709.916          45.000  
C10  39433700.264   205341624.649         667.352          38.000    39433688.707   158783121.384         515.942          43.000  
C28  23903757.463   124473138.471        1446.706          47.000                                                                  
C23  25089689.522   130648598.846       -2275.430          44.000                                                                  
C16  37175714.274   193583684.918          33.730          49.000    37175701.944   149691147.746          25.921          49.000  
C27  25428716.570   132414006.611        2779.001          40.000                                                                  
C19  25736380.287   134016072.253         400.693          41.000                                                                  
C09  37809957.150   196886353.924         189.690          45.000    37809941.830   152244970.319         146.610          48.000  
C11                                                                  27081950.750   109047792.932       -1932.211          43.000  
> 2025 10 28 08 25 25.8820000  0 24                     
G04  21678835.559   113923047.583         428.090          45.000    21678826.366    88771170.140         333.450          46.000  
G27  21802213.799   114571415.331        2522.360          45.000    21802206.367    89276391.633        1965.391          44.000  
G16  20656623.763   108551291.072        -276.182          47.000                                                                  
G08  23915838.520   125678578.317        3478.550          37.000    23915838.283    97931369.013        2711.123          38.000  
G09  23834695.959   125252177.733        2367.428          38.000    23834690.499    97599072.046        1844.350          36.000  
G31  21935191.650   115270214.891       -2043.641          46.000    21935181.338    89820897.285       -1592.544          44.000  
C06  36736636.875   191297289.663          35.437          47.000    36736618.753   147923140.473          27.309          49.000  
C32  26594290.347   138483409.218       -3575.246          38.000                                                                  
C37  22869395.960   119086933.531        -549.101          50.000                                                                  
C07  38371507.120   199810500.821         713.206          41.000    38371490.293   154506093.764         551.637          45.000  
C13  41727724.434   217287205.135       -2333.952          37.000    41727756.013   168020383.918       -1804.851          38.000  
C20  24585483.255   128023049.439       -2080.224          46.000                                                                  
G18  25375890.958   133351202.759         976.665          38.000    25375884.239   103909995.369         760.906          40.000  
G28  24105514.609   126675333.138       -2955.194          41.000    24105506.860    98708013.608       -2302.448          42.000  
G03  25620007.302   134634023.057       -3021.844          34.000    25620018.135   104909628.548       -2354.257          37.000  
G26  21724209.550   114161492.850       -2193.440          47.000    21724202.422    88956976.596       -1709.131          45.000  
C10  39433695.130   205341597.929         667.944          38.000    39433683.563   158783100.706         516.742          43.000  
C28  23903746.325   124473080.554        1447.808          47.000                                                                  
C23  25089706.975   130648689.817       -2274.453          44.000                                                                  
C16  37175714.025   193583683.515          34.845          49.000    37175701.701   149691146.667          26.744          49.000  
C27  25428695.223   132413895.415        2779.820          40.000                                                                  
C19  25736377.192   134016056.160         401.948          41.000                                                                  
C09  37809955.701   196886346.282         190.850          45.000    37809940.377   152244964.414         147.442          48.000  
C11                                                                  27081969.969   109047870.191       -1931.541          43.000  
> 2025 10 28 08 25 25.9220000  0 24                     
G04  21678832.273   113923030.439         428.783          45.000    21678823.083    88771156.782         334.033          46.000  
G27  21802194.579   114571314.408        2523.157          45.000    21802187.154    89276312.993        1965.996          44.000  
G16  20656625.835   108551302.092        -275.401          47.000                                                                  
G08  23915812.034   125678439.140        3479.446          37.000    23915811.793    97931260.559        2711.565          38.000  
G09  23834677.940   125252083.013        2368.131          38.000    23834672.468    97598998.226        1845.351          36.000  
G31  21935207.180   115270296.612       -2042.892          46.000    21935196.899    89820960.963       -1591.868          44.000  
C06  36736636.606   191297288.216          36.255          47.000    36736618.465   147923139.354          27.972          49.000  
C32  26594317.822   138483552.204       -3574.532          38.000                                                                  
C37  22869400.173   119086955.477        -548.425          50.000                                                                  
C07  38371501.639   199810472.268         713.888          41.000    38371484.795   154506071.676         552.310          45.000  
C13  41727742.339   217287298.474       -2333.298          37.000    41727773.921   168020456.078       -1803.880          38.000  
C20  24585499.212   128023132.608       -2079.247          46.000                                                                  
G18  25375883.500   133351163.653         977.642          38.000    25375876.802   103909964.892         761.837          40.000  
G28  24105537.074   126675451.318       -2954.386          41.000    24105529.342    98708105.706       -2302.175          42.000  
G03  25620030.293   134634143.889       -3020.897          34.000    25620041.113   104909722.704       -2353.740          37.000  
G26  21724226.231   114161580.551       -2192.483          47.000    21724219.079    88957044.945       -1708.614          45.000  
C10  39433689.976   205341571.167         668.964          38.000    39433678.416   158783080.015         517.352          43.000  
C28  23903735.183   124473022.628        1448.399          47.000                                                                  
C23  25089724.408   130648780.770       -2273.723          44.000                                                                  
C16  37175713.771   193583682.092          35.695          49.000    37175701.450   149691145.565          27.534          49.000  
C27  25428673.836   132413784.201        2780.437          40.000                                                                  
C19  25736374.103   134016040.047         402.895          41.000                                                                  
C09  37809954.260   196886338.627         191.568          45.000    37809938.899   152244958.491         148.137          48.000  
C11                                                                  27081989.162   109047947.429       -1930.879          43.000  
> 2025 10 28 08 25 25.9620000  0 24                     
G04  21678829.033   113923013.308         428.780          45.000    21678819.830    88771143.426         334.190          46.000  
G27  21802175.386   114571213.487        2523.409          45.000    21802167.969    89276234.359        1966.136          44.000  
G16  20656627.936   108551313.120        -275.282          47.000                                                                  
G08  23915785.557   125678299.970        3479.640          37.000    23915785.321    97931152.107        2711.573          38.000  
G09  23834659.932   125251988.302        2368.144          38.000    23834654.449    97598924.420        1845.527          36.000  
G31  21935222.736   115270378.349       -2042.937          46.000    21935212.465    89821024.654       -1591.902          44.000  
C06  36736636.339   191297286.782          36.324          47.000    36736618.162   147923138.244          28.063          49.000  
C32  26594345.296   138483695.191       -3574.329          38.000                                                                  
C37  22869404.360   119086977.429        -548.367          50.000                                                                  
C07  38371496.160   199810443.731         713.881          41.000    38371479.307   154506049.608         552.188          45.000  
C13  41727760.276   217287391.814       -2333.129          37.000    41727791.851   168020528.250       -1803.844          38.000  
C20  24585515.180   128023215.795       -2079.203          46.000                                                                  
G18  25375876.051   133351124.555         977.836          38.000    25375869.382   103909934.415         762.179          40.000  
G28  24105559.571   126675569.513       -2954.404          41.000    24105551.832    98708197.811       -2302.297          42.000  
G03  25620053.289   134634264.726       -3020.590          34.000    25620064.108   104909816.860       -2353.582          37.000  
G26  21724242.938   114161668.277       -2192.530          47.000    21724235.772    88957113.303       -1708.624          45.000  
C10  39433684.833   205341544.404         669.385          38.000    39433673.291   158783059.325         517.499          43.000  
C28  23903724.022   124472964.717        1448.244          47.000                                                                  
C23  25089741.860   130648871.719       -2273.402          44.000                                                                  
C16  37175713.506   193583680.680          35.784          49.000    37175701.189   149691144.471          27.685          49.000  
C27  25428652.455   132413672.984        2780.721          40.000                                                                  
C19  25736371.003   134016023.955         402.832          41.000                                                                  
C09  37809952.789   196886330.979         191.644          45.000    37809937.431   152244952.582         148.112          48.000  
C11                                                                  27082008.335   109048024.677       -1930.884          43.000  
> 2025 10 28 08 25 26.0020000  0 24                     
G04  21678825.762   113922996.204         428.130          45.000    21678816.562    88771130.097         333.685          46.000  
G27  21802156.195   114571112.599        2522.794          45.000    21802148.789    89276155.745        1965.719          44.000  
G16  20656630.042   108551324.181        -276.018          47.000                                                                  
G08  23915759.064   125678160.803        3479.539          37.000    23915758.835    97931043.697        2710.677          38.000  
G09  23834641.907   125251893.614        2367.633          38.000    23834636.437    97598850.645        1844.865          36.000  
G31  21935238.323   115270460.109       -2043.500          46.000    21935228.018    89821088.370       -1592.431          44.000  
C06  36736636.078   191297285.378          35.684          47.000    36736617.893   147923137.158          27.597          49.000  
C32  26594372.760   138483838.189       -3574.523          38.000                                                                  
C37  22869408.586   119086999.406        -548.957          50.000                                                                  
C07  38371490.687   199810415.208         713.454          41.000    38371473.824   154506027.563         551.554          45.000  
C13  41727778.197   217287485.179       -2333.660          37.000    41727809.764   168020600.457       -1804.624          38.000  
C20  24585531.168   128023299.005       -2079.734          46.000                                                                  
G18  25375868.625   133351085.511         976.837          38.000    25375861.925   103909903.987         761.343          40.000  
G28  24105582.078   126675687.736       -2955.117          41.000    24105574.322    98708289.930       -2302.749          42.000  
G03  25620076.282   134634385.597       -3021.165          34.000    25620087.107   104909911.034       -2354.090          37.000  
G26  21724259.631   114161756.032       -2193.239          47.000    21724252.485    88957181.683       -1709.106          45.000  
C10  39433679.696   205341517.662         669.012          38.000    39433668.140   158783038.660         516.986          43.000  
C28  23903712.906   124472906.828        1447.615          47.000                                                                  
C23  25089759.333   130648962.705       -2273.998          44.000                                                                  
C16  37175713.237   193583679.301          35.069          49.000    37175700.896   149691143.396          27.279          49.000  
C27  25428631.109   132413561.802        2780.083          40.000                                                                  
C19  25736367.938   134016007.911         401.802          41.000                                                                  
C09  37809951.316   196886323.362         190.970          45.000    37809935.978   152244946.695         147.565          48.000  
C11                                                                  27082027.537   109048101.942       -1931.293          43.000  
> 2025 10 28 08 25 26.0420000  0 24                     
G04  21678822.478   113922979.110         427.561          45.000    21678813.308    88771116.777         333.207          46.000  
G27  21802137.016   114571011.727        2522.125          45.000    21802129.595    89276077.139        1965.325          44.000  
G16  20656632.150   108551335.252        -276.639          47.000                                                                  
G08  23915732.590   125678021.654        3479.024          37.000    23915732.376    97930935.264        2710.662          38.000  
G09  23834623.908   125251798.951        2366.811          38.000    23834618.444    97598776.861        1844.566          36.000  
G31  21935253.910   115270541.892       -2044.243          46.000    21935243.573    89821152.085       -1592.793          44.000  
C06  36736635.843   191297283.986          35.070          47.000    36736617.638   147923136.077          27.204          49.000  
C32  26594400.235   138483981.207       -3575.094          39.000                                                                  
C37  22869412.817   119087021.401        -549.636          50.000                                                                  
C07  38371485.215   199810386.698         712.939          41.000    38371468.339   154506005.521         551.112          45.000  
C13  41727796.116   217287578.550       -2334.166          37.000    41727827.699   168020672.670       -1805.215          38.000  
C20  24585547.167   128023382.248       -2080.670          46.000                                                                  
G18  25375861.193   133351046.449         976.521          38.000    25375854.490   103909873.570         760.653          40.000  
G28  24105604.567   126675805.952       -2955.375          41.000    24105596.823    98708382.053       -2303.031          42.000  
G03  25620099.275   134634506.466       -3021.522          34.000    25620110.129   104910005.236       -2354.833          37.000  
G26  21724276.328   114161843.794       -2193.830          47.000    21724269.170    88957250.070       -1709.493          45.000  
C10  39433674.560   205341490.958         668.036          38.000    39433663.006   158783017.996         516.638          43.000  
C28  23903701.816   124472848.945        1447.168          47.000                                                                  
C23  25089776.824   130649053.703       -2274.642          44.000                                                                  
C16  37175712.975   193583677.929          34.529          49.000    37175700.667   149691142.333          26.784          49.000  
C27  25428609.753   132413450.625        2779.613          40.000                                                                  
C19  25736364.834   134015991.858         401.371          41.000                                                                  
C09  37809949.852   196886315.757         190.330          45.000    37809934.520   152244940.808         147.240          48.000  
C11                                                                  27082046.717   109048179.207       -1931.565          43.000  
> 2025 10 28 08 25 26.0820000  0 24                     
G04  21678819.224   113922962.011         427.355          45.000    21678810.042    88771103.456         332.948          46.000  
G27  21802117.828   114570910.849        2521.851          45.000    21802110.402    89275998.525        1965.229          44.000  
G16  20656634.264   108551346.317        -276.801          47.000                                                                  
G08  23915706.117   125677882.508        3478.683          37.000    23915705.913    97930826.849        2710.346          38.000  
G09  23834605.905   125251704.282        2366.518          38.000    23834600.427    97598703.085        1844.370          36.000  
G31  21935269.492   115270623.658       -2044.341          46.000    21935259.125    89821215.792       -1592.836          44.000  
C06  36736635.578   191297282.586          34.909          47.000    36736617.343   147923134.997          26.959          49.000  
C32  26594427.709   138484124.238       -3575.617          39.000                                                                  
C37  22869417.050   119087043.385        -549.758          50.000                                                                  
C07  38371479.739   199810358.188         712.686          41.000    38371462.861   154505983.471         551.076          45.000  
C13  41727814.042   217287671.905       -2334.031          37.000    41727845.636   168020744.866       -1805.160          38.000  
C20  24585563.143   128023465.464       -2080.668          46.000                                                                  
G18  25375853.752   133351007.385         976.447          39.000    25375847.074   103909843.121         760.883          40.000  
G28  24105627.071   126675924.171       -2955.565          41.000    24105619.333    98708474.167       -2302.981          42.000  
G03  25620122.282   134634627.338       -3021.736          34.000    25620133.139   104910099.434       -2355.133          37.000  
G26  21724293.039   114161931.547       -2193.958          47.000    21724285.867    88957318.449       -1709.576          45.000  
C10  39433669.415   205341464.244         667.725          38.000    39433657.903   158782997.336         516.431          43.000  
C28  23903690.712   124472791.056        1447.067          47.000                                                                  
C23  25089794.303   130649144.688       -2274.752          44.000                                                                  
C16  37175712.731   193583676.546          34.429          49.000    37175700.432   149691141.271          26.521          49.000  
C27  25428588.415   132413339.447        2779.433          40.000                                                                  
C19  25736361.745   134015975.791         401.452          41.000                                                                  
C09  37809948.389   196886308.138         190.305          45.000    37809933.065   152244934.918         147.163          48.000  
C11                                                                  27082065.928   109048256.480       -1931.822          43.000  
> 2025 10 28 08 25 26.1220000  0 24                     
G04  21678815.948   113922944.904         427.446          45.000    21678806.810    88771090.130         332.959          46.000  
G27  21802098.646   114570809.964        2521.889          45.000    21802091.191    89275919.920        1965.096          44.000  
G16  20656636.372   108551357.380        -276.807          47.000                                                                  
G08  23915679.628   125677743.375        3478.320          37.000    23915679.447    97930718.445        2709.989          38.000  
G09  23834587.892   125251609.603        2366.629          38.000    23834582.409    97598629.300        1844.498          36.000  
G31  21935285.055   115270705.414       -2044.219          46.000    21935274.687    89821279.513       -1593.052          44.000  
C06  36736635.321   191297281.164          35.201          47.000    36736617.066   147923133.912          26.946          49.000  
C32  26594455.178   138484267.265       -3575.812          38.000                                                                  
C37  22869421.269   119087065.365        -549.699          50.000                                                                  
C07  38371474.268   199810329.663         712.812          41.000    38371457.396   154505961.415         551.221          45.000  
C13  41727831.947   217287765.269       -2334.199          37.000    41727863.591   168020817.063       -1805.083          38.000  
C20  24585579.149   128023548.678       -2080.579          46.000                                                                  
G18  25375846.339   133350968.331         976.276          39.000    25375839.646   103909812.697         760.629          40.000  
G28  24105649.549   126676042.387       -2955.588          41.000    24105641.848    98708566.291       -2303.115          42.000  
G03  25620145.290   134634748.204       -3021.727          34.000    25620156.135   104910193.594       -2354.500          37.000  
G26  21724309.708   114162019.305       -2194.090          47.000    21724302.546    88957386.823       -1709.491          45.000  
C10  39433664.294   205341437.526         667.688          38.000    39433652.775   158782976.677         516.284          43.000  
C28  23903679.637   124472733.165        1447.089          47.000                                                                  
C23  25089811.794   130649235.675       -2274.814          44.000                                                                  
C16  37175712.469   193583675.166          34.347          49.000    37175700.200   149691140.201          26.546          49.000  
C27  25428567.066   132413228.258        2779.528          40.000                                                                  
C19  25736358.651   134015959.727         401.478          41.000                                                                  
C09  37809946.930   196886300.527         190.158          45.000    37809931.590   152244929.024         147.194          48.000  
C11                                                                  27082085.158   109048333.750       -1931.864          43.000  
> 2025 10 28 08 25 26.1620000  0 24                     
G04  21678812.717   113922927.839         426.739          45.000    21678803.537    88771076.835         332.405          46.000  
G27  21802079.464   114570709.128        2521.042          45.000    21802072.001    89275841.354        1964.339          44.000  
G16  20656638.508   108551368.485        -277.577          47.000                                                                  
G08  23915653.157   125677604.270        3477.634          37.000    23915652.980    97930610.043        2709.762          38.000  
G09  23834569.898   125251514.963        2365.959          38.000    23834564.390    97598555.568        1843.521          36.000  
G31  21935300.605   115270787.215       -2044.899          46.000    21935290.287    89821343.256       -1593.555          44.000  
C06  36736635.058   191297279.801          34.365          47.000    36736616.755   147923132.849          26.563          49.000  
C32  26594482.661   138484410.315       -3576.386          38.000                                                                  
C37  22869425.472   119087087.381        -550.341          50.000                                                                  
C07  38371468.800   199810301.186         712.007          41.000    38371451.922   154505939.390         550.721          45.000  
C13  41727849.901   217287858.701       -2335.561          37.000    41727881.509   168020889.287       -1805.612          38.000  
C20  24585595.133   128023631.929       -2081.186          46.000                                                                  
G18  25375838.902   133350929.332         975.238          39.000    25375832.203   103909782.289         760.185          40.000  
G28  24105672.035   126676160.655       -2956.580          41.000    24105664.363    98708658.436       -2303.608          42.000  
G03  25620168.272   134634869.093       -3022.192          34.000    25620179.148   104910287.814       -2355.332          37.000  
G26  21724326.420   114162107.098       -2194.762          47.000    21724319.278    88957455.230       -1710.076          45.000  
C10  39433659.148   205341410.837         667.151          38.000    39433647.637   158782956.041         515.790          43.000  
C28  23903668.522   124472675.319        1446.262          47.000                                                                  
C23  25089829.259   130649326.704       -2275.591          44.000                                                                  
C16  37175712.213   193583673.820          33.717          49.000    37175699.962   149691139.163          26.018          49.000  
C27  25428545.723   132413117.117        2778.692          40.000                                                                  
C19  25736355.541   134015943.705         400.731          41.000                                                                  
C09  37809945.445   196886292.941         189.632          45.000    37809930.144   152244923.166         146.554          48.000  
C11                                                                  27082104.373   109048411.059       -1932.627          43.000  
> 2025 10 28 08 25 26.2020000  0 24                     
G04  21678809.484   113922910.832         425.353          45.000    21678800.312    88771063.576         331.506          46.000  
G27  21802060.287   114570608.340        2519.809          45.000    21802052.803    89275762.795        1963.811          44.000  
G16  20656640.635   108551379.627        -278.583          47.000                                                                  
G08  23915626.677   125677465.215        3476.377          37.000    23915626.534    97930501.685        2708.972          38.000  
G09  23834551.896   125251420.364        2364.984          38.000    23834546.380    97598481.881        1842.267          36.000  
G31  21935316.176   115270869.070       -2046.176          46.000    21935305.852    89821407.036       -1594.413          44.000  
C06  36736634.818   191297278.482          33.140          47.000    36736616.486   147923131.824          25.718          49.000  
C32  26594510.144   138484553.415       -3577.455          38.000                                                                  
C37  22869429.719   119087109.450        -551.561          50.000                                                                  
C07  38371463.335   199810272.748         710.917          41.000    38371446.475   154505917.406         549.760          45.000  
C13  41727867.889   217287952.148       -2336.419          37.000    41727899.456   168020961.549       -1806.464          38.000  
C20  24585611.148   128023715.247       -2082.661          46.000                                                                  
G18  25375831.499   133350890.353         974.383          39.000    25375824.777   103909751.924         759.176          40.000  
G28  24105694.534   126676278.952       -2957.518          41.000    24105686.888    98708750.621       -2304.555          42.000  
G03  25620191.298   134634990.093       -3024.381          34.000    25620202.161   104910382.070       -2356.381          37.000  
G26  21724343.120   114162194.936       -2195.860          47.000    21724335.998    88957523.679       -1711.056          45.000  
C10  39433654.027   205341384.193         666.064          38.000    39433642.534   158782935.442         514.966          43.000  
C28  23903657.419   124472617.506        1445.312          47.000                                                                  
C23  25089846.747   130649417.771       -2276.628          44.000                                                                  
C16  37175711.965   193583672.521          32.596          49.000    37175699.726   149691138.156          25.200          49.000  
C27  25428524.389   132413006.029        2777.348          40.000                                                                  
C19  25736352.490   134015927.733         399.468          41.000                                                                  
C09  37809944.008   196886285.409         188.428          45.000    37809928.697   152244917.344         145.595          48.000  
C11                                                                  27082123.582   109048488.393       -1933.449          43.000  
> 2025 10 28 08 25 26.2420000  0 24                     
G04  21678806.252   113922893.797         425.294          45.000    21678797.076    88771050.302         331.421          46.000  
G27  21802041.103   114570507.517        2519.956          45.000    21802033.641    89275684.244        1963.503          44.000  
G16  20656642.728   108551390.750        -278.575          47.000                                                                  
G08  23915600.212   125677326.137        3476.419          37.000    23915600.091    97930393.287        2709.493          38.000  
G09  23834533.910   125251325.743        2365.084          38.000    23834528.357    97598408.151        1842.561          36.000  
G31  21935331.749   115270950.902       -2046.304          46.000    21935321.461    89821470.800       -1594.469          44.000  
C06  36736634.565   191297277.141          33.049          47.000    36736616.228   147923130.786          25.636          49.000  
C32  26594537.606   138484696.488       -3577.333          38.000                                                                  
C37  22869433.970   119087131.496        -551.642          50.000                                                                  
C07  38371457.891   199810244.298         710.760          41.000    38371441.024   154505895.411         549.566          45.000  
C13  41727885.822   217288045.578       -2336.343          37.000    41727917.382   168021033.801       -1806.578          38.000  
C20  24585627.145   128023798.535       -2082.745          46.000                                                                  
G18  25375824.084   133350851.353         974.438          38.000    25375817.361   103909721.530         759.397          40.000  
G28  24105717.036   126676397.237       -2957.591          41.000    24105709.402    98708842.800       -2304.734          42.000  
G03  25620214.321   134635111.028       -3024.131          34.000    25620225.182   104910476.284       -2355.959          37.000  
G26  21724359.840   114162282.759       -2196.019          47.000    21724352.703    88957592.114       -1711.221          45.000  
C10  39433648.905   205341357.506         666.516          38.000    39433637.408   158782914.816         515.186          43.000  
C28  23903646.316   124472559.679        1445.231          47.000                                                                  
C23  25089864.218   130649508.824       -2276.759          44.000                                                                  
C16  37175711.740   193583671.209          32.381          49.000    37175699.474   149691137.139          25.085          49.000  
C27  25428503.032   132412894.899        2777.590          40.000                                                                  
C19  25736349.417   134015911.740         399.345          41.000                                                                  
C09  37809942.550   196886277.855         188.361          45.000    37809927.272   152244911.494         145.772          48.000  
C11                                                                  27082142.765   109048565.701       -1933.191          43.000  
> 2025 10 28 08 25 26.2820000  0 24                     
G04  21678803.003   113922876.705         426.453          45.000    21678793.835    88771036.979         332.421          46.000  
G27  21802021.902   114570406.636        2521.222          45.000    21802014.422    89275605.655        1964.186          44.000  
G16  20656644.825   108551401.816        -277.313          47.000                                                                  
G08  23915573.730   125677186.982        3478.083          37.000    23915573.609    97930284.853        2710.497          38.000  
G09  23834515.924   125251231.074        2366.218          38.000    23834510.355    97598334.371        1843.850          36.000  
G31  21935347.320   115271032.670       -2045.040          46.000    21935337.021    89821534.514       -1593.467          44.000  
C06  36736634.279   191297275.733          34.338          47.000    36736615.939   147923129.704          26.477          49.000  
C32  26594565.050   138484839.510       -3576.141          38.000                                                                  
C37  22869438.148   119087153.479        -550.352          50.000                                                                  
C07  38371452.400   199810215.784         712.082          41.000    38371435.546   154505873.356         550.690          45.000  
C13  41727903.768   217288138.949       -2335.035          37.000    41727935.296   168021105.993       -1805.446          38.000  
C20  24585643.114   128023881.751       -2081.354          46.000                                                                  
G18  25375816.654   133350812.301         975.568          39.000    25375809.915   103909691.105         760.133          40.000  
G28  24105739.535   126676515.455       -2956.157          41.000    24105731.904    98708934.907       -2303.324          42.000  
G03  25620237.298   134635231.917       -3023.012          34.000    25620248.195   104910570.486       -2355.450          37.000  
G26  21724376.543   114162370.513       -2194.736          47.000    21724369.394    88957660.494       -1710.244          45.000  
C10  39433643.778   205341330.791         667.389          38.000    39433632.249   158782894.151         516.180          43.000  
C28  23903635.193   124472501.798        1446.365          47.000                                                                  
C23  25089881.665   130649599.822       -2275.682          44.000                                                                  
C16  37175711.467   193583669.826          33.714          49.000    37175699.217   149691136.080          25.899          49.000  
C27  25428481.661   132412783.726        2778.674          40.000                                                                  
C19  25736346.319   134015895.682         400.646          41.000                                                                  
C09  37809941.099   196886270.248         189.465          45.000    37809925.849   152244905.601         146.766          48.000  
C11                                                                  27082161.953   109048642.983       -1932.430          43.000  
> 2025 10 28 08 25 26.3220000  0 24                     
G04  21678799.734   113922859.578         427.729          45.000    21678790.558    88771023.633         333.356          46.000  
G27  21802002.697   114570305.732        2522.329          45.000    21801995.219    89275527.028        1965.248          44.000  
G16  20656646.901   108551412.863        -276.342          47.000                                                                  
G08  23915547.242   125677047.801        3479.369          37.000    23915547.139    97930176.435        2710.701          38.000  
G09  23834497.889   125251136.376        2367.225          38.000    23834492.321    97598260.583        1844.627          36.000  
G31  21935362.883   115271114.416       -2043.965          46.000    21935352.552    89821598.208       -1592.610          44.000  
C06  36736634.000   191297274.297          35.546          47.000    36736615.659   147923128.589          27.504          49.000  
C32  26594592.493   138484982.489       -3574.780          38.000                                                                  
C37  22869442.337   119087175.437        -549.219          50.000                                                                  
C07  38371446.942   199810187.249         713.189          41.000    38371430.062   154505851.288         551.563          45.000  
C13  41727921.673   217288232.292       -2333.770          37.000    41727953.205   168021178.165       -1804.493          38.000  
C20  24585659.085   128023964.937       -2080.039          46.000                                                                  
G18  25375809.213   133350773.215         976.841          39.000    25375802.465   103909660.668         760.753          40.000  
G28  24105762.041   126676633.657       -2955.168          41.000    24105754.389    98709027.011       -2302.601          42.000  
G03  25620260.289   134635352.731       -3020.978          34.000    25620271.192   104910664.641       -2354.313          37.000  
G26  21724393.239   114162458.233       -2193.430          47.000    21724386.074    88957728.849       -1709.242          45.000  
C10  39433638.631   205341304.042         668.567          38.000    39433627.125   158782873.465         517.096          43.000  
C28  23903624.049   124472443.896        1447.375          47.000                                                                  
C23  25089899.132   130649690.785       -2274.458          44.000                                                                  
C16  37175711.211   193583668.415          34.928          49.000    37175698.939   149691134.988          26.961          49.000  
C27  25428460.318   132412672.499        2780.169          40.000                                                                  
C19  25736343.216   134015879.605         401.691          41.000                                                                  
C09  37809939.633   196886262.597         190.864          45.000    37809924.349   152244899.694         147.561          48.000  
C11                                                                  27082181.156   109048720.230       -1931.391          43.000  
> 2025 10 28 08 25 26.3620000  0 24                     
G04  21678796.487   113922842.468         428.065          45.000    21678787.316    88771010.308         333.466          46.000  
G27  21801983.506   114570204.834        2522.708          45.000    21801976.014    89275448.406        1965.688          44.000  
G16  20656649.008   108551423.922        -276.144          47.000                                                                  
G08  23915520.792   125676908.653        3479.254          37.000    23915520.670    97930068.015        2710.708          38.000  
G09  23834479.878   125251041.690        2367.482          38.000    23834474.300    97598186.788        1845.046          36.000  
G31  21935378.459   115271196.165       -2043.512          46.000    21935368.097    89821661.907       -1592.283          44.000  
C06  36736633.708   191297272.872          35.920          47.000    36736615.359   147923127.492          27.682          49.000  
C32  26594619.933   138485125.501       -3574.775          39.000                                                                  
C37  22869446.561   119087197.412        -549.031          50.000                                                                  
C07  38371441.458   199810158.716         713.603          41.000    38371424.563   154505829.223         551.869          45.000  
C13  41727939.576   217288325.624       -2333.106          37.000    41727971.124   168021250.358       -1804.485          38.000  
C20  24585675.035   128024048.153       -2079.941          46.000                                                                  
G18  25375801.778   133350734.153         977.036          39.000    25375795.047   103909630.209         761.429          40.000  
G28  24105784.529   126676751.870       -2954.996          41.000    24105776.878    98709119.131       -2302.649          42.000  
G03  25620283.301   134635473.589       -3020.745          34.000    25620294.209   104910758.831       -2354.405          37.000  
G26  21724409.929   114162545.972       -2193.109          47.000    21724402.790    88957797.222       -1709.053          45.000  
C10  39433633.494   205341277.314         668.628          38.000    39433621.983   158782852.790         517.194          43.000  
C28  23903612.896   124472385.994        1447.782          47.000                                                                  
C23  25089916.628   130649781.748       -2273.876          44.000                                                                  
C16  37175710.979   193583667.018          35.266          49.000    37175698.696   149691133.906          27.267          49.000  
C27  25428438.927   132412561.314        2780.151          40.000                                                                  
C19  25736340.132   134015863.540         401.932          41.000                                                                  
C09  37809938.149   196886254.970         191.057          45.000    37809922.888   152244893.799         147.655          48.000  
C11                                                                  27082200.323   109048797.493       -1931.266          43.000  
> 2025 10 28 08 25 26.4020000  0 24                     
G04  21678793.254   113922825.369         427.917          45.000    21678784.075    88770996.978         333.505          46.000  
G27  21801964.323   114570103.945        2522.648          45.000    21801956.777    89275369.775        1965.983          44.000  
G16  20656651.120   108551434.977        -276.086          47.000                                                                  
G08  23915494.303   125676769.508        3478.947          37.000    23915494.209    97929959.596        2710.598          38.000  
G09  23834461.860   125250947.014        2367.300          38.000    23834456.289    97598113.019        1844.677          36.000  
G31  21935394.032   115271277.920       -2043.499          46.000    21935383.658    89821725.623       -1592.523          44.000  
C06  36736633.442   191297271.457          35.811          47.000    36736615.084   147923126.398          27.631          49.000  
C32  26594647.402   138485268.513       -3574.965          38.000                                                                  
C37  22869450.795   119087219.380        -548.917          50.000                                                                  
C07  38371435.985   199810130.190         713.518          41.000    38371419.073   154505807.169         551.726          45.000  
C13  41727957.518   217288418.980       -2333.399          37.000    41727989.055   168021322.559       -1804.746          38.000  
C20  24585690.987   128024131.362       -2079.905          46.000                                                                  
G18  25375794.331   133350695.094         976.887          39.000    25375787.608   103909599.774         761.234          40.000  
G28  24105807.029   126676870.090       -2955.173          41.000    24105799.373    98709211.241       -2302.603          42.000  
G03  25620306.277   134635594.453       -3020.955          34.000    25620317.212   104910852.998       -2354.117          37.000  
G26  21724426.616   114162633.717       -2193.199          47.000    21724419.483    88957865.588       -1708.911          45.000  
C10  39433628.373   205341250.587         668.475          38.000    39433616.836   158782832.127         516.901          43.000  
C28  23903601.773   124472328.104        1447.642          47.000                                                                  
C23  25089934.078   130649872.721       -2273.859          44.000                                                                  
C16  37175710.735   193583665.627          35.195          49.000    37175698.429   149691132.820          27.396          49.000  
C27  25428417.567   132412450.123        2780.103          40.000                                                                  
C19  25736337.038   134015847.478         401.881          41.000                                                                  
C09  37809936.682   196886247.329         191.283          45.000    37809921.415   152244887.900         147.711          48.000  
C11                                                                  27082219.505   109048874.748       -1931.177          43.000  
> 2025 10 28 08 25 26.4420000  0 24                     
G04  21678790.009   113922808.268         427.755          45.000    21678780.821    88770983.654         333.333          46.000  
G27  21801945.148   114570003.071        2522.215          45.000    21801937.583    89275291.169        1965.575          44.000  
G16  20656653.260   108551446.038        -276.276          47.000                                                                  
G08  23915467.820   125676630.362        3478.764          37.000    23915467.702    97929851.163        2710.789          38.000  
G09  23834443.840   125250852.331        2367.183          38.000    23834438.268    97598039.224        1844.917          36.000  
G31  21935409.598   115271359.681       -2043.721          46.000    21935399.236    89821789.334       -1592.626          44.000  
C06  36736633.145   191297270.053          35.474          47.000    36736614.799   147923125.308          27.462          49.000  
C32  26594674.887   138485411.517       -3575.002          38.000                                                                  
C37  22869455.016   119087241.355        -549.112          50.000                                                                  
C07  38371430.506   199810101.673         713.157          41.000    38371413.571   154505785.111         551.610          45.000  
C13  41727975.447   217288512.349       -2333.922          37.000    41728006.956   168021394.750       -1804.742          38.000  
C20  24585706.942   128024214.585       -2080.227          46.000                                                                  
G18  25375786.892   133350656.043         976.597          39.000    25375780.175   103909569.335         761.129          40.000  
G28  24105829.515   126676988.302       -2955.255          41.000    24105821.875    98709303.366       -2302.943          42.000  
G03  25620329.298   134635715.293       -3020.829          34.000    25620340.206   104910947.172       -2354.157          37.000  
G26  21724443.318   114162721.472       -2193.551          47.000    21724436.179    88957933.966       -1709.169          45.000  
C10  39433623.261   205341223.873         668.060          38.000    39433611.706   158782811.460         516.766          43.000  
C28  23903590.661   124472270.213        1447.450          47.000                                                                  
C23  25089951.562   130649963.710       -2274.304          44.000                                                                  
C16  37175710.472   193583664.236          35.039          49.000    37175698.183   149691131.754          27.004          49.000  
C27  25428396.228   132412338.927        2780.109          40.000                                                                  
C19  25736333.968   134015831.423         401.600          41.000                                                                  
C09  37809935.231   196886239.705         190.977          45.000    37809919.973   152244881.997         147.719          48.000  
C11                                                                  27082238.690   109048952.020       -1931.550          43.000  
> 2025 10 28 08 25 26.4820000  0 24                     
G04  21678786.745   113922791.180         427.375          45.000    21678777.565    88770970.343         332.958          46.000  
G27  21801925.958   114569902.204        2521.801          45.000    21801918.402    89275212.575        1965.076          44.000  
G16  20656655.385   108551457.117        -276.738          47.000                                                                  
G08  23915441.328   125676491.232        3478.328          37.000    23915441.221    97929742.744        2710.537          38.000  
G09  23834425.850   125250757.668        2366.753          38.000    23834420.278    97597965.475        1844.137          36.000  
G31  21935425.162   115271441.461       -2044.222          46.000    21935414.819    89821853.051       -1592.821          44.000  
C06  36736632.872   191297268.647          35.242          47.000    36736614.510   147923124.215          27.367          49.000  
C32  26594702.324   138485554.538       -3575.414          38.000                                                                  
C37  22869459.202   119087263.346        -549.564          50.000                                                                  
C07  38371425.002   199810073.162         712.865          41.000    38371408.116   154505763.064         551.315          45.000  
C13  41727993.379   217288605.708       -2334.033          37.000    41728024.867   168021466.951       -1804.923          38.000  
C20  24585722.933   128024297.816       -2080.612          46.000                                                                  
G18  25375779.471   133350616.993         976.324          39.000    25375772.743   103909538.907         760.831          40.000  
G28  24105851.995   126677106.534       -2955.674          41.000    24105844.359    98709395.489       -2303.091          42.000  
G03  25620352.337   134635836.188       -3021.900          34.000    25620363.212   104911041.358       -2354.415          37.000  
G26  21724460.026   114162809.236       -2193.926          47.000    21724452.888    88958002.353       -1709.521          45.000  
C10  39433618.117   205341197.147         668.066          38.000    39433606.565   158782790.795         516.626          43.000  
C28  23903579.535   124472212.331        1447.144          47.000                                                                  
C23  25089969.042   130650054.712       -2274.849          44.000                                                                  
C16  37175710.230   193583662.863          34.573          49.000    37175697.942   149691130.693          26.662          49.000  
C27  25428374.891   132412227.745        2779.791          40.000                                                                  
C19  25736330.870   134015815.380         401.156          41.000                                                                  
C09  37809933.761   196886232.089         190.594          45.000    37809918.524   152244876.107         147.423          48.000  
C11                                                                  27082257.876   109049029.304       -1932.037          43.000  
> 2025 10 28 08 25 26.5220000  0 24                     
G04  21678783.505   113922774.121         426.652          45.000    21678774.324    88770957.042         332.559          46.000  
G27  21801906.786   114569801.366        2521.083          45.000    21801899.206    89275134.006        1964.381          44.000  
G16  20656657.493   108551468.208        -277.243          47.000                                                                  
G08  23915414.860   125676352.121        3477.797          37.000    23915414.738    97929634.324        2710.406          38.000  
G09  23834407.867   125250663.027        2366.146          38.000    23834402.276    97597891.740        1843.469          36.000  
G31  21935440.755   115271523.262       -2044.899          46.000    21935430.402    89821916.790       -1593.374          44.000  
C06  36736632.601   191297267.267          34.635          47.000    36736614.265   147923123.151          26.775          49.000  
C32  26594729.793   138485697.580       -3575.956          38.000                                                                  
C37  22869463.432   119087285.363        -550.289          50.000                                                                  
C07  38371419.530   199810044.673         712.332          41.000    38371402.650   154505741.037         550.765          45.000  
C13  41728011.314   217288699.116       -2334.983          37.000    41728042.812   168021539.153       -1805.059          38.000  
C20  24585738.933   128024381.065       -2081.148          46.000                                                                  
G18  25375772.041   133350577.961         975.811          39.000    25375765.310   103909508.508         760.164          40.000  
G28  24105874.487   126677224.787       -2956.271          41.000    24105866.857    98709487.631       -2303.497          42.000  
G03  25620375.353   134635957.091       -3022.604          34.000    25620386.235   104911135.580       -2355.195          37.000  
G26  21724476.758   114162897.022       -2194.534          47.000    21724469.606    88958070.760       -1710.037          45.000  
C10  39433612.972   205341170.446         667.596          38.000    39433601.415   158782770.145         516.272          43.000  
C28  23903568.437   124472154.480        1446.437          47.000                                                                  
C23  25089986.521   130650145.723       -2275.277          44.000                                                                  
C16  37175709.981   193583661.504          34.044          49.000    37175697.702   149691129.645          26.217          49.000  
C27  25428353.554   132412116.594        2779.029          40.000                                                                  
C19  25736327.799   134015799.353         400.729          41.000                                                                  
C09  37809932.274   196886224.498         189.932          45.000    37809917.041   152244870.241         146.797          48.000  
C11                                                                  27082277.092   109049106.604       -1932.541          43.000  
