     3.04           OBSERVATION DATA    M: Mixed            RINEX VERSION / TYPE
RTKCONV 2.4.3 b34                       20251028 071246 UTC PGM / RUN BY / DATE 
format: u-blox UBX                                          COMMENT             
log: D:\GPdata\10_28\fingure_up_10_28_phone_2.ubx           COMMENT             
                                                            MARKER NAME         
                                                            MARKER NUMBER       
                                                            MARKER TYPE         
                                                            OBSERVER / AGENCY   
                                                            REC # / TYPE / VERS 
                                                            ANT # / TYPE        
        0.0000        0.0000        0.0000                  APPROX POSITION XYZ 
        0.0000        0.0000        0.0000                  ANTENNA: DELTA H/E/N
G    8 C1C L1C D1C S1C C2L L2L D2L S2L                      SYS / # / OBS TYPES 
C    8 C2I L2I D2I S2I C7I L7I D7I S7I                      SYS / # / OBS TYPES 
  2025    10    28    07    06   29.3560000     GPS         TIME OF FIRST OBS   
  2025    10    28    07    06   53.6360000     GPS         TIME OF LAST OBS    
G L1C                                                       SYS / PHASE SHIFT   
G L2L  0.00000                                              SYS / PHASE SHIFT   
C L2I                                                       SYS / PHASE SHIFT   
C L7I                                                       SYS / PHASE SHIFT   
  0                                                         GLONASS SLOT / FRQ #
 C1C    0.000 C1P    0.000 C2C    0.000 C2P    0.000        GLONASS COD/PHS/BIS 
                                                            END OF HEADER       
> 2025 10 28 07 06 29.3560000  0 21                     
G03  21832776.032   114732013.2481      -1562.988          42.000    21832771.585    89401550.8531      -1217.628          37.000  
G16  19907081.790   104612423.9701       2029.403          45.000                                                                  
G26  18881474.736    99222819.5701       -511.202          49.000    18881465.889    77316447.9361       -398.267          47.000  
G28  20460101.229   107518560.2061      -1741.014          45.000    20460090.306    83780650.6441      -1356.758          45.000  
G31  19269674.828   101262828.8761       -512.818          47.000    19269662.898    78906051.4701       -399.554          45.000  
C06  35197118.119   183280631.1931        -83.145          48.000    35197098.575   141724131.6721        -64.458          47.000  
C09  36347091.201   189268843.8401        -51.801          45.000    36347075.039   146354610.5641        -40.195          47.000  
C13  37980918.430   197776604.1751      -2440.233          38.000    37980916.663   152933410.6771      -1886.677          40.000  
C16  35632533.820   185547954.6231        -96.415          47.000    35632520.573   143477396.0511        -74.537          47.000  
C23  21686321.855   112926365.5951      -1817.494          44.000                                                                  
C32  22054798.914   114845129.2691      -2697.287          44.000                                                                  
G32  22051213.561   115879902.5081      -3729.823          42.000    22051210.053    90296016.8381      -2906.393          39.000  
G27  23244084.339   122148521.5041       3658.087          34.000    23244101.186    95180754.1381       2850.836          35.000  
G04  21739764.496                2       2779.872          26.000    21739756.880                1       2165.736          31.000  
C37  21219842.569   110497288.2731        319.947          50.000                                                                  
C08  38871662.173   202414937.7661      -2539.139          34.000    38871659.905   156520059.4701      -1963.798          41.000  
C20  22295103.298   116096451.8121        510.224          49.000                                                                  
C28  24297135.696   126521581.2951       2443.099          41.000                                                                  
C07  37662896.340   196120587.8731       1051.599          40.000    37662881.964   151652821.4031        813.263          43.000  
C10  38643968.460   201229294.0481        915.721          35.000    38643965.542   155603244.4401        707.813          43.000  
G29                                                                  22204174.979                       -1554.279          29.000  
> 2025 10 28 07 06 29.3960000  0 21                     
G03  21832787.932   114732075.770       -1563.078          42.000    21832783.498    89401599.586       -1218.027          37.000  
G16  19907066.323   104612342.789        2029.478          45.000                                                                  
G26  18881478.627    99222840.013        -511.140          49.000    18881469.792    77316463.871        -398.349          47.000  
G28  20460114.489   107518629.850       -1741.050          45.000    20460103.572    83780704.910       -1356.708          45.000  
G31  19269678.727   101262849.390        -512.830          47.000    19269666.791    78906067.456        -399.585          45.000  
C06  35197118.728   183280634.527         -83.252          48.000    35197099.185   141724134.245         -64.386          47.000  
C09  36347091.582   189268845.927         -52.064          45.000    36347075.430   146354612.181         -40.385          47.000  
C13  37980937.194   197776701.785       -2440.163          38.000    37980935.405   152933486.169       -1887.053          40.000  
C16  35632534.524   185547958.476         -96.350          48.000    35632521.298   143477399.034         -74.526          47.000  
C23  21686335.796   112926438.295       -1817.500          44.000                                                                  
C32  22054819.658   114845237.151       -2697.168          44.000                                                                  
G32  22051241.944   115880051.699       -3729.817          42.000    22051238.440    90296133.084       -2906.256          39.000  
G27  23244056.470   122148375.149        3658.416          34.000    23244073.320    95180640.117        2850.600          35.000  
G04  21739743.663                2       2779.968          26.000    21739735.711                        2165.990          31.000  
C37  21219840.097   110497275.483         319.828          50.000                                                                  
C08  38871681.688   202415039.350       -2539.439          34.000    38871679.412   156520138.006       -1963.499          41.000  
C20  22295099.341   116096431.413         510.045          49.000                                                                  
C28  24297116.918   126521483.582        2442.923          41.000                                                                  
C07  37662888.256   196120545.805        1051.654          40.000    37662873.878   151652788.870         813.306          43.000  
C10  38643961.425   201229257.435         915.535          35.000    38643958.501   155603216.124         707.884          43.000  
G29                                                                  22204190.433                       -1554.549          29.000  
> 2025 10 28 07 06 29.4360000  0 21                     
G03  21832799.825   114732138.307       -1563.366          42.000    21832795.397    89401648.313       -1218.184          37.000  
G16  19907050.868   104612261.616        2029.381          45.000                                                                  
G26  18881482.532    99222860.463        -511.248          49.000    18881473.681    77316479.805        -398.361          47.000  
G28  20460127.751   107518699.506       -1741.288          45.000    20460116.830    83780759.191       -1356.917          45.000  
G31  19269682.630   101262869.910        -512.990          47.000    19269670.696    78906083.446        -399.715          45.000  
C06  35197119.363   183280637.860         -83.348          48.000    35197099.833   141724136.823         -64.441          47.000  
C09  36347091.955   189268848.015         -52.222          45.000    36347075.830   146354613.791         -40.370          47.000  
C13  37980955.932   197776799.380       -2439.949          38.000    37980954.146   152933561.647       -1886.997          40.000  
C16  35632535.234   185547962.334         -96.400          48.000    35632522.014   143477402.018         -74.569          47.000  
C23  21686349.745   112926510.996       -1817.538          44.000                                                                  
C32  22054840.391   114845345.032       -2697.031          44.000                                                                  
G32  22051270.348   115880200.902       -3730.041          42.000    22051266.839    90296249.334       -2906.225          39.000  
G27  23244028.619   122148228.834        3657.905          34.000    23244045.463    95180526.075        2850.912          35.000  
G04  21739722.345                2       2780.050          27.000    21739714.912                        2166.279          31.000  
C37  21219837.625   110497262.694         319.731          50.000                                                                  
C08  38871701.182   202415140.920       -2539.358          34.000    38871698.938   156520216.548       -1963.528          41.000  
C20  22295095.395   116096411.016         509.922          49.000                                                                  
C28  24297098.164   126521385.869        2442.828          41.000                                                                  
C07  37662880.182   196120503.743        1051.477          40.000    37662865.787   151652756.345         813.196          43.000  
C10  38643954.384   201229220.823         915.407          35.000    38643951.466   155603187.806         707.945          43.000  
G29                                                                  22204205.186                       -1554.505          29.000  
> 2025 10 28 07 06 29.4760000  0 21                     
G03  21832811.718   114732200.826       -1563.226          42.000    21832807.299    89401697.046       -1218.403          37.000  
G16  19907035.438   104612180.447        2029.244          45.000                                                                  
G26  18881486.415    99222880.910        -511.234          49.000    18881477.581    77316495.741        -398.437          47.000  
G28  20460141.005   107518769.153       -1741.270          45.000    20460130.077    83780813.456       -1356.791          45.000  
G31  19269686.559   101262890.429        -513.008          47.000    19269674.599    78906099.430        -399.659          45.000  
C06  35197119.985   183280641.187         -83.232          48.000    35197100.463   141724139.395         -64.381          47.000  
C09  36347092.333   189268850.082         -51.861          45.000    36347076.266   146354615.393         -40.171          47.000  
C13  37980974.676   197776897.005       -2440.374          38.000    37980972.902   152933637.138       -1887.196          40.000  
C16  35632535.997   185547966.189         -96.393          48.000    35632522.756   143477405.005         -74.654          47.000  
C23  21686363.713   112926583.697       -1817.537          44.000                                                                  
C32  22054861.090   114845452.925       -2697.207          44.000                                                                  
G32  22051298.757   115880350.102       -3730.057          42.000    22051295.234    90296365.596       -2906.494          39.000  
G27  23244000.752   122148082.460        3658.807          34.000    23244017.621    95180412.012        2851.503          35.000  
G04  21739701.031                2       2780.250          27.000    21739693.716                        2166.814          31.000  
C37  21219835.163   110497249.904         319.707          50.000                                                                  
C08  38871720.701   202415242.525       -2540.036          34.000    38871718.449   156520295.092       -1963.556          41.000  
C20  22295091.474   116096390.612         510.015          49.000                                                                  
C28  24297079.389   126521288.153        2442.856          41.000                                                                  
C07  37662872.116   196120461.669        1051.678          40.000    37662857.701   151652723.805         813.397          43.000  
C10  38643947.368   201229184.213         915.292          35.000    38643944.451   155603159.494         707.852          43.000  
G29                                                                  22204220.253                       -1554.438          29.000  
> 2025 10 28 07 06 29.5160000  0 21                     
G03  21832823.615   114732263.346       -1563.104          42.000    21832819.200    89401745.770       -1218.279          37.000  
G16  19907019.987   104612099.278        2029.183          45.000                                                                  
G26  18881490.284    99222901.361        -511.302          49.000    18881481.480    77316511.673        -398.372          47.000  
G28  20460154.264   107518838.808       -1741.392          45.000    20460143.338    83780867.724       -1356.731          45.000  
G31  19269690.456   101262910.945        -512.965          47.000    19269678.510    78906115.411        -399.585          45.000  
C06  35197120.620   183280644.524         -83.386          48.000    35197101.105   141724141.974         -64.463          47.000  
C09  36347092.722   189268852.157         -51.832          45.000    36347076.654   146354616.994         -40.059          47.000  
C13  37980993.428   197776994.643       -2440.850          38.000    37980991.648   152933712.601       -1886.748          40.000  
C16  35632536.714   185547970.059         -96.656          48.000    35632523.521   143477407.985         -74.594          47.000  
C23  21686377.690   112926656.392       -1817.411          44.000                                                                  
C32  22054881.811   114845560.813       -2697.250          45.000                                                                  
G32  22051327.138   115880499.299       -3729.975          42.000    22051323.630    90296481.848       -2906.392          39.000  
G27  23243972.890   122147936.084        3659.277          34.000    23243989.749    95180297.976        2851.201          35.000  
G04  21739679.781                2       2780.448          27.000    21739671.971                        2166.865          31.000  
C37  21219832.728   110497237.111         319.746          50.000                                                                  
C08  38871740.229   202415344.100       -2539.789          34.000    38871737.961   156520373.641       -1963.721          41.000  
C20  22295087.564   116096370.214         509.948          49.000                                                                  
C28  24297060.610   126521190.432        2442.911          42.000                                                                  
C07  37662864.042   196120419.592        1051.868          40.000    37662849.602   151652691.284         813.147          43.000  
C10  38643940.325   201229147.607         915.170          35.000    38643937.413   155603131.179         707.872          43.000  
G29                                                                  22204235.004                       -1554.831          29.000  
> 2025 10 28 07 06 29.5560000  0 21                     
G03  21832835.513   114732325.877       -1563.257          42.000    21832831.099    89401794.488       -1218.083          37.000  
G16  19907004.530   104612018.109        2029.168          45.000                                                                  
G26  18881494.156    99222921.813        -511.339          49.000    18881485.380    77316527.607        -398.372          47.000  
G28  20460167.538   107518908.466       -1741.483          45.000    20460156.596    83780921.993       -1356.699          45.000  
G31  19269694.353   101262931.456        -512.811          47.000    19269682.419    78906131.396        -399.616          45.000  
C06  35197121.246   183280647.859         -83.416          48.000    35197101.715   141724144.552         -64.480          47.000  
C09  36347093.124   189268854.247         -52.100          45.000    36347077.020   146354618.607         -40.245          47.000  
C13  37981012.177   197777092.251       -2440.530          38.000    37981010.405   152933788.097       -1887.099          40.000  
C16  35632537.428   185547973.917         -96.577          48.000    35632524.248   143477410.974         -74.735          47.000  
C23  21686391.649   112926729.088       -1817.374          44.000                                                                  
C32  22054902.532   114845668.704       -2697.255          45.000                                                                  
G32  22051355.496   115880648.478       -3729.640          42.000    22051352.033    90296598.110       -2906.497          39.000  
G27  23243945.026   122147789.759        3658.585          34.000    23243961.906    95180183.965        2850.641          35.000  
G04  21739658.667                2       2780.535          27.000    21739650.779                        2166.568          31.000  
C37  21219830.252   110497224.324         319.677          50.000                                                                  
C08  38871759.752   202415445.676       -2539.529          34.000    38871757.458   156520452.185       -1963.705          41.000  
C20  22295083.651   116096349.813         509.954          49.000                                                                  
C28  24297041.821   126521092.725        2442.688          42.000                                                                  
C07  37662855.979   196120377.517        1051.917          40.000    37662841.554   151652658.749         813.257          43.000  
C10  38643933.284   201229110.982         915.442          35.000    38643930.394   155603102.871         707.726          43.000  
G29                                                                  22204250.288                       -1554.799          29.000  
> 2025 10 28 07 06 29.5960000  0 21                     
G03  21832847.421   114732388.406       -1563.293          42.000    21832842.999    89401843.197       -1217.840          37.000  
G16  19906989.071   104611936.935        2029.272          45.000                                                                  
G26  18881498.048    99222942.260        -511.250          49.000    18881489.284    77316543.542        -398.391          47.000  
G28  20460180.785   107518978.109       -1741.258          45.000    20460169.873    83780976.274       -1356.917          45.000  
G31  19269698.260   101262951.967        -512.768          47.000    19269686.325    78906147.393        -399.832          45.000  
C06  35197121.885   183280651.183         -83.235          48.000    35197102.318   141724147.128         -64.430          47.000  
C09  36347093.527   189268856.327         -52.054          45.000    36347077.410   146354620.212         -40.195          47.000  
C13  37981030.923   197777189.854       -2440.156          38.000    37981029.165   152933863.569       -1886.928          40.000  
C16  35632538.172   185547977.777         -96.543          48.000    35632525.032   143477413.963         -74.796          47.000  
C23  21686405.620   112926801.797       -1817.595          44.000                                                                  
C32  22054923.263   114845776.589       -2697.180          45.000                                                                  
G32  22051383.906   115880797.678       -3729.841          42.000    22051380.424    90296714.368       -2906.477          39.000  
G27  23243917.158   122147643.395        3658.837          34.000    23243934.063    95180069.954        2850.305          35.000  
G04  21739637.434                2       2780.888          27.000    21739629.660    89020294.7631       2166.669          31.000  
C37  21219827.790   110497211.532         319.723          50.000                                                                  
C08  38871779.250   202415547.239       -2539.196          34.000    38871776.968   156520530.729       -1963.672          41.000  
C20  22295079.746   116096329.413         509.960          49.000                                                                  
C28  24297023.028   126520995.003        2442.883          42.000                                                                  
C07  37662847.908   196120335.454        1051.697          40.000    37662833.448   151652626.230         813.061          43.000  
C10  38643926.279   201229074.369         915.450          35.000    38643923.328   155603074.570         707.494          43.000  
G29                                                                  22204265.580                       -1554.480          29.000  
> 2025 10 28 07 06 29.6360000  0 21                     
G03  21832859.321   114732450.944       -1563.455          42.000    21832854.885    89401891.935       -1218.245          37.000  
G16  19906973.621   104611855.770        2029.179          45.000                                                                  
G26  18881501.941    99222962.713        -511.332          49.000    18881493.179    77316559.478        -398.416          47.000  
G28  20460194.047   107519047.762       -1741.298          45.000    20460183.119    83781030.544       -1356.854          45.000  
G31  19269702.180   101262972.484        -512.885          47.000    19269690.218    78906163.382        -399.813          45.000  
C06  35197122.513   183280654.508         -83.126          48.000    35197102.955   141724149.699         -64.326          47.000  
C09  36347093.949   189268858.405         -51.977          45.000    36347077.824   146354621.827         -40.360          47.000  
C13  37981049.665   197777287.458       -2440.038          38.000    37981047.905   152933939.062       -1887.264          40.000  
C16  35632538.907   185547981.637         -96.522          48.000    35632525.791   143477416.941         -74.608          47.000  
C23  21686419.589   112926874.508       -1817.744          44.000                                                                  
C32  22054943.998   114845884.476       -2697.199          45.000                                                                  
G32  22051412.303   115880946.868       -3729.779          42.000    22051408.820    90296830.627       -2906.445          39.000  
G27  23243889.329   122147497.058        3658.531          34.000    23243906.208    95179955.912        2850.745          35.000  
G04  21739616.168                2       2780.866          27.000    21739608.511                        2166.763          31.000  
C37  21219825.357   110497198.741         319.736          50.000                                                                  
C08  38871798.758   202415648.817       -2539.308          34.000    38871796.495   156520609.281       -1963.780          41.000  
C20  22295075.816   116096309.019         509.849          49.000                                                                  
C28  24297004.242   126520897.291        2442.805          42.000                                                                  
C07  37662839.810   196120293.389        1051.636          40.000    37662825.353   151652593.702         813.074          43.000  
C10  38643919.238   201229037.740         915.651          35.000    38643916.307   155603046.250         707.784          43.000  
G29                                                                  22204281.001                       -1554.775          29.000  
> 2025 10 28 07 06 29.6760000  0 21                     
G03  21832871.226   114732513.484       -1563.552          42.000    21832866.778    89401940.657       -1218.135          37.000  
G16  19906958.173   104611774.607        2029.060          45.000                                                                  
G26  18881505.855    99222983.168        -511.407          49.000    18881497.037    77316575.415        -398.453          47.000  
G28  20460207.287   107519117.406       -1741.169          45.000    20460196.366    83781084.829       -1357.047          45.000  
G31  19269706.116   101262993.010        -513.119          47.000    19269694.150    78906179.371        -399.787          45.000  
C06  35197123.146   183280657.844         -83.282          48.000    35197103.575   141724152.279         -64.427          47.000  
C09  36347094.347   189268860.491         -52.111          45.000    36347078.220   146354623.443         -40.439          47.000  
C13  37981068.409   197777385.088       -2440.458          38.000    37981066.658   152934014.549       -1887.350          40.000  
C16  35632539.634   185547985.499         -96.556          48.000    35632526.535   143477419.931         -74.700          47.000  
C23  21686433.547   112926947.218       -1817.811          44.000                                                                  
C32  22054964.707   114845992.377       -2697.436          45.000                                                                  
G32  22051440.698   115881096.075       -3730.072          42.000    22051437.193    90296946.883       -2906.459          39.000  
G27  23243861.469   122147350.738        3658.109          34.000    23243878.340    95179841.895        2850.481          35.000  
G04  21739594.496                2       2780.815          27.000    21739587.515    89020121.396        2166.951          31.000  
C37  21219822.891   110497185.960         319.563          50.000                                                                  
C08  38871818.264   202415750.393       -2539.323          34.000    38871815.993   156520687.839       -1963.951          41.000  
C20  22295071.899   116096288.627         509.807          49.000                                                                  
C28  24296985.461   126520799.583        2442.705          42.000                                                                  
C07  37662831.729   196120251.339        1051.276          40.000    37662817.293   151652561.178         813.086          43.000  
C10  38643912.204   201229001.137         915.336          35.000    38643909.217   155603017.935         707.846          43.000  
G29                                                                  22204296.449                       -1554.129          29.000  
> 2025 10 28 07 06 29.7160000  0 21                     
G03  21832883.133   114732576.020       -1563.544          42.000    21832878.661    89401989.381       -1218.077          37.000  
G16  19906942.738   104611693.444        2029.019          45.000                                                                  
G26  18881509.731    99223003.618        -511.323          49.000    18881500.938    77316591.353        -398.458          47.000  
G28  20460220.555   107519187.066       -1741.395          45.000    20460209.606    83781139.107       -1357.057          45.000  
G31  19269710.028   101263013.531        -513.112          47.000    19269698.035    78906195.356        -399.682          45.000  
C06  35197123.760   183280661.191         -83.578          48.000    35197104.218   141724154.857         -64.452          47.000  
C09  36347094.747   189268862.565         -51.964          45.000    36347078.635   146354625.051         -40.315          47.000  
C13  37981087.152   197777482.716       -2440.695          38.000    37981085.404   152934090.036       -1887.295          40.000  
C16  35632540.392   185547989.362         -96.616          48.000    35632527.300   143477422.914         -74.627          47.000  
C23  21686447.530   112927019.929       -1817.853          44.000                                                                  
C32  22054985.423   114846100.278       -2697.558          45.000                                                                  
G32  22051469.111   115881245.265       -3729.864          42.000    22051465.581    90297063.144       -2906.508          39.000  
G27  23243833.600   122147204.414        3657.955          34.000    23243850.487    95179727.867        2850.624          35.000  
G04  21739573.339                2       2780.472          27.000    21739566.533                        2165.737          31.000  
C37  21219820.464   110497173.175         319.554          50.000                                                                  
C08  38871837.766   202415851.999       -2539.891          34.000    38871835.500   156520766.381       -1963.734          41.000  
C20  22295067.986   116096268.241         509.653          49.000                                                                  
C28  24296966.679   126520701.871        2442.779          42.000                                                                  
C07  37662823.673   196120209.274        1051.434          40.000    37662809.183   151652528.652         813.104          43.000  
C10  38643905.175   201228964.531         915.189          35.000    38643902.188   155602989.636         707.596          43.000  
G29                                                                  22204311.571                       -1554.142          29.000  
> 2025 10 28 07 06 29.7560000  0 21                     
G03  21832895.053   114732638.544       -1563.292          42.000    21832890.564    89402038.122       -1218.444          37.000  
G16  19906927.311   104611612.274        2029.143          45.000                                                                  
G26  18881513.589    99223024.065        -511.229          49.000    18881504.841    77316607.293        -398.508          47.000  
G28  20460233.822   107519256.713       -1741.265          45.000    20460222.846    83781193.383       -1356.994          45.000  
G31  19269713.904   101263034.048        -513.001          47.000    19269701.961    78906211.348        -399.769          45.000  
C06  35197124.431   183280664.525         -83.518          48.000    35197104.848   141724157.435         -64.451          47.000  
C09  36347095.134   189268864.650         -52.080          45.000    36347079.051   146354626.655         -40.183          47.000  
C13  37981105.889   197777580.332       -2440.459          38.000    37981104.136   152934165.508       -1886.980          40.000  
C16  35632541.133   185547993.212         -96.406          48.000    35632528.068   143477425.896         -74.556          47.000  
C23  21686461.499   112927092.617       -1817.404          44.000                                                                  
C32  22055006.135   114846208.167       -2697.389          45.000                                                                  
G32  22051497.485   115881394.476       -3730.188          42.000    22051493.983    90297179.395       -2906.428          39.000  
G27  23243805.738   122147058.023        3659.192          34.000    23243822.630    95179613.842        2850.642          35.000  
G04  21739552.427                2       2780.032          27.000    21739545.174                        2165.935          31.000  
C37  21219818.043   110497160.389         319.594          50.000                                                                  
C08  38871857.273   202415953.605       -2540.177          34.000    38871854.991   156520844.933       -1963.778          41.000  
C20  22295064.090   116096247.841         509.851          49.000                                                                  
C28  24296947.932   126520604.153        2442.893          41.000                                                                  
C07  37662815.587   196120167.212        1051.501          40.000    37662801.099   151652496.125         813.165          43.000  
C10  38643898.158   201228927.903         915.576          35.000    38643895.147   155602961.320         707.716          43.000  
G29                                                                  22204326.877                       -1554.229          29.000  
> 2025 10 28 07 06 29.7960000  0 21                     
G03  21832906.953   114732701.075       -1563.307          42.000    21832902.463    89402086.824       -1217.882          37.000  
G16  19906911.871   104611531.107        2029.155          45.000                                                                  
G26  18881517.488    99223044.517        -511.262          49.000    18881508.741    77316623.231        -398.501          47.000  
G28  20460247.093   107519326.366       -1741.320          45.000    20460236.100    83781247.652       -1356.819          45.000  
G31  19269717.782   101263054.566        -512.970          47.000    19269705.870    78906227.333        -399.682          45.000  
C06  35197125.052   183280667.847         -83.230          48.000    35197105.491   141724160.012         -64.464          47.000  
C09  36347095.563   189268866.725         -51.951          45.000    36347079.460   146354628.253         -40.008          47.000  
C13  37981124.631   197777677.914       -2439.831          38.000    37981122.875   152934240.978       -1886.767          40.000  
C16  35632541.858   185547997.072         -96.456          48.000    35632528.826   143477428.882         -74.585          47.000  
C23  21686475.474   112927165.310       -1817.271          44.000                                                                  
C32  22055026.854   114846316.061       -2697.383          45.000                                                                  
G32  22051525.881   115881543.665       -3729.894          42.000    22051522.387    90297295.653       -2906.466          39.000  
G27  23243777.886   122146911.657        3659.510          34.000    23243794.777    95179499.814        2850.679          35.000  
G04  21739531.045                2       2779.742          27.000    21739523.711                        2166.213          31.000  
C37  21219815.593   110497147.596         319.742          50.000                                                                  
C08  38871876.787   202416055.156       -2539.223          34.000    38871874.511   156520923.479       -1963.702          41.000  
C20  22295060.182   116096227.444         509.912          49.000                                                                  
C28  24296929.160   126520506.421        2443.194          41.000                                                                  
C07  37662807.473   196120125.133        1051.801          40.000    37662793.019   151652463.590         813.324          43.000  
C10  38643891.105   201228891.298         915.390          35.000    38643888.082   155602933.005         707.814          43.000  
G29                                                                  22204342.432                       -1554.291          29.000  
> 2025 10 28 07 06 29.8360000  0 21                     
G03  21832918.834   114732763.613       -1563.459          42.000    21832914.368    89402135.557       -1218.201          37.000  
G16  19906896.435   104611449.934        2029.273          45.000                                                                  
G26  18881521.407    99223064.973        -511.387          49.000    18881512.633    77316639.165        -398.413          47.000  
G28  20460260.339   107519396.016       -1741.285          45.000    20460249.318    83781301.917       -1356.687          45.000  
G31  19269721.684   101263075.091        -513.100          47.000    19269709.779    78906243.326        -399.775          45.000  
C06  35197125.715   183280671.177         -83.223          48.000    35197106.162   141724162.588         -64.425          47.000  
C09  36347095.951   189268868.801         -51.895          45.000    36347079.864   146354629.859         -40.081          47.000  
C13  37981143.384   197777775.532       -2440.131          38.000    37981141.622   152934316.459       -1886.914          40.000  
C16  35632542.586   185548000.933         -96.521          48.000    35632529.551   143477431.864         -74.595          47.000  
C23  21686489.422   112927238.015       -1817.476          44.000                                                                  
C32  22055047.604   114846423.950       -2697.290          45.000                                                                  
G32  22051554.274   115881692.872       -3730.145          42.000    22051550.777    90297411.899       -2906.273          39.000  
G27  23243750.022   122146765.345        3658.612          34.000    23243766.908    95179385.773        2850.804          35.000  
G04  21739509.807                2       2779.807          27.000    21739502.257                        2166.153          31.000  
C37  21219813.138   110497134.804         319.811          50.000                                                                  
C08  38871896.271   202416156.710       -2538.833          34.000    38871894.008   156521002.012       -1963.426          41.000  
C20  22295056.251   116096207.054         509.770          49.000                                                                  
C28  24296910.380   126520408.699        2443.137          41.000                                                                  
C07  37662799.373   196120083.066        1051.752          40.000    37662784.917   151652431.056         813.348          43.000  
C10  38643884.085   201228854.688         915.290          35.000    38643881.069   155602904.698         707.722          43.000  
G29                                                                  22204357.742                       -1554.358          29.000  
> 2025 10 28 07 06 29.8760000  0 21                     
G03  21832930.735   114732826.148       -1563.464          42.000    21832926.285    89402184.304       -1218.588          37.000  
G16  19906881.015   104611368.772        2029.143          45.000                                                                  
G26  18881525.300    99223085.429        -511.424          49.000    18881516.499    77316655.110        -398.570          47.000  
G28  20460273.575   107519465.664       -1741.228          45.000    20460262.571    83781356.198       -1356.899          45.000  
G31  19269725.588   101263095.616        -513.155          47.000    19269713.701    78906259.314        -399.757          45.000  
C06  35197126.369   183280674.504         -83.202          48.000    35197106.806   141724165.160         -64.355          47.000  
C09  36347096.352   189268870.878         -51.903          45.000    36347080.276   146354631.471         -40.273          47.000  
C13  37981162.132   197777873.140       -2440.154          38.000    37981160.386   152934391.929       -1886.811          40.000  
C16  35632543.369   185548004.792         -96.514          48.000    35632530.309   143477434.850         -74.682          47.000  
C23  21686503.365   112927310.734       -1817.859          44.000                                                                  
C32  22055068.337   114846531.840       -2697.266          45.000                                                                  
G32  22051582.655   115881842.072       -3730.049          42.000    22051579.167    90297528.168       -2906.655          39.000  
G27  23243722.173   122146619.001        3658.656          34.000    23243739.062    95179271.723        2851.156          35.000  
G04  21739488.991                2       2779.964          27.000    21739481.152                        2166.427          31.000  
C37  21219810.651   110497122.019         319.699          50.000                                                                  
C08  38871915.782   202416258.295       -2539.189          34.000    38871913.522   156521080.562       -1963.606          41.000  
C20  22295052.312   116096186.661         509.771          49.000                                                                  
C28  24296891.606   126520310.997        2442.729          41.000                                                                  
C07  37662791.281   196120041.001        1051.648          40.000    37662776.842   151652398.522         813.385          43.000  
C10  38643877.085   201228818.071         915.431          35.000    38643874.054   155602876.385         707.789          43.000  
G29                                                                  22204372.803                       -1555.021          29.000  
> 2025 10 28 07 06 29.9160000  0 21                     
G03  21832942.610   114732888.692       -1563.671          42.000    21832938.186    89402233.032       -1218.465          37.000  
G16  19906865.585   104611287.618        2028.926          45.000                                                                  
G26  18881529.178    99223105.899        -511.693          49.000    18881520.390    77316671.059        -398.746          47.000  
G28  20460286.828   107519535.324       -1741.425          45.000    20460275.850    83781410.478       -1357.002          45.000  
G31  19269729.509   101263116.147        -513.309          47.000    19269717.598    78906275.299        -399.646          45.000  
C06  35197127.026   183280677.838         -83.315          48.000    35197107.457   141724167.738         -64.415          47.000  
C09  36347096.725   189268872.958         -51.948          45.000    36347080.679   146354633.086         -40.411          47.000  
C13  37981180.882   197777970.769       -2440.610          38.000    37981179.128   152934467.418       -1887.095          40.000  
C16  35632544.123   185548008.654         -96.565          48.000    35632531.071   143477437.838         -74.751          47.000  
C23  21686517.332   112927383.440       -1817.817          44.000                                                                  
C32  22055089.040   114846639.735       -2697.354          45.000                                                                  
G32  22051611.043   115881991.261       -3729.837          42.000    22051607.546    90297644.419       -2906.459          39.000  
G27  23243694.307   122146472.642        3658.870          34.000    23243711.210    95179157.678        2851.215          35.000  
G04  21739467.689                2       2780.587          27.000    21739459.929                        2166.808          31.000  
C37  21219808.168   110497109.233         319.635          50.000                                                                  
C08  38871935.298   202416359.880       -2539.505          34.000    38871933.032   156521159.112       -1963.731          41.000  
C20  22295048.358   116096166.275         509.647          49.000                                                                  
C28  24296872.849   126520213.286        2442.651          41.000                                                                  
C07  37662783.201   196119998.931        1051.697          40.000    37662768.784   151652366.000         813.141          43.000  
C10  38643870.078   201228781.486         914.867          35.000    38643867.036   155602848.078         707.695          43.000  
G29                                                                  22204388.129                       -1554.996          29.000  
> 2025 10 28 07 06 29.9560000  0 21                     
G03  21832954.513   114732951.228       -1563.567          42.000    21832950.090    89402281.783       -1218.796          37.000  
G16  19906850.130   104611206.455        2028.975          46.000                                                                  
G26  18881533.074    99223126.365        -511.733          49.000    18881524.273    77316687.000        -398.674          47.000  
G28  20460300.078   107519604.983       -1741.472          45.000    20460289.116    83781464.758       -1357.050          45.000  
G31  19269733.417   101263136.663        -513.080          47.000    19269721.523    78906291.296        -399.862          45.000  
C06  35197127.691   183280681.182         -83.535          48.000    35197108.092   141724170.318         -64.508          47.000  
C09  36347097.132   189268875.035         -51.942          45.000    36347081.082   146354634.692         -40.292          47.000  
C13  37981199.639   197778068.381       -2440.431          38.000    37981197.874   152934542.920       -1887.472          40.000  
C16  35632544.856   185548012.523         -96.720          48.000    35632531.801   143477440.823         -74.708          47.000  
C23  21686531.296   112927456.142       -1817.663          44.000                                                                  
C32  22055109.741   114846747.641       -2697.576          45.000                                                                  
G32  22051639.446   115882140.463       -3729.982          42.000    22051635.936    90297760.681       -2906.527          39.000  
G27  23243666.433   122146326.283        3659.095          34.000    23243683.375    95179043.677        2850.438          35.000  
G04  21739446.685                2       2779.901          27.000    21739438.328                        2166.577          31.000  
C37  21219805.677   110497096.451         319.546          50.000                                                                  
C08  38871954.787   202416461.477       -2539.883          34.000    38871952.546   156521237.665       -1963.846          41.000  
C20  22295044.483   116096145.885         509.654          49.000                                                                  
C28  24296854.075   126520115.581        2442.580          41.000                                                                  
C07  37662775.119   196119956.863        1051.666          40.000    37662760.716   151652333.487         812.891          43.000  
C10  38643863.039   201228744.868         915.219          35.000    38643859.993   155602819.768         707.744          43.000  
G29                                                                  22204403.136                       -1555.179          29.000  
> 2025 10 28 07 06 29.9960000  0 21                     
G03  21832966.403   114733013.771       -1563.603          42.000    21832961.977    89402330.496       -1218.162          37.000  
G16  19906834.660   104611125.293        2028.997          46.000                                                                  
G26  18881536.955    99223146.820        -511.535          49.000    18881528.151    77316702.944        -398.641          47.000  
G28  20460313.334   107519674.641       -1741.487          45.000    20460302.363    83781519.028       -1356.897          45.000  
G31  19269737.307   101263157.175        -512.883          47.000    19269725.433    78906307.294        -399.972          45.000  
C06  35197128.362   183280684.512         -83.406          48.000    35197108.758   141724172.894         -64.471          47.000  
C09  36347097.507   189268877.118         -52.011          45.000    36347081.491   146354636.300         -40.242          47.000  
C13  37981218.382   197778165.997       -2440.357          38.000    37981216.603   152934618.396       -1887.233          40.000  
C16  35632545.621   185548016.378         -96.519          48.000    35632532.562   143477443.803         -74.597          47.000  
C23  21686545.223   112927528.841       -1817.507          44.000                                                                  
C32  22055130.458   114846855.535       -2697.475          45.000                                                                  
G32  22051667.845   115882289.661       -3730.007          42.000    22051664.342    90297876.948       -2906.651          40.000  
G27  23243638.563   122146179.959        3658.435          34.000    23243655.522    95178929.645        2850.618          35.000  
G04  21739425.459                2       2780.262          27.000    21739417.020                        2166.303          31.000  
C37  21219803.227   110497083.668         319.517          50.000                                                                  
C08  38871974.307   202416563.060       -2539.821          34.000    38871972.062   156521316.222       -1964.012          41.000  
C20  22295040.582   116096125.494         509.710          49.000                                                                  
C28  24296835.322   126520017.852        2442.983          42.000                                                                  
C07  37662767.034   196119914.799        1051.611          40.000    37662752.623   151652300.955         813.116          43.000  
C10  38643856.023   201228708.229         915.764          35.000    38643852.984   155602791.461         707.697          43.000  
G29                                                                  22204418.322                       -1555.129          29.000  
> 2025 10 28 07 06 30.0360000  0 21                     
G03  21832978.298   114733076.292       -1563.258          42.000    21832973.874    89402379.220       -1218.092          37.000  
G16  19906819.209   104611044.129        2029.036          46.000                                                                  
G26  18881540.847    99223167.271        -511.322          49.000    18881532.048    77316718.878        -398.421          47.000  
G28  20460326.569   107519744.294       -1741.408          45.000    20460315.603    83781573.293       -1356.683          45.000  
G31  19269741.248   101263177.691        -512.841          47.000    19269729.337    78906323.284        -399.842          45.000  
C06  35197129.013   183280687.832         -83.140          48.000    35197109.397   141724175.466         -64.373          47.000  
C09  36347097.886   189268879.200         -52.054          45.000    36347081.920   146354637.901         -40.084          47.000  
C13  37981237.126   197778263.605       -2440.160          38.000    37981235.355   152934693.869       -1886.948          40.000  
C16  35632546.400   185548020.222         -96.235          48.000    35632533.294   143477446.785         -74.592          47.000  
C23  21686559.163   112927601.543       -1817.536          44.000                                                                  
C32  22055151.189   114846963.428       -2697.374          45.000                                                                  
G32  22051696.230   115882438.862       -3730.056          42.000    22051692.740    90297993.216       -2906.743          39.000  
G27  23243610.709   122146033.606        3658.667          35.000    23243627.649    95178815.608        2850.892          35.000  
G04  21739404.310                2       2780.292          27.000    21739395.905                        2165.310          30.000  
C37  21219800.811   110497070.875         319.711          50.000                                                                  
C08  38871993.817   202416664.640       -2539.617          34.000    38871991.571   156521394.756       -1963.616          41.000  
C20  22295036.681   116096105.100         509.821          49.000                                                                  
C28  24296816.573   126519920.126        2443.163          42.000                                                                  
C07  37662758.962   196119872.727        1051.776          40.000    37662744.523   151652268.415         813.391          43.000  
C10  38643848.988   201228671.631         915.327          35.000    38643845.932   155602763.138         707.940          43.000  
G29                                                                  22204433.203                       -1554.323          29.000  
> 2025 10 28 07 06 30.0760000  0 21                     
G03  21832990.196   114733138.836       -1563.468          42.000    21832985.779    89402427.958       -1218.346          37.000  
G16  19906803.764   104610962.962        2029.106          46.000                                                                  
G26  18881544.735    99223187.721        -511.231          49.000    18881535.939    77316734.815        -398.417          47.000  
G28  20460339.819   107519813.933       -1741.129          45.000    20460328.864    83781627.560       -1356.644          45.000  
G31  19269745.165   101263198.209        -512.897          47.000    19269733.232    78906339.270        -399.688          45.000  
C06  35197129.682   183280691.155         -83.041          48.000    35197110.061   141724178.041         -64.368          47.000  
C09  36347098.301   189268881.276         -51.965          45.000    36347082.319   146354639.499         -39.973          47.000  
C13  37981255.842   197778361.216       -2440.187          38.000    37981254.109   152934769.348       -1886.966          40.000  
C16  35632547.127   185548024.078         -96.283          48.000    35632534.000   143477449.765         -74.542          47.000  
C23  21686573.123   112927674.234       -1817.386          44.000                                                                  
C32  22055171.884   114847071.324       -2697.351          45.000                                                                  
G32  22051724.625   115882588.063       -3730.055          42.000    22051721.138    90298109.467       -2906.468          40.000  
G27  23243582.869   122145887.275        3658.411          35.000    23243599.804    95178701.579        2850.801          35.000  
G04  21739383.032                2       2780.211          27.000    21739374.399                        2165.898          31.000  
C37  21219798.349   110497058.084         319.739          50.000                                                                  
C08  38872013.334   202416766.233       -2539.801          34.000    38872011.051   156521473.292       -1963.440          41.000  
C20  22295032.748   116096084.710         509.778          49.000                                                                  
C28  24296797.804   126519822.388        2443.423          41.000                                                                  
C07  37662750.869   196119830.640        1052.136          40.000    37662736.436   151652235.881         813.428          43.000  
C10  38643841.957   201228635.019         915.283          35.000    38643838.931   155602734.825         707.902          43.000  
G29                                                                  22204448.352                       -1554.102          30.000  
> 2025 10 28 07 06 30.1160000  0 21                     
G03  21833002.107   114733201.372       -1563.416          42.000    21832997.656    89402476.692       -1218.467          37.000  
G16  19906788.325   104610881.797        2029.105          46.000                                                                  
G26  18881548.635    99223208.175        -511.278          49.000    18881539.851    77316750.753        -398.419          47.000  
G28  20460353.088   107519883.590       -1741.271          45.000    20460342.142    83781681.835       -1356.778          45.000  
G31  19269749.103   101263218.736        -513.131          47.000    19269737.128    78906355.258        -399.701          45.000  
C06  35197130.338   183280694.477         -82.994          48.000    35197110.697   141724180.617         -64.388          47.000  
C09  36347098.690   189268883.348         -51.845          45.000    36347082.732   146354641.104         -40.038          47.000  
C13  37981274.584   197778458.818       -2440.103          38.000    37981272.834   152934844.820       -1886.835          40.000  
C16  35632547.889   185548027.931         -96.306          48.000    35632534.723   143477452.743         -74.453          47.000  
C23  21686587.058   112927746.943       -1817.608          44.000                                                                  
C32  22055192.589   114847179.216       -2697.308          45.000                                                                  
G32  22051753.011   115882737.262       -3730.043          42.000    22051749.535    90298225.712       -2906.145          39.000  
G27  23243554.994   122145740.904        3658.961          35.000    23243571.959    95178587.553        2850.721          35.000  
G04  21739361.844                2       2780.248          27.000    21739352.922    89019168.232        2166.427          31.000  
C37  21219795.896   110497045.294         319.724          50.000                                                                  
C08  38872032.835   202416867.791       -2539.195          34.000    38872030.548   156521551.842       -1963.647          41.000  
C20  22295028.855   116096064.320         509.759          49.000                                                                  
C28  24296779.033   126519724.675        2443.028          41.000                                                                  
C07  37662742.794   196119788.576        1051.849          40.000    37662728.356   151652203.345         813.422          43.000  
C10  38643834.930   201228598.406         915.270          35.000    38643831.920   155602706.500         708.096          43.000  
G29                                                                  22204463.857                       -1553.969          29.000  
> 2025 10 28 07 06 30.1560000  0 21                     
G03  21833014.018   114733263.914       -1563.530          42.000    21833009.543    89402525.426       -1218.477          37.000  
G16  19906772.886   104610800.644        2028.885          46.000                                                                  
G26  18881552.541    99223228.637        -511.467          49.000    18881543.755    77316766.696        -398.507          47.000  
G28  20460366.322   107519953.240       -1741.226          45.000    20460355.397    83781736.129       -1357.209          45.000  
G31  19269753.013   101263239.266        -513.266          47.000    19269741.048    78906371.255        -399.861          45.000  
C06  35197130.981   183280697.814         -83.259          48.000    35197111.340   141724183.181         -64.198          47.000  
C09  36347099.089   189268885.411         -51.646          45.000    36347083.126   146354642.715         -40.217          47.000  
C13  37981293.337   197778556.426       -2440.062          38.000    37981291.574   152934920.295       -1886.822          40.000  
C16  35632548.619   185548031.791         -96.432          48.000    35632535.466   143477455.725         -74.521          47.000  
C23  21686601.028   112927819.635       -1817.476          44.000                                                                  
C32  22055213.299   114847287.110       -2697.353          45.000                                                                  
G32  22051781.406   115882886.459       -3729.962          42.000    22051777.908    90298341.955       -2906.018          39.000  
G27  23243527.146   122145594.546        3659.215          35.000    23243544.103    95178473.529        2850.575          35.000  
G04  21739340.637                2       2780.229          27.000    21739331.733    89019081.545        2166.986          31.000  
C37  21219793.419   110497032.508         319.640          50.000                                                                  
C08  38872052.322   202416969.363       -2539.161          34.000    38872050.056   156521630.392       -1963.743          41.000  
C20  22295024.928   116096043.935         509.623          49.000                                                                  
C28  24296760.280   126519626.970        2442.642          41.000                                                                  
C07  37662734.707   196119746.505        1051.752          40.000    37662720.268   151652170.819         813.196          43.000  
C10  38643827.910   201228561.802         915.156          35.000    38643824.892   155602678.193         707.856          43.000  
G29                                                                  22204478.671                       -1555.794          30.000  
> 2025 10 28 07 06 30.1960000  0 21                     
G03  21833025.918   114733326.455       -1563.534          42.000    21833021.449    89402574.151       -1218.280          37.000  
G16  19906757.414   104610719.485        2028.884          46.000                                                                  
G26  18881556.454    99223249.102        -511.629          49.000    18881547.632    77316782.640        -398.626          47.000  
G28  20460379.592   107520022.898       -1741.407          45.000    20460368.655    83781790.402       -1357.048          45.000  
G31  19269756.918   101263259.792        -513.253          47.000    19269744.961    78906387.245        -399.805          45.000  
C06  35197131.622   183280701.145         -83.295          48.000    35197111.975   141724185.756         -64.303          47.000  
C09  36347099.479   189268887.490         -51.814          45.000    36347083.523   146354644.321         -40.215          47.000  
C13  37981312.086   197778654.049       -2440.418          38.000    37981310.334   152934995.777       -1886.943          40.000  
C16  35632549.353   185548035.647         -96.430          48.000    35632536.187   143477458.708         -74.552          47.000  
C23  21686614.960   112927892.348       -1817.720          44.000                                                                  
C32  22055234.003   114847395.007       -2697.396          45.000                                                                  
G32  22051809.783   115883035.656       -3729.957          42.000    22051806.286    90298458.234       -2906.700          39.000  
G27  23243499.292   122145448.199        3659.152          35.000    23243516.271    95178359.527        2850.182          35.000  
G04  21739319.932                2       2780.615          27.000    21739310.695    89018994.868        2167.156          31.000  
C37  21219790.923   110497019.726         319.527          50.000                                                                  
C08  38872071.834   202417070.947       -2539.387          34.000    38872069.554   156521708.937       -1963.700          41.000  
C20  22295020.974   116096023.554         509.507          49.000                                                                  
C28  24296741.519   126519529.270        2442.441          41.000                                                                  
C07  37662726.658   196119704.445        1051.477          40.000    37662712.194   151652138.295         813.043          43.000  
C10  38643820.872   201228525.143         916.093          35.000    38643817.869   155602649.885         707.740          43.000  
G29                                                                  22204493.687                       -1554.673          30.000  
> 2025 10 28 07 06 30.2360000  0 21                     
G03  21833037.795   114733388.992       -1563.464          42.000    21833033.340    89402622.887       -1218.362          37.000  
G16  19906741.988   104610638.331        2028.816          46.000                                                                  
G26  18881560.369    99223269.569        -511.733          49.000    18881551.531    77316798.591        -398.775          47.000  
G28  20460392.871   107520092.558       -1741.528          45.000    20460381.915    83781844.670       -1356.850          45.000  
G31  19269760.812   101263280.313        -513.123          47.000    19269748.873    78906403.232        -399.762          45.000  
C06  35197132.281   183280704.477         -83.337          48.000    35197112.584   141724188.335         -64.441          47.000  
C09  36347099.880   189268889.579         -52.131          45.000    36347083.944   146354645.927         -40.181          47.000  
C13  37981330.837   197778751.665       -2440.505          38.000    37981329.076   152935071.266       -1887.178          40.000  
C16  35632550.111   185548039.509         -96.561          48.000    35632536.927   143477461.692         -74.605          47.000  
C23  21686628.933   112927965.053       -1817.724          44.000                                                                  
C32  22055254.709   114847502.911       -2697.614          45.000                                                                  
G32  22051838.181   115883184.861       -3730.094          42.000    22051834.682    90298574.498       -2906.740          39.000  
G27  23243471.407   122145301.861        3658.785          35.000    23243488.411    95178245.448        2851.261          35.000  
G04  21739298.496                2       2780.358          27.000    21739289.295    89018908.195        2167.074          31.000  
C37  21219788.487   110497006.944         319.498          50.000                                                                  
C08  38872091.339   202417172.510       -2539.183          34.000    38872089.055   156521787.491       -1963.809          41.000  
C20  22295017.085   116096003.170         509.520          49.000                                                                  
C28  24296722.764   126519431.548        2442.780          41.000                                                                  
C07  37662718.612   196119662.385        1051.398          40.000    37662704.118   151652105.768         813.061          43.000  
C10  38643813.819   201228488.534         915.667          35.000    38643810.838   155602621.567         707.841          43.000  
G29                                                                  22204509.050                       -1553.984          29.000  
> 2025 10 28 07 06 30.2760000  0 21                     
G03  21833049.683   114733451.536       -1563.552          42.000    21833045.225    89402671.630       -1218.557          37.000  
G16  19906726.547   104610557.178        2028.782          46.000                                                                  
G26  18881564.244    99223290.031        -511.681          49.000    18881555.428    77316814.536        -398.748          47.000  
G28  20460406.130   107520162.217       -1741.563          45.000    20460395.172    83781898.952       -1356.963          45.000  
G31  19269764.736   101263300.835        -513.049          47.000    19269752.787    78906419.230        -399.917          45.000  
C06  35197132.908   183280707.813         -83.398          48.000    35197113.227   141724190.916         -64.517          47.000  
C09  36347100.285   189268891.665         -52.216          45.000    36347084.338   146354647.536         -40.232          47.000  
C13  37981349.578   197778849.280       -2440.468          38.000    37981347.818   152935146.742       -1887.065          40.000  
C16  35632550.873   185548043.364         -96.485          48.000    35632537.642   143477464.682         -74.747          47.000  
C23  21686642.905   112928037.755       -1817.648          44.000                                                                  
C32  22055275.440   114847610.812       -2697.612          45.000                                                                  
G32  22051866.583   115883334.072       -3730.241          42.000    22051863.076    90298690.760       -2906.655          39.000  
G27  23243443.572   122145155.545        3658.163          35.000    23243460.555    95178131.402        2851.340          35.000  
G04  21739276.952                2       2780.184          27.000    21739268.516    89018821.597        2165.641          31.000  
C37  21219786.024   110496994.162         319.507          50.000                                                                  
C08  38872110.850   202417274.105       -2539.714          34.000    38872108.559   156521866.040       -1963.807          41.000  
C20  22295013.173   116095982.786         509.514          49.000                                                                  
C28  24296704.006   126519333.828        2442.969          41.000                                                                  
C07  37662710.528   196119620.312        1051.624          40.000    37662696.041   151652073.239         813.165          43.000  
C10  38643806.778   201228451.927         915.310          35.000    38643803.804   155602593.260         707.751          43.000  
G29                                                                  22204524.213                       -1554.475          29.000  
> 2025 10 28 07 06 30.3160000  0 21                     
G03  21833061.588   114733514.083       -1563.698          42.000    21833057.114    89402720.355       -1218.355          37.000  
G16  19906711.097   104610476.020        2028.844          46.000                                                                  
G26  18881568.125    99223310.490        -511.573          49.000    18881559.299    77316830.482        -398.728          47.000  
G28  20460419.385   107520231.874       -1741.511          45.000    20460408.436    83781953.231       -1357.017          45.000  
G31  19269768.649   101263321.354        -513.006          47.000    19269756.704    78906435.232        -400.083          45.000  
C06  35197133.545   183280711.138         -83.258          48.000    35197113.856   141724193.485         -64.384          47.000  
C09  36347100.696   189268893.739         -52.021          45.000    36347084.753   146354649.144         -40.224          47.000  
C13  37981368.314   197778946.900       -2440.517          38.000    37981366.569   152935222.229       -1887.167          40.000  
C16  35632551.631   185548047.212         -96.328          48.000    35632538.383   143477467.663         -74.637          47.000  
C23  21686656.873   112928110.452       -1817.483          44.000                                                                  
C32  22055296.175   114847718.707       -2697.499          45.000                                                                  
G32  22051894.950   115883483.264       -3729.986          42.000    22051891.485    90298807.036       -2906.917          39.000  
G27  23243415.702   122145009.164        3659.002          35.000    23243432.697    95178017.351        2851.411          35.000  
G04  21739255.817                2       2780.091          27.000    21739246.963    89018734.970        2165.369          31.000  
C37  21219783.596   110496981.372         319.636          50.000                                                                  
C08  38872130.348   202417375.689       -2539.818          34.000    38872128.059   156521944.588       -1963.788          41.000  
C20  22295009.245   116095962.408         509.403          49.000                                                                  
C28  24296685.237   126519236.095        2443.257          41.000                                                                  
C07  37662702.464   196119578.238        1051.782          40.000    37662687.980   151652040.705         813.275          43.000  
C10  38643799.757   201228415.343         914.711          35.000    38643796.770   155602564.960         707.522          43.000  
G29                                                                  22204539.633                       -1554.775          29.000  
> 2025 10 28 07 06 30.3560000  0 21                     
G03  21833073.489   114733576.625       -1563.658          42.000    21833069.018    89402769.098       -1218.485          37.000  
G16  19906695.646   104610394.862        2028.900          46.000                                                                  
G26  18881572.020    99223330.953        -511.586          49.000    18881563.177    77316846.432        -398.783          47.000  
G28  20460432.624   107520301.524       -1741.354          45.000    20460421.690    83782007.513       -1357.058          45.000  
G31  19269772.538   101263341.887        -513.241          47.000    19269760.623    78906451.227        -400.045          45.000  
C06  35197134.167   183280714.470         -83.285          48.000    35197114.492   141724196.061         -64.368          47.000  
C09  36347101.092   189268895.814         -51.927          45.000    36347085.173   146354650.754         -40.242          47.000  
C13  37981387.065   197779044.508       -2440.289          38.000    37981385.305   152935297.718       -1887.279          40.000  
C16  35632552.360   185548051.075         -96.487          48.000    35632539.136   143477470.637         -74.449          47.000  
C23  21686670.827   112928183.166       -1817.704          44.000                                                                  
C32  22055316.905   114847826.603       -2697.443          45.000                                                                  
G32  22051923.358   115883632.471       -3730.130          42.000    22051919.887    90298923.294       -2906.723          39.000  
G27  23243387.841   122144862.814        3658.868          35.000    23243404.849    95177903.319        2851.057          35.000  
G04  21739234.701                2       2780.117          27.000    21739225.479    89018648.299        2166.223          31.000  
C37  21219781.144   110496968.589         319.590          50.000                                                                  
C08  38872149.870   202417477.238       -2539.128          34.000    38872147.546   156522023.114       -1963.396          41.000  
C20  22295005.341   116095942.026         509.434          49.000                                                                  
C28  24296666.459   126519138.363        2443.318          41.000                                                                  
C07  37662694.394   196119536.165        1051.837          40.000    37662679.914   151652008.175         813.269          43.000  
C10  38643792.723   201228378.717         915.087          35.000    38643789.748   155602536.638         707.837          43.000  
G29                                                                  22204554.764                       -1555.113          29.000  
> 2025 10 28 07 06 30.3960000  0 21                     
G03  21833085.390   114733639.170       -1563.669          42.000    21833080.925    89402817.834       -1218.427          37.000  
G16  19906680.192   104610313.702        2028.949          46.000                                                                  
G26  18881575.932    99223351.422        -511.693          49.000    18881567.059    77316862.370        -398.569          47.000  
G28  20460445.890   107520371.184       -1741.454          45.000    20460434.942    83782061.787       -1356.912          45.000  
G31  19269776.456   101263362.418        -513.326          47.000    19269764.540    78906467.220        -399.933          45.000  
C06  35197134.795   183280717.795         -83.174          48.000    35197115.114   141724198.630         -64.255          47.000  
C09  36347101.507   189268897.884         -51.802          45.000    36347085.530   146354652.358         -40.135          47.000  
C13  37981405.789   197779142.122       -2440.365          38.000    37981404.053   152935373.185       -1886.970          40.000  
C16  35632553.069   185548054.937         -96.562          48.000    35632539.858   143477473.615         -74.440          47.000  
C23  21686684.794   112928255.878       -1817.830          44.000                                                                  
C32  22055337.644   114847934.508       -2697.593          45.000                                                                  
G32  22051951.757   115883781.675       -3730.129          42.000    22051948.274    90299039.548       -2906.511          39.000  
G27  23243360.028   122144716.473        3658.733          35.000    23243377.002    95177789.304        2850.527          35.000  
G04  21739213.619                2       2780.155          27.000    21739203.994    89018561.631        2166.538          31.000  
C37  21219778.687   110496955.805         319.583          50.000                                                                  
C08  38872169.369   202417578.812       -2539.167          34.000    38872167.080   156522101.660       -1963.531          41.000  
C20  22295001.432   116095921.643         509.503          49.000                                                                  
C28  24296647.691   126519040.654        2442.914          42.000                                                                  
C07  37662686.304   196119494.091        1051.837          40.000    37662671.826   151651975.650         813.098          43.000  
C10  38643785.682   201228342.083         915.541          35.000    38643782.721   155602508.321         707.925          43.000  
G29                                                                  22204569.845                       -1554.970          29.000  
> 2025 10 28 07 06 30.4360000  0 21                     
G03  21833097.296   114733701.717       -1563.668          42.000    21833092.801    89402866.575       -1218.548          37.000  
G16  19906664.739   104610232.540        2029.011          46.000                                                                  
G26  18881579.811    99223371.881        -511.565          49.000    18881570.950    77316878.307        -398.490          47.000  
G28  20460459.139   107520440.835       -1741.323          45.000    20460448.175    83782116.061       -1356.875          45.000  
G31  19269780.366   101263382.937        -513.128          47.000    19269768.462    78906483.203        -399.675          45.000  
C06  35197135.426   183280721.118         -83.057          48.000    35197115.750   141724201.204         -64.314          47.000  
C09  36347101.920   189268899.968         -52.028          45.000    36347085.937   146354653.955         -39.965          47.000  
C13  37981424.532   197779239.734       -2440.347          38.000    37981422.775   152935448.647       -1886.685          40.000  
C16  35632553.812   185548058.785         -96.323          48.000    35632540.602   143477476.595         -74.463          47.000  
C23  21686698.740   112928328.575       -1817.562          44.000                                                                  
C32  22055358.334   114848042.415       -2697.698          45.000                                                                  
G32  22051980.157   115883930.884       -3730.177          42.000    22051976.666    90299155.819       -2906.648          39.000  
G27  23243332.168   122144570.132        3658.689          34.000    23243349.153    95177675.281        2850.562          35.000  
G04  21739192.207                2       2780.100          27.000    21739182.794    89018474.962        2166.643          31.000  
C37  21219776.228   110496943.023         319.551          50.000                                                                  
C08  38872188.876   202417680.420       -2539.871          34.000    38872186.557   156522180.199       -1963.467          41.000  
C20  22294997.556   116095901.259         509.570          49.000                                                                  
C28  24296628.927   126518942.945        2442.663          42.000                                                                  
C07  37662678.241   196119452.015        1051.904          40.000    37662663.769   151651943.116         813.232          42.000  
C10  38643778.648   201228305.448         915.835          35.000    38643775.677   155602480.003         707.936          43.000  
G29                                                                  22204584.885                       -1555.191          29.000  
> 2025 10 28 07 06 30.4760000  0 21                     
G03  21833109.205   114733764.268       -1563.793          42.000    21833104.719    89402915.303       -1218.385          37.000  
G16  19906649.321   104610151.379        2029.030          46.000                                                                  
G26  18881583.698    99223392.349        -511.655          49.000    18881574.858    77316894.256        -398.636          47.000  
G28  20460472.384   107520510.486       -1741.293          45.000    20460461.447    83782170.334       -1356.805          45.000  
G31  19269784.272   101263403.456        -513.006          47.000    19269772.372    78906499.188        -399.571          45.000  
C06  35197136.051   183280724.444         -83.097          48.000    35197116.352   141724203.780         -64.403          47.000  
C09  36347102.335   189268902.040         -51.937          45.000    36347086.346   146354655.557         -39.980          47.000  
C13  37981443.274   197779337.363       -2440.561          38.000    37981441.525   152935524.132       -1886.906          40.000  
C16  35632554.539   185548062.638         -96.274          48.000    35632541.349   143477479.580         -74.576          47.000  
C23  21686712.697   112928401.278       -1817.546          44.000                                                                  
C32  22055379.073   114848150.317       -2697.646          45.000                                                                  
G32  22052008.547   115884080.076       -3729.903          42.000    22052005.043    90299272.062       -2906.238          39.000  
G27  23243304.316   122144423.781        3658.814          34.000    23243321.310    95177561.288        2849.989          35.000  
G04  21739171.139                2       2779.983          27.000    21739161.431                        2166.798          31.000  
C37  21219773.744   110496930.240         319.539          50.000                                                                  
C08  38872208.370   202417782.035       -2540.458          34.000    38872206.052   156522258.752       -1963.720          41.000  
C20  22294993.612   116095880.878         509.508          49.000                                                                  
C28  24296610.161   126518845.231        2442.670          42.000                                                                  
C07  37662670.144   196119409.952        1051.642          40.000    37662655.712   151651910.580         813.342          42.000  
C10  38643771.599   201228268.833         915.615          35.000    38643768.635   155602451.690         707.849          43.000  
G29                                                                  22204600.060                       -1555.510          29.000  
> 2025 10 28 07 06 30.5160000  0 21                     
G03  21833121.112   114733826.816       -1563.779          42.000    21833116.629    89402964.034       -1218.296          37.000  
G16  19906633.884   104610070.228        2028.854          46.000                                                                  
G26  18881587.610    99223412.818        -511.736          49.000    18881578.760    77316910.209        -398.805          47.000  
G28  20460485.663   107520580.151       -1741.490          45.000    20460474.726    83782224.614       -1356.928          45.000  
G31  19269788.172   101263423.983        -513.093          47.000    19269776.291    78906515.183        -399.781          45.000  
C06  35197136.676   183280727.779         -83.297          48.000    35197116.956   141724206.356         -64.468          47.000  
C09  36347102.725   189268904.122         -52.032          45.000    36347086.780   146354657.173         -40.267          47.000  
C13  37981462.013   197779434.971       -2440.339          38.000    37981460.256   152935599.616       -1887.015          40.000  
C16  35632555.283   185548066.491         -96.274          48.000    35632542.084   143477482.566         -74.672          47.000  
C23  21686726.656   112928473.982       -1817.560          44.000                                                                  
C32  22055399.799   114848258.216       -2697.534          45.000                                                                  
G32  22052036.960   115884229.286       -3730.111          42.000    22052033.432    90299388.314       -2906.228          39.000  
G27  23243276.458   122144277.395        3659.337          34.000    23243293.473    95177447.253        2850.443          35.000  
G04  21739150.220                2       2780.040          27.000    21739140.109                        2165.993          31.000  
C37  21219771.263   110496917.456         319.558          50.000                                                                  
C08  38872227.853   202417883.585       -2539.466          34.000    38872225.565   156522337.289       -1963.522          41.000  
C20  22294989.691   116095860.497         509.502          49.000                                                                  
C28  24296591.411   126518747.525        2442.592          42.000                                                                  
C07  37662662.077   196119367.898        1051.343          40.000    37662647.644   151651878.055         813.177          42.000  
C10  38643764.556   201228232.245         914.989          35.000    38643761.619   155602423.392         707.508          43.000  
G29                                                                  22204615.288                       -1554.883          29.000  
> 2025 10 28 07 06 30.5560000  0 21                     
G03  21833133.017   114733889.375       -1564.000          42.000    21833128.534    89403012.754       -1218.066          37.000  
G16  19906618.466   104609989.083        2028.632          46.000                                                                  
G26  18881591.511    99223433.296        -511.949          49.000    18881582.657    77316926.174        -399.085          47.000  
G28  20460498.926   107520649.816       -1741.644          45.000    20460488.002    83782278.900       -1357.130          45.000  
G31  19269792.078   101263444.518        -513.333          47.000    19269780.218    78906531.193        -400.138          45.000  
C06  35197137.269   183280731.115         -83.433          48.000    35197117.568   141724208.932         -64.470          47.000  
C09  36347103.128   189268906.202         -52.063          45.000    36347087.162   146354658.786         -40.361          47.000  
C13  37981480.748   197779532.594       -2440.496          38.000    37981479.030   152935675.118       -1887.461          40.000  
C16  35632556.002   185548070.354         -96.492          48.000    35632542.844   143477485.553         -74.720          47.000  
C23  21686740.609   112928546.684       -1817.567          44.000                                                                  
C32  22055420.502   114848366.125       -2697.690          45.000                                                                  
G32  22052065.337   115884378.495       -3730.241          42.000    22052061.830    90299504.583       -2906.579          39.000  
G27  23243248.595   122144131.078        3658.635          34.000    23243265.601    95177333.184        2851.307          35.000  
G04  21739128.518                2       2779.730          27.000    21739118.802                        2165.386          31.000  
C37  21219768.791   110496904.679         319.410          50.000                                                                  
C08  38872247.372   202417985.156       -2539.282          34.000    38872245.080   156522415.840       -1963.713          41.000  
C20  22294985.767   116095840.127         509.305          49.000                                                                  
C28  24296572.676   126518649.799        2442.945          42.000                                                                  
C07  37662654.008   196119325.842        1051.276          40.000    37662639.547   151651845.531         813.116          42.000  
C10  38643757.527   201228195.624         915.257          35.000    38643754.583   155602395.087         707.473          43.000  
G29                                                                  22204630.422                       -1554.975          29.000  
> 2025 10 28 07 06 30.5960000  0 21                     
G03  21833144.922   114733951.932       -1564.015          42.000    21833140.459    89403061.518       -1218.811          37.000  
G16  19906603.051   104609907.942        2028.485          46.000                                                                  
G26  18881595.413    99223453.771        -511.983          49.000    18881586.561    77316942.123        -398.943          47.000  
G28  20460512.210   107520719.488       -1741.800          45.000    20460501.280    83782333.198       -1357.424          45.000  
G31  19269795.987   101263465.057        -513.511          47.000    19269784.137    78906547.200        -400.254          45.000  
C06  35197137.911   183280734.453         -83.503          47.000    35197118.170   141724211.513         -64.510          47.000  
C09  36347103.486   189268908.280         -52.017          45.000    36347087.559   146354660.397         -40.357          47.000  
C13  37981499.471   197779630.226       -2440.753          38.000    37981497.780   152935750.621       -1887.639          40.000  
C16  35632556.707   185548074.216         -96.586          48.000    35632543.602   143477488.538         -74.663          47.000  
C23  21686754.554   112928619.404       -1817.862          44.000                                                                  
C32  22055441.224   114848474.041       -2697.901          45.000                                                                  
G32  22052093.716   115884527.705       -3730.334          41.000    22052090.216    90299620.869       -2907.075          39.000  
G27  23243220.740   122143984.737        3658.534          34.000    23243237.751    95177219.168        2850.758          35.000  
G04  21739107.130                2       2779.519          27.000    21739097.907                        2165.866          30.000  
C37  21219766.346   110496891.910         319.222          50.000                                                                  
C08  38872266.877   202418086.721       -2539.173          35.000    38872264.577   156522494.384       -1963.685          41.000  
C20  22294981.812   116095819.762         509.109          49.000                                                                  
C28  24296553.918   126518552.092        2442.809          42.000                                                                  
C07  37662645.932   196119283.778        1051.428          40.000    37662631.478   151651813.009         813.080          42.000  
C10  38643750.496   201228159.007         915.294          35.000    38643747.537   155602366.775         707.596          43.000  
G29                                                                  22204645.903                       -1554.901          29.000  
> 2025 10 28 07 06 30.6360000  0 21                     
G03  21833156.823   114734014.496       -1564.113          42.000    21833152.382    89403110.286       -1219.178          37.000  
G16  19906587.583   104609826.800        2028.464          46.000                                                                  
G26  18881599.304    99223474.242        -511.893          49.000    18881590.455    77316958.079        -398.948          47.000  
G28  20460525.440   107520789.155       -1741.800          45.000    20460514.529    83782387.475       -1357.198          45.000  
G31  19269799.880   101263485.592        -513.516          47.000    19269788.061    78906563.203        -400.210          45.000  
C06  35197138.562   183280737.787         -83.478          48.000    35197118.775   141724214.092         -64.509          47.000  
C09  36347103.904   189268910.364         -52.093          45.000    36347087.937   146354662.006         -40.298          47.000  
C13  37981518.231   197779727.846       -2440.720          38.000    37981516.530   152935826.090       -1887.114          40.000  
C16  35632557.444   185548078.079         -96.632          48.000    35632544.339   143477491.524         -74.675          47.000  
C23  21686768.522   112928692.120       -1817.939          44.000                                                                  
C32  22055461.971   114848581.954       -2697.917          45.000                                                                  
G32  22052122.104   115884676.926       -3730.531          41.000    22052118.604    90299737.133       -2906.852          39.000  
G27  23243192.890   122143838.417        3658.005          34.000    23243209.914    95177105.149        2850.482          34.000  
G04  21739085.440                2       2779.677          27.000    21739076.854                        2166.482          30.000  
C37  21219763.924   110496879.134         319.285          50.000                                                                  
C08  38872286.393   202418188.320       -2539.716          35.000    38872284.104   156522572.941       -1963.924          41.000  
C20  22294977.916   116095799.392         509.135          49.000                                                                  
C28  24296535.148   126518454.383        2442.712          42.000                                                                  
C07  37662637.852   196119241.712        1051.575          40.000    37662623.416   151651780.491         812.964          42.000  
C10  38643743.458   201228122.399         915.183          35.000    38643740.529   155602338.461         707.735          43.000  
G29                                                                  22204661.286                       -1554.864          29.000  
> 2025 10 28 07 06 30.6760000  0 21                     
G03  21833168.721   114734077.053       -1564.029          42.000    21833164.287    89403159.033       -1218.997          37.000  
G16  19906572.144   104609745.658        2028.485          46.000                                                                  
G26  18881603.189    99223494.714        -511.842          49.000    18881594.348    77316974.029        -398.834          47.000  
G28  20460538.691   107520858.819       -1741.717          45.000    20460527.775    83782441.763       -1357.236          45.000  
G31  19269803.796   101263506.129        -513.484          47.000    19269791.945    78906579.201        -400.042          45.000  
C06  35197139.183   183280741.116         -83.344          48.000    35197119.402   141724216.669         -64.482          47.000  
C09  36347104.306   189268912.443         -52.054          45.000    36347088.346   146354663.609         -40.138          47.000  
C13  37981536.972   197779825.449       -2440.284          38.000    37981535.262   152935901.571       -1887.051          40.000  
C16  35632558.192   185548081.941         -96.601          48.000    35632545.086   143477494.510         -74.702          47.000  
C23  21686782.491   112928764.834       -1817.898          44.000                                                                  
C32  22055482.715   114848689.869       -2697.934          45.000                                                                  
G32  22052150.504   115884826.142       -3730.548          41.000    22052146.977    90299853.416       -2907.062          39.000  
G27  23243165.039   122143692.087        3658.000          34.000    23243182.048    95176991.139        2850.195          34.000  
G04  21739064.121                1       2779.995          27.000    21739055.469    89017955.055        2166.632          30.000  
C37  21219761.469   110496866.351         319.460          50.000                                                                  
C08  38872305.915   202418289.930       -2540.109          35.000    38872303.596   156522651.472       -1963.496          41.000  
C20  22294974.023   116095779.021         509.197          49.000                                                                  
C28  24296516.360   126518356.661        2442.903          42.000                                                                  
C07  37662629.764   196119199.645        1051.672          40.000    37662615.324   151651747.963         813.055          43.000  
C10  38643736.451   201228085.776         915.507          35.000    38643733.494   155602310.162         707.564          43.000  
G29                                                                  22204676.495                       -1554.588          29.000  
> 2025 10 28 07 06 30.7160000  0 21                     
G03  21833180.609   114734139.608       -1563.940          42.000    21833176.194    89403207.791       -1219.064          37.000  
G16  19906556.691   104609664.502        2028.712          46.000                                                                  
G26  18881607.083    99223515.189        -511.880          49.000    18881598.239    77316989.985        -398.885          47.000  
G28  20460551.946   107520928.472       -1741.441          45.000    20460541.024    83782496.040       -1357.031          45.000  
G31  19269807.690   101263526.664        -513.435          47.000    19269795.860    78906595.199        -399.994          45.000  
C06  35197139.833   183280744.449         -83.311          48.000    35197120.048   141724219.244         -64.436          47.000  
C09  36347104.713   189268914.522         -52.035          45.000    36347088.714   146354665.209         -39.982          47.000  
C13  37981555.726   197779923.067       -2440.291          38.000    37981554.026   152935977.063       -1887.230          40.000  
C16  35632558.923   185548085.802         -96.566          48.000    35632545.856   143477497.483         -74.439          47.000  
C23  21686796.414   112928837.547       -1817.886          44.000                                                                  
C32  22055503.447   114848797.774       -2697.734          45.000                                                                  
G32  22052178.901   115884975.354       -3730.402          41.000    22052175.371    90299969.668       -2906.556          39.000  
G27  23243137.174   122143545.735        3658.409          35.000    23243154.225    95176877.142        2849.890          34.000  
G04  21739042.697                        2780.323          27.000    21739034.126    89017868.463        2165.241          30.000  
C37  21219759.032   110496853.565         319.586          50.000                                                                  
C08  38872325.443   202418391.515       -2539.890          35.000    38872323.092   156522730.022       -1963.670          41.000  
C20  22294970.139   116095758.648         509.296          49.000                                                                  
C28  24296497.571   126518258.946        2442.896          42.000                                                                  
C07  37662621.709   196119157.570        1051.855          40.000    37662607.249   151651715.423         813.354          43.000  
C10  38643729.416   201228049.183         915.061          35.000    38643726.453   155602281.848         707.744          43.000  
G29                                                                  22204691.607                       -1554.889          29.000  
> 2025 10 28 07 06 30.7560000  0 21                     
G03  21833192.497   114734202.159       -1563.822          42.000    21833188.087    89403256.536       -1218.875          37.000  
G16  19906541.238   104609583.350        2028.800          46.000                                                                  
G26  18881610.967    99223535.655        -511.735          49.000    18881602.155    77317005.934        -398.797          47.000  
G28  20460565.205   107520998.135       -1741.475          45.000    20460554.290    83782550.313       -1356.859          45.000  
G31  19269811.575   101263547.192        -513.280          47.000    19269799.766    78906611.190        -399.840          45.000  
C06  35197140.487   183280747.775         -83.209          48.000    35197120.647   141724221.814         -64.305          47.000  
C09  36347105.115   189268916.598         -51.919          45.000    36347089.111   146354666.813         -40.031          47.000  
C13  37981574.453   197780020.665       -2439.957          38.000    37981572.797   152936052.541       -1887.018          40.000  
C16  35632559.653   185548089.653         -96.350          48.000    35632546.598   143477500.464         -74.444          47.000  
C23  21686810.389   112928910.242       -1817.534          44.000                                                                  
C32  22055524.177   114848905.670       -2697.461          45.000                                                                  
G32  22052207.276   115885124.548       -3730.023          41.000    22052203.736    90300085.917       -2906.298          39.000  
G27  23243109.301   122143399.340        3659.369          35.000    23243126.355    95176763.063        2851.288          34.000  
G04  21739021.638                        2780.147          27.000    21739012.891                        2166.517          30.000  
C37  21219756.573   110496840.787         319.512          50.000                                                                  
C08  38872344.938   202418493.054       -2538.960          35.000    38872342.624   156522808.569       -1963.682          41.000  
C20  22294966.244   116095738.275         509.326          49.000                                                                  
C28  24296478.818   126518161.229        2442.887          42.000                                                                  
C07  37662613.631   196119115.506        1051.685          40.000    37662599.174   151651682.902         813.135          43.000  
C10  38643722.386   201228012.552         915.443          35.000    38643719.413   155602253.542         707.710          43.000  
G29                                                                  22204706.447                       -1555.196          29.000  
> 2025 10 28 07 06 30.7960000  0 21                     
G03  21833204.403   114734264.714       -1563.862          42.000    21833199.987    89403305.281       -1218.776          37.000  
G16  19906525.798   104609502.200        2028.773          46.000                                                                  
G26  18881614.854    99223556.125        -511.730          49.000    18881606.066    77317021.884        -398.773          47.000  
G28  20460578.444   107521067.791       -1741.399          45.000    20460567.558    83782604.595       -1356.928          45.000  
G31  19269815.436   101263567.718        -513.164          47.000    19269803.689    78906627.186        -399.872          45.000  
C06  35197141.134   183280751.104         -83.207          48.000    35197121.278   141724224.390         -64.364          47.000  
C09  36347105.517   189268918.683         -52.036          45.000    36347089.510   146354668.425         -40.223          47.000  
C13  37981593.197   197780118.255       -2439.738          38.000    37981591.555   152936128.010       -1886.781          40.000  
C16  35632560.374   185548093.503         -96.246          48.000    35632547.340   143477503.450         -74.565          47.000  
C23  21686824.362   112928982.946       -1817.564          44.000                                                                  
C32  22055544.882   114849013.586       -2697.751          45.000                                                                  
G32  22052235.678   115885273.750       -3729.963          41.000    22052232.132    90300202.188       -2906.518          39.000  
G27  23243081.436   122143253.009        3658.756          35.000    23243098.474    95176648.963        2852.403          34.000  
G04  21739000.407                        2780.321          27.000    21738991.894    89017695.142        2166.002          30.000  
C37  21219754.074   110496828.008         319.472          50.000                                                                  
C08  38872364.466   202418594.614       -2538.926          35.000    38872362.146   156522887.122       -1963.763          41.000  
C20  22294962.300   116095717.907         509.221          49.000                                                                  
C28  24296460.042   126518063.508        2442.982          42.000                                                                  
C07  37662605.550   196119073.435        1051.733          40.000    37662591.066   151651650.373         813.196          43.000  
C10  38643715.319   201227975.926         915.691          35.000    38643712.351   155602225.228         707.820          42.000  
G29                                                                  22204721.783                       -1555.300          29.000  
> 2025 10 28 07 06 30.8360000  0 21                     
G03  21833216.309   114734327.250       -1563.510          42.000    21833211.880    89403354.011       -1218.406          37.000  
G16  19906510.350   104609421.049        2028.778          46.000                                                                  
G26  18881618.765    99223576.599        -511.813          49.000    18881609.991    77317037.839        -398.843          47.000  
G28  20460591.710   107521137.458       -1741.588          45.000    20460580.793    83782658.881       -1357.082          45.000  
G31  19269819.343   101263588.249        -513.202          47.000    19269807.595    78906643.187        -400.020          45.000  
C06  35197141.754   183280754.430         -83.177          48.000    35197121.929   141724226.964         -64.371          47.000  
C09  36347105.916   189268920.749         -51.782          45.000    36347089.935   146354670.042         -40.404          47.000  
C13  37981611.969   197780215.894       -2440.505          38.000    37981610.310   152936203.468       -1886.516          40.000  
C16  35632561.093   185548097.364         -96.390          48.000    35632548.106   143477506.432         -74.590          47.000  
C23  21686838.297   112929055.659       -1817.793          44.000                                                                  
C32  22055565.591   114849121.517       -2698.230          44.000                                                                  
G32  22052264.078   115885422.956       -3730.060          41.000    22052260.515    90300318.456       -2906.624          39.000  
G27  23243053.560   122143106.667        3658.530          35.000    23243070.622    95176534.933        2851.552          34.000  
G04  21738979.069                        2780.102          27.000    21738970.772                        2166.279          30.000  
C37  21219751.612   110496815.233         319.404          50.000                                                                  
C08  38872383.972   202418696.194       -2539.216          35.000    38872381.640   156522965.665       -1963.652          41.000  
C20  22294958.384   116095697.537         509.178          49.000                                                                  
C28  24296441.284   126517965.792        2442.931          42.000                                                                  
C07  37662597.489   196119031.365        1051.721          40.000    37662582.969   151651617.853         813.055          43.000  
C10  38643708.278   201227939.279         916.117          35.000    38643705.305   155602196.907         707.985          42.000  
G29                                                                  22204736.728                       -1555.103          29.000  
> 2025 10 28 07 06 30.8760000  0 21                     
G03  21833228.220   114734389.804       -1563.788          42.000    21833223.784    89403402.736       -1218.140          37.000  
G16  19906494.910   104609339.909        2028.578          46.000                                                                  
G26  18881622.660    99223597.073        -511.844          49.000    18881613.888    77317053.793        -398.867          47.000  
G28  20460604.963   107521207.122       -1741.631          45.000    20460594.043    83782713.171       -1357.216          45.000  
G31  19269823.268   101263608.783        -513.307          47.000    19269811.502    78906659.185        -400.007          45.000  
C06  35197142.414   183280757.758         -83.179          48.000    35197122.570   141724229.534         -64.307          47.000  
C09  36347106.320   189268922.825         -51.855          45.000    36347090.302   146354671.652         -40.356          47.000  
C13  37981630.704   197780313.509       -2440.481          38.000    37981629.057   152936278.946       -1886.680          40.000  
C16  35632561.866   185548101.216         -96.345          48.000    35632548.868   143477509.414         -74.570          47.000  
C23  21686852.268   112929128.363       -1817.729          44.000                                                                  
C32  22055586.316   114849229.433       -2698.076          44.000                                                                  
G32  22052292.492   115885572.176       -3730.409          41.000    22052288.906    90300434.728       -2906.792          39.000  
G27  23243025.723   122142960.332        3658.386          35.000    23243042.790    95176420.916        2850.732          34.000  
G04  21738957.394                        2779.916          27.000    21738949.340    89017521.854        2165.820          30.000  
C37  21219749.153   110496802.455         319.385          50.000                                                                  
C08  38872403.504   202418797.821       -2540.312          35.000    38872401.139   156523044.202       -1963.514          41.000  
C20  22294954.450   116095677.168         509.185          49.000                                                                  
C28  24296422.515   126517868.073        2442.943          42.000                                                                  
C07  37662589.416   196118989.297        1051.666          40.000    37662574.902   151651585.325         813.177          43.000  
C10  38643701.251   201227902.686         915.218          34.000    38643698.236   155602168.584         708.031          42.000  
G29                                                                  22204751.792                       -1554.870          29.000  
> 2025 10 28 07 06 30.9160000  0 21                     
G03  21833240.132   114734452.365       -1564.064          42.000    21833235.697    89403451.475       -1218.289          37.000  
G16  19906479.462   104609258.761        2028.608          46.000                                                                  
G26  18881626.549    99223617.547        -511.868          49.000    18881617.764    77317069.748        -398.898          47.000  
G28  20460618.216   107521276.782       -1741.597          45.000    20460607.289    83782767.447       -1357.034          45.000  
G31  19269827.169   101263629.319        -513.386          47.000    19269815.412    78906675.178        -399.871          45.000  
C06  35197143.040   183280761.086         -83.201          48.000    35197123.214   141724232.105         -64.297          47.000  
C09  36347106.732   189268924.896         -51.813          45.000    36347090.678   146354673.254         -40.158          47.000  
C13  37981649.450   197780411.155       -2440.997          38.000    37981647.812   152936354.449       -1887.297          40.000  
C16  35632562.623   185548105.073         -96.419          48.000    35632549.608   143477512.397         -74.589          47.000  
C23  21686866.212   112929201.073       -1817.771          44.000                                                                  
C32  22055607.006   114849337.336       -2697.745          45.000                                                                  
G32  22052320.885   115885721.388       -3730.350          41.000    22052317.303    90300550.995       -2906.708          39.000  
G27  23242997.895   122142814.004        3658.191          35.000    23243014.952    95176306.961        2849.340          34.000  
G04  21738936.450                        2780.003          27.000    21738928.301                        2166.755          31.000  
C37  21219746.710   110496789.673         319.489          50.000                                                                  
C08  38872423.007   202418899.402       -2539.939          35.000    38872420.636   156523122.742       -1963.518          41.000  
C20  22294950.578   116095656.801         509.148          49.000                                                                  
C28  24296403.742   126517770.351        2442.959          42.000                                                                  
C07  37662581.336   196118947.224        1051.746          40.000    37662566.832   151651552.806         813.019          43.000  
C10  38643694.208   201227866.091         914.928          34.000    38643691.243   155602140.281         707.708          42.000  
G29                                                                  22204766.589                       -1554.680          29.000  
> 2025 10 28 07 06 30.9560000  0 21                     
G03  21833252.054   114734514.925       -1564.121          42.000    21833247.601    89403500.221       -1218.445          37.000  
G16  19906464.008   104609177.600        2028.868          46.000                                                                  
G26  18881630.425    99223638.017        -511.792          49.000    18881621.644    77317085.694        -398.728          47.000  
G28  20460631.466   107521346.427       -1741.268          45.000    20460620.530    83782821.710       -1356.670          45.000  
G31  19269831.060   101263649.841        -513.164          47.000    19269819.286    78906691.170        -399.804          45.000  
C06  35197143.698   183280764.400         -82.970          48.000    35197123.846   141724234.675         -64.291          47.000  
C09  36347107.128   189268926.957         -51.599          45.000    36347091.069   146354674.847         -39.907          47.000  
C13  37981668.186   197780508.752       -2440.399          38.000    37981666.557   152936429.934       -1887.255          40.000  
C16  35632563.359   185548108.920         -96.239          48.000    35632550.327   143477515.365         -74.293          47.000  
C23  21686880.177   112929273.772       -1817.582          44.000                                                                  
C32  22055627.737   114849445.227       -2697.355          45.000                                                                  
G32  22052349.267   115885870.585       -3730.082          42.000    22052345.700    90300667.249       -2906.416          39.000  
G27  23242970.026   122142667.607        3659.304          35.000    23242987.089    95176192.914        2850.238          34.000  
G04  21738915.269                        2780.128          27.000    21738907.132                        2166.898          30.000  
C37  21219744.289   110496776.884         319.667          50.000                                                                  
C08  38872442.502   202419000.957       -2539.099          35.000    38872440.173   156523201.285       -1963.559          42.000  
C20  22294946.682   116095636.415         509.475          49.000                                                                  
C28  24296384.978   126517672.614        2443.277          42.000                                                                  
C07  37662573.260   196118905.156        1051.727          40.000    37662558.751   151651520.259         813.519          43.000  
C10  38643687.144   201227829.466         915.230          34.000    38643684.230   155602111.976         707.576          42.000  
G29                                                                  22204781.863                       -1554.975          29.000  
> 2025 10 28 07 06 30.9960000  0 21                     
G03  21833263.927   114734577.481       -1564.017          42.000    21833259.509    89403548.971       -1218.639          37.000  
G16  19906448.561   104609096.445        2028.895          46.000                                                                  
G26  18881634.325    99223658.484        -511.711          49.000    18881625.529    77317101.644        -398.724          47.000  
G28  20460644.707   107521416.077       -1741.210          45.000    20460633.783    83782875.991       -1356.839          45.000  
G31  19269834.968   101263670.360        -513.011          47.000    19269823.190    78906707.158        -399.731          45.000  
C06  35197144.356   183280767.718         -82.911          48.000    35197124.496   141724237.244         -64.282          47.000  
C09  36347107.512   189268929.023         -51.609          45.000    36347091.462   146354676.438         -39.741          47.000  
C13  37981686.935   197780606.332       -2439.701          38.000    37981685.304   152936505.394       -1886.731          40.000  
C16  35632564.131   185548112.761         -96.076          48.000    35632551.016   143477518.337         -74.243          47.000  
C23  21686894.139   112929346.461       -1817.327          44.000                                                                  
C32  22055648.464   114849553.126       -2697.372          45.000                                                                  
G32  22052377.648   115886019.775       -3729.778          42.000    22052374.091    90300783.510       -2906.418          39.000  
G27  23242942.156   122142521.230        3659.606          35.000    23242959.227    95176078.826        2851.485          34.000  
G04  21738893.622                        2780.364          27.000    21738885.882                        2165.937          30.000  
C37  21219741.868   110496764.085         319.938          50.000                                                                  
C08  38872461.963   202419102.490       -2538.341          35.000    38872459.680   156523279.824       -1963.541          42.000  
C20  22294942.787   116095616.032         509.591          49.000                                                                  
C28  24296366.236   126517574.902        2442.968          42.000                                                                  
C07  37662565.175   196118863.079        1051.874          40.000    37662550.678   151651487.728         813.428          43.000  
C10  38643680.103   201227792.825         915.836          34.000    38643677.180   155602083.656         707.793          42.000  
G29                                                                  22204797.144                       -1554.901          29.000  
> 2025 10 28 07 06 31.0360000  0 21                     
G03  21833275.819   114734640.040       -1564.010          42.000    21833271.382    89403597.706       -1218.507          37.000  
G16  19906433.165   104609015.296        2028.791          46.000                                                                  
G26  18881638.214    99223678.950        -511.637          49.000    18881629.416    77317117.594        -398.776          47.000  
G28  20460657.941   107521485.731       -1741.249          45.000    20460647.046    83782930.265       -1356.855          45.000  
G31  19269838.859   101263690.871        -512.802          47.000    19269827.106    78906723.162        -400.002          45.000  
C06  35197144.988   183280771.035         -82.914          48.000    35197125.156   141724239.815         -64.294          47.000  
C09  36347107.912   189268931.098         -51.801          45.000    36347091.872   146354678.038         -39.853          47.000  
C13  37981705.686   197780703.936       -2439.755          38.000    37981704.058   152936580.859       -1886.565          40.000  
C16  35632564.904   185548116.610         -96.162          48.000    35632551.739   143477521.317         -74.358          47.000  
C23  21686908.065   112929419.161       -1817.419          44.000                                                                  
C32  22055669.178   114849661.024       -2697.393          45.000                                                                  
G32  22052406.026   115886168.966       -3729.694          42.000    22052402.487    90300899.767       -2906.312          39.000  
G27  23242914.300   122142374.912        3658.586          35.000    23242931.368    95175964.735        2852.258          34.000  
G04  21738872.298                        2780.151          27.000    21738864.951                        2165.612          30.000  
C37  21219739.373   110496751.298         319.803          50.000                                                                  
C08  38872481.483   202419204.071       -2538.981          35.000    38872479.177   156523358.359       -1963.438          42.000  
C20  22294938.847   116095595.655         509.516          49.000                                                                  
C28  24296347.472   126517477.185        2442.920          42.000                                                                  
C07  37662557.084   196118820.989        1052.203          40.000    37662542.582   151651455.184         813.574          43.000  
C10  38643673.063   201227756.213         915.631          34.000    38643670.145   155602055.327         708.105          42.000  
G29                                                                  22204812.269                       -1554.674          29.000  
> 2025 10 28 07 06 31.0760000  0 21                     
G03  21833287.745   114734702.588       -1563.770          42.000    21833283.287    89403646.474       -1219.035          37.000  
G16  19906417.725   104608934.156        2028.537          46.000                                                                  
G26  18881642.124    99223699.426        -511.846          49.000    18881633.323    77317133.546        -398.819          47.000  
G28  20460671.207   107521555.399       -1741.559          45.000    20460660.289    83782984.550       -1357.073          45.000  
G31  19269842.794   101263711.399        -513.032          47.000    19269831.029    78906739.162        -400.082          45.000  
C06  35197145.610   183280774.365         -83.147          48.000    35197125.794   141724242.387         -64.313          47.000  
C09  36347108.312   189268933.170         -51.831          45.000    36347092.262   146354679.651         -40.198          47.000  
C13  37981724.412   197780801.550       -2440.094          38.000    37981722.797   152936656.345       -1886.925          40.000  
C16  35632565.668   185548120.464         -96.320          48.000    35632552.480   143477524.306         -74.656          47.000  
C23  21686922.025   112929491.864       -1817.507          44.000                                                                  
C32  22055689.926   114849768.919       -2697.388          45.000                                                                  
G32  22052434.426   115886318.185       -3730.264          42.000    22052430.894    90301016.024       -2906.295          39.000  
G27  23242886.448   122142228.582        3658.275          35.000    23242903.536    95175850.745        2850.858          34.000  
G04  21738851.070                        2780.196          27.000    21738844.424                        2166.171          30.000  
C37  21219736.896   110496738.524         319.473          50.000                                                                  
C08  38872501.010   202419305.660       -2539.505          35.000    38872498.714   156523436.900       -1963.478          43.000  
C20  22294934.896   116095575.283         509.355          49.000                                                                  
C28  24296328.720   126517379.460        2442.991          42.000                                                                  
C07  37662548.973   196118778.922        1051.874          40.000    37662534.493   151651422.655         813.361          43.000  
C10  38643666.001   201227719.573         915.782          34.000    38643663.082   155602027.008         708.084          42.000  
G29                                                                  22204827.090                       -1555.024          29.000  
> 2025 10 28 07 06 31.1160000  0 21                     
G03  21833299.672   114734765.156       -1564.050          42.000    21833295.187    89403695.222       -1218.871          37.000  
G16  19906402.282   104608853.012        2028.471          46.000                                                                  
G26  18881646.025    99223719.916        -512.190          49.000    18881637.223    77317149.507        -398.988          47.000  
G28  20460684.476   107521625.067       -1741.757          45.000    20460673.546    83783038.842       -1357.280          45.000  
G31  19269846.702   101263731.940        -513.426          47.000    19269834.928    78906755.162        -400.094          45.000  
C06  35197146.266   183280777.699         -83.364          47.000    35197126.434   141724244.965         -64.467          47.000  
C09  36347108.701   189268935.249         -51.981          45.000    36347092.664   146354681.264         -40.366          47.000  
C13  37981743.146   197780899.182       -2440.705          38.000    37981741.542   152936731.834       -1887.153          40.000  
C16  35632566.419   185548124.328         -96.571          48.000    35632553.218   143477527.285         -74.609          47.000  
C23  21686935.977   112929564.580       -1817.854          44.000                                                                  
C32  22055710.654   114849876.849       -2698.080          45.000                                                                  
G32  22052462.840   115886467.409       -3730.609          42.000    22052459.308    90301132.299       -2906.613          39.000  
G27  23242858.574   122142082.219        3658.713          35.000    23242875.685    95175736.749        2850.054          34.000  
G04  21738830.182                        2780.176          27.000    21738822.769                        2165.829          30.000  
C37  21219734.428   110496725.757         319.185          50.000                                                                  
C08  38872520.488   202419407.248       -2539.733          35.000    38872518.218   156523515.462       -1963.858          43.000  
C20  22294930.958   116095554.932         508.881          49.000                                                                  
C28  24296309.948   126517281.745        2442.902          42.000                                                                  
C07  37662540.903   196118736.876        1051.270          40.000    37662526.405   151651390.132         813.104          43.000  
C10  38643658.959   201227682.945         915.748          34.000    38643656.067   155601998.697         707.848          42.000  
G29                                                                  22204842.246                       -1555.270          29.000  
> 2025 10 28 07 06 31.1560000  0 21                     
G03  21833311.598   114734827.719       -1564.124          42.000    21833307.114    89403743.967       -1218.770          37.000  
G16  19906386.821   104608771.869        2028.452          46.000                                                                  
G26  18881649.935    99223740.406        -512.349          49.000    18881641.108    77317165.459        -398.904          47.000  
G28  20460697.744   107521694.726       -1741.650          45.000    20460686.806    83783093.134       -1357.376          45.000  
G31  19269850.616   101263752.480        -513.585          47.000    19269838.829    78906771.166        -400.167          45.000  
C06  35197146.925   183280781.037         -83.506          47.000    35197127.101   141724247.536         -64.402          47.000  
C09  36347109.101   189268937.327         -52.030          45.000    36347093.053   146354682.871         -40.336          47.000  
C13  37981761.885   197780996.812       -2440.921          38.000    37981760.298   152936807.321       -1887.238          40.000  
C16  35632567.150   185548128.193         -96.699          48.000    35632553.975   143477530.267         -74.619          47.000  
C23  21686949.934   112929637.287       -1817.830          44.000                                                                  
C32  22055731.385   114849984.785       -2698.472          45.000                                                                  
G32  22052491.208   115886616.627       -3730.636          42.000    22052487.713    90301248.581       -2906.973          39.000  
G27  23242830.712   122141935.892        3658.292          35.000    23242847.802    95175622.669        2851.296          34.000  
G04  21738808.973                        2779.822          27.000    21738801.524                        2166.366          31.000  
C37  21219732.002   110496712.983         319.207          50.000                                                                  
C08  38872540.003   202419508.843       -2539.982          35.000    38872537.735   156523594.008       -1963.800          43.000  
C20  22294927.054   116095534.577         508.710          49.000                                                                  
C28  24296291.185   126517184.015        2443.093          42.000                                                                  
C07  37662532.822   196118694.821        1051.221          40.000    37662518.347   151651357.622         812.756          43.000  
C10  38643651.942   201227646.341         915.136          34.000    38643649.015   155601970.407         707.362          42.000  
G29                                                                  22204857.310                       -1555.177          29.000  
> 2025 10 28 07 06 31.1960000  0 21                     
G03  21833323.489   114734890.294       -1564.360          42.000    21833319.042    89403792.724       -1218.869          37.000  
G16  19906371.390   104608690.731        2028.363          46.000                                                                  
G26  18881653.852    99223760.897        -512.388          49.000    18881644.980    77317181.418        -398.979          47.000  
G28  20460711.020   107521764.394       -1741.733          45.000    20460700.060    83783147.413       -1357.159          45.000  
G31  19269854.504   101263773.016        -513.559          47.000    19269842.744    78906787.167        -400.117          45.000  
C06  35197147.628   183280784.371         -83.484          47.000    35197127.730   141724250.107         -64.362          47.000  
C09  36347109.501   189268939.400         -51.911          45.000    36347093.462   146354684.466         -40.086          47.000  
C13  37981780.620   197781094.413       -2440.448          38.000    37981779.055   152936882.807       -1887.230          40.000  
C16  35632567.896   185548132.048         -96.553          48.000    35632554.674   143477533.251         -74.628          47.000  
C23  21686963.916   112929709.997       -1817.808          44.000                                                                  
C32  22055752.109   114850092.697       -2698.149          45.000                                                                  
G32  22052519.596   115886765.845       -3730.589          42.000    22052516.118    90301364.852       -2906.920          39.000  
G27  23242802.871   122141789.554        3658.281          35.000    23242819.947    95175508.665        2850.559          34.000  
G04  21738787.268                        2779.662          27.000    21738780.286                        2166.395          31.000  
C37  21219729.564   110496700.204         319.333          50.000                                                                  
C08  38872559.521   202419610.424       -2539.672          35.000    38872557.258   156523672.553       -1963.740          43.000  
C20  22294923.161   116095514.224         508.675          49.000                                                                  
C28  24296272.416   126517086.300        2442.926          42.000                                                                  
C07  37662524.736   196118652.758        1051.361          40.000    37662510.275   151651325.094         812.982          43.000  
C10  38643644.937   201227609.757         914.587          34.000    38643642.005   155601942.093         707.595          42.000  
G29                                                                  22204872.495                       -1555.183          29.000  
> 2025 10 28 07 06 31.2360000  0 21                     
G03  21833335.396   114734952.863       -1564.311          42.000    21833330.945    89403841.477       -1218.895          37.000  
G16  19906355.977   104608609.596        2028.289          46.000                                                                  
G26  18881657.761    99223781.367        -511.988          49.000    18881648.877    77317197.379        -399.053          47.000  
G28  20460724.273   107521834.063       -1741.779          45.000    20460713.290    83783201.688       -1356.958          45.000  
G31  19269858.388   101263793.548        -513.447          47.000    19269846.625    78906803.171        -400.135          45.000  
C06  35197148.295   183280787.695         -83.267          47.000    35197128.364   141724252.673         -64.229          47.000  
C09  36347109.897   189268941.473         -51.848          45.000    36347093.837   146354686.071         -40.094          47.000  
C13  37981799.351   197781192.017       -2440.292          38.000    37981797.795   152936958.271       -1886.820          40.000  
C16  35632568.677   185548135.896         -96.315          48.000    35632555.404   143477536.227         -74.463          47.000  
C23  21686977.893   112929782.702       -1817.707          44.000                                                                  
C32  22055772.822   114850200.593       -2697.668          45.000                                                                  
G32  22052547.977   115886915.064       -3730.595          42.000    22052544.501    90301481.111       -2906.639          39.000  
G27  23242775.018   122141643.187        3658.816          36.000    23242792.095    95175394.637        2850.647          34.000  
G04  21738765.916                        2779.875          27.000    21738758.987                        2166.616          31.000  
C37  21219727.135   110496687.428         319.371          49.000                                                                  
C08  38872579.025   202419711.965       -2538.896          35.000    38872576.775   156523751.098       -1963.734          43.000  
C20  22294919.265   116095493.863         508.855          49.000                                                                  
C28  24296253.654   126516988.577        2443.024          42.000                                                                  
C07  37662516.647   196118610.693        1051.508          40.000    37662502.188   151651292.558         813.257          43.000  
C10  38643637.900   201227573.103         915.653          34.000    38643634.973   155601913.777         707.752          42.000  
G29                                                                  22204887.679                       -1555.563          29.000  
> 2025 10 28 07 06 31.2760000  0 21                     
G03  21833347.301   114735015.416       -1563.984          42.000    21833342.849    89403890.228       -1218.883          37.000  
G16  19906340.493   104608528.454        2028.404          46.000                                                                  
G26  18881661.635    99223801.834        -511.708          49.000    18881652.750    77317213.335        -398.995          47.000  
G28  20460737.509   107521903.722       -1741.627          45.000    20460726.547    83783255.966       -1356.899          45.000  
G31  19269862.293   101263814.080        -513.367          47.000    19269850.539    78906819.168        -400.012          45.000  
C06  35197148.932   183280791.015         -83.052          47.000    35197129.024   141724255.244         -64.274          47.000  
C09  36347110.274   189268943.540         -51.722          45.000    36347094.217   146354687.662         -39.860          47.000  
C13  37981818.099   197781289.624       -2440.187          38.000    37981816.527   152937033.768       -1887.166          40.000  
C16  35632569.436   185548139.743         -96.192          48.000    35632556.149   143477539.200         -74.357          47.000  
C23  21686991.867   112929855.417       -1817.846          44.000                                                                  
C32  22055793.526   114850308.498       -2697.566          45.000                                                                  
G32  22052576.369   115887064.275       -3730.400          42.000    22052572.906    90301597.376       -2906.583          39.000  
G27  23242747.176   122141496.835        3658.908          36.000    23242764.229    95175280.568        2851.455          34.000  
G04  21738744.857                        2779.795          27.000    21738737.634                        2166.473          31.000  
C37  21219724.681   110496674.650         319.415          49.000                                                                  
C08  38872598.520   202419813.570       -2539.656          35.000    38872596.244   156523829.639       -1963.623          44.000  
C20  22294915.393   116095473.502         508.972          49.000                                                                  
C28  24296234.911   126516890.867        2442.801          42.000                                                                  
C07  37662508.568   196118568.627        1051.611          40.000    37662494.129   151651260.029         813.281          43.000  
C10  38643630.863   201227536.519         914.898          34.000    38643627.951   155601885.486         707.385          42.000  
G29                                                                  22204903.249                       -1555.157          29.000  
> 2025 10 28 07 06 31.3160000  0 21                     
G03  21833359.203   114735077.943       -1563.320          42.000    21833354.759    89403938.975       -1218.646          37.000  
G16  19906325.029   104608447.305        2028.603          46.000                                                                  
G26  18881665.537    99223822.304        -511.656          49.000    18881656.679    77317229.301        -399.127          47.000  
G28  20460750.786   107521973.384       -1741.569          45.000    20460739.812    83783310.255       -1357.094          45.000  
G31  19269866.176   101263834.605        -513.201          47.000    19269854.432    78906835.160        -399.846          45.000  
C06  35197149.559   183280794.330         -82.870          47.000    35197129.727   141724257.810         -64.196          47.000  
C09  36347110.662   189268945.602         -51.507          45.000    36347094.625   146354689.260         -39.857          47.000  
C13  37981836.869   197781387.216       -2439.873          38.000    37981835.283   152937109.253       -1887.117          40.000  
C16  35632570.196   185548143.587         -96.088          48.000    35632556.865   143477542.167         -74.213          47.000  
C23  21687005.846   112929928.122       -1817.789          44.000                                                                  
C32  22055814.262   114850416.411       -2697.705          45.000                                                                  
G32  22052604.755   115887213.465       -3729.885          42.000    22052601.271    90301713.638       -2906.522          39.000  
G27  23242719.329   122141350.515        3658.304          36.000    23242736.347    95175166.483        2852.123          34.000  
G04  21738723.944                        2779.709          27.000    21738716.385                        2165.728          31.000  
C37  21219722.217   110496661.876         319.376          49.000                                                                  
C08  38872618.033   202419915.132       -2539.314          35.000    38872615.757   156523908.167       -1963.327          44.000  
C20  22294911.475   116095453.124         509.360          49.000                                                                  
C28  24296216.104   126516793.144        2443.009          42.000                                                                  
C07  37662500.482   196118526.550        1051.868          40.000    37662486.040   151651227.502         813.239          43.000  
C10  38643623.804   201227499.893         915.394          34.000    38643620.926   155601857.162         707.825          42.000  
G29                                                                  22204918.431                       -1555.145          29.000  
> 2025 10 28 07 06 31.3560000  0 21                     
G03  21833371.110   114735140.496       -1563.543          42.000    21833366.667    89403987.748       -1218.991          37.000  
G16  19906309.574   104608366.145        2028.903          46.000                                                                  
G26  18881669.440    99223842.784        -511.854          49.000    18881660.547    77317245.259        -399.044          47.000  
G28  20460764.037   107522043.042       -1741.490          45.000    20460753.060    83783364.537       -1357.099          45.000  
G31  19269870.076   101263855.130        -513.165          47.000    19269858.341    78906851.158        -399.896          45.000  
C06  35197150.192   183280797.653         -82.972          47.000    35197130.370   141724260.373         -64.105          47.000  
C09  36347111.034   189268947.671         -51.576          45.000    36347095.007   146354690.856         -39.873          48.000  
C13  37981855.599   197781484.817       -2439.897          38.000    37981854.003   152937184.697       -1886.415          40.000  
C16  35632570.926   185548147.430         -96.035          48.000    35632557.608   143477545.140         -74.273          47.000  
C23  21687019.830   112930000.825       -1817.650          44.000                                                                  
C32  22055834.973   114850524.325       -2697.824          45.000                                                                  
G32  22052633.130   115887362.670       -3729.984          42.000    22052629.662    90301829.914       -2906.804          39.000  
G27  23242691.457   122141204.165        3658.433          36.000    23242708.476    95175052.456        2851.200          34.000  
G04  21738702.600                        2779.933          27.000    21738695.215                        2165.934          31.000  
C37  21219719.777   110496649.099         319.396          49.000                                                                  
C08  38872637.531   202420016.675       -2538.550          35.000    38872635.272   156523986.695       -1963.159          44.000  
C20  22294907.569   116095432.748         509.457          49.000                                                                  
C28  24296197.337   126516695.420        2443.121          42.000                                                                  
C07  37662492.391   196118484.468        1052.032          40.000    37662477.955   151651194.962         813.385          43.000  
C10  38643616.740   201227463.251         915.778          34.000    38643613.901   155601828.822         708.381          42.000  
G29                                                                  22204933.603                       -1555.010          29.000  
> 2025 10 28 07 06 31.3960000  0 21                     
G03  21833382.999   114735203.075       -1564.175          41.000    21833378.570    89404036.498       -1218.827          37.000  
G16  19906294.139   104608285.019        2028.425          46.000                                                                  
G26  18881673.352    99223863.267        -512.037          49.000    18881664.457    77317261.224        -399.119          46.000  
G28  20460777.307   107522112.710       -1741.642          45.000    20460766.306    83783418.812       -1356.961          45.000  
G31  19269873.994   101263875.665        -513.301          47.000    19269862.248    78906867.165        -400.112          45.000  
C06  35197150.822   183280800.969         -82.903          48.000    35197131.003   141724262.936         -64.097          47.000  
C09  36347111.411   189268949.743         -51.725          45.000    36347095.390   146354692.461         -40.072          48.000  
C13  37981874.376   197781582.429       -2440.127          38.000    37981872.747   152937260.161       -1886.427          41.000  
C16  35632571.655   185548151.285         -96.249          48.000    35632558.330   143477548.120         -74.431          47.000  
C23  21687033.784   112930073.533       -1817.670          44.000                                                                  
C32  22055855.730   114850632.231       -2697.724          46.000                                                                  
G32  22052661.545   115887511.904       -3730.582          42.000    22052658.055    90301946.187       -2906.840          39.000  
G27  23242663.581   122141057.776        3659.222          35.000    23242680.632    95174938.480        2849.772          34.000  
G04  21738681.571                        2780.623          27.000    21738673.989    89016395.371        2166.059          31.000  
C37  21219717.305   110496636.326         319.344          49.000                                                                  
C08  38872657.033   202420118.297       -2539.581          35.000    38872654.804   156524065.249       -1963.586          44.000  
C20  22294903.626   116095412.387         509.185          49.000                                                                  
C28  24296178.599   126516597.700        2443.061          42.000                                                                  
C07  37662484.322   196118442.404        1051.764          40.000    37662469.864   151651162.434         813.275          43.000  
C10  38643609.710   201227426.626         915.605          34.000    38643606.879   155601800.498         708.308          42.000  
G29                                                                  22204949.196                       -1555.158          29.000  
> 2025 10 28 07 06 31.4360000  0 21                     
G03  21833394.901   114735265.676       -1564.852          41.000    21833390.483    89404085.233       -1218.464          37.000  
G16  19906278.704   104608203.903        2027.995          46.000                                                                  
G26  18881677.234    99223883.747        -512.060          49.000    18881668.359    77317277.195        -399.282          46.000  
G28  20460790.583   107522182.384       -1741.849          45.000    20460779.565    83783473.094       -1356.995          45.000  
G31  19269877.936   101263896.211        -513.609          47.000    19269866.170    78906883.176        -400.303          45.000  
C06  35197151.437   183280804.295         -83.080          48.000    35197131.627   141724265.510         -64.258          47.000  
C09  36347111.808   189268951.822         -51.927          45.000    36347095.788   146354694.068         -40.190          48.000  
C13  37981893.133   197781680.077       -2440.880          38.000    37981891.495   152937335.639       -1886.733          41.000  
C16  35632572.361   185548155.148         -96.514          48.000    35632559.081   143477551.105         -74.618          47.000  
C23  21687047.751   112930146.238       -1817.645          44.000                                                                  
C32  22055876.468   114850740.143       -2697.824          46.000                                                                  
G32  22052689.938   115887661.118       -3730.542          42.000    22052686.453    90302062.455       -2906.757          39.000  
G27  23242635.747   122140911.439        3658.758          35.000    23242652.792    95174824.497        2849.326          34.000  
G04  21738660.534                        2780.973          27.000    21738652.761    89016308.746        2165.690          31.000  
C37  21219714.827   110496623.554         319.280          49.000                                                                  
C08  38872676.539   202420219.869       -2539.410          35.000    38872674.311   156524143.817       -1964.073          44.000  
C20  22294899.717   116095392.031         508.945          49.000                                                                  
C28  24296159.833   126516499.989        2442.903          42.000                                                                  
C07  37662476.231   196118400.333        1051.733          40.000    37662461.786   151651129.906         813.214          43.000  
C10  38643602.687   201227390.055         914.588          34.000    38643599.832   155601772.191         707.915          42.000  
G29                                                                  22204964.260                       -1555.269          29.000  
> 2025 10 28 07 06 31.4760000  0 21                     
G03  21833406.808   114735328.277       -1565.141          41.000    21833402.363    89404133.967       -1218.352          37.000  
G16  19906263.271   104608122.782        2027.888          46.000                                                                  
G26  18881681.138    99223904.248        -512.480          48.000    18881672.274    77317293.175        -399.511          46.000  
G28  20460803.875   107522252.066       -1742.076          45.000    20460792.793    83783527.388       -1357.242          45.000  
G31  19269881.879   101263916.767        -513.940          47.000    19269870.085    78906899.187        -400.357          45.000  
C06  35197152.066   183280807.628         -83.273          48.000    35197132.247   141724268.081         -64.342          47.000  
C09  36347112.201   189268953.907         -52.152          45.000    36347096.185   146354695.667         -40.084          48.000  
C13  37981911.898   197781777.711       -2441.027          39.000    37981910.243   152937411.141       -1887.386          41.000  
C16  35632573.098   185548159.008         -96.570          48.000    35632559.801   143477554.093         -74.748          47.000  
C23  21687061.703   112930218.957       -1817.872          44.000                                                                  
C32  22055897.203   114850848.084       -2698.428          46.000                                                                  
G32  22052718.324   115887810.320       -3730.248          43.000    22052714.850    90302178.725       -2906.789          39.000  
G27  23242607.896   122140765.082        3658.877          36.000    23242624.933    95174710.416        2850.968          34.000  
G04  21738639.396                        2780.006          27.000    21738631.718    89016222.092        2166.125          31.000  
C37  21219712.374   110496610.790         319.116          50.000                                                                  
C08  38872696.023   202420321.434       -2539.211          35.000    38872693.806   156524222.371       -1964.041          44.000  
C20  22294895.803   116095371.683         508.693          49.000                                                                  
C28  24296141.085   126516402.275        2442.861          42.000                                                                  
C07  37662468.142   196118358.289        1051.215          40.000    37662453.710   151651097.377         813.190          43.000  
C10  38643595.645   201227353.481         914.202          34.000    38643592.805   155601743.897         707.484          41.000  
G29                                                                  22204979.300                       -1555.354          29.000  
> 2025 10 28 07 06 31.5160000  0 21                     
G03  21833418.719   114735390.855       -1564.800          41.000    21833414.289    89404182.731       -1218.781          37.000  
G16  19906247.812   104608041.645        2028.142          46.000                                                                  
G26  18881685.049    99223924.755        -512.750          48.000    18881676.172    77317309.139        -399.332          47.000  
G28  20460817.114   107522321.732       -1741.850          45.000    20460806.067    83783581.685       -1357.426          45.000  
G31  19269885.786   101263937.311        -513.840          47.000    19269873.978    78906915.189        -400.177          45.000  
C06  35197152.700   183280810.963         -83.418          48.000    35197132.879   141724270.654         -64.375          47.000  
C09  36347112.608   189268955.993         -52.235          45.000    36347096.582   146354697.277         -40.244          47.000  
C13  37981930.668   197781875.311       -2440.406          40.000    37981928.971   152937486.650       -1887.816          41.000  
C16  35632573.843   185548162.867         -96.571          48.000    35632560.554   143477557.075         -74.648          47.000  
C23  21687075.676   112930291.677       -1818.000          44.000                                                                  
C32  22055917.917   114850956.021       -2698.596          45.000                                                                  
G32  22052746.734   115887959.544       -3730.510          43.000    22052743.232    90302294.999       -2906.851          39.000  
G27  23242580.053   122140618.715        3659.105          35.000    23242597.057    95174596.331        2851.959          34.000  
G04  21738618.075                        2780.386          27.000    21738610.533    89016135.436        2166.450          31.000  
C37  21219709.946   110496598.017         319.229          50.000                                                                  
C08  38872715.523   202420423.011       -2539.265          35.000    38872713.302   156524300.933       -1964.151          44.000  
C20  22294891.929   116095351.329         508.719          49.000                                                                  
C28  24296122.343   126516304.571        2442.614          41.000                                                                  
C07  37662460.097   196118316.240        1051.111          40.000    37662445.659   151651064.858         812.976          43.000  
C10  38643588.610   201227316.825         915.501          34.000    38643585.789   155601715.603         707.283          41.000  
G29                                                                  22204994.600                       -1555.716          29.000  
> 2025 10 28 07 06 31.5560000  0 21                     
G03  21833430.614   114735453.410       -1564.120          41.000    21833426.186    89404231.489       -1218.993          37.000  
G16  19906232.349   104607960.498        2028.480          46.000                                                                  
G26  18881688.948    99223945.259        -512.768          48.000    18881680.071    77317325.093        -399.012          47.000  
G28  20460830.360   107522391.386       -1741.525          45.000    20460819.321    83783635.986       -1357.602          45.000  
G31  19269889.680   101263957.855        -513.722          47.000    19269877.886    78906931.188        -400.061          45.000  
C06  35197153.328   183280814.285         -83.231          48.000    35197133.484   141724273.234         -64.517          47.000  
C09  36347113.013   189268958.064         -51.951          45.000    36347096.974   146354698.879         -40.159          47.000  
C13  37981949.400   197781972.909       -2440.009          40.000    37981947.703   152937562.119       -1887.290          41.000  
C16  35632574.574   185548166.709         -96.233          48.000    35632561.268   143477560.043         -74.360          47.000  
C23  21687089.632   112930364.390       -1817.910          44.000                                                                  
C32  22055938.630   114851063.946       -2698.387          46.000                                                                  
G32  22052775.123   115888108.757       -3730.377          43.000    22052771.630    90302411.282       -2907.062          39.000  
G27  23242552.192   122140472.385        3658.617          35.000    23242569.204    95174482.297        2851.569          34.000  
G04  21738596.749                        2779.471          27.000    21738589.340                        2165.460          31.000  
C37  21219707.528   110496585.231         319.504          51.000                                                                  
C08  38872735.015   202420524.550       -2538.749          35.000    38872732.815   156524379.464       -1963.574          44.000  
C20  22294888.032   116095330.978         508.677          49.000                                                                  
C28  24296103.583   126516206.868        2442.537          41.000                                                                  
C07  37662452.022   196118274.174        1051.410          40.000    37662437.577   151651032.329         813.092          43.000  
C10  38643581.578   201227280.185         915.948          34.000    38643578.766   155601687.304         707.303          41.000  
G29                                                                  22205009.857                       -1555.629          29.000  
> 2025 10 28 07 06 31.5960000  0 21                     
G03  21833442.509   114735515.965       -1563.806          41.000    21833438.094    89404280.261       -1219.284          37.000  
G16  19906216.903   104607879.371        2028.289          46.000                                                                  
G26  18881692.842    99223965.753        -512.525          48.000    18881683.957    77317341.042        -398.744          47.000  
G28  20460843.622   107522461.053       -1741.591          45.000    20460832.583    83783690.291       -1357.765          44.000  
G31  19269893.596   101263978.396        -513.605          47.000    19269881.764    78906947.188        -399.993          45.000  
C06  35197153.944   183280817.615         -83.280          48.000    35197134.120   141724275.822         -64.735          47.000  
C09  36347113.455   189268960.140         -51.902          45.000    36347097.387   146354700.491         -40.266          47.000  
C13  37981968.115   197782070.526       -2440.251          40.000    37981966.417   152937637.608       -1887.313          41.000  
C16  35632575.290   185548170.564         -96.292          48.000    35632562.016   143477563.026         -74.463          47.000  
C23  21687103.575   112930437.111       -1818.010          44.000                                                                  
C32  22055959.378   114851171.867       -2698.154          46.000                                                                  
G32  22052803.520   115888257.991       -3730.764          43.000    22052800.025    90302527.539       -2906.636          39.000  
G27  23242524.333   122140326.059        3658.314          35.000    23242541.356    95174368.286        2850.868          34.000  
G04  21738575.834                        2779.506          27.000    21738568.186                        2165.645          30.000  
C37  21219705.060   110496572.454         319.500          51.000                                                                  
C08  38872754.523   202420626.149       -2539.488          35.000    38872752.318   156524458.003       -1963.434          44.000  
C20  22294884.113   116095310.632         508.616          49.000                                                                  
C28  24296084.811   126516109.153        2442.711          41.000                                                                  
C07  37662443.943   196118232.112        1051.489          40.000    37662429.506   151650999.819         812.823          43.000  
C10  38643574.523   201227243.543         916.209          34.000    38643571.759   155601658.990         707.645          41.000  
G29                                                                  22205025.121                       -1555.604          29.000  
> 2025 10 28 07 06 31.6360000  0 21                     
G03  21833454.416   114735578.556       -1564.386          41.000    21833450.008    89404329.032       -1219.398          38.000  
G16  19906201.475   104607798.254        2028.004          46.000                                                                  
G26  18881696.706    99223986.243        -512.337          49.000    18881687.873    77317357.004        -398.881          47.000  
G28  20460856.887   107522530.739       -1741.986          45.000    20460845.856    83783744.587       -1357.625          44.000  
G31  19269897.531   101263998.948        -513.771          47.000    19269885.689    78906963.203        -400.283          45.000  
C06  35197154.541   183280820.952         -83.442          48.000    35197134.758   141724278.405         -64.746          46.000  
C09  36347113.861   189268962.218         -51.942          45.000    36347097.804   146354702.104         -40.366          47.000  
C13  37981986.873   197782168.163       -2440.727          40.000    37981985.180   152937713.107       -1887.475          41.000  
C16  35632576.000   185548174.432         -96.589          48.000    35632562.757   143477566.010         -74.590          47.000  
C23  21687117.536   112930509.836       -1818.160          44.000                                                                  
C32  22055980.103   114851279.782       -2697.932          46.000                                                                  
G32  22052831.930   115888407.227       -3730.947          43.000    22052828.408    90302643.821       -2906.926          39.000  
G27  23242496.502   122140179.733        3658.096          35.000    23242513.529    95174254.283        2850.234          34.000  
G04  21738554.681                        2778.937          27.000    21738546.833                        2165.974          30.000  
C37  21219702.583   110496559.683         319.369          51.000                                                                  
C08  38872774.034   202420727.803       -2540.941          35.000    38872771.845   156524536.538       -1963.305          44.000  
C20  22294880.207   116095290.289         508.518          49.000                                                                  
C28  24296066.026   126516011.440        2442.747          41.000                                                                  
C07  37662435.875   196118190.058        1051.367          40.000    37662421.442   151650967.301         812.848          43.000  
C10  38643567.534   201227206.968         915.076          34.000    38643564.742   155601630.681         707.752          41.000  
G29                                                                  22205040.164                       -1555.481          29.000  
> 2025 10 28 07 06 31.6760000  0 21                     
G03  21833466.347   114735641.157       -1564.917          41.000    21833461.928    89404377.796       -1219.274          38.000  
G16  19906186.061   104607717.146        2027.695          46.000                                                                  
G26  18881700.617    99224006.742        -512.408          49.000    18881691.781    77317372.983        -399.284          47.000  
G28  20460870.143   107522600.447       -1742.598          45.000    20460859.114    83783798.881       -1357.455          44.000  
G31  19269901.469   101264019.510        -514.017          47.000    19269889.589    78906979.236        -400.776          45.000  
C06  35197155.152   183280824.303         -83.723          47.000    35197135.379   141724280.994         -64.832          46.000  
C09  36347114.255   189268964.310         -52.202          45.000    36347098.203   146354703.724         -40.541          46.000  
C13  37982005.640   197782265.811       -2441.207          40.000    37982003.956   152937788.605       -1887.497          41.000  
C16  35632576.765   185548178.300         -96.733          48.000    35632563.530   143477569.008         -74.894          46.000  
C23  21687131.503   112930582.558       -1818.152          44.000                                                                  
C32  22056000.845   114851387.712       -2698.127          46.000                                                                  
G32  22052860.332   115888556.464       -3731.038          43.000    22052856.819    90302760.126       -2907.490          39.000  
G27  23242468.638   122140033.410        3657.955          35.000    23242485.665    95174140.287        2849.778          34.000  
G04  21738533.804                        2778.798          27.000    21738526.054                        2167.015          30.000  
C37  21219700.075   110496546.930         318.954          51.000                                                                  
C08  38872793.559   202420829.436       -2541.279          35.000    38872791.363   156524615.096       -1963.688          44.000  
C20  22294876.282   116095269.951         508.383          49.000                                                                  
C28  24296047.273   126515913.749        2442.327          41.000                                                                  
C07  37662427.811   196118147.997        1051.471          40.000    37662413.381   151650934.800         812.512          42.000  
C10  38643560.533   201227170.419         913.999          34.000    38643557.732   155601602.379         707.683          41.000  
G29                                                                  22205055.223                       -1555.610          29.000  
> 2025 10 28 07 06 31.7160000  0 21                     
G03  21833478.253   114735703.767       -1565.274          41.000    21833473.852    89404426.580       -1219.594          38.000  
G16  19906170.617   104607636.031        2027.690          46.000                                                                  
G26  18881704.546    99224027.247        -512.585          49.000    18881695.697    77317388.965        -399.570          47.000  
G28  20460883.417   107522670.137       -1742.544          45.000    20460872.377    83783853.164       -1357.144          44.000  
G31  19269905.401   101264040.064        -513.954          47.000    19269893.525    78906995.265        -400.872          45.000  
C06  35197155.807   183280827.645         -83.679          47.000    35197136.010   141724283.588         -64.902          46.000  
C09  36347114.668   189268966.406         -52.407          45.000    36347098.596   146354705.345         -40.606          46.000  
C13  37982024.416   197782363.465       -2441.522          40.000    37982022.702   152937864.088       -1887.264          41.000  
C16  35632577.482   185548182.181         -96.997          47.000    35632564.244   143477572.007         -75.053          45.000  
C23  21687145.478   112930655.274       -1818.025          45.000                                                                  
C32  22056021.547   114851495.648       -2698.339          46.000                                                                  
G32  22052888.733   115888705.675       -3730.531          43.000    22052885.231    90302876.433       -2907.803          39.000  
G27  23242440.775   122139887.064        3658.407          35.000    23242457.833    95174026.294        2849.626          34.000  
G04  21738512.291                        2779.069          27.000    21738504.958                        2165.801          30.000  
C37  21219697.613   110496534.171         318.866          51.000                                                                  
C08  38872813.020   202420930.984       -2539.718          35.000    38872810.865   156524693.673       -1964.266          44.000  
C20  22294872.396   116095249.611         508.384          49.000                                                                  
C28  24296028.494   126515816.050        2442.347          41.000                                                                  
C07  37662419.751   196118105.937        1051.501          40.000    37662405.316   151650902.287         812.634          42.000  
C10  38643553.529   201227133.870         913.518          34.000    38643550.703   155601574.087         707.389          41.000  
G29                                                                  22205070.616                       -1555.610          29.000  
> 2025 10 28 07 06 31.7560000  0 21                     
G03  21833490.156   114735766.356       -1565.040          41.000    21833485.768    89404475.332       -1219.060          38.000  
G16  19906155.164   104607554.908        2027.847          46.000                                                                  
G26  18881708.434    99224047.746        -512.559          49.000    18881699.593    77317404.940        -399.533          47.000  
G28  20460896.656   107522739.819       -1742.304          45.000    20460885.633    83783907.447       -1357.045          44.000  
G31  19269909.312   101264060.607        -513.720          47.000    19269897.424    78907011.281        -400.605          45.000  
C06  35197156.453   183280830.982         -83.540          46.000    35197136.612   141724286.179         -64.883          45.000  
C09  36347115.104   189268968.499         -52.440          45.000    36347099.002   146354706.962         -40.532          46.000  
C13  37982043.188   197782461.124       -2441.650          40.000    37982041.442   152937939.577       -1887.256          41.000  
C16  35632578.227   185548186.047         -96.877          46.000    35632565.000   143477575.008         -75.128          45.000  
C23  21687159.443   112930727.989       -1817.925          45.000                                                                  
C32  22056042.255   114851603.591       -2698.593          46.000                                                                  
G32  22052917.094   115888854.890       -3730.346          43.000    22052913.637    90302992.716       -2907.430          39.000  
G27  23242412.920   122139740.706        3658.933          35.000    23242429.983    95173912.252        2850.420          34.000  
G04  21738490.980                        2779.270          27.000    21738483.755                        2164.547          30.000  
C37  21219695.196   110496521.409         318.918          50.000                                                                  
C08  38872832.529   202421032.544       -2539.020          35.000    38872830.401   156524772.249       -1964.517          44.000  
C20  22294868.501   116095229.267         508.477          49.000                                                                  
C28  24296009.740   126515718.320        2442.980          41.000                                                                  
C07  37662411.668   196118063.878        1051.532          40.000    37662397.240   151650869.776         812.714          42.000  
C10  38643546.466   201227097.234         914.938          34.000    38643543.664   155601545.803         707.081          41.000  
G29                                                                  22205085.796                       -1555.591          29.000  
> 2025 10 28 07 06 31.7960000  0 21                     
G03  21833502.055   114735828.942       -1564.805          42.000    21833497.663    89404524.095       -1218.987          38.000  
G16  19906139.723   104607473.782        2028.040          46.000                                                                  
G26  18881712.342    99224068.248        -512.577          49.000    18881703.487    77317420.917        -399.511          47.000  
G28  20460909.918   107522809.500       -1742.147          45.000    20460898.908    83783961.739       -1357.178          44.000  
G31  19269913.200   101264081.153        -513.628          47.000    19269901.314    78907027.280        -400.174          45.000  
C06  35197157.102   183280834.322         -83.508          46.000    35197137.224   141724288.751         -64.573          45.000  
C09  36347115.531   189268970.587         -52.335          44.000    36347099.400   146354708.577         -40.475          46.000  
C13  37982061.963   197782558.749       -2441.108          39.000    37982060.189   152938015.054       -1887.010          42.000  
C16  35632578.970   185548189.912         -96.749          46.000    35632565.746   143477577.996         -74.883          45.000  
C23  21687173.426   112930800.706       -1817.907          45.000                                                                  
C32  22056062.998   114851711.522       -2698.472          46.000                                                                  
G32  22052945.497   115889004.100       -3730.225          43.000    22052942.045    90303108.976       -2906.714          39.000  
G27  23242385.054   122139594.342        3659.235          36.000    23242402.146    95173798.244        2850.313          34.000  
G04  21738469.694                        2779.252          27.000    21738462.472                        2164.799          30.000  
C37  21219692.745   110496508.649         318.934          50.000                                                                  
C08  38872852.016   202421134.129       -2539.282          34.000    38872849.924   156524850.805       -1964.224          44.000  
C20  22294864.602   116095208.929         508.390          49.000                                                                  
C28  24295991.001   126515620.607        2442.933          41.000                                                                  
C07  37662403.589   196118021.829        1051.300          40.000    37662389.197   151650837.239         813.257          43.000  
C10  38643539.431   201227060.576         916.214          34.000    38643536.603   155601517.497         707.333          41.000  
G29                                                                  22205100.779                       -1555.628          29.000  
> 2025 10 28 07 06 31.8360000  0 21                     
G03  21833513.946   114735891.517       -1564.486          42.000    21833509.581    89404572.851       -1218.826          38.000  
G16  19906124.277   104607392.661        2028.057          46.000                                                                  
G26  18881716.231    99224088.748        -512.564          49.000    18881707.396    77317436.893        -399.452          46.000  
G28  20460923.163   107522879.173       -1741.903          45.000    20460912.168    83784016.041       -1357.458          44.000  
G31  19269917.101   101264101.707        -513.801          47.000    19269905.213    78907043.292        -400.194          45.000  
C06  35197157.741   183280837.653         -83.373          46.000    35197137.843   141724291.319         -64.296          45.000  
C09  36347115.925   189268972.673         -52.214          44.000    36347099.808   146354710.192         -40.411          46.000  
C13  37982080.698   197782656.343       -2440.255          39.000    37982078.954   152938090.518       -1886.667          42.000  
C16  35632579.717   185548193.781         -96.750          46.000    35632566.503   143477580.986         -74.767          45.000  
C23  21687187.420   112930873.420       -1817.871          45.000                                                                  
C32  22056083.719   114851819.457       -2698.453          46.000                                                                  
G32  22052973.910   115889153.342       -3730.832          43.000    22052970.418    90303225.225       -2906.222          39.000  
G27  23242357.197   122139447.993        3659.011          36.000    23242374.286    95173684.203        2850.837          34.000  
G04  21738448.422                        2779.476          27.000    21738441.313                        2165.426          30.000  
C37  21219690.311   110496495.886         319.018          50.000                                                                  
C08  38872871.536   202421235.715       -2539.355          34.000    38872869.417   156524929.345       -1963.717          44.000  
C20  22294860.708   116095188.588         508.446          49.000                                                                  
C28  24295972.240   126515522.892        2442.890          41.000                                                                  
C07  37662395.505   196117979.792        1050.989          40.000    37662381.091   151650804.697         813.580          43.000  
C10  38643532.383   201227023.948         916.257          34.000    38643529.573   155601489.201         707.417          41.000  
G29                                                                  22205116.371                       -1555.524          29.000  
> 2025 10 28 07 06 31.8760000  0 21                     
G03  21833525.875   114735954.104       -1564.579          42.000    21833521.476    89404621.642       -1219.465          38.000  
G16  19906108.845   104607311.554        2027.808          45.000                                                                  
G26  18881720.147    99224109.250        -512.570          49.000    18881711.305    77317452.870        -399.439          46.000  
G28  20460936.414   107522948.836       -1741.624          45.000    20460925.410    83784070.344       -1357.638          44.000  
G31  19269921.003   101264122.262        -513.881          46.000    19269909.116    78907059.304        -400.250          45.000  
C06  35197158.366   183280840.993         -83.422          46.000    35197138.483   141724293.904         -64.458          45.000  
C09  36347116.322   189268974.745         -51.905          44.000    36347100.197   146354711.807         -40.380          45.000  
C13  37982099.452   197782753.953       -2440.056          39.000    37982097.727   152938165.994       -1886.696          42.000  
C16  35632580.453   185548197.653         -96.796          46.000    35632567.234   143477583.986         -74.928          45.000  
C23  21687201.365   112930946.142       -1817.997          44.000                                                                  
C32  22056104.475   114851927.388       -2698.390          46.000                                                                  
G32  22053002.310   115889302.574       -3730.928          43.000    22052998.824    90303341.508       -2906.727          39.000  
G27  23242329.358   122139301.637        3659.063          36.000    23242346.447    95173570.173        2850.916          34.000  
G04  21738427.718                        2779.743          27.000    21738420.116                        2165.389          30.000  
C37  21219687.862   110496483.127         318.972          49.000                                                                  
C08  38872891.041   202421337.329       -2539.991          34.000    38872888.916   156525007.883       -1963.417          44.000  
C20  22294856.802   116095168.248         508.471          49.000                                                                  
C28  24295953.470   126515425.195        2442.612          41.000                                                                  
C07  37662387.439   196117937.742        1051.050          40.000    37662373.054   151650772.167         813.416          43.000  
C10  38643525.368   201226987.386         914.771          34.000    38643522.556   155601460.898         707.547          41.000  
G29                                                                  22205131.568                       -1555.542          29.000  
> 2025 10 28 07 06 31.9160000  0 21                     
G03  21833537.795   114736016.685       -1564.569          42.000    21833533.389    89404670.436       -1219.889          38.000  
G16  19906093.435   104607230.446        2027.674          45.000                                                                  
G26  18881724.072    99224129.757        -512.670          49.000    18881715.201    77317468.853        -399.540          46.000  
G28  20460949.684   107523018.518       -1741.845          45.000    20460938.676    83784124.650       -1357.725          44.000  
G31  19269924.933   101264142.828        -514.127          46.000    19269913.048    78907075.326        -400.479          45.000  
C06  35197159.005   183280844.344         -83.666          45.000    35197139.124   141724296.500         -64.775          45.000  
C09  36347116.740   189268976.840         -52.183          44.000    36347100.610   146354713.420         -40.310          45.000  
C13  37982118.217   197782851.573       -2440.247          39.000    37982116.472   152938241.492       -1887.171          41.000  
C16  35632581.208   185548201.517         -96.705          46.000    35632567.993   143477586.980         -74.928          45.000  
C23  21687215.318   112931018.879       -1818.349          44.000                                                                  
C32  22056125.178   114852035.330       -2698.527          46.000                                                                  
G32  22053030.685   115889451.802       -3730.882          43.000    22053027.223    90303457.795       -2907.107          39.000  
G27  23242301.474   122139155.305        3658.533          36.000    23242318.604    95173456.158        2850.676          34.000  
G04  21738406.765                        2780.065          27.000    21738398.971                        2165.365          30.000  
C37  21219685.418   110496470.370         318.909          49.000                                                                  
C08  38872910.560   202421438.929       -2540.085          34.000    38872908.426   156525086.423       -1963.398          45.000  
C20  22294852.866   116095147.914         508.354          49.000                                                                  
C28  24295934.696   126515327.499        2442.439          41.000                                                                  
C07  37662379.334   196117895.693        1051.123          40.000    37662364.971   151650739.641         813.232          43.000  
C10  38643518.356   201226950.854         913.440          34.000    38643515.496   155601432.577         707.975          41.000  
G29                                                                  22205146.840                       -1555.745          29.000  
> 2025 10 28 07 06 31.9560000  0 21                     
G03  21833549.706   114736079.281       -1564.822          42.000    21833545.304    89404719.196       -1219.385          38.000  
G16  19906078.030   104607149.343        2027.573          45.000                                                                  
G26  18881727.997    99224150.267        -512.787          49.000    18881719.111    77317484.830        -399.528          46.000  
G28  20460962.967   107523088.200       -1742.011          45.000    20460951.938    83784178.953       -1357.671          44.000  
G31  19269928.849   101264163.386        -514.083          46.000    19269916.951    78907091.339        -400.459          44.000  
C06  35197159.638   183280847.695         -83.779          45.000    35197139.754   141724299.085         -64.720          45.000  
C09  36347117.139   189268978.941         -52.448          43.000    36347101.013   146354715.038         -40.382          45.000  
C13  37982136.977   197782949.194       -2440.367          39.000    37982135.227   152938317.000       -1887.615          39.000  
C16  35632581.957   185548205.388         -96.750          45.000    35632568.729   143477589.970         -74.821          45.000  
C23  21687229.246   112931091.607       -1818.370          44.000                                                                  
C32  22056145.905   114852143.271       -2698.569          46.000                                                                  
G32  22053059.092   115889601.039       -3730.930          43.000    22053055.616    90303574.090       -2907.422          39.000  
G27  23242273.644   122139009.004        3657.736          36.000    23242290.741    95173342.090        2851.460          34.000  
G04  21738386.024                        2779.894          27.000    21738377.868                        2165.937          30.000  
C37  21219682.950   110496457.616         318.833          49.000                                                                  
C08  38872930.064   202421540.518       -2539.924          34.000    38872927.956   156525164.969       -1963.524          45.000  
C20  22294848.944   116095127.584         508.243          48.000                                                                  
C28  24295915.963   126515229.799        2442.417          40.000                                                                  
C07  37662371.278   196117853.643        1051.196          40.000    37662356.886   151650707.129         812.866          43.000  
C10  38643511.345   201226914.309         913.089          34.000    38643508.464   155601404.262         708.005          42.000  
G29                                                                  22205161.702                       -1555.775          29.000  
> 2025 10 28 07 06 31.9960000  0 21                     
G03  21833561.596   114736141.878       -1564.983          42.000    21833557.185    89404767.967       -1219.291          36.000  
G16  19906062.552   104607068.229        2027.700          46.000                                                                  
G26  18881731.900    99224170.776        -512.785          49.000    18881723.008    77317500.811        -399.571          46.000  
G28  20460976.259   107523157.889       -1742.215          45.000    20460965.192    83784233.249       -1357.551          44.000  
G31  19269932.758   101264183.945        -514.045          46.000    19269920.870    78907107.361        -400.539          44.000  
C06  35197160.305   183280851.033         -83.636          45.000    35197140.397   141724301.675         -64.762          44.000  
C09  36347117.546   189268981.033         -52.445          43.000    36347101.430   146354716.658         -40.490          45.000  
C13  37982155.718   197783046.837       -2440.869          39.000    37982153.989   152938392.503       -1887.703          39.000  
C16  35632582.704   185548209.271         -97.020          45.000    35632569.457   143477592.970         -74.933          45.000  
C23  21687243.245   112931164.334       -1818.303          44.000                                                                  
C32  22056166.646   114852251.212       -2698.594          46.000                                                                  
G32  22053087.468   115889750.272       -3730.860          43.000    22053084.009    90303690.387       -2907.567          39.000  
G27  23242245.786   122138862.660        3658.084          36.000    23242262.879    95173228.063        2851.104          34.000  
G04  21738364.791                        2778.781          26.000    21738356.747                        2165.960          30.000  
C37  21219680.495   110496444.860         318.842          48.000                                                                  
C08  38872949.591   202421642.082       -2539.339          35.000    38872947.479   156525243.533       -1963.933          45.000  
C20  22294845.047   116095107.254         508.189          48.000                                                                  
C28  24295897.194   126515132.111        2442.191          40.000                                                                  
C07  37662363.191   196117811.581        1051.483          40.000    37662348.836   151650674.608         812.872          43.000  
C10  38643504.285   201226877.669         914.750          34.000    38643501.429   155601375.963         707.672          42.000  
G29                                                                  22205176.669                       -1555.818          29.000  
> 2025 10 28 07 06 32.0360000  0 21                     
G03  21833573.514   114736204.480       -1565.150          42.000    21833569.105    89404816.742       -1219.414          36.000  
G16  19906047.097   104606987.117        2027.751          47.000                                                                  
G26  18881735.779    99224191.294        -512.935          49.000    18881726.915    77317516.809        -399.891          46.000  
G28  20460989.552   107523227.594       -1742.599          45.000    20460978.486    83784287.558       -1357.669          44.000  
G31  19269936.698   101264204.516        -514.224          46.000    19269924.794    78907123.394        -400.828          44.000  
C06  35197160.939   183280854.393         -83.918          44.000    35197141.031   141724304.266         -64.819          44.000  
C09  36347117.949   189268983.126         -52.423          43.000    36347101.835   146354718.280         -40.571          46.000  
C13  37982174.462   197783144.466       -2440.901          39.000    37982172.743   152938468.052       -1888.531          39.000  
C16  35632583.444   185548213.156         -97.209          45.000    35632570.193   143477595.970         -75.038          45.000  
C23  21687257.217   112931237.061       -1818.252          44.000                                                                  
C32  22056187.361   114852359.168       -2698.873          46.000                                                                  
G32  22053115.866   115889899.529       -3731.315          43.000    22053112.419    90303806.664       -2907.246          39.000  
G27  23242217.959   122138716.357        3657.568          36.000    23242235.021    95173114.027        2850.930          34.000  
G04  21738343.920                        2779.406          26.000    21738335.482                        2166.169          30.000  
C37  21219678.039   110496432.117         318.586          48.000                                                                  
C08  38872969.083   202421743.661       -2539.373          35.000    38872967.005   156525322.099       -1964.162          45.000  
C20  22294841.154   116095086.932         508.010          48.000                                                                  
C28  24295878.428   126515034.437        2441.861          40.000                                                                  
C07  37662355.127   196117769.517        1051.654          42.000    37662340.723   151650642.098         812.689          41.000  
C10  38643497.264   201226841.030         915.660          34.000    38643494.385   155601347.668         707.444          42.000  
G29                                                                  22205191.897    90926542.269       -1556.021          29.000  
> 2025 10 28 07 06 32.0760000  0 21                     
G03  21833585.439   114736267.084       -1565.182          42.000    21833581.019    89404865.527       -1219.633          36.000  
G16  19906031.655   104606906.002        2027.858          47.000                                                                  
G26  18881739.662    99224211.803        -512.851          49.000    18881730.822    77317532.794        -399.811          46.000  
G28  20461002.813   107523297.296       -1742.709          45.000    20460991.751    83784341.868       -1357.751          44.000  
G31  19269940.600   101264225.082        -514.217          45.000    19269928.703    78907139.425        -400.888          44.000  
C06  35197161.605   183280857.750         -84.009          44.000    35197141.688   141724306.870         -65.088          44.000  
C09  36347118.345   189268985.213         -52.281          43.000    36347102.250   146354719.899         -40.537          46.000  
C13  37982193.220   197783242.121       -2441.387          39.000    37982191.497   152938543.585       -1888.615          39.000  
C16  35632584.214   185548217.026         -96.991          44.000    35632570.936   143477598.976         -75.171          45.000  
C23  21687271.196   112931309.782       -1818.106          44.000                                                                  
C32  22056208.085   114852467.121       -2698.901          46.000                                                                  
G32  22053144.270   115890048.767       -3731.143          43.000    22053140.819    90303922.946       -2907.077          39.000  
G27  23242190.085   122138570.045        3657.600          36.000    23242207.167    95173000.009        2850.565          34.000  
G04  21738322.997                        2779.015          26.000    21738314.147                        2165.465          30.000  
C37  21219675.612   110496419.373         318.522          48.000                                                                  
C08  38872988.603   202421845.248       -2539.514          35.000    38872986.508   156525400.668       -1964.327          45.000  
C20  22294837.253   116095066.607         508.024          48.000                                                                  
C28  24295859.668   126514936.745        2442.046          40.000                                                                  
C07  37662347.050   196117727.449        1051.758          42.000    37662332.662   151650609.593         812.543          41.000  
C10  38643490.206   201226804.383         916.121          34.000    38643487.350   155601319.374         707.322          42.000  
G29                                                                  22205207.194    90926604.513       -1556.112          29.000  
> 2025 10 28 07 06 32.1160000  0 21                     
G03  21833597.320   114736329.689       -1565.217          42.000    21833592.940    89404914.318       -1219.824          36.000  
G16  19906016.218   104606824.887        2027.903          47.000                                                                  
G26  18881743.564    99224232.311        -512.743          49.000    18881734.748    77317548.779        -399.708          45.000  
G28  20461016.084   107523366.982       -1742.424          45.000    20461005.012    83784396.160       -1357.460          44.000  
G31  19269944.498   101264245.642        -514.062          45.000    19269932.612    78907155.449        -400.714          43.000  
C06  35197162.244   183280861.107         -84.005          44.000    35197142.359   141724309.475         -65.210          44.000  
C09  36347118.755   189268987.310         -52.377          43.000    36347102.642   146354721.506         -40.289          46.000  
C13  37982212.001   197783339.775       -2441.584          37.000    37982210.232   152938619.080       -1887.933          39.000  
C16  35632584.973   185548220.909         -97.096          44.000    35632571.647   143477601.961         -74.819          44.000  
C23  21687285.164   112931382.506       -1818.116          44.000                                                                  
C32  22056228.824   114852575.073       -2698.918          46.000                                                                  
G32  22053172.670   115890198.006       -3731.055          44.000    22053169.217    90304039.241       -2907.234          39.000  
G27  23242162.225   122138423.745        3657.444          36.000    23242179.331    95172885.987        2850.403          34.000  
G04  21738301.559                        2779.097          26.000    21738292.993                        2165.498          29.000  
C37  21219673.184   110496406.626         318.546          48.000                                                                  
C08  38873008.106   202421946.875       -2540.272          35.000    38873006.020   156525479.228       -1964.202          45.000  
C20  22294833.379   116095046.283         508.012          48.000                                                                  
C28  24295840.878   126514839.038        2442.493          40.000                                                                  
C07  37662338.969   196117685.390        1051.581          42.000    37662324.575   151650577.086         812.512          41.000  
C10  38643483.168   201226767.763         915.991          34.000    38643480.327   155601291.077         707.321          42.000  
G29                                                                  22205222.432    90926666.737       -1555.759          29.000  
> 2025 10 28 07 06 32.1560000  0 21                     
G03  21833609.203   114736392.281       -1564.925          42.000    21833604.864    89404963.146       -1220.684          36.000  
G16  19906000.775   104606743.772        2027.909          47.000                                                                  
G26  18881747.482    99224252.825        -512.826          48.000    18881738.652    77317564.771        -399.784          45.000  
G28  20461029.320   107523436.660       -1742.098          45.000    20461018.271    83784450.459       -1357.440          44.000  
G31  19269948.406   101264266.213        -514.217          45.000    19269936.540    78907171.474        -400.671          43.000  
C06  35197162.908   183280864.449         -83.733          43.000    35197143.028   141724312.072         -65.143          44.000  
C09  36347119.153   189268989.405         -52.396          43.000    36347103.026   146354723.117         -40.261          46.000  
C13  37982230.758   197783437.403       -2441.152          37.000    37982228.974   152938694.561       -1887.264          40.000  
C16  35632585.734   185548224.792         -97.096          43.000    35632572.399   143477604.963         -74.975          44.000  
C23  21687299.142   112931455.240       -1818.292          44.000                                                                  
C32  22056249.546   114852683.030       -2698.992          46.000                                                                  
G32  22053201.063   115890347.234       -3730.813          44.000    22053197.616    90304155.554       -2907.675          39.000  
G27  23242134.380   122138277.401        3658.180          36.000    23242151.468    95172771.943        2850.834          34.000  
G04  21738280.230                        2779.178          26.000    21738272.073                        2165.232          29.000  
C37  21219670.748   110496393.878         318.605          48.000                                                                  
C08  38873027.639   202422048.447       -2539.619          35.000    38873025.554   156525557.789       -1964.114          44.000  
C20  22294829.485   116095025.949         508.222          47.000                                                                  
C28  24295822.113   126514741.308        2443.127          42.000                                                                  
C07  37662330.870   196117643.336        1051.355          40.000    37662316.493   151650544.582         812.494          41.000  
C10  38643476.119   201226731.195         914.780          34.000    38643473.276   155601262.784         707.204          41.000  
G29                                                                  22205237.395    90926728.972       -1555.754          29.000  
> 2025 10 28 07 06 32.1960000  0 21                     
G03  21833621.101   114736454.876       -1564.884          42.000    21833616.796    89405011.937       -1220.249          36.000  
G16  19905985.348   104606662.668        2027.699          47.000                                                                  
G26  18881751.416    99224273.340        -512.895          48.000    18881742.543    77317580.755        -399.695          45.000  
G28  20461042.585   107523506.339       -1741.949          45.000    20461031.525    83784504.756       -1357.419          44.000  
G31  19269952.312   101264286.776        -514.136          45.000    19269940.458    78907187.494        -400.530          43.000  
C06  35197163.547   183280867.811         -83.933          43.000    35197143.695   141724314.656         -64.823          44.000  
C09  36347119.559   189268991.512         -52.624          43.000    36347103.442   146354724.725         -40.214          45.000  
C13  37982249.507   197783535.020       -2440.710          37.000    37982247.698   152938770.042       -1886.930          41.000  
C16  35632586.479   185548228.683         -97.224          43.000    35632573.148   143477607.955         -74.906          44.000  
C23  21687313.094   112931527.973       -1818.379          44.000                                                                  
C32  22056270.264   114852790.987       -2698.990          47.000                                                                  
G32  22053229.462   115890496.464       -3730.772          44.000    22053226.024    90304271.846       -2907.529          39.000  
G27  23242106.503   122138131.021        3659.146          36.000    23242123.626    95172657.932        2850.432          34.000  
G04  21738258.805                        2778.967          26.000    21738250.834                        2165.352          29.000  
C37  21219668.336   110496381.123         318.772          48.000                                                                  
C08  38873047.152   202422150.068       -2540.161          35.000    38873045.075   156525636.357       -1964.165          43.000  
C20  22294825.567   116095005.622         508.185          47.000                                                                  
C28  24295803.327   126514643.581        2443.336          42.000                                                                  
C07  37662322.789   196117601.309        1050.732          39.000    37662308.394   151650512.076         812.555          40.000  
C10  38643469.096   201226694.616         914.372          34.000    38643466.261   155601234.506         706.958          41.000  
G29                                                                  22205252.404                       -1555.017          29.000  
> 2025 10 28 07 06 32.2360000  0 21                     
G03  21833633.015   114736517.464       -1564.735          42.000    21833628.700    89405060.721       -1219.889          36.000  
G16  19905969.919   104606581.562        2027.604          47.000                                                                  
G26  18881755.312    99224293.857        -512.957          47.000    18881746.438    77317596.745        -399.753          45.000  
G28  20461055.877   107523576.020       -1741.931          45.000    20461044.783    83784559.063       -1357.625          44.000  
G31  19269956.251   101264307.342        -514.136          44.000    19269944.355    78907203.510        -400.420          43.000  
C06  35197164.212   183280871.163         -83.887          43.000    35197144.351   141724317.245         -64.751          43.000  
C09  36347119.943   189268993.594         -52.278          43.000    36347103.816   146354726.338         -40.280          45.000  
C13  37982268.241   197783632.644       -2440.540          37.000    37982266.450   152938845.516       -1886.713          41.000  
C16  35632587.257   185548232.544         -96.756          43.000    35632573.890   143477610.953         -74.959          43.000  
C23  21687327.056   112931600.710       -1818.497          44.000                                                                  
C32  22056291.013   114852898.935       -2698.809          47.000                                                                  
G32  22053257.858   115890645.700       -3730.886          44.000    22053254.422    90304388.148       -2907.610          39.000  
G27  23242078.624   122137984.643        3659.638          36.000    23242095.779    95172543.925        2850.192          34.000  
G04  21738237.824                        2778.974          26.000    21738229.542                        2165.527          29.000  
C37  21219665.883   110496368.366         318.897          48.000                                                                  
C08  38873066.664   202422251.677       -2540.251          35.000    38873064.617   156525714.926       -1964.200          43.000  
C20  22294821.684   116094985.297         508.141          47.000                                                                  
C28  24295784.536   126514545.858        2443.294          42.000                                                                  
C07  37662314.749   196117559.306        1050.043          39.000    37662300.327   151650479.576         812.500          40.000  
C10  38643462.040   201226657.983         915.234          33.000    38643459.230   155601206.219         706.966          40.000  
G29                                                                  22205267.452    90926853.397       -1555.580          29.000  
> 2025 10 28 07 06 32.2760000  0 21                     
G03  21833644.923   114736580.054       -1564.706          42.000    21833640.619    89405109.511       -1219.732          36.000  
G16  19905954.488   104606500.453        2027.630          47.000                                                                  
G26  18881759.201    99224314.368        -512.836          47.000    18881750.342    77317612.718        -399.438          45.000  
G28  20461069.139   107523645.693       -1741.807          45.000    20461058.040    83784613.363       -1357.589          44.000  
G31  19269960.156   101264327.903        -514.050          44.000    19269948.283    78907219.538        -400.562          42.000  
C06  35197164.863   183280874.513         -83.813          43.000    35197144.982   141724319.831         -64.664          43.000  
C09  36347120.360   189268995.666         -51.920          43.000    36347104.242   146354727.962         -40.513          44.000  
C13  37982287.002   197783730.248       -2440.076          37.000    37982285.175   152938920.978       -1886.458          41.000  
C16  35632588.003   185548236.426         -96.875          43.000    35632574.630   143477613.961         -75.160          43.000  
C23  21687341.035   112931673.435       -1818.286          44.000                                                                  
C32  22056311.761   114853006.870       -2698.480          47.000                                                                  
G32  22053286.250   115890794.941       -3731.016          44.000    22053282.819    90304504.447       -2907.577          39.000  
G27  23242050.759   122137838.285        3659.396          36.000    23242067.898    95172429.821        2851.731          34.000  
G04  21738216.694                        2778.813          26.000    21738208.436                        2165.552          29.000  
C37  21219663.452   110496355.603         319.052          48.000                                                                  
C08  38873086.194   202422353.263       -2539.848          35.000    38873084.129   156525793.481       -1963.973          43.000  
C20  22294817.795   116094964.961         508.320          46.000                                                                  
C28  24295765.758   126514448.130        2443.306          42.000                                                                  
C07  37662306.723   196117517.276        1050.342          39.000    37662292.242   151650447.060         812.775          40.000  
C10  38643454.988   201226621.399         914.889          30.000    38643452.189   155601177.926         707.164          40.000  
G29                                                                  22205282.522                       -1555.909          30.000  
> 2025 10 28 07 06 32.3160000  0 21                     
G03  21833656.832   114736642.651       -1564.860          42.000    21833652.529    89405158.278       -1219.303          36.000  
G16  19905939.057   104606419.345        2027.647          47.000                                                                  
G26  18881763.110    99224334.879        -512.792          47.000    18881754.250    77317628.706        -399.579          44.000  
G28  20461082.401   107523715.368       -1741.828          45.000    20461071.319    83784667.656       -1357.438          43.000  
G31  19269964.093   101264348.475        -514.241          44.000    19269952.216    78907235.556        -400.519          42.000  
C06  35197165.524   183280877.857         -83.678          43.000    35197145.616   141724322.432         -64.886          43.000  
C09  36347120.765   189268997.743         -51.884          42.000    36347104.638   146354729.570         -40.352          44.000  
C13  37982305.766   197783827.866       -2440.153          37.000    37982303.943   152938996.479       -1887.035          41.000  
C16  35632588.736   185548240.308         -96.941          43.000    35632575.404   143477616.974         -75.364          43.000  
C23  21687355.008   112931746.171       -1818.349          44.000                                                                  
C32  22056332.511   114853114.802       -2698.278          48.000                                                                  
G32  22053314.646   115890944.194       -3731.295          44.000    22053311.216    90304620.733       -2907.265          39.000  
G27  23242022.917   122137691.984        3658.202          36.000    23242040.042    95172315.827        2850.607          30.000  
G04  21738195.771                3       2777.898          26.000    21738187.208                        2165.825          29.000  
C37  21219660.979   110496342.841         319.093          47.000                                                                  
C08  38873105.746   202422454.835       -2539.396          35.000    38873103.652   156525872.024       -1963.622          43.000  
C20  22294813.906   116094944.624         508.430          45.000                                                                  
C28  24295747.018   126514350.409        2443.098          42.000                                                                  
C07  37662298.637   196117475.209        1051.312          39.000    37662284.174   151650414.538         813.019          42.000  
C10  38643447.946   201226584.818         914.668          30.000    38643445.131   155601149.625         707.391          40.000  
G29                                                                  22205297.702                       -1555.573          30.000  
> 2025 10 28 07 06 32.3560000  0 21                     
G03  21833668.736   114736705.251       -1564.998          42.000    21833664.450    89405207.011       -1218.481          36.000  
G16  19905923.608   104606338.230        2027.751          47.000                                                                  
G26  18881767.019    99224355.404        -513.038          46.000    18881758.165    77317644.707        -399.918          44.000  
G28  20461095.683   107523785.058       -1742.119          45.000    20461084.564    83784721.953       -1357.406          43.000  
G31  19269968.014   101264369.048        -514.364          44.000    19269956.136    78907251.590        -400.759          42.000  
C06  35197166.155   183280881.216         -83.900          42.000    35197146.279   141724325.037         -65.144          42.000  
C09  36347121.181   189268999.837         -52.154          42.000    36347105.036   146354731.185         -40.397          43.000  
C13  37982324.535   197783925.475       -2440.055          37.000    37982322.666   152939071.987       -1887.530          41.000  
C16  35632589.480   185548244.189         -97.001          43.000    35632576.140   143477619.966         -75.075          42.000  
C23  21687368.991   112931818.893       -1818.141          44.000                                                                  
C32  22056353.256   114853222.731       -2698.144          49.000                                                                  
G32  22053343.024   115891093.431       -3731.131          43.000    22053339.636    90304737.022       -2907.192          39.000  
G27  23241995.078   122137545.674        3657.771          36.000    23242012.242    95172201.904        2848.762          30.000  
G04  21738174.779                3       2780.024          25.000    21738165.989                        2165.482          29.000  
C37  21219658.521   110496330.102         318.666          47.000                                                                  
C08  38873125.235   202422556.412       -2539.309          35.000    38873123.188   156525950.578       -1963.678          44.000  
C20  22294809.994   116094924.293         508.343          44.000                                                                  
C28  24295728.233   126514252.710        2442.592          42.000                                                                  
C07  37662290.560   196117433.139        1051.794          40.000    37662276.086   151650382.003         813.403          43.000  
C10  38643440.904   201226548.250         914.116          30.000    38643438.125   155601121.327         707.462          40.000  
G29                                                                  22205312.952                       -1555.173          30.000  
> 2025 10 28 07 06 32.3960000  0 21                     
G03  21833680.626   114736767.846       -1564.950          42.000    21833676.362    89405255.786       -1218.908          36.000  
G16  19905908.177   104606257.113        2027.882          47.000                                                                  
G26  18881770.941    99224375.932        -513.198          46.000    18881762.075    77317660.708        -400.072          43.000  
G28  20461108.957   107523854.748       -1742.263          45.000    20461097.839    83784776.259       -1357.565          42.000  
G31  19269971.935   101264389.614        -514.252          44.000    19269960.042    78907267.612        -400.598          41.000  
C06  35197166.821   183280884.565         -83.833          42.000    35197146.946   141724327.630         -65.007          42.000  
C09  36347121.590   189269001.928         -52.279          42.000    36347105.437   146354732.797         -40.358          42.000  
C13  37982343.298   197784023.125       -2440.763          37.000    37982341.429   152939147.509       -1888.046          41.000  
C16  35632590.209   185548248.063         -96.910          42.000    35632576.873   143477622.961         -74.959          41.000  
C23  21687382.968   112931891.615       -1818.049          44.000                                                                  
C32  22056373.965   114853330.658       -2698.072          49.000                                                                  
G32  22053371.440   115891242.688       -3731.398          42.000    22053368.002    90304853.308       -2907.120          39.000  
G27  23241967.231   122137399.348        3657.878          36.000    23241984.402    95172087.909        2848.696          30.000  
G04  21738153.107                3       2780.024          25.000    21738144.807                        2165.178          29.000  
C37  21219656.068   110496317.352         318.626          46.000                                                                  
C08  38873144.736   202422658.002       -2539.628          35.000    38873142.713   156526029.143       -1963.969          44.000  
C20  22294806.058   116094903.967         508.170          43.000                                                                  
C28  24295709.486   126514155.001        2442.529          40.000                                                                  
C07  37662282.463   196117391.070        1051.910          41.000    37662268.006   151650349.472         813.416          44.000  
C10  38643433.896   201226511.629         914.891          30.000    38643431.086   155601093.011         707.830          41.000  
G29                                                                  22205328.379                       -1556.616          29.000  
> 2025 10 28 07 06 32.4360000  0 21                     
G03  21833692.541   114736830.444       -1564.969          42.000    21833688.263    89405304.545       -1218.885          36.000  
G16  19905892.739   104606176.002        2027.838          47.000                                                                  
G26  18881774.838    99224396.450        -513.089          45.000    18881765.991    77317676.701        -399.975          43.000  
G28  20461122.210   107523924.438       -1742.342          45.000    20461111.093    83784830.560       -1357.576          42.000  
G31  19269975.816   101264410.173        -514.061          43.000    19269963.967    78907283.627        -400.426          41.000  
C06  35197167.478   183280887.929         -84.099          42.000    35197147.602   141724330.218         -64.835          42.000  
C09  36347121.993   189269004.030         -52.503          41.000    36347105.859   146354734.417         -40.493          42.000  
C13  37982362.086   197784120.765       -2441.024          37.000    37982360.174   152939222.995       -1887.626          41.000  
C16  35632590.941   185548251.943         -96.949          42.000    35632577.610   143477625.955         -74.844          41.000  
C23  21687396.921   112931964.340       -1818.064          44.000                                                                  
C32  22056394.689   114853438.594       -2698.274          49.000                                                                  
G32  22053399.854   115891391.934       -3731.308          42.000    22053396.406    90304969.588       -2907.022          39.000  
G27  23241939.347   122137253.014        3658.120          36.000    23241956.573    95171973.997        2847.865          30.000  
G04  21738131.654                3       2780.024          25.000    21738123.710                        2165.672          29.000  
C37  21219653.646   110496304.601         318.656          46.000                                                                  
C08  38873164.249   202422759.635       -2540.507          32.000    38873162.248   156526107.696       -1963.921          44.000  
C20  22294802.164   116094883.643         508.035          42.000                                                                  
C28  24295690.735   126514057.322        2442.010          40.000                                                                  
C07  37662274.396   196117349.032        1051.288          41.000    37662259.949   151650316.949         813.220          45.000  
C10  38643426.867   201226475.054         914.659          30.000    38643424.078   155601064.704         707.810          42.000  
G29                                                                  22205343.642                       -1556.994          29.000  
> 2025 10 28 07 06 32.4760000  0 21                     
G03  21833704.474   114736893.054       -1565.214          42.000    21833700.174    89405353.316       -1219.114          36.000  
G16  19905877.306   104606094.896        2027.698          47.000                                                                  
G26  18881778.731    99224416.963        -512.893          45.000    18881769.877    77317692.681        -399.645          42.000  
G28  20461135.460   107523994.122       -1742.252          45.000    20461124.343    83784884.864       -1357.634          42.000  
G31  19269979.737   101264430.735        -514.050          43.000    19269967.899    78907299.654        -400.574          41.000  
C06  35197168.123   183280891.269         -83.754          42.000    35197148.261   141724332.808         -64.828          42.000  
C09  36347122.383   189269006.098         -51.965          41.000    36347106.288   146354736.024         -40.306          40.000  
C13  37982380.812   197784218.404       -2441.055          37.000    37982378.914   152939298.488       -1887.500          41.000  
C16  35632591.684   185548255.812         -96.828          42.000    35632578.340   143477628.952         -74.896          41.000  
C23  21687410.887   112932037.062       -1818.028          43.000                                                                  
C32  22056415.408   114853546.531       -2698.411          49.000                                                                  
G32  22053428.241   115891541.172       -3731.071          42.000    22053424.803    90305085.878       -2907.180          40.000  
G27  23241911.493   122137106.663        3658.661          36.000    23241928.745                        2848.409          30.000  
G04  21738110.294                3       2780.024          25.000    21738102.612                        2166.423          29.000  
C37  21219651.220   110496291.845         318.786          46.000                                                                  
C08  38873183.756   202422861.265       -2540.804          32.000    38873181.778   156526186.247       -1963.844          44.000  
C20  22294798.261   116094863.326         507.857          41.000                                                                  
C28  24295671.963   126513959.628        2442.046          40.000                                                                  
C07  37662266.323   196117306.984        1051.166          41.000    37662251.900   151650284.423         813.141          45.000  
C10  38643419.821   201226438.440         915.138          30.000    38643417.026   155601036.396         707.818          42.000  
G29                                                                  22205358.833                       -1556.727          29.000  
> 2025 10 28 07 06 32.5160000  0 21                     
G03  21833716.403   114736955.667       -1565.367          42.000    21833712.084    89405402.116       -1219.752          36.000  
G16  19905861.864   104606013.792        2027.594          47.000                                                                  
G26  18881782.647    99224437.487        -513.014          45.000    18881773.775    77317708.676        -399.749          42.000  
G28  20461148.718   107524063.804       -1742.125          45.000    20461137.607    83784939.170       -1357.744          42.000  
G31  19269983.642   101264451.300        -514.112          43.000    19269971.783    78907315.678        -400.593          41.000  
C06  35197168.769   183280894.620         -83.759          42.000    35197148.940   141724335.389         -64.597          42.000  
C09  36347122.792   189269008.185         -52.048          41.000    36347106.685   146354737.652         -40.586          40.000  
C13  37982399.561   197784316.031       -2440.933          37.000    37982397.672   152939373.987       -1887.465          41.000  
C16  35632592.425   185548259.672         -96.584          42.000    35632579.087   143477631.936         -74.682          41.000  
C23  21687424.854   112932109.799       -1818.306          43.000                                                                  
C32  22056436.076   114853654.480       -2698.722          49.000                                                                  
G32  22053456.633   115891690.417       -3731.109          42.000    22053453.217    90305202.180       -2907.446          40.000  
G27  23241883.653   122136960.338        3658.434          36.000    23241900.886                        2849.524          30.000  
G04  21738088.585                3       2780.024          25.000    21738081.394                        2166.407          29.000  
C37  21219648.801   110496279.098         318.708          46.000                                                                  
C08  38873203.269   202422962.873       -2540.383          32.000    38873201.322   156526264.807       -1963.953          44.000  
C20  22294794.353   116094843.019         507.643          41.000                                                                  
C28  24295653.218   126513861.931        2442.218          40.000                                                                  
C07  37662258.260   196117264.949        1050.909          41.000    37662243.810   151650251.915         812.781          45.000  
C10  38643412.790   201226401.820         915.436          31.000    38643410.014   155601008.094         707.676          42.000  
G29                                                                  22205373.921                       -1556.793          29.000  
> 2025 10 28 07 06 32.5560000  0 21                     
G03  21833728.308   114737018.274       -1565.287          42.000    21833724.028    89405450.916       -1220.070          36.000  
G16  19905846.402   104605932.692        2027.458          46.000                                                                  
G26  18881786.567    99224458.010        -513.122          44.000    18881777.648    77317724.663        -399.700          42.000  
G28  20461161.991   107524133.503       -1742.381          45.000    20461150.858    83784993.478       -1357.765          42.000  
G31  19269987.560   101264471.863        -514.075          43.000    19269975.722    78907331.702        -400.599          41.000  
C06  35197169.422   183280897.966         -83.688          42.000    35197149.572   141724337.967         -64.467          42.000  
C09  36347123.189   189269010.273         -52.138          41.000    36347107.097   146354739.264         -40.437          40.000  
C13  37982418.318   197784413.665       -2440.938          37.000    37982416.411   152939449.485       -1887.466          41.000  
C16  35632593.155   185548263.535         -96.464          42.000    35632579.839   143477634.927         -74.673          41.000  
C23  21687438.805   112932182.538       -1818.492          43.000                                                                  
C32  22056456.801   114853762.432       -2698.905          49.000                                                                  
G32  22053485.050   115891839.652       -3730.898          42.000    22053481.598    90305318.480       -2907.550          40.000  
G27  23241855.813   122136813.975        3658.914          36.000    23241873.019                        2850.204          30.000  
G04  21738067.540                3       2780.024          25.000    21738060.193                        2165.831          29.000  
C37  21219646.371   110496266.344         318.773          45.000                                                                  
C08  38873222.775   202423064.458       -2539.804          32.000    38873220.824   156526343.359       -1963.833          44.000  
C20  22294790.463   116094822.710         507.552          40.000                                                                  
C28  24295634.454   126513764.221        2442.555          40.000                                                                  
C07  37662250.209   196117222.911        1050.818          41.000    37662235.732   151650219.406         812.610          46.000  
C10  38643405.775   201226365.228         915.125          31.000    38643402.996   155600979.794         707.552          43.000  
G29                                                                  22205389.222                       -1556.816          29.000  
> 2025 10 28 07 06 32.5960000  0 21                     
G03  21833740.218   114737080.886       -1565.304          42.000    21833735.921    89405499.684       -1219.554          36.000  
G16  19905830.981   104605851.598        2027.330          46.000                                                                  
G26  18881790.463    99224478.528        -513.040          44.000    18881781.562    77317740.649        -399.670          42.000  
G28  20461175.254   107524203.203       -1742.505          45.000    20461164.128    83785047.783       -1357.714          42.000  
G31  19269991.478   101264492.426        -514.094          43.000    19269979.617    78907347.730        -400.679          40.000  
C06  35197170.072   183280901.300         -83.441          42.000    35197150.211   141724340.549         -64.469          42.000  
C09  36347123.596   189269012.365         -52.225          40.000    36347107.486   146354740.874         -40.330          39.000  
C13  37982437.056   197784511.301       -2440.896          37.000    37982435.170   152939524.971       -1887.260          41.000  
C16  35632593.888   185548267.393         -96.389          42.000    35632580.581   143477637.930         -74.911          40.000  
C23  21687452.773   112932255.258       -1818.218          43.000                                                                  
C32  22056477.542   114853870.383       -2698.920          49.000                                                                  
G32  22053513.444   115891988.896       -3731.012          42.000    22053510.004    90305434.773       -2907.423          40.000  
G27  23241827.969   122136667.618        3659.030          36.000    23241845.135                        2851.433          30.000  
G04  21738046.722                3       2780.024          25.000    21738038.895                        2165.351          28.000  
C37  21219643.935   110496253.584         318.932          45.000                                                                  
C08  38873242.299   202423166.031       -2539.355          32.000    38873240.354   156526421.912       -1963.824          44.000  
C20  22294786.563   116094802.409         507.430          40.000                                                                  
C28  24295615.689   126513666.520        2442.603          40.000                                                                  
C07  37662242.138   196117180.862        1051.086          40.000    37662227.660   151650186.896         812.598          46.000  
C10  38643398.748   201226328.652         914.617          31.000    38643395.940   155600951.488         707.594          43.000  
G29                                                                  22205404.470                       -1555.833          29.000  
> 2025 10 28 07 06 32.6360000  0 21                     
G03  21833752.124   114737143.492       -1565.190          42.000    21833747.852    89405548.490       -1219.995          36.000  
G16  19905815.533   104605770.503        2027.284          46.000                                                                  
G26  18881794.383    99224499.061        -513.304          44.000    18881785.478    77317756.657        -400.067          42.000  
G28  20461188.488   107524272.905       -1742.603          45.000    20461177.377    83785102.091       -1357.686          42.000  
G31  19269995.395   101264512.999        -514.297          43.000    19269983.528    78907363.749        -400.586          40.000  
C06  35197170.716   183280904.635         -83.380          42.000    35197150.870   141724343.146         -64.784          42.000  
C09  36347124.012   189269014.460         -52.364          39.000    36347107.899   146354742.483         -40.230          39.000  
C13  37982455.795   197784608.945       -2441.013          37.000    37982453.933   152939600.466       -1887.344          41.000  
C16  35632594.630   185548271.268         -96.669          42.000    35632581.353   143477640.926         -74.937          40.000  
C23  21687466.737   112932327.998       -1818.395          43.000                                                                  
C32  22056498.287   114853978.332       -2698.837          49.000                                                                  
G32  22053541.822   115892138.137       -3730.987          42.000    22053538.416    90305551.066       -2907.341          40.000  
G27  23241800.115   122136521.279        3658.738          36.000    23241817.262                        2851.312          30.000  
G04  21738025.760                3       2780.024          25.000    21738017.701                        2164.583          28.000  
C37  21219641.477   110496240.834         318.773          45.000                                                                  
C08  38873261.807   202423267.616       -2539.352          32.000    38873259.873   156526500.463       -1963.786          44.000  
C20  22294782.651   116094782.113         507.358          40.000                                                                  
C28  24295596.958   126513568.823        2442.524          40.000                                                                  
C07  37662234.059   196117138.826        1050.916          40.000    37662219.615   151650154.380         812.762          46.000  
C10  38643391.732   201226292.072         914.475          31.000    38643388.942   155600923.194         707.385          43.000  
G29                                                                  22205419.636                       -1556.073          29.000  
> 2025 10 28 07 06 32.6760000  0 21                     
G03  21833764.000   114737206.103       -1565.268          42.000    21833759.757    89405597.275       -1219.822          37.000  
G16  19905800.077   104605689.401        2027.396          46.000                                                                  
G26  18881798.278    99224519.582        -513.168          44.000    18881789.413    77317772.657        -400.151          42.000  
G28  20461201.730   107524342.595       -1742.406          45.000    20461190.625    83785156.399       -1357.686          42.000  
G31  19269999.310   101264533.566        -514.266          43.000    19269987.462    78907379.778        -400.691          40.000  
C06  35197171.343   183280907.975         -83.461          41.000    35197151.537   141724345.737         -64.807          42.000  
C09  36347124.425   189269016.535         -52.058          39.000    36347108.320   146354744.099         -40.314          39.000  
C13  37982474.538   197784706.579       -2440.888          38.000    37982472.679   152939675.961       -1887.421          41.000  
C16  35632595.364   185548275.156         -97.043          42.000    35632582.089   143477643.902         -74.596          40.000  
C23  21687480.715   112932400.729       -1818.357          43.000                                                                  
C32  22056519.059   114854086.279       -2698.749          49.000                                                                  
G32  22053570.179   115892287.373       -3730.907          42.000    22053566.827    90305667.352       -2907.212          40.000  
G27  23241772.260   122136374.957        3658.315          36.000    23241789.379                        2850.516          31.000  
G04  21738004.230                3       2780.307          25.000    21737996.378                        2165.042          28.000  
C37  21219639.022   110496228.088         318.648          44.000                                                                  
C08  38873281.330   202423369.196       -2539.357          32.000    38873279.413   156526579.026       -1963.994          44.000  
C20  22294778.748   116094761.796         507.741          40.000                                                                  
C28  24295578.222   126513471.122        2442.510          40.000                                                                  
C07  37662225.976   196117096.777        1051.166          40.000    37662211.507   151650121.859         812.921          46.000  
C10  38643384.748   201226255.511         914.075          31.000    38643381.909   155600894.905         707.209          43.000  
G29                                                                  22205434.933                       -1555.901          29.000  
> 2025 10 28 07 06 32.7160000  0 21                     
G03  21833775.921   114737268.719       -1565.386          42.000    21833771.672    89405646.048       -1219.487          37.000  
G16  19905784.618   104605608.302        2027.424          46.000                                                                  
G26  18881802.180    99224540.106        -513.136          44.000    18881793.298    77317788.641        -399.860          42.000  
G28  20461214.997   107524412.275       -1742.130          45.000    20461203.873    83785210.696       -1357.531          42.000  
G31  19270003.212   101264554.124        -514.062          43.000    19269991.378    78907395.812        -400.839          40.000  
C06  35197171.967   183280911.323         -83.619          41.000    35197152.184   141724348.313         -64.540          42.000  
C09  36347124.832   189269018.615         -51.990          39.000    36347108.709   146354745.736         -40.784          39.000  
C13  37982493.278   197784804.211       -2440.842          38.000    37982491.422   152939751.454       -1887.379          41.000  
C16  35632596.113   185548279.031         -97.007          42.000    35632582.850   143477646.902         -74.822          40.000  
C23  21687494.699   112932473.465       -1818.419          43.000                                                                  
C32  22056539.795   114854194.222       -2698.663          49.000                                                                  
G32  22053598.597   115892436.613       -3730.951          42.000    22053595.235    90305783.644       -2907.232          40.000  
G27  23241744.400   122136228.666        3657.583          36.000    23241761.538                        2850.685          31.000  
G04  21737983.205                3       2780.307          24.000    21737975.181                        2165.181          28.000  
C37  21219636.589   110496215.337         318.676          44.000                                                                  
C08  38873300.823   202423470.784       -2539.539          32.000    38873298.916   156526657.585       -1964.043          44.000  
C20  22294774.842   116094741.449         508.479          40.000                                                                  
C28  24295559.466   126513373.421        2442.515          40.000                                                                  
C07  37662217.926   196117054.709        1051.593          40.000    37662203.433   151650089.338         813.013          46.000  
C10  38643377.739   201226218.942         914.228          31.000    38643374.877   155600866.598         707.430          43.000  
G29                                                                  22205449.970                       -1556.504          29.000  
> 2025 10 28 07 06 32.7560000  0 21                     
G03  21833787.863   114737331.337       -1565.440          42.000    21833783.584    89405694.815       -1219.208          37.000  
G16  19905769.183   104605527.197        2027.537          46.000                                                                  
G26  18881806.074    99224560.628        -513.086          44.000    18881797.229    77317804.633        -399.817          42.000  
G28  20461228.251   107524481.953       -1741.962          45.000    20461217.130    83785265.009       -1357.738          42.000  
G31  19270007.129   101264574.690        -514.099          43.000    19269995.289    78907411.838        -400.733          40.000  
C06  35197172.615   183280914.664         -83.616          41.000    35197152.826   141724350.899         -64.564          42.000  
C09  36347125.214   189269020.682         -51.707          39.000    36347109.104   146354747.325         -40.092          39.000  
C13  37982512.029   197784901.819       -2440.381          38.000    37982510.172   152939826.942       -1887.273          41.000  
C16  35632596.837   185548282.891         -96.709          42.000    35632583.616   143477649.900         -74.917          40.000  
C23  21687508.690   112932546.196       -1818.329          43.000                                                                  
C32  22056560.531   114854302.168       -2698.632          49.000                                                                  
G32  22053626.993   115892585.855       -3731.045          42.000    22053623.615    90305899.928       -2907.133          40.000  
G27  23241716.543   122136082.306        3658.375          36.000    23241733.691                        2850.610          34.000  
G04  21737962.038                3       2780.307          24.000    21737953.816                        2166.164          28.000  
C37  21219634.146   110496202.587         318.711          44.000                                                                  
C08  38873320.351   202423572.371       -2539.492          32.000    38873318.424   156526736.134       -1963.838          44.000  
C20  22294770.908   116094721.143         508.020          40.000                                                                  
C28  24295540.727   126513275.705        2442.808          40.000                                                                  
C07  37662209.865   196117012.652        1051.587          41.000    37662195.352   151650056.826         812.909          45.000  
C10  38643370.705   201226182.310         915.380          31.000    38643367.840   155600838.287         707.645          43.000  
G29                                                                  22205465.127                       -1556.276          29.000  
> 2025 10 28 07 06 32.7960000  0 21                     
G03  21833799.764   114737393.937       -1565.164          42.000    21833795.491    89405743.609       -1219.610          37.000  
G16  19905753.761   104605446.104        2027.416          46.000                                                                  
G26  18881809.993    99224581.154        -513.143          44.000    18881801.114    77317820.628        -399.836          42.000  
G28  20461241.520   107524551.639       -1742.071          45.000    20461230.388    83785319.314       -1357.689          42.000  
G31  19270011.023   101264595.253        -514.087          43.000    19269999.198    78907427.865        -400.677          40.000  
C06  35197173.273   183280918.001         -83.542          41.000    35197153.461   141724353.477         -64.434          42.000  
C09  36347125.608   189269022.780         -52.144          39.000    36347109.484   146354748.927         -39.991          39.000  
C13  37982530.763   197784999.441       -2440.426          38.000    37982528.934   152939902.437       -1887.333          42.000  
C16  35632597.577   185548286.741         -96.348          42.000    35632584.366   143477652.889         -74.782          40.000  
C23  21687522.649   112932618.908       -1817.940          43.000                                                                  
C32  22056581.279   114854410.117       -2698.683          49.000                                                                  
G32  22053655.384   115892735.092       -3730.995          42.000    22053652.029    90306016.217       -2907.191          40.000  
G27  23241688.689   122135935.933        3659.086          35.000    23241705.824                        2850.765          34.000  
G04  21737940.762                3       2780.307          24.000    21737932.611                        2165.645          28.000  
C37  21219631.728   110496189.837         318.736          44.000                                                                  
C08  38873339.871   202423674.010       -2540.524          32.000    38873337.951   156526814.690       -1963.866          44.000  
C20  22294767.016   116094700.827         507.921          38.000                                                                  
C28  24295521.953   126513177.989        2442.955          40.000                                                                  
C07  37662201.755   196116970.598        1051.465          41.000    37662187.261   151650024.303         813.043          45.000  
C10  38643363.712   201226145.684         915.805          31.000    38643360.793   155600809.982         707.679          43.000  
G29                                                                  22205480.392                       -1556.116          29.000  
> 2025 10 28 07 06 32.8360000  0 21                     
G03  21833811.688   114737456.554       -1565.342          42.000    21833807.415    89405792.395       -1219.729          37.000  
G16  19905738.328   104605365.000        2027.509          46.000                                                                  
G26  18881813.935    99224601.684        -513.218          44.000    18881805.022    77317836.623        -399.932          42.000  
G28  20461254.788   107524621.339       -1742.373          44.000    20461243.643    83785373.619       -1357.643          42.000  
G31  19270014.950   101264615.827        -514.284          43.000    19270003.126    78907443.890        -400.666          40.000  
C06  35197173.929   183280921.341         -83.438          40.000    35197154.093   141724356.049         -64.302          42.000  
C09  36347126.041   189269024.862         -52.115          39.000    36347109.865   146354750.523         -39.937          39.000  
C13  37982549.491   197785097.071       -2440.627          38.000    37982547.685   152939977.920       -1887.182          42.000  
C16  35632598.296   185548290.607         -96.477          42.000    35632585.110   143477655.885         -74.823          40.000  
C23  21687536.611   112932691.631       -1817.952          43.000                                                                  
C32  22056602.013   114854518.071       -2698.819          49.000                                                                  
G32  22053683.781   115892884.325       -3730.914          42.000    22053680.424    90306132.509       -2907.291          40.000  
G27  23241660.837   122135789.617        3658.359          35.000    23241677.968                        2850.234          34.000  
G04  21737919.923                3       2780.307          24.000    21737911.493                        2166.284          28.000  
C37  21219629.315   110496177.078         318.909          44.000                                                                  
C08  38873359.376   202423775.604       -2540.254          32.000    38873357.446   156526893.245       -1963.862          44.000  
C20  22294763.094   116094680.517         507.767          38.000                                                                  
C28  24295503.190   126513080.302        2442.457          40.000                                                                  
C07  37662193.690   196116928.548        1051.324          41.000    37662179.191   151649991.777         813.153          45.000  
C10  38643356.706   201226109.098         915.229          31.000    38643353.796   155600781.688         707.460          43.000  
G29                                                                  22205495.582                       -1556.140          29.000  
> 2025 10 28 07 06 32.8760000  0 21                     
G03  21833823.594   114737519.155       -1565.146          42.000    21833819.353    89405841.191       -1219.901          37.000  
G16  19905722.894   104605283.890        2027.679          46.000                                                                  
G26  18881817.846    99224622.214        -513.300          44.000    18881808.921    77317852.619        -399.956          42.000  
G28  20461268.042   107524691.028       -1742.354          44.000    20461256.927    83785427.926       -1357.648          42.000  
G31  19270018.843   101264636.393        -514.253          43.000    19270007.050    78907459.915        -400.678          40.000  
C06  35197174.563   183280924.678         -83.425          40.000    35197154.738   141724358.633         -64.440          42.000  
C09  36347126.449   189269026.938         -51.995          39.000    36347110.280   146354752.139         -40.256          39.000  
C13  37982568.258   197785194.719       -2441.087          38.000    37982566.432   152940053.415       -1887.301          42.000  
C16  35632599.029   185548294.478         -96.679          42.000    35632585.832   143477658.876         -74.792          40.000  
C23  21687550.566   112932764.363       -1818.161          43.000                                                                  
C32  22056622.743   114854626.028       -2698.930          49.000                                                                  
G32  22053712.176   115893033.579       -3731.238          42.000    22053708.824    90306248.807       -2907.465          40.000  
G27  23241632.980   122135643.282        3658.263          35.000    23241650.122                        2850.625          34.000  
G04  21737898.796                3       2780.307          24.000    21737890.233                        2165.883          28.000  
C37  21219626.874   110496164.321         318.977          44.000                                                                  
C08  38873378.896   202423877.182       -2539.688          32.000    38873376.958   156526971.792       -1963.761          44.000  
C20  22294759.193   116094660.215         507.590          38.000                                                                  
C28  24295484.419   126512982.599        2442.493          40.000                                                                  
C07  37662185.605   196116886.510        1050.995          42.000    37662171.098   151649959.268         812.842          45.000  
C10  38643349.657   201226072.484         915.335          31.000    38643346.752   155600753.395         707.375          43.000  
G29                                                                  22205510.907                       -1556.367          29.000  
> 2025 10 28 07 06 32.9160000  0 21                     
G03  21833835.491   114737581.772       -1565.343          42.000    21833831.269    89405889.988       -1219.914          37.000  
G16  19905707.462   104605202.795        2027.472          46.000                                                                  
G26  18881821.752    99224642.743        -513.292          44.000    18881812.814    77317868.623        -400.138          42.000  
G28  20461281.315   107524760.732       -1742.585          44.000    20461270.193    83785482.243       -1357.880          42.000  
G31  19270022.777   101264656.969        -514.407          43.000    19270010.967    78907475.947        -400.827          40.000  
C06  35197175.201   183280928.003         -83.198          40.000    35197155.381   141724361.217         -64.589          42.000  
C09  36347126.820   189269029.036         -52.299          39.000    36347110.675   146354753.750         -40.277          39.000  
C13  37982587.030   197785292.374       -2441.531          38.000    37982585.193   152940128.921       -1887.593          42.000  
C16  35632599.761   185548298.345         -96.728          42.000    35632586.562   143477661.865         -74.763          40.000  
C23  21687564.539   112932837.101       -1818.386          43.000                                                                  
C32  22056643.479   114854733.989       -2699.066          49.000                                                                  
G32  22053740.544   115893182.814       -3731.043          42.000    22053737.222    90306365.094       -2907.319          41.000  
G27  23241605.135   122135496.959        3658.049          35.000    23241622.275    95170605.597        2850.587          34.000  
G04  21737877.351                3       2780.307          23.000    21737869.092                        2165.274          28.000  
C37  21219624.393   110496151.579         318.684          44.000                                                                  
C08  38873398.415   202423978.744       -2539.143          32.000    38873396.465   156527050.355       -1963.997          44.000  
C20  22294755.295   116094639.887         508.016          38.000                                                                  
C28  24295465.678   126512884.892        2442.590          40.000                                                                  
C07  37662177.526   196116844.459        1051.093          42.000    37662163.050   151649926.762         812.616          45.000  
C10  38643342.620   201226035.892         915.064          31.000    38643339.708   155600725.100         707.333          43.000  
G29                                                                  22205526.092                       -1555.980          29.000  
> 2025 10 28 07 06 32.9560000  0 21                     
G03  21833847.421   114737644.403       -1565.707          42.000    21833843.193    89405938.776       -1219.794          37.000  
G16  19905692.040   104605121.714        2027.125          46.000                                                                  
G26  18881825.681    99224663.275        -513.328          44.000    18881816.717    77317884.616        -399.964          42.000  
G28  20461294.562   107524830.426       -1742.505          44.000    20461283.432    83785536.561       -1358.011          42.000  
G31  19270026.677   101264677.543        -514.406          43.000    19270014.883    78907491.982        -400.881          40.000  
C06  35197175.821   183280931.343         -83.372          40.000    35197156.048   141724363.808         -64.713          42.000  
C09  36347127.241   189269031.128         -52.346          39.000    36347111.086   146354755.369         -40.419          39.000  
C13  37982605.811   197785390.007       -2441.272          38.000    37982603.942   152940204.419       -1887.561          42.000  
C16  35632600.501   185548302.228         -97.003          42.000    35632587.295   143477664.865         -74.898          40.000  
C23  21687578.491   112932909.845       -1818.584          43.000                                                                  
C32  22056664.199   114854841.958       -2699.263          49.000                                                                  
G32  22053768.943   115893332.064       -3731.211          42.000    22053765.628    90306481.380       -2907.208          41.000  
G27  23241577.279   122135350.612        3658.295          35.000    23241594.423    95170491.559        2850.868          34.000  
G04  21737856.445                3       2780.307          23.000    21737848.038                        2164.742          27.000  
C37  21219621.927   110496138.839         318.475          44.000                                                                  
C08  38873417.937   202424080.361       -2539.869          33.000    38873416.016   156527128.920       -1964.141          44.000  
C20  22294751.371   116094619.588         507.633          38.000                                                                  
C28  24295446.904   126512787.185        2442.627          40.000                                                                  
C07  37662169.449   196116802.410        1051.166          42.000    37662155.003   151649894.252         812.622          45.000  
C10  38643335.585   201225999.315         914.603          31.000    38643332.699   155600696.800         707.393          43.000  
G29                                                                  22205541.292                       -1556.085          29.000  
> 2025 10 28 07 06 32.9960000  0 21                     
G03  21833859.328   114737707.025       -1565.727          42.000    21833855.120    89405987.582       -1220.026          37.000  
G16  19905676.603   104605040.634        2026.930          46.000                                                                  
G26  18881829.578    99224683.813        -513.453          44.000    18881820.635    77317900.615        -399.990          42.000  
G28  20461307.847   107524900.137       -1742.729          44.000    20461296.685    83785590.874       -1357.987          42.000  
G31  19270030.614   101264698.115        -514.387          43.000    19270018.804    78907508.021        -401.022          40.000  
C06  35197176.460   183280934.707         -83.940          40.000    35197156.682   141724366.396         -64.725          42.000  
C09  36347127.653   189269033.222         -52.401          39.000    36347111.469   146354756.979         -40.393          39.000  
C13  37982624.569   197785487.624       -2440.691          38.000    37982622.701   152940279.920       -1887.605          42.000  
C16  35632601.265   185548306.105         -97.077          42.000    35632588.022   143477667.856         -74.865          40.000  
C23  21687592.473   112932982.596       -1818.884          43.000                                                                  
C32  22056684.953   114854949.919       -2699.161          49.000                                                                  
G32  22053797.359   115893481.309       -3731.179          42.000    22053794.040    90306597.684       -2907.532          41.000  
G27  23241549.417   122135204.277        3658.224          35.000    23241566.588    95170377.557        2850.381          34.000  
G04  21737835.396                3       2780.307          23.000    21737827.013                        2164.341          28.000  
C37  21219619.468   110496126.098         318.444          44.000                                                                  
C08  38873437.439   202424181.969       -2540.183          33.000    38873435.542   156527207.486       -1964.199          44.000  
C20  22294747.478   116094599.278         507.652          38.000                                                                  
C28  24295428.139   126512689.479        2442.605          40.000                                                                  
C07  37662161.371   196116760.371        1050.995          42.000    37662146.937   151649861.743         812.659          45.000  
C10  38643328.575   201225962.750         914.245          31.000    38643325.678   155600668.506         707.354          43.000  
G29                                                                  22205556.437                       -1556.373          29.000  
> 2025 10 28 07 06 33.0360000  0 21                     
G03  21833871.253   114737769.655       -1565.831          42.000    21833867.031    89406036.366       -1219.806          38.000  
G16  19905661.181   104604959.555        2026.824          46.000                                                                  
G26  18881833.490    99224704.351        -513.488          44.000    18881824.554    77317916.611        -399.895          42.000  
G28  20461321.102   107524969.843       -1742.767          44.000    20461309.957    83785645.188       -1357.922          42.000  
G31  19270034.527   101264718.696        -514.510          43.000    19270022.712    78907524.057        -401.016          40.000  
C06  35197177.101   183280938.059         -84.010          40.000    35197157.326   141724368.982         -64.690          42.000  
C09  36347128.044   189269035.313         -52.367          39.000    36347111.855   146354758.607         -40.671          39.000  
C13  37982643.297   197785585.249       -2440.588          38.000    37982641.452   152940355.427       -1887.710          42.000  
C16  35632602.033   185548309.986         -97.127          42.000    35632588.751   143477670.851         -74.933          40.000  
C23  21687606.446   112933055.327       -1818.563          43.000                                                                  
C32  22056705.696   114855057.886       -2699.198          48.000                                                                  
G32  22053825.767   115893630.564       -3731.340          42.000    22053822.435    90306713.994       -2907.779          41.000  
G27  23241521.562   122135057.954        3658.033          35.000    23241538.736    95170263.520        2850.705          35.000  
G04  21737813.936                3       2780.307          23.000    21737805.868                        2165.090          28.000  
C37  21219616.999   110496113.359         318.404          44.000                                                                  
C08  38873456.957   202424283.556       -2539.954          32.000    38873455.096   156527286.045       -1964.104          44.000  
C20  22294743.552   116094578.974         507.529          38.000                                                                  
C28  24295409.372   126512591.791        2442.295          40.000                                                                  
C07  37662153.305   196116718.338        1050.818          42.000    37662138.863   151649829.239         812.628          45.000  
C10  38643321.497   201225926.153         914.547          31.000    38643318.671   155600640.212         707.330          43.000  
G29                                                                  22205571.606                       -1556.287          29.000  
> 2025 10 28 07 06 33.0760000  0 21                     
G03  21833883.164   114737832.274       -1565.613          42.000    21833878.952    89406085.180       -1220.215          38.000  
G16  19905645.731   104604878.473        2026.906          46.000                                                                  
G26  18881837.410    99224724.893        -513.574          44.000    18881828.455    77317932.621        -400.173          42.000  
G28  20461334.361   107525039.545       -1742.669          44.000    20461323.241    83785699.509       -1357.984          42.000  
G31  19270038.426   101264739.282        -514.614          43.000    19270026.635    78907540.098        -401.076          40.000  
C06  35197177.755   183280941.406         -83.877          40.000    35197157.958   141724371.574         -64.773          42.000  
C09  36347128.462   189269037.397         -52.201          39.000    36347112.277   146354760.224         -40.604          39.000  
C13  37982662.041   197785682.877       -2440.586          38.000    37982660.196   152940430.927       -1887.638          42.000  
C16  35632602.789   185548313.870         -97.207          41.000    35632589.489   143477673.859         -75.129          40.000  
C23  21687620.406   112933128.059       -1818.374          43.000                                                                  
C32  22056726.448   114855165.855       -2699.240          48.000                                                                  
G32  22053854.173   115893779.826       -3731.544          42.000    22053850.827    90306830.294       -2907.689          41.000  
G27  23241493.683   122134911.603        3658.429          35.000    23241510.854    95170149.507        2850.413          35.000  
G04  21737792.658                3       2780.307          23.000    21737784.687                        2165.562          28.000  
C37  21219614.562   110496100.622         318.383          44.000                                                                  
C08  38873476.483   202424385.167       -2540.259          32.000    38873474.618   156527364.607       -1964.078          44.000  
C20  22294739.691   116094558.663         507.672          40.000                                                                  
C28  24295390.612   126512494.089        2442.382          40.000                                                                  
C07  37662145.248   196116676.286        1051.093          42.000    37662130.796   151649796.729         812.701          45.000  
C10  38643314.477   201225889.536         915.106          31.000    38643311.665   155600611.917         707.357          43.000  
G29                                                                  22205587.031                       -1556.269          29.000  
> 2025 10 28 07 06 33.1160000  0 21                     
G03  21833895.084   114737894.903       -1565.707          42.000    21833890.857    89406133.975       -1220.092          38.000  
G16  19905630.296   104604797.380        2027.128          46.000                                                                  
G26  18881841.330    99224745.426        -513.448          44.000    18881832.361    77317948.629        -400.264          42.000  
G28  20461347.613   107525109.251       -1742.688          44.000    20461336.500    83785753.824       -1357.930          42.000  
G31  19270042.346   101264759.856        -514.478          42.000    19270030.543    78907556.140        -401.175          40.000  
C06  35197178.391   183280944.755         -83.806          40.000    35197158.612   141724374.154         -64.565          42.000  
C09  36347128.869   189269039.483         -52.205          39.000    36347112.670   146354761.830         -40.328          39.000  
C13  37982680.762   197785780.525       -2441.007          38.000    37982678.958   152940506.431       -1887.638          42.000  
C16  35632603.570   185548317.733         -96.752          41.000    35632590.229   143477676.866         -75.212          40.000  
C23  21687634.392   112933200.780       -1818.132          43.000                                                                  
C32  22056747.194   114855273.818       -2699.152          48.000                                                                  
G32  22053882.593   115893929.076       -3731.379          42.000    22053879.230    90306946.574       -2907.189          41.000  
G27  23241465.852   122134765.312        3657.595          35.000    23241482.986    95170035.490        2850.396          35.000  
G04  21737771.563                3       2780.307          22.000    21737763.447                        2165.718          28.000  
C37  21219612.122   110496087.867         318.724          44.000                                                                  
C08  38873496.013   202424486.766       -2540.208          32.000    38873494.161   156527443.165       -1964.007          44.000  
C20  22294735.792   116094538.360         507.585          40.000                                                                  
C28  24295371.852   126512396.390        2442.404          40.000                                                                  
C07  37662137.190   196116634.242        1051.123          42.000    37662122.750   151649764.220         812.732          45.000  
C10  38643307.477   201225852.947         914.891          31.000    38643304.651   155600583.629         707.219          42.000  
G29                                                                  22205602.193                       -1556.447          29.000  
> 2025 10 28 07 06 33.1560000  0 21                     
G03  21833907.023   114737957.546       -1565.970          42.000    21833902.784    89406182.771       -1219.990          38.000  
G16  19905614.831   104604716.288        2027.272          46.000                                                                  
G26  18881845.245    99224765.957        -513.309          43.000    18881836.257    77317964.632        -400.199          42.000  
G28  20461360.870   107525178.952       -1742.547          43.000    20461349.766    83785808.143       -1357.996          42.000  
G31  19270046.266   101264780.430        -514.386          42.000    19270034.460    78907572.172        -400.958          40.000  
C06  35197179.048   183280948.089         -83.518          40.000    35197159.256   141724376.740         -64.584          42.000  
C09  36347129.263   189269041.573         -52.277          39.000    36347113.080   146354763.433         -40.134          39.000  
C13  37982699.518   197785878.145       -2440.717          38.000    37982697.710   152940581.936       -1887.676          42.000  
C16  35632604.340   185548321.599         -96.603          41.000    35632590.979   143477679.868         -75.169          40.000  
C23  21687648.355   112933273.514       -1818.236          43.000                                                                  
C32  22056767.951   114855381.777       -2699.022          48.000                                                                  
G32  22053910.989   115894078.327       -3731.285          42.000    22053907.630    90307062.865       -2907.167          42.000  
G27  23241437.996   122134618.947        3658.375          35.000    23241455.182    95169921.487        2850.230          35.000  
G04  21737750.239                3       2780.307          22.000    21737742.224                        2165.716          28.000  
C37  21219609.664   110496075.120         318.738          44.000                                                                  
C08  38873515.525   202424588.340       -2539.586          32.000    38873513.670   156527521.719       -1963.926          44.000  
C20  22294731.876   116094518.058         507.543          40.000                                                                  
C28  24295353.091   126512298.705        2442.137          40.000                                                                  
C07  37662129.091   196116592.195        1051.178          42.000    37662114.643   151649731.696         813.000          45.000  
C10  38643300.446   201225816.314         915.540          32.000    38643297.641   155600555.329         707.366          42.000  
G29                                                                  22205617.367                       -1556.722          29.000  
> 2025 10 28 07 06 33.1960000  0 21                     
G03  21833918.950   114738020.171       -1565.862          42.000    21833914.693    89406231.553       -1219.644          38.000  
G16  19905599.412   104604635.203        2027.198          46.000                                                                  
G26  18881849.154    99224786.493        -513.335          43.000    18881840.168    77317980.641        -400.268          42.000  
G28  20461374.116   107525248.650       -1742.461          43.000    20461363.037    83785862.460       -1357.956          42.000  
G31  19270050.179   101264801.017        -514.614          42.000    19270038.372    78907588.201        -400.799          40.000  
C06  35197179.690   183280951.420         -83.323          40.000    35197159.886   141724379.339         -64.906          42.000  
C09  36347129.665   189269043.673         -52.451          39.000    36347113.479   146354765.061         -40.520          39.000  
C13  37982718.268   197785975.794       -2441.104          37.000    37982716.448   152940657.415       -1887.230          42.000  
C16  35632605.086   185548325.482         -96.874          41.000    35632591.713   143477682.859         -74.983          39.000  
C23  21687662.313   112933346.251       -1818.376          43.000                                                                  
C32  22056788.686   114855489.738       -2698.986          48.000                                                                  
G32  22053939.367   115894227.573       -3731.162          42.000    22053936.060    90307179.163       -2907.306          42.000  
G27  23241410.166   122134472.608        3658.506          35.000    23241427.338    95169807.451        2850.618          35.000  
G04  21737728.962                3       2780.307          22.000    21737721.005                        2165.527          28.000  
C37  21219607.203   110496062.378         318.625          44.000                                                                  
C08  38873535.053   202424689.943       -2539.877          32.000    38873533.184   156527600.275       -1963.894          44.000  
C20  22294727.983   116094497.754         507.568          41.000                                                                  
C28  24295334.328   126512201.023        2442.029          40.000                                                                  
C07  37662121.025   196116550.144        1051.270          42.000    37662106.550   151649699.176         813.049          45.000  
C10  38643293.446   201225779.736         914.844          32.000    38643290.614   155600527.038         707.265          42.000  
G29                                                                  22205632.561                       -1556.863          29.000  
> 2025 10 28 07 06 33.2360000  0 21                     
G03  21833930.877   114738082.805       -1565.924          42.000    21833926.624    89406280.363       -1219.967          38.000  
G16  19905583.988   104604554.120        2027.117          46.000                                                                  
G26  18881853.085    99224807.033        -513.443          43.000    18881844.092    77317996.646        -400.203          42.000  
G28  20461387.380   107525318.350       -1742.471          42.000    20461376.313    83785916.775       -1357.937          42.000  
G31  19270054.105   101264821.600        -514.638          42.000    19270042.277    78907604.239        -400.917          40.000  
C06  35197180.327   183280954.776         -83.726          40.000    35197160.554   141724381.935         -64.990          42.000  
C09  36347130.077   189269045.762         -52.307          39.000    36347113.882   146354766.682         -40.593          39.000  
C13  37982737.019   197786073.437       -2441.177          37.000    37982735.220   152940732.907       -1887.208          42.000  
C16  35632605.842   185548329.370         -97.156          41.000    35632592.459   143477685.859         -75.080          39.000  
C23  21687676.277   112933419.008       -1818.854          43.000                                                                  
C32  22056809.390   114855597.702       -2699.068          48.000                                                                  
G32  22053967.748   115894376.824       -3731.250          42.000    22053964.451    90307295.456       -2907.319          42.000  
G27  23241382.340   122134326.293        3658.038          35.000    23241399.505    95169693.459        2849.994          35.000  
G04  21737707.837                3       2780.307          22.000    21737699.669                        2165.465          28.000  
C37  21219604.759   110496049.646         318.368          44.000                                                                  
C08  38873554.564   202424791.539       -2539.860          32.000    38873552.683   156527678.839       -1964.033          44.000  
C20  22294724.101   116094477.474         507.130          41.000                                                                  
C28  24295315.569   126512103.322        2442.325          40.000                                                                  
C07  37662112.946   196116508.091        1051.337          42.000    37662098.480   151649666.663         812.915          45.000  
C10  38643286.427   201225743.166         914.436          32.000    38643283.558   155600498.742         707.349          42.000  
G29                                                                  22205647.763                       -1557.470          29.000  
> 2025 10 28 07 06 33.2760000  0 21                     
G03  21833942.804   114738145.429       -1565.766          41.000    21833938.527    89406329.187       -1220.509          38.000  
G16  19905568.564   104604473.039        2027.004          46.000                                                                  
G26  18881856.988    99224827.576        -513.580          43.000    18881848.023    77318012.664        -400.365          42.000  
G28  20461400.621   107525388.040       -1742.311          42.000    20461389.586    83785971.088       -1357.888          42.000  
G31  19270058.012   101264842.186        -514.699          42.000    19270046.205    78907620.288        -401.156          40.000  
C06  35197180.964   183280958.122         -83.773          40.000    35197161.201   141724384.518         -64.729          42.000  
C09  36347130.484   189269047.849         -52.200          39.000    36347114.260   146354768.290         -40.400          39.000  
C13  37982755.783   197786171.088       -2441.298          37.000    37982753.988   152940808.403       -1887.345          42.000  
C16  35632606.572   185548333.241         -97.006          41.000    35632593.218   143477688.848         -74.888          40.000  
C23  21687690.227   112933491.734       -1818.496          43.000                                                                  
C32  22056830.117   114855705.671       -2699.224          48.000                                                                  
G32  22053996.154   115894526.077       -3731.332          42.000    22053992.870    90307411.751       -2907.331          42.000  
G27  23241354.510   122134179.987        3657.631          34.000    23241371.645    95169579.454        2849.929          35.000  
G04  21737686.732                3       2780.307          22.000    21737678.476                        2165.433          27.000  
C37  21219602.275   110496036.915         318.207          44.000                                                                  
C08  38873574.084   202424893.118       -2539.566          32.000    38873572.223   156527757.405       -1964.168          44.000  
C20  22294720.199   116094457.185         507.138          42.000                                                                  
C28  24295296.840   126512005.627        2442.426          40.000                                                                  
C07  37662104.865   196116466.049        1051.135          42.000    37662090.404   151649634.149         812.836          45.000  
C10  38643279.392   201225706.582         914.484          32.000    38643276.542   155600470.444         707.445          42.000  
G29                                                                  22205662.956                       -1557.273          29.000  
> 2025 10 28 07 06 33.3160000  0 21                     
G03  21833954.717   114738208.064       -1565.873          41.000    21833950.449    89406378.000       -1220.533          38.000  
G16  19905553.123   104604391.957        2027.002          47.000                                                                  
G26  18881860.888    99224848.127        -513.767          43.000    18881851.928    77318028.685        -400.508          42.000  
G28  20461413.881   107525457.760       -1742.774          42.000    20461402.861    83786025.413       -1358.084          42.000  
G31  19270061.935   101264862.773        -514.729          42.000    19270050.107    78907636.322        -400.977          40.000  
C06  35197181.592   183280961.469         -83.809          40.000    35197161.845   141724387.102         -64.648          42.000  
C09  36347130.899   189269049.936         -52.113          39.000    36347114.688   146354769.910         -40.496          39.000  
C13  37982774.550   197786268.710       -2440.845          37.000    37982772.748   152940883.911       -1887.584          42.000  
C16  35632607.308   185548337.114         -96.914          41.000    35632593.936   143477691.852         -75.020          40.000  
C23  21687704.190   112933564.466       -1818.371          42.000                                                                  
C32  22056850.838   114855813.646       -2699.422          48.000                                                                  
G32  22054024.540   115894675.330       -3731.395          42.000    22054021.284    90307528.050       -2907.462          42.000  
G27  23241326.651   122134033.639        3658.121          34.000    23241343.779    95169465.430        2850.223          35.000  
G04  21737665.375                3       2780.307          22.000    21737657.404                        2165.534          27.000  
C37  21219599.850   110496024.174         318.367          44.000                                                                  
C08  38873593.622   202424994.739       -2540.130          33.000    38873591.720   156527835.960       -1964.015          44.000  
C20  22294716.281   116094436.891         507.238          43.000                                                                  
C28  24295278.076   126511907.922        2442.614          40.000                                                                  
C07  37662096.783   196116424.003        1051.099          42.000    37662082.317   151649601.636         812.775          45.000  
C10  38643272.374   201225669.981         914.788          32.000    38643269.477   155600442.148         707.416          42.000  
G29                                                                  22205678.183                       -1556.161          29.000  
> 2025 10 28 07 06 33.3560000  0 21                     
G03  21833966.629   114738270.705       -1566.037          41.000    21833962.361    89406426.807       -1220.397          38.000  
G16  19905537.695   104604310.878        2026.959          47.000                                                                  
G26  18881864.790    99224868.665        -513.600          43.000    18881855.819    77318044.687        -400.256          42.000  
G28  20461427.138   107525527.472       -1742.910          42.000    20461416.120    83786079.733       -1358.051          42.000  
G31  19270065.845   101264883.357        -514.686          42.000    19270054.018    78907652.353        -400.823          40.000  
C06  35197182.248   183280964.820         -83.834          40.000    35197162.475   141724389.684         -64.609          42.000  
C09  36347131.304   189269052.029         -52.209          39.000    36347115.101   146354771.538         -40.705          39.000  
C13  37982793.299   197786366.333       -2440.617          37.000    37982791.478   152940959.414       -1887.629          43.000  
C16  35632608.028   185548340.976         -96.633          41.000    35632594.688   143477694.834         -74.683          40.000  
C23  21687718.145   112933637.195       -1818.246          42.000                                                                  
C32  22056871.572   114855921.617       -2699.394          48.000                                                                  
G32  22054052.927   115894824.582       -3731.394          42.000    22054049.699    90307644.357       -2907.641          42.000  
G27  23241298.827   122133887.325        3657.906          34.000    23241315.923    95169351.388        2850.800          35.000  
G04  21737644.195                3       2780.307          21.000    21737636.281                        2165.770          27.000  
C37  21219597.422   110496011.429         318.541          44.000                                                                  
C08  38873613.123   202425096.348       -2540.355          33.000    38873611.247   156527914.523       -1964.094          44.000  
C20  22294712.367   116094416.600         507.244          43.000                                                                  
C28  24295259.312   126511810.237        2442.356          40.000                                                                  
C07  37662088.734   196116381.963        1051.001          42.000    37662074.232   151649569.137         812.531          45.000  
C10  38643265.336   201225633.387         914.897          32.000    38643262.459   155600413.849         707.467          42.000  
G29                                                                  22205693.434                       -1556.647          29.000  
> 2025 10 28 07 06 33.3960000  0 21                     
G03  21833978.543   114738333.332       -1565.833          41.000    21833974.287    89406475.599       -1219.988          38.000  
G16  19905522.272   104604229.799        2026.928          47.000                                                                  
G26  18881868.700    99224889.199        -513.431          43.000    18881859.709    77318060.663        -399.655          42.000  
G28  20461440.397   107525597.185       -1742.947          42.000    20461429.357    83786134.046       -1357.906          42.000  
G31  19270069.746   101264903.933        -514.439          42.000    19270057.920    78907668.371        -400.459          40.000  
C06  35197182.887   183280968.131         -83.105          40.000    35197163.125   141724392.262         -64.467          42.000  
C09  36347131.708   189269054.116         -52.192          39.000    36347115.481   146354773.161         -40.701          40.000  
C13  37982812.048   197786463.978       -2440.944          37.000    37982810.241   152941034.913       -1887.633          43.000  
C16  35632608.778   185548344.832         -96.393          41.000    35632595.374   143477697.828         -74.709          40.000  
C23  21687732.133   112933709.933       -1818.373          42.000                                                                  
C32  22056892.321   114856029.584       -2699.281          49.000                                                                  
G32  22054081.337   115894973.843       -3731.511          43.000    22054078.101    90307760.654       -2907.515          41.000  
G27  23241270.981   122133740.985        3658.199          34.000    23241288.047    95169237.374        2850.641          35.000  
G04  21737622.628                3       2780.307          21.000    21737615.234                        2165.943          27.000  
C37  21219594.969   110495998.680         318.684          44.000                                                                  
C08  38873632.625   202425197.929       -2539.825          33.000    38873630.777   156527993.071       -1963.828          44.000  
C20  22294708.485   116094396.307         507.263          43.000                                                                  
C28  24295240.555   126511712.534        2442.515          40.000                                                                  
C07  37662080.674   196116339.924        1050.916          42.000    37662066.151   151649536.624         812.671          45.000  
C10  38643258.316   201225596.795         914.944          32.000    38643255.445   155600385.560         707.287          42.000  
G29                                                                  22205708.668                       -1556.868          29.000  
> 2025 10 28 07 06 33.4360000  0 21                     
G03  21833990.482   114738395.960       -1565.707          41.000    21833986.221    89406524.389       -1219.791          38.000  
G16  19905506.832   104604148.716        2026.999          47.000                                                                  
G26  18881872.629    99224909.737        -513.427          43.000    18881863.618    77318076.676        -400.083          42.000  
G28  20461453.667   107525666.889       -1742.749          42.000    20461442.591    83786188.368       -1357.952          42.000  
G31  19270073.671   101264924.508        -514.348          42.000    19270061.844    78907684.420        -400.892          40.000  
C06  35197183.530   183280971.465         -83.136          39.000    35197163.764   141724394.856         -64.730          42.000  
C09  36347132.108   189269056.215         -52.381          40.000    36347115.891   146354774.774         -40.483          41.000  
C13  37982830.818   197786561.646       -2441.537          37.000    37982828.997   152941110.414       -1887.573          43.000  
C16  35632609.502   185548348.697         -96.454          41.000    35632596.093   143477700.818         -74.737          40.000  
C23  21687746.097   112933782.677       -1818.588          42.000                                                                  
C32  22056913.071   114856137.550       -2699.206          49.000                                                                  
G32  22054109.748   115895123.114       -3731.771          43.000    22054106.505    90307876.966       -2907.707          41.000  
G27  23241243.150   122133594.662        3658.174          34.000    23241260.198    95169123.357        2850.537          35.000  
G04  21737601.416                3       2780.307          21.000    21737594.096                        2165.625          27.000  
C37  21219592.528   110495985.937         318.635          44.000                                                                  
C08  38873652.151   202425299.529       -2539.915          33.000    38873650.273   156528071.631       -1963.924          44.000  
C20  22294704.572   116094376.010         507.367          43.000                                                                  
C28  24295221.774   126511614.851        2442.267          40.000                                                                  
C07  37662072.609   196116297.880        1051.031          42.000    37662058.084   151649504.110         812.830          45.000  
C10  38643251.292   201225560.203         914.819          32.000    38643248.401   155600357.269         707.211          42.000  
G29                                                                  22205723.762                       -1556.972          29.000  
> 2025 10 28 07 06 33.4760000  0 21                     
G03  21834002.398   114738458.594       -1565.797          41.000    21833998.120    89406573.179       -1219.682          38.000  
G16  19905491.383   104604067.630        2027.097          47.000                                                                  
G26  18881876.571    99224930.293        -513.760          43.000    18881867.541    77318092.710        -400.666          42.000  
G28  20461466.902   107525736.593       -1742.640          42.000    20461455.832    83786242.673       -1357.719          42.000  
G31  19270077.575   101264945.084        -514.367          42.000    19270065.754    78907700.477        -401.367          40.000  
C06  35197184.179   183280974.820         -83.624          38.000    35197164.419   141724397.455         -64.921          42.000  
C09  36347132.506   189269058.289         -52.031          40.000    36347116.304   146354776.393         -40.471          41.000  
C13  37982849.561   197786659.306       -2441.661          37.000    37982847.717   152941185.871       -1886.755          43.000  
C16  35632610.244   185548352.594         -97.127          41.000    35632596.848   143477703.826         -75.085          40.000  
C23  21687760.066   112933855.418       -1818.610          42.000                                                                  
C32  22056933.823   114856245.508       -2699.014          49.000                                                                  
G32  22054138.173   115895272.372       -3731.612          43.000    22054134.911    90307993.264       -2907.556          41.000  
G27  23241215.315   122133448.340        3658.102          34.000    23241232.352    95169009.335        2850.608          35.000  
G04  21737580.228                3       2780.307          21.000    21737573.043                        2165.762          27.000  
C37  21219590.072   110495973.209         318.326          44.000                                                                  
C08  38873671.663   202425401.111       -2539.502          33.000    38873669.802   156528150.201       -1964.184          44.000  
C20  22294700.681   116094355.698         507.693          44.000                                                                  
C28  24295203.014   126511517.144        2442.535          40.000                                                                  
C07  37662064.514   196116255.822        1051.361          42.000    37662050.026   151649471.580         813.177          45.000  
C10  38643244.248   201225523.616         914.704          32.000    38643241.363   155600328.973         707.267          42.000  
G29                                                                  22205739.145                       -1556.763          29.000  
> 2025 10 28 07 06 33.5160000  0 21                     
G03  21834014.320   114738521.224       -1565.811          41.000    21834010.026    89406621.986       -1220.007          40.000  
G16  19905475.950   104603986.546        2027.107          47.000                                                                  
G26  18881880.472    99224950.845        -513.877          43.000    18881871.450    77318108.728        -400.639          42.000  
G28  20461480.146   107525806.292       -1742.534          42.000    20461469.079    83786296.975       -1357.613          42.000  
G31  19270081.486   101264965.677        -514.731          42.000    19270069.673    78907716.514        -401.149          40.000  
C06  35197184.861   183280978.172         -83.777          39.000    35197165.100   141724400.042         -64.807          42.000  
C09  36347132.901   189269060.368         -51.959          40.000    36347116.680   146354778.001         -40.238          40.000  
C13  37982868.312   197786756.916       -2440.760          37.000    37982866.445   152941261.357       -1886.903          43.000  
C16  35632610.989   185548356.476         -97.281          41.000    35632597.595   143477706.838         -75.310          40.000  
C23  21687774.035   112933928.164       -1818.728          42.000                                                                  
C32  22056954.557   114856353.476       -2699.122          49.000                                                                  
G32  22054166.595   115895421.614       -3731.207          44.000    22054163.328    90308109.569       -2907.632          42.000  
G27  23241187.431   122133301.981        3658.671          34.000    23241204.485    95168895.307        2850.621          35.000  
G04  21737559.071                3       2780.307          21.000    21737551.885                        2165.580          27.000  
C37  21219587.627   110495960.494         317.929          44.000                                                                  
C08  38873691.173   202425502.674       -2539.002          33.000    38873689.318   156528228.763       -1964.165          44.000  
C20  22294696.767   116094335.386         507.858          44.000                                                                  
C28  24295184.236   126511419.421        2442.950          42.000                                                                  
C07  37662056.434   196116213.768        1051.404          42.000    37662041.959   151649439.057         813.171          45.000  
C10  38643237.230   201225486.985         915.409          32.000    38643234.335   155600300.669         707.485          42.000  
G29                                                                  22205754.410                       -1556.867          29.000  
