     3.04           OBSERVATION DATA    M: Mixed            RINEX VERSION / TYPE
RTKCONV 2.4.3 b34                       20251028 071239 UTC PGM / RUN BY / DATE 
format: u-blox UBX                                          COMMENT             
log: D:\GPdata\10_28\metal_up_down.ubx                      COMMENT             
                                                            MARKER NAME         
                                                            MARKER NUMBER       
                                                            MARKER TYPE         
                                                            OBSERVER / AGENCY   
                                                            REC # / TYPE / VERS 
                                                            ANT # / TYPE        
        0.0000        0.0000        0.0000                  APPROX POSITION XYZ 
        0.0000        0.0000        0.0000                  ANTENNA: DELTA H/E/N
G    8 C1C L1C D1C S1C C2L L2L D2L S2L                      SYS / # / OBS TYPES 
C    8 C2I L2I D2I S2I C7I L7I D7I S7I                      SYS / # / OBS TYPES 
  2025    10    28    07    06   58.0760000     GPS         TIME OF FIRST OBS   
  2025    10    28    07    07   33.9960000     GPS         TIME OF LAST OBS    
G L1C                                                       SYS / PHASE SHIFT   
G L2L  0.00000                                              SYS / PHASE SHIFT   
C L2I                                                       SYS / PHASE SHIFT   
C L7I                                                       SYS / PHASE SHIFT   
  0                                                         GLONASS SLOT / FRQ #
 C1C    0.000 C1P    0.000 C2C    0.000 C2P    0.000        GLONASS COD/PHS/BIS 
                                                            END OF HEADER       
> 2025 10 28 07 06 58.0760000  0 21                     
G03  21841361.032   114777126.3321      -1577.969          42.000    21841355.966    89436703.8681      -1229.970          37.000  
G16  19896025.709   104554325.2421       2016.918          46.000                                                                  
G26  18884304.670    99237689.5071       -524.122          50.000    18884295.497    77328034.9281       -408.437          46.000  
G28  20469634.944   107568659.5251      -1747.251          46.000    20469623.781    83819689.0671      -1361.580          45.000  
G29  22215125.241                3      -2008.625          22.000    22215119.585                       -1566.660          29.000  
G31  19272499.322   101277671.3761       -520.454          47.000    19272487.208    78917617.0751       -405.542          45.000  
C06  35197572.614   183282998.4231        -81.239          47.000    35197553.042   141725962.1841        -62.906          47.000  
C09  36347372.144   189270306.2621        -49.508          45.000    36347355.656   146355741.4341        -38.170          47.000  
C13  37994379.196   197846698.0261      -2440.655          38.000    37994377.614   152987611.4031      -1887.452          39.000  
C16  35633060.751   185550698.1921        -94.217          48.000    35633047.489   143479517.5751        -72.803          47.000  
C23  21696354.444   112978606.9581      -1820.202          44.000                                                                  
C32  22069704.676   114922746.2121      -2707.583          44.000                                                                  
G32  22071616.755   115987124.1351      -3736.696          42.000    22071613.610    90379565.7961      -2911.810          38.000  
G27  23224082.811   122043386.7711       3660.270          36.000    23224099.913    95098866.8121       2851.635          34.000  
G04  21724585.554                1       2773.555          28.000    21724575.653                        2160.804          31.000  
C37  21218093.756   110488182.3821        314.750          50.000                                                                  
C08  38885666.146   202487865.7871      -2537.821          33.000    38885665.042   156576447.4951      -1962.885          42.000  
C20  22292332.843   116082026.8671        494.737          49.000                                                                  
C28  24283659.728   126451409.7171       2444.174          41.000                                                                  
C07  37657097.134   196090390.9321       1051.563          40.000    37657083.068   151629471.4261        813.007          42.000  
C10  38638920.250   201203005.0581        915.659          35.000    38638916.671   155582916.5891        707.951          43.000  
> 2025 10 28 07 06 58.1160000  0 21                     
G03  21841373.044   114777189.469       -1578.345          42.000    21841367.957    89436753.036       -1229.433          37.000  
G16  19896010.355   104554244.571        2016.800          46.000                                                                  
G26  18884308.639    99237710.469        -524.133          50.000    18884299.483    77328051.266        -408.510          46.000  
G28  20469648.269   107568729.425       -1747.471          46.000    20469637.067    83819743.527       -1361.565          45.000  
G29  22215140.106                3      -2008.625          22.000    22215134.885                       -1567.083          29.000  
G31  19272503.273   101277692.188        -520.349          47.000    19272491.174    78917633.298        -405.598          45.000  
C06  35197573.233   183283001.676         -81.331          47.000    35197553.670   141725964.697         -62.882          47.000  
C09  36347372.515   189270308.244         -49.552          45.000    36347356.038   146355742.971         -38.363          47.000  
C13  37994397.951   197846795.659       -2440.873          38.000    37994396.366   152987686.898       -1887.488          39.000  
C16  35633061.477   185550701.956         -94.153          48.000    35633048.233   143479520.490         -72.843          47.000  
C23  21696368.451   112978679.766       -1820.302          44.000                                                                  
C32  22069725.447   114922854.526       -2707.832          44.000                                                                  
G32  22071645.192   115987273.600       -3736.743          42.000    22071642.049    90379682.255       -2911.698          38.000  
G27  23224054.930   122043240.369        3660.042          36.000    23224072.064    95098752.740        2851.639          34.000  
G04  21724564.564                        2773.729          28.000    21724554.564                        2160.740          31.000  
C37  21218091.326   110488169.796         314.647          50.000                                                                  
C08  38885685.702   202487967.299       -2537.573          33.000    38885684.542   156576526.008       -1962.898          42.000  
C20  22292329.076   116082007.075         494.719          49.000                                                                  
C28  24283640.953   126451311.963        2443.924          41.000                                                                  
C07  37657089.061   196090348.864        1051.654          40.000    37657074.961   151629438.911         812.842          42.000  
C10  38638913.200   201202968.432         915.559          35.000    38638909.643   155582888.273         707.864          43.000  
> 2025 10 28 07 06 58.1560000  0 21                     
G03  21841385.094   114777252.606       -1578.465          42.000    21841379.972    89436802.204       -1229.233          37.000  
G16  19895995.002   104554163.901        2016.712          46.000                                                                  
G26  18884312.639    99237731.427        -524.050          50.000    18884303.468    77328067.598        -408.406          46.000  
G28  20469661.555   107568799.318       -1747.430          46.000    20469650.366    83819797.983       -1361.476          45.000  
G29  22215154.522                3      -2008.625          22.000    22215149.710                       -1566.898          29.000  
G31  19272507.257   101277713.006        -520.429          47.000    19272495.145    78917649.513        -405.488          45.000  
C06  35197573.867   183283004.926         -81.327          47.000    35197554.267   141725967.213         -62.941          47.000  
C09  36347372.888   189270310.222         -49.469          45.000    36347356.427   146355744.505         -38.431          47.000  
C13  37994416.705   197846893.290       -2440.933          38.000    37994415.131   152987762.390       -1887.406          39.000  
C16  35633062.196   185550705.733         -94.364          48.000    35633048.964   143479523.407         -72.949          47.000  
C23  21696382.429   112978752.573       -1820.281          44.000                                                                  
C32  22069746.260   114922962.825       -2707.668          44.000                                                                  
G32  22071673.623   115987423.071       -3736.853          42.000    22071670.498    90379798.703       -2911.323          38.000  
G27  23224027.068   122043093.983        3659.645          36.000    23224044.192    95098638.648        2852.026          34.000  
G04  21724543.676                        2773.597          28.000    21724533.457                        2161.020          31.000  
C37  21218088.910   110488157.210         314.616          50.000                                                                  
C08  38885705.059   202488068.873       -2538.801          33.000    38885704.025   156576604.524       -1962.921          42.000  
C20  22292325.290   116081987.289         494.633          49.000                                                                  
C28  24283622.174   126451214.207        2443.870          41.000                                                                  
C07  37657080.974   196090306.821        1051.196          40.000    37657066.876   151629406.382         813.074          43.000  
C10  38638906.142   201202931.807         915.587          35.000    38638902.610   155582859.944         708.055          43.000  
> 2025 10 28 07 06 58.1960000  0 21                     
G03  21841397.097   114777315.728       -1578.249          42.000    21841391.981    89436851.400       -1229.729          37.000  
G16  19895979.638   104554083.226        2016.805          46.000                                                                  
G26  18884316.626    99237752.381        -523.924          50.000    18884307.457    77328083.919        -408.142          46.000  
G28  20469674.851   107568869.206       -1747.294          46.000    20469663.669    83819852.448       -1361.574          45.000  
G29  22215170.188                3      -2008.625          22.000    22215164.920                       -1566.639          29.000  
G31  19272511.210   101277733.817        -520.293          47.000    19272499.123    78917665.731        -405.488          45.000  
C06  35197574.494   183283008.167         -81.168          47.000    35197554.908   141725969.721         -62.805          47.000  
C09  36347373.282   189270312.199         -49.431          45.000    36347356.802   146355746.033         -38.301          47.000  
C13  37994435.458   197846990.895       -2440.448          38.000    37994433.884   152987837.859       -1886.938          39.000  
C16  35633062.904   185550709.498         -94.213          48.000    35633049.703   143479526.319         -72.859          47.000  
C23  21696396.409   112978825.369       -1820.073          44.000                                                                  
C32  22069767.071   114923071.116       -2707.413          44.000                                                                  
G32  22071702.070   115987572.525       -3736.527          42.000    22071698.943    90379915.160       -2911.357          38.000  
G27  23223999.192   122042947.583        3659.796          36.000    23224016.331    95098524.570        2851.943          34.000  
G04  21724522.254                        2773.349          28.000    21724512.356                        2161.915          31.000  
C37  21218086.467   110488144.626         314.554          50.000                                                                  
C08  38885724.374   202488170.449       -2539.455          33.000    38885723.523   156576683.037       -1962.876          42.000  
C20  22292321.509   116081967.498         494.689          49.000                                                                  
C28  24283603.403   126451116.448        2443.892          41.000                                                                  
C07  37657072.911   196090264.755        1051.440          40.000    37657058.778   151629373.859         813.080          43.000  
C10  38638899.116   201202895.176         915.642          35.000    38638895.593   155582831.618         708.078          43.000  
> 2025 10 28 07 06 58.2360000  0 21                     
G03  21841409.082   114777378.842       -1577.972          42.000    21841403.994    89436900.598       -1229.990          37.000  
G16  19895964.284   104554002.547        2016.911          46.000                                                                  
G26  18884320.597    99237773.342        -524.008          50.000    18884311.471    77328100.249        -408.145          46.000  
G28  20469688.131   107568939.095       -1747.231          46.000    20469676.993    83819906.901       -1361.417          45.000  
G29  22215184.189                3      -2008.625          21.000    22215180.430                       -1566.719          29.000  
G31  19272515.167   101277754.628        -520.238          47.000    19272503.079    78917681.947        -405.426          45.000  
C06  35197575.136   183283011.416         -81.177          47.000    35197555.538   141725972.230         -62.769          47.000  
C09  36347373.631   189270314.179         -49.470          45.000    36347357.186   146355747.555         -38.123          47.000  
C13  37994454.212   197847088.521       -2440.492          38.000    37994452.596   152987913.328       -1886.700          39.000  
C16  35633063.630   185550713.265         -94.182          48.000    35633050.442   143479529.231         -72.834          47.000  
C23  21696410.376   112978898.179       -1820.161          44.000                                                                  
C32  22069787.863   114923179.420       -2707.514          44.000                                                                  
G32  22071730.499   115987721.982       -3736.410          42.000    22071727.373    90380031.628       -2911.569          38.000  
G27  23223971.331   122042801.166        3660.220          36.000    23223988.464    95098410.484        2852.096          34.000  
G04  21724500.958                        2773.287          28.000    21724491.252                        2160.785          31.000  
C37  21218084.044   110488132.033         314.710          50.000                                                                  
C08  38885743.700   202488271.960       -2538.636          33.000    38885743.024   156576761.545       -1962.786          42.000  
C20  22292317.713   116081947.705         494.775          49.000                                                                  
C28  24283584.624   126451018.677        2444.067          41.000                                                                  
C07  37657064.825   196090222.687        1051.642          40.000    37657050.701   151629341.337         813.068          43.000  
C10  38638892.092   201202858.559         915.392          35.000    38638888.555   155582803.288         708.188          43.000  
> 2025 10 28 07 06 58.2760000  0 21                     
G03  21841421.049   114777441.951       -1577.723          42.000    21841416.004    89436949.784       -1229.917          37.000  
G16  19895948.930   104553921.872        2016.895          46.000                                                                  
G26  18884324.574    99237794.305        -524.070          50.000    18884315.465    77328116.579        -408.203          46.000  
G28  20469701.450   107569008.980       -1747.164          46.000    20469690.286    83819961.360       -1361.479          45.000  
G29  22215198.715                3      -2008.625          21.000    22215196.144                       -1566.252          29.000  
G31  19272519.137   101277775.436        -520.202          47.000    19272507.032    78917698.162        -405.383          45.000  
C06  35197575.767   183283014.649         -80.942          47.000    35197556.160   141725974.736         -62.670          47.000  
C09  36347374.009   189270316.153         -49.382          45.000    36347357.596   146355749.078         -38.057          47.000  
C13  37994472.945   197847186.126       -2440.250          38.000    37994471.339   152987988.805       -1886.747          39.000  
C16  35633064.329   185550717.023         -94.036          48.000    35633051.209   143479532.140         -72.744          47.000  
C23  21696424.353   112978970.975       -1819.999          44.000                                                                  
C32  22069808.653   114923287.711       -2707.327          44.000                                                                  
G32  22071758.938   115987871.423       -3736.088          42.000    22071755.812    90380148.091       -2911.562          38.000  
G27  23223943.458   122042654.736        3660.555          35.000    23223960.594    95098296.392        2852.231          34.000  
G04  21724479.610                        2773.567          28.000    21724470.146                        2160.887          31.000  
C37  21218081.655   110488119.440         314.798          50.000                                                                  
C08  38885763.236   202488373.443       -2537.544          33.000    38885762.523   156576840.051       -1962.705          42.000  
C20  22292313.913   116081927.909         494.849          49.000                                                                  
C28  24283565.856   126450920.908        2444.180          41.000                                                                  
C07  37657056.741   196090180.614        1051.813          40.000    37657042.613   151629308.806         813.190          43.000  
C10  38638885.055   201202821.908         915.900          35.000    38638881.525   155582774.965         708.100          43.000  
> 2025 10 28 07 06 58.3160000  0 21                     
G03  21841433.035   114777505.072       -1577.899          42.000    21841428.006    89436998.970       -1229.832          37.000  
G16  19895933.576   104553841.194        2016.917          46.000                                                                  
G26  18884328.556    99237815.262        -524.000          50.000    18884319.460    77328132.910        -408.286          46.000  
G28  20469714.738   107569078.862       -1747.062          46.000    20469703.590    83820015.811       -1361.307          45.000  
G29  22215213.526                3      -2008.625          21.000    22215211.069                       -1566.129          29.000  
G31  19272523.106   101277796.251        -520.320          47.000    19272511.014    78917714.382        -405.420          45.000  
C06  35197576.413   183283017.890         -80.963          47.000    35197556.803   141725977.237         -62.550          47.000  
C09  36347374.394   189270318.121         -49.224          45.000    36347357.981   146355750.605         -38.136          47.000  
C13  37994491.688   197847283.737       -2440.221          38.000    37994490.060   152988064.291       -1886.982          39.000  
C16  35633065.055   185550720.783         -93.981          48.000    35633051.926   143479535.056         -72.846          47.000  
C23  21696438.346   112979043.767       -1819.844          44.000                                                                  
C32  22069829.439   114923396.010       -2707.404          44.000                                                                  
G32  22071787.402   115988020.875       -3736.167          42.000    22071784.232    90380264.553       -2911.593          38.000  
G27  23223915.609   122042508.329        3660.410          35.000    23223932.713    95098182.315        2852.057          34.000  
G04  21724457.985                        2773.455          28.000    21724449.047                        2161.430          31.000  
C37  21218079.256   110488106.847         314.808          50.000                                                                  
C08  38885782.889   202488474.994       -2538.254          33.000    38885782.045   156576918.566       -1962.809          42.000  
C20  22292310.137   116081908.110         494.947          49.000                                                                  
C28  24283547.085   126450823.133        2444.369          41.000                                                                  
C07  37657048.649   196090138.553        1051.636          40.000    37657034.537   151629276.288         812.982          43.000  
C10  38638878.011   201202785.267         916.079          35.000    38638874.511   155582746.643         708.043          43.000  
> 2025 10 28 07 06 58.3560000  0 21                     
G03  21841445.057   114777568.207       -1578.284          42.000    21841439.996    89437048.151       -1229.624          37.000  
G16  19895918.211   104553760.515        2016.947          46.000                                                                  
G26  18884332.550    99237836.213        -523.856          50.000    18884323.444    77328149.242        -408.311          46.000  
G28  20469728.034   107569148.746       -1747.087          46.000    20469716.900    83820070.275       -1361.481          45.000  
G29  22215228.865                3      -2008.625          21.000    22215226.146                       -1566.228          29.000  
G31  19272527.077   101277817.068        -520.437          47.000    19272514.969    78917730.600        -405.432          45.000  
C06  35197577.027   183283021.129         -80.955          47.000    35197557.435   141725979.738         -62.490          47.000  
C09  36347374.750   189270320.095         -49.279          45.000    36347358.356   146355752.128         -38.105          47.000  
C13  37994510.421   197847381.349       -2440.205          38.000    37994508.809   152988139.796       -1887.401          39.000  
C16  35633065.756   185550724.545         -94.010          48.000    35633052.653   143479537.966         -72.811          47.000  
C23  21696452.334   112979116.561       -1819.771          44.000                                                                  
C32  22069850.213   114923504.309       -2707.466          44.000                                                                  
G32  22071815.846   115988170.324       -3736.200          42.000    22071812.673    90380381.001       -2911.306          38.000  
G27  23223887.711   122042361.917        3660.366          35.000    23223904.871    95098068.263        2851.521          34.000  
G04  21724436.793                        2773.455          27.000    21724427.946                        2161.735          31.000  
C37  21218076.844   110488094.256         314.773          50.000                                                                  
C08  38885802.436   202488576.553       -2538.779          33.000    38885801.562   156576997.071       -1962.699          42.000  
C20  22292306.304   116081888.318         494.842          49.000                                                                  
C28  24283528.295   126450725.367        2444.258          41.000                                                                  
C07  37657040.558   196090096.502        1051.318          40.000    37657026.457   151629243.751         813.257          43.000  
C10  38638870.973   201202748.641         915.820          35.000    38638867.494   155582718.324         707.987          43.000  
> 2025 10 28 07 06 58.3960000  0 21                     
G03  21841457.074   114777631.335       -1578.285          42.000    21841452.001    89437097.334       -1229.601          37.000  
G16  19895902.856   104553679.841        2016.852          46.000                                                                  
G26  18884336.527    99237857.166        -523.826          50.000    18884327.458    77328165.580        -408.460          46.000  
G28  20469741.333   107569218.634       -1747.161          46.000    20469730.222    83820124.728       -1361.429          45.000  
G29  22215243.748                3      -2008.625          21.000    22215241.565                       -1566.271          29.000  
G31  19272531.050   101277837.885        -520.448          47.000    19272518.952    78917746.818        -405.476          45.000  
C06  35197577.650   183283024.375         -81.096          47.000    35197558.080   141725982.245         -62.594          47.000  
C09  36347375.143   189270322.065         -49.268          45.000    36347358.746   146355753.652         -38.106          47.000  
C13  37994529.180   197847478.959       -2440.218          38.000    37994527.565   152988215.266       -1887.043          39.000  
C16  35633066.464   185550728.305         -93.992          48.000    35633053.405   143479540.865         -72.577          47.000  
C23  21696466.305   112979189.360       -1819.892          44.000                                                                  
C32  22069871.011   114923612.617       -2707.646          44.000                                                                  
G32  22071844.319   115988319.800       -3736.767          42.000    22071841.123    90380497.451       -2911.247          38.000  
G27  23223859.834   122042215.480        3660.780          35.000    23223876.997    95097954.167        2852.051          34.000  
G04  21724415.514                        2773.517          28.000    21724406.829                        2161.355          31.000  
C37  21218074.438   110488081.663         314.812          50.000                                                                  
C08  38885821.907   202488678.082       -2538.529          33.000    38885821.086   156577075.576       -1962.629          42.000  
C20  22292302.466   116081868.532         494.675          49.000                                                                  
C28  24283509.491   126450627.604        2444.136          41.000                                                                  
C07  37657032.469   196090054.437        1051.434          40.000    37657018.357   151629211.225         813.208          43.000  
C10  38638863.938   201202712.022         915.555          35.000    38638860.469   155582689.987         708.262          43.000  
> 2025 10 28 07 06 58.4360000  0 21                     
G03  21841469.081   114777694.463       -1578.270          42.000    21841464.020    89437146.541       -1229.991          37.000  
G16  19895887.493   104553599.163        2016.868          46.000                                                                  
G26  18884340.530    99237878.123        -523.897          50.000    18884331.442    77328181.914        -408.446          46.000  
G28  20469754.642   107569288.525       -1747.265          46.000    20469743.538    83820179.196       -1361.646          45.000  
G29  22215258.907                3      -2008.625          21.000    22215256.807                       -1566.149          29.000  
G31  19272535.008   101277858.699        -520.442          47.000    19272522.900    78917763.041        -405.587          45.000  
C06  35197578.298   183283027.617         -81.079          47.000    35197558.703   141725984.757         -62.766          47.000  
C09  36347375.499   189270324.047         -49.491          45.000    36347359.141   146355755.188         -38.322          47.000  
C13  37994547.925   197847576.592       -2440.626          38.000    37994546.312   152988290.742       -1886.986          39.000  
C16  35633067.189   185550732.068         -94.040          48.000    35633054.174   143479543.775         -72.704          47.000  
C23  21696480.280   112979262.162       -1820.019          44.000                                                                  
C32  22069891.815   114923720.924       -2707.732          44.000                                                                  
G32  22071872.776   115988469.256       -3736.651          42.000    22071869.567    90380613.911       -2911.397          38.000  
G27  23223831.961   122042069.063        3660.780          35.000    23223849.131    95097840.064        2852.480          34.000  
G04  21724394.705                        2773.561          28.000    21724385.687                        2160.629          31.000  
C37  21218071.984   110488069.076         314.696          50.000                                                                  
C08  38885841.433   202488779.580       -2537.825          33.000    38885840.614   156577154.080       -1962.621          42.000  
C20  22292298.657   116081848.742         494.663          49.000                                                                  
C28  24283490.701   126450529.836        2444.116          41.000                                                                  
C07  37657024.397   196090012.376        1051.453          40.000    37657010.259   151629178.707         812.970          43.000  
C10  38638856.897   201202675.375         915.919          35.000    38638853.410   155582661.652         708.403          43.000  
> 2025 10 28 07 06 58.4760000  0 21                     
G03  21841481.092   114777757.591       -1578.224          42.000    21841476.035    89437195.748       -1230.233          37.000  
G16  19895872.155   104553518.491        2016.810          46.000                                                                  
G26  18884344.531    99237899.094        -524.186          50.000    18884335.416    77328198.244        -408.357          46.000  
G28  20469767.952   107569358.416       -1747.307          46.000    20469756.834    83820233.654       -1361.561          45.000  
G29  22215275.026                3      -2008.625          21.000    22215271.867                       -1566.168          29.000  
G31  19272538.965   101277879.511        -520.349          47.000    19272526.867    78917779.255        -405.457          45.000  
C06  35197578.952   183283030.861         -81.118          47.000    35197559.358   141725987.274         -62.911          47.000  
C09  36347375.911   189270326.019         -49.379          45.000    36347359.484   146355756.714         -38.254          47.000  
C13  37994566.691   197847674.198       -2440.382          38.000    37994565.062   152988366.226       -1887.048          39.000  
C16  35633067.889   185550735.833         -94.112          48.000    35633054.912   143479546.692         -72.873          47.000  
C23  21696494.242   112979334.974       -1820.275          44.000                                                                  
C32  22069912.605   114923829.221       -2707.543          44.000                                                                  
G32  22071901.228   115988618.720       -3736.675          42.000    22071898.012    90380730.373       -2911.541          38.000  
G27  23223804.113   122041922.653        3660.432          35.000    23223821.270    95097726.007        2851.808          34.000  
G04  21724373.642                        2773.523          28.000    21724364.606    88957642.791        2160.782          31.000  
C37  21218069.552   110488056.488         314.666          50.000                                                                  
C08  38885860.900   202488881.109       -2537.999          33.000    38885860.105   156577232.586       -1962.635          42.000  
C20  22292294.859   116081828.955         494.646          49.000                                                                  
C28  24283471.932   126450432.076        2443.965          41.000                                                                  
C07  37657016.341   196089970.315        1051.453          40.000    37657002.180   151629146.174         813.177          43.000  
C10  38638849.864   201202638.743         915.876          35.000    38638846.378   155582633.332         708.190          43.000  
> 2025 10 28 07 06 58.5160000  0 21                     
G03  21841493.092   114777820.710       -1578.041          42.000    21841488.055    89437244.943       -1230.129          37.000  
G16  19895856.808   104553437.817        2016.813          46.000                                                                  
G26  18884348.531    99237920.063        -524.276          50.000    18884339.385    77328214.577        -408.357          46.000  
G28  20469781.238   107569428.306       -1747.311          46.000    20469770.135    83820288.106       -1361.395          45.000  
G29  22215291.428                3      -2008.625          21.000    22215287.537                       -1566.309          29.000  
G31  19272542.913   101277900.315        -520.158          47.000    19272530.815    78917795.471        -405.420          45.000  
C06  35197579.583   183283034.102         -81.083          47.000    35197559.975   141725989.772         -62.642          47.000  
C09  36347376.297   189270327.993         -49.379          45.000    36347359.863   146355758.227         -37.975          47.000  
C13  37994585.421   197847771.822       -2440.573          38.000    37994583.815   152988441.726       -1887.444          39.000  
C16  35633068.650   185550739.596         -94.117          48.000    35633055.623   143479549.598         -72.756          47.000  
C23  21696508.209   112979407.771       -1820.076          44.000                                                                  
C32  22069933.399   114923937.520       -2707.488          44.000                                                                  
G32  22071929.647   115988768.179       -3736.554          42.000    22071926.457    90380846.851       -2911.912          38.000  
G27  23223776.271   122041776.260        3659.961          35.000    23223793.396    95097611.909        2852.180          34.000  
G04  21724352.393                        2773.778          27.000    21724343.504                        2160.806          31.000  
C37  21218067.149   110488043.895         314.771          50.000                                                                  
C08  38885880.288   202488982.645       -2538.323          33.000    38885879.598   156577311.095       -1962.688          42.000  
C20  22292291.099   116081809.164         494.695          49.000                                                                  
C28  24283453.136   126450334.314        2443.989          41.000                                                                  
C07  37657008.270   196089928.249        1051.563          40.000    37656994.091   151629113.644         813.245          43.000  
C10  38638842.829   201202602.093         916.101          35.000    38638839.362   155582605.002         708.284          43.000  
> 2025 10 28 07 06 58.5560000  0 21                     
G03  21841505.120   114777883.843       -1578.251          42.000    21841500.081    89437294.131       -1229.817          37.000  
G16  19895841.446   104553357.150        2016.689          46.000                                                                  
G26  18884352.493    99237941.028        -524.222          50.000    18884343.355    77328230.905        -408.244          46.000  
G28  20469794.537   107569498.195       -1747.276          46.000    20469783.411    83820342.564       -1361.414          45.000  
G29  22215306.276                3      -2008.625          21.000    22215302.988                       -1566.450          29.000  
G31  19272546.890   101277921.128        -520.252          47.000    19272534.789    78917811.693        -405.513          45.000  
C06  35197580.203   183283037.345         -81.096          47.000    35197560.607   141725992.281         -62.712          47.000  
C09  36347376.688   189270329.965         -49.322          45.000    36347360.226   146355759.749         -37.991          47.000  
C13  37994604.181   197847869.427       -2440.307          38.000    37994602.564   152988517.200       -1887.114          39.000  
C16  35633069.378   185550743.359         -94.103          48.000    35633056.342   143479552.504         -72.691          47.000  
C23  21696522.233   112979480.571       -1820.019          44.000                                                                  
C32  22069954.189   114924045.832       -2707.701          44.000                                                                  
G32  22071958.089   115988917.632       -3736.418          42.000    22071954.911    90380963.308       -2911.653          38.000  
G27  23223748.396   122041629.895        3659.219          35.000    23223765.539    95097497.855        2851.545          34.000  
G04  21724331.476                        2773.217          27.000    21724322.393    88957469.919        2160.723          31.000  
C37  21218064.739   110488031.300         314.833          50.000                                                                  
C08  38885899.811   202489084.159       -2538.061          33.000    38885899.104   156577389.609       -1962.871          42.000  
C20  22292287.310   116081789.373         494.726          49.000                                                                  
C28  24283434.387   126450236.545        2444.175          41.000                                                                  
C07  37657000.204   196089886.162        1052.008          40.000    37656986.003   151629081.120         813.141          43.000  
C10  38638835.792   201202565.476         915.664          35.000    38638832.319   155582576.675         708.234          43.000  
> 2025 10 28 07 06 58.5960000  0 21                     
G03  21841517.138   114777946.977       -1578.344          42.000    21841512.093    89437343.300       -1229.316          37.000  
G16  19895826.102   104553276.480        2016.667          46.000                                                                  
G26  18884356.454    99237961.984        -524.021          50.000    18884347.347    77328247.241        -408.372          46.000  
G28  20469807.852   107569568.080       -1747.198          46.000    20469796.736    83820397.026       -1361.526          45.000  
G29  22215322.438                3      -2008.625          21.000    22215317.990                       -1566.456          29.000  
G31  19272550.847   101277941.951        -520.492          47.000    19272538.768    78917827.914        -405.549          45.000  
C06  35197580.842   183283040.580         -80.958          47.000    35197561.208   141725994.790         -62.766          47.000  
C09  36347377.044   189270331.935         -49.272          45.000    36347360.599   146355761.279         -38.177          47.000  
C13  37994622.930   197847967.027       -2440.072          38.000    37994621.301   152988592.676       -1886.921          39.000  
C16  35633070.112   185550747.122         -94.124          48.000    35633057.074   143479555.411         -72.681          47.000  
C23  21696536.204   112979553.370       -1819.989          44.000                                                                  
C32  22069975.016   114924154.129       -2707.557          44.000                                                                  
G32  22071986.543   115989067.100       -3736.600          42.000    22071983.348    90381079.763       -2911.486          38.000  
G27  23223720.528   122041483.445        3660.385          35.000    23223737.694    95097383.775        2851.614          34.000  
G04  21724310.160                        2773.094          27.000    21724301.268                        2161.770          31.000  
C37  21218062.280   110488018.711         314.754          50.000                                                                  
C08  38885919.381   202489185.713       -2538.657          33.000    38885918.611   156577468.117       -1962.813          42.000  
C20  22292283.506   116081769.581         494.775          49.000                                                                  
C28  24283415.613   126450138.772        2444.340          41.000                                                                  
C07  37656992.112   196089844.087        1052.002          40.000    37656977.919   151629048.593         813.153          43.000  
C10  38638828.775   201202528.844         915.698          35.000    38638825.276   155582548.349         708.134          43.000  
> 2025 10 28 07 06 58.6360000  0 21                     
G03  21841529.146   114778010.109       -1578.368          42.000    21841524.103    89437392.482       -1229.459          37.000  
G16  19895810.760   104553195.799        2016.877          46.000                                                                  
G26  18884360.451    99237982.942        -523.960          50.000    18884351.337    77328263.576        -408.402          46.000  
G28  20469821.165   107569637.968       -1747.185          46.000    20469810.021    83820451.483       -1361.492          45.000  
G29  22215338.416                3      -2008.625          21.000    22215333.351                       -1566.480          29.000  
G31  19272554.795   101277962.766        -520.498          47.000    19272542.730    78917844.135        -405.586          45.000  
C06  35197581.461   183283043.818         -80.942          47.000    35197561.818   141725997.294         -62.700          47.000  
C09  36347377.419   189270333.901         -49.146          45.000    36347360.972   146355762.814         -38.347          47.000  
C13  37994641.652   197848064.650       -2440.360          38.000    37994640.044   152988668.159       -1886.974          39.000  
C16  35633070.839   185550750.877         -93.965          48.000    35633057.789   143479558.313         -72.592          47.000  
C23  21696550.188   112979626.165       -1819.908          44.000                                                                  
C32  22069995.802   114924262.436       -2707.650          44.000                                                                  
G32  22072014.979   115989216.553       -3736.425          42.000    22072011.790    90381196.218       -2911.400          38.000  
G27  23223692.666   122041337.003        3661.059          35.000    23223709.815    95097269.665        2852.303          34.000  
G04  21724289.986                        2773.394          27.000    21724280.156                        2162.358          31.000  
C37  21218059.853   110488006.125         314.658          50.000                                                                  
C08  38885938.817   202489287.223       -2538.080          33.000    38885938.107   156577546.623       -1962.714          42.000  
C20  22292279.666   116081749.799         494.621          49.000                                                                  
C28  24283396.821   126450040.997        2444.457          41.000                                                                  
C07  37656984.022   196089802.026        1051.703          40.000    37656969.803   151629016.072         813.031          43.000  
C10  38638821.729   201202492.208         915.786          35.000    38638818.221   155582520.017         708.220          43.000  
> 2025 10 28 07 06 58.6760000  0 21                     
G03  21841541.155   114778073.236       -1578.254          42.000    21841536.119    89437441.676       -1229.777          37.000  
G16  19895795.416   104553115.126        2016.852          45.000                                                                  
G26  18884364.439    99238003.901        -523.962          49.000    18884355.335    77328279.920        -408.570          46.000  
G28  20469834.470   107569707.852       -1747.115          45.000    20469823.324    83820505.943       -1361.537          45.000  
G29  22215353.116                3      -2008.625          21.000    22215348.569                       -1566.671          29.000  
G31  19272558.760   101277983.591        -520.664          47.000    19272546.685    78917860.354        -405.530          45.000  
C06  35197582.056   183283047.063         -81.077          47.000    35197562.463   141725999.800         -62.672          47.000  
C09  36347377.785   189270335.875         -49.263          45.000    36347361.343   146355764.335         -38.186          47.000  
C13  37994660.389   197848162.268       -2440.428          38.000    37994658.791   152988743.637       -1886.962          39.000  
C16  35633071.617   185550754.633         -93.890          48.000    35633058.509   143479561.222         -72.692          47.000  
C23  21696564.155   112979698.964       -1819.960          44.000                                                                  
C32  22070016.581   114924370.739       -2707.638          44.000                                                                  
G32  22072043.423   115989366.004       -3736.345          42.000    22072040.223    90381312.678       -2911.489          38.000  
G27  23223664.817   122041190.601        3660.676          35.000    23223681.935    95097155.580        2852.265          34.000  
G04  21724268.727                        2773.276          27.000    21724259.021                        2161.271          31.000  
C37  21218057.456   110487993.540         314.584          50.000                                                                  
C08  38885958.470   202489388.749       -2538.100          33.000    38885957.576   156577625.122       -1962.554          42.000  
C20  22292275.867   116081730.014         494.585          49.000                                                                  
C28  24283378.075   126449943.236        2444.165          41.000                                                                  
C07  37656975.935   196089759.964        1051.538          40.000    37656961.702   151628983.538         813.196          43.000  
C10  38638814.689   201202455.575         915.701          35.000    38638811.177   155582491.684         708.276          43.000  
> 2025 10 28 07 06 58.7160000  0 21                     
G03  21841553.160   114778136.360       -1578.173          42.000    21841548.133    89437490.893       -1230.365          37.000  
G16  19895780.069   104553034.457        2016.758          45.000                                                                  
G26  18884368.443    99238024.868        -524.126          49.000    18884359.330    77328296.253        -408.416          46.000  
G28  20469847.760   107569777.744       -1747.250          45.000    20469836.632    83820560.393       -1361.345          45.000  
G29  22215368.448                3      -2008.625          21.000    22215364.026                       -1566.898          29.000  
G31  19272562.710   101278004.402        -520.441          47.000    19272550.647    78917876.572        -405.481          45.000  
C06  35197582.683   183283050.306         -81.135          47.000    35197563.113   141726002.305         -62.640          47.000  
C09  36347378.156   189270337.851         -49.364          45.000    36347361.749   146355765.854         -38.046          47.000  
C13  37994679.141   197848259.896       -2440.591          38.000    37994677.560   152988819.113       -1886.909          39.000  
C16  35633072.328   185550758.401         -94.118          48.000    35633059.219   143479564.131         -72.751          47.000  
C23  21696578.116   112979771.768       -1820.060          44.000                                                                  
C32  22070037.399   114924479.039       -2707.575          44.000                                                                  
G32  22072071.862   115989515.463       -3736.439          42.000    22072068.663    90381429.149       -2911.756          38.000  
G27  23223636.947   122041044.210        3660.074          35.000    23223654.087    95097041.514        2851.842          34.000  
G04  21724247.769                        2773.040          27.000    21724237.929                        2160.197          31.000  
C37  21218055.034   110487980.947         314.729          50.000                                                                  
C08  38885978.115   202489490.274       -2538.082          33.000    38885977.056   156577703.639       -1962.762          42.000  
C20  22292272.062   116081710.230         494.554          49.000                                                                  
C28  24283359.294   126449845.471        2444.064          41.000                                                                  
C07  37656967.829   196089717.908        1051.416          40.000    37656953.613   151628951.010         813.214          43.000  
C10  38638807.636   201202418.935         915.857          35.000    38638804.139   155582463.363         708.106          43.000  
> 2025 10 28 07 06 58.7560000  0 21                     
G03  21841565.178   114778199.469       -1577.867          42.000    21841560.140    89437540.091       -1230.359          37.000  
G16  19895764.727   104552953.790        2016.673          45.000                                                                  
G26  18884372.447    99238045.842        -524.339          49.000    18884363.318    77328312.588        -408.379          46.000  
G28  20469861.060   107569847.636       -1747.321          45.000    20469849.942    83820614.854       -1361.433          45.000  
G29  22215384.061                3      -2008.625          21.000    22215379.190                       -1566.854          29.000  
G31  19272566.668   101278025.212        -520.312          47.000    19272554.602    78917892.792        -405.494          45.000  
C06  35197583.282   183283053.554         -81.210          47.000    35197563.710   141726004.808         -62.610          47.000  
C09  36347378.540   189270339.828         -49.458          45.000    36347362.128   146355767.373         -37.992          47.000  
C13  37994697.881   197848357.503       -2440.381          38.000    37994696.304   152988894.592       -1887.020          39.000  
C16  35633073.084   185550762.166         -94.186          48.000    35633059.924   143479567.043         -72.813          47.000  
C23  21696592.111   112979844.567       -1820.047          44.000                                                                  
C32  22070058.151   114924587.347       -2707.675          44.000                                                                  
G32  22072100.309   115989664.927       -3736.563          42.000    22072097.095    90381545.603       -2911.619          38.000  
G27  23223609.083   122040897.794        3660.226          35.000    23223626.237    95096927.422        2852.095          34.000  
G04  21724226.398                        2773.415          27.000    21724216.841                        2160.283          31.000  
C37  21218052.625   110487968.360         314.715          50.000                                                                  
C08  38885997.708   202489591.814       -2538.308          33.000    38885996.557   156577782.138       -1962.573          42.000  
C20  22292268.271   116081690.445         494.567          49.000                                                                  
C28  24283340.485   126449747.696        2444.278          41.000                                                                  
C07  37656959.758   196089675.840        1051.599          40.000    37656945.526   151628918.473         813.391          43.000  
C10  38638800.595   201202382.303         915.803          35.000    38638797.120   155582435.035         708.128          43.000  
> 2025 10 28 07 06 58.7960000  0 21                     
G03  21841577.196   114778262.609       -1578.285          42.000    21841572.155    89437589.270       -1229.863          37.000  
G16  19895749.365   104552873.116        2016.769          45.000                                                                  
G26  18884376.410    99238066.811        -524.316          49.000    18884367.293    77328328.925        -408.406          46.000  
G28  20469874.374   107569917.526       -1747.323          45.000    20469863.250    83820669.312       -1361.426          45.000  
G29  22215398.960                3      -2008.625          21.000    22215394.213                       -1566.817          29.000  
G31  19272570.634   101278046.025        -520.312          47.000    19272558.568    78917909.008        -405.457          45.000  
C06  35197583.879   183283056.787         -80.983          47.000    35197564.312   141726007.308         -62.552          47.000  
C09  36347378.926   189270341.788         -49.165          45.000    36347362.476   146355768.899         -38.095          47.000  
C13  37994716.601   197848455.100       -2440.059          38.000    37994715.067   152988970.093       -1887.437          39.000  
C16  35633073.814   185550765.922         -94.046          48.000    35633060.645   143479569.950         -72.771          47.000  
C23  21696606.102   112979917.368       -1820.059          44.000                                                                  
C32  22070078.919   114924695.652       -2707.643          44.000                                                                  
G32  22072128.741   115989814.382       -3736.457          42.000    22072125.545    90381662.070       -2911.666          38.000  
G27  23223581.212   122040751.374        3660.428          35.000    23223598.362    95096813.303        2852.688          34.000  
G04  21724205.579                        2773.265          27.000    21724195.725                        2160.955          31.000  
C37  21218050.198   110487955.770         314.726          50.000                                                                  
C08  38886017.213   202489693.329       -2538.117          33.000    38886016.052   156577860.652       -1962.717          42.000  
C20  22292264.468   116081670.664         494.536          49.000                                                                  
C28  24283321.700   126449649.918        2444.435          41.000                                                                  
C07  37656951.657   196089633.756        1052.051          40.000    37656937.449   151628885.960         812.970          42.000  
C10  38638793.587   201202345.668         915.809          35.000    38638790.086   155582406.701         708.253          43.000  
> 2025 10 28 07 06 58.8360000  0 21                     
G03  21841589.233   114778325.762       -1578.754          42.000    21841584.187    89437638.452       -1229.594          37.000  
G16  19895734.021   104552792.451        2016.670          45.000                                                                  
G26  18884380.377    99238087.773        -524.157          49.000    18884371.281    77328345.257        -408.350          46.000  
G28  20469887.687   107569987.424       -1747.439          45.000    20469876.565    83820723.778       -1361.576          45.000  
G29  22215413.492                3      -2008.625          21.000    22215409.644                       -1566.816          29.000  
G31  19272574.607   101278066.847        -520.473          47.000    19272562.536    78917925.228        -405.475          45.000  
C06  35197584.477   183283060.029         -81.018          47.000    35197564.916   141726009.821         -62.745          47.000  
C09  36347379.296   189270343.756         -49.135          45.000    36347362.836   146355770.428         -38.241          47.000  
C13  37994735.357   197848552.715       -2440.230          38.000    37994733.818   152989045.580       -1887.380          39.000  
C16  35633074.545   185550769.682         -94.021          48.000    35633061.328   143479572.858         -72.738          47.000  
C23  21696620.085   112979990.168       -1820.046          44.000                                                                  
C32  22070099.721   114924803.953       -2707.568          44.000                                                                  
G32  22072157.183   115989963.839       -3736.438          42.000    22072153.973    90381778.528       -2911.542          38.000  
G27  23223553.345   122040604.959        3660.423          35.000    23223570.513    95096699.236        2852.070          34.000  
G04  21724184.792                        2773.396          27.000    21724174.605                        2160.923          31.000  
C37  21218047.796   110487943.185         314.629          50.000                                                                  
C08  38886036.696   202489794.872       -2538.530          33.000    38886035.559   156577939.153       -1962.594          42.000  
C20  22292260.697   116081650.880         494.567          49.000                                                                  
C28  24283302.916   126449552.149        2444.322          41.000                                                                  
C07  37656943.586   196089591.694        1051.794          40.000    37656929.361   151628853.441         812.885          42.000  
C10  38638786.562   201202309.022         916.080          35.000    38638783.062   155582378.376         708.179          43.000  
> 2025 10 28 07 06 58.8760000  0 21                     
G03  21841601.265   114778388.897       -1578.615          42.000    21841596.190    89437687.646       -1229.678          37.000  
G16  19895718.675   104552711.782        2016.665          45.000                                                                  
G26  18884384.356    99238108.732        -524.026          49.000    18884375.270    77328361.591        -408.337          46.000  
G28  20469900.986   107570057.306       -1747.234          45.000    20469889.864    83820778.238       -1361.547          45.000  
G29  22215428.700                3      -2008.625          21.000    22215424.579                       -1566.233          29.000  
G31  19272578.580   101278087.666        -520.534          47.000    19272566.495    78917941.455        -405.604          45.000  
C06  35197585.123   183283063.259         -80.836          47.000    35197565.527   141726012.320         -62.612          47.000  
C09  36347379.666   189270345.727         -49.200          45.000    36347363.240   146355771.951         -38.156          47.000  
C13  37994754.098   197848650.348       -2440.661          38.000    37994752.564   152989121.056       -1887.110          39.000  
C16  35633075.255   185550773.433         -93.845          48.000    35633062.029   143479575.763         -72.667          47.000  
C23  21696634.069   112980062.961       -1819.882          44.000                                                                  
C32  22070120.543   114924912.254       -2707.531          44.000                                                                  
G32  22072185.608   115990113.296       -3736.438          42.000    22072182.421    90381894.991       -2911.598          38.000  
G27  23223525.482   122040458.549        3660.250          35.000    23223542.666    95096585.179        2851.467          34.000  
G04  21724163.468                        2773.383          27.000    21724153.449                        2161.485          31.000  
C37  21218045.379   110487930.594         314.694          50.000                                                                  
C08  38886056.242   202489896.407       -2538.527          33.000    38886055.057   156578017.649       -1962.476          42.000  
C20  22292256.920   116081631.095         494.586          49.000                                                                  
C28  24283284.134   126449454.383        2444.167          41.000                                                                  
C07  37656935.514   196089549.631        1051.630          40.000    37656921.310   151628820.909         813.104          42.000  
C10  38638779.537   201202272.364         916.462          35.000    38638776.021   155582350.034         708.443          43.000  
> 2025 10 28 07 06 58.9160000  0 21                     
G03  21841613.288   114778452.015       -1578.178          42.000    21841608.205    89437736.842       -1229.857          37.000  
G16  19895703.309   104552631.118        2016.601          45.000                                                                  
G26  18884388.345    99238129.702        -524.167          49.000    18884379.259    77328377.936        -408.526          46.000  
G28  20469914.274   107570127.194       -1747.223          45.000    20469903.154    83820832.693       -1361.435          45.000  
G29  22215445.222                3      -2008.625          21.000    22215439.986                       -1566.461          29.000  
G31  19272582.520   101278108.480        -520.460          47.000    19272570.461    78917957.676        -405.592          45.000  
C06  35197585.741   183283066.498         -80.922          47.000    35197566.149   141726014.827         -62.672          47.000  
C09  36347380.058   189270347.704         -49.373          45.000    36347363.607   146355773.477         -38.162          47.000  
C13  37994772.837   197848747.961       -2440.553          38.000    37994771.310   152989196.535       -1887.016          39.000  
C16  35633076.030   185550777.186         -93.810          48.000    35633062.720   143479578.665         -72.598          47.000  
C23  21696648.045   112980135.766       -1820.048          44.000                                                                  
C32  22070141.333   114925020.565       -2707.718          44.000                                                                  
G32  22072214.056   115990262.757       -3736.545          42.000    22072210.859    90382011.455       -2911.636          38.000  
G27  23223497.593   122040312.113        3660.648          35.000    23223514.792    95096471.092        2851.753          34.000  
G04  21724142.530                        2773.991          27.000    21724132.312                        2161.281          31.000  
C37  21218042.967   110487918.003         314.712          50.000                                                                  
C08  38886075.778   202489997.927       -2538.174          33.000    38886074.570   156578096.161       -1962.664          42.000  
C20  22292253.110   116081611.311         494.567          49.000                                                                  
C28  24283265.351   126449356.622        2444.010          41.000                                                                  
C07  37656927.444   196089507.577        1051.361          40.000    37656913.228   151628788.371         813.324          42.000  
C10  38638772.495   201202235.733         916.108          35.000    38638768.984   155582321.705         708.331          43.000  
> 2025 10 28 07 06 58.9560000  0 21                     
G03  21841625.306   114778515.150       -1578.258          42.000    21841620.243    89437786.051       -1230.177          37.000  
G16  19895687.948   104552550.451        2016.619          45.000                                                                  
G26  18884392.348    99238150.670        -524.222          49.000    18884383.246    77328394.278        -408.606          46.000  
G28  20469927.589   107570197.088       -1747.323          45.000    20469916.449    83820887.151       -1361.424          45.000  
G29  22215461.266                3      -2008.625          21.000    22215455.213                       -1566.756          29.000  
G31  19272586.485   101278129.298        -520.472          47.000    19272574.424    78917973.895        -405.505          45.000  
C06  35197586.355   183283069.737         -80.953          47.000    35197566.782   141726017.333         -62.670          47.000  
C09  36347380.452   189270349.669         -49.237          45.000    36347363.999   146355774.999         -38.092          47.000  
C13  37994791.580   197848845.570       -2440.353          38.000    37994790.040   152989271.998       -1886.617          39.000  
C16  35633076.725   185550780.949         -93.990          48.000    35633063.438   143479581.571         -72.621          47.000  
C23  21696662.015   112980208.570       -1820.122          44.000                                                                  
C32  22070162.124   114925128.879       -2707.879          44.000                                                                  
G32  22072242.497   115990412.222       -3736.669          42.000    22072239.292    90382127.927       -2911.822          38.000  
G27  23223469.738   122040165.707        3660.394          35.000    23223486.913    95096356.994        2852.131          34.000  
G04  21724121.370                        2773.815          27.000    21724111.184    88956605.418        2161.479          31.000  
C37  21218040.592   110487905.412         314.744          50.000                                                                  
C08  38886095.257   202490099.427       -2537.629          33.000    38886094.085   156578174.670       -1962.742          42.000  
C20  22292249.315   116081591.532         494.475          49.000                                                                  
C28  24283246.585   126449258.854        2444.073          41.000                                                                  
C07  37656919.376   196089465.516        1051.434          40.000    37656905.149   151628755.843         813.245          42.000  
C10  38638765.469   201202199.091         916.067          35.000    38638761.943   155582293.391         707.977          43.000  
> 2025 10 28 07 06 58.9960000  0 21                     
G03  21841637.325   114778578.284       -1578.329          42.000    21841632.280    89437835.237       -1229.876          37.000  
G16  19895672.602   104552469.777        2016.767          45.000                                                                  
G26  18884396.330    99238171.642        -524.297          49.000    18884387.230    77328410.616        -408.535          46.000  
G28  20469940.888   107570266.975       -1747.264          45.000    20469929.761    83820941.614       -1361.517          45.000  
G29  22215475.995                3      -2008.625          21.000    22215470.278                       -1566.553          29.000  
G31  19272590.450   101278150.116        -520.491          47.000    19272578.379    78917990.116        -405.518          45.000  
C06  35197586.948   183283072.978         -81.014          47.000    35197567.399   141726019.838         -62.684          47.000  
C09  36347380.822   189270351.641         -49.282          45.000    36347364.344   146355776.514         -37.935          47.000  
C13  37994810.318   197848943.184       -2440.407          38.000    37994808.778   152989347.475       -1886.691          39.000  
C16  35633077.411   185550784.715         -94.126          48.000    35633064.156   143479584.478         -72.681          47.000  
C23  21696675.998   112980281.372       -1820.115          44.000                                                                  
C32  22070182.927   114925237.187       -2707.834          44.000                                                                  
G32  22072270.944   115990561.686       -3736.711          42.000    22072267.742    90382244.374       -2911.378          38.000  
G27  23223441.900   122040019.330        3659.678          35.000    23223459.044    95096242.903        2852.252          34.000  
G04  21724099.714                        2773.534          27.000    21724090.106    88956518.992        2160.886          31.000  
C37  21218038.216   110487892.821         314.744          50.000                                                                  
C08  38886114.846   202490200.959       -2537.925          33.000    38886113.600   156578253.179       -1962.792          42.000  
C20  22292245.504   116081571.756         494.345          49.000                                                                  
C28  24283227.826   126449161.089        2444.061          41.000                                                                  
C07  37656911.286   196089423.451        1051.544          40.000    37656897.073   151628723.317         813.135          42.000  
C10  38638758.450   201202162.468         915.702          35.000    38638754.923   155582265.060         708.061          43.000  
> 2025 10 28 07 06 59.0360000  0 21                     
G03  21841649.342   114778641.421       -1578.435          42.000    21841644.286    89437884.443       -1230.156          37.000  
G16  19895657.270   104552389.120        2016.508          45.000                                                                  
G26  18884400.331    99238192.616        -524.396          49.000    18884391.220    77328426.961        -408.603          46.000  
G28  20469954.194   107570336.870       -1747.389          45.000    20469943.067    83820996.085       -1361.718          45.000  
G29  22215490.831                3      -2008.625          20.000    22215485.404                       -1566.670          29.000  
G31  19272594.424   101278170.931        -520.422          47.000    19272582.315    78918006.338        -405.573          45.000  
C06  35197587.557   183283076.224         -81.166          47.000    35197567.991   141726022.345         -62.731          47.000  
C09  36347381.196   189270353.612         -49.321          45.000    36347364.747   146355778.040         -38.064          47.000  
C13  37994829.068   197849040.799       -2440.375          38.000    37994827.511   152989422.976       -1887.276          39.000  
C16  35633078.110   185550788.478         -94.196          48.000    35633064.875   143479587.392         -72.837          47.000  
C23  21696689.985   112980354.170       -1820.020          44.000                                                                  
C32  22070203.734   114925345.492       -2707.690          44.000                                                                  
G32  22072299.396   115990711.149       -3736.654          42.000    22072296.196    90382360.849       -2911.679          38.000  
G27  23223414.024   122039872.906        3660.161          35.000    23223431.168    95096128.817        2852.184          34.000  
G04  21724078.839                        2773.466          27.000    21724068.993                        2160.673          31.000  
C37  21218035.762   110487880.239         314.590          50.000                                                                  
C08  38886134.375   202490302.492       -2538.210          33.000    38886133.111   156578331.683       -1962.698          42.000  
C20  22292241.722   116081551.975         494.414          49.000                                                                  
C28  24283209.035   126449063.311        2444.298          41.000                                                                  
C07  37656903.230   196089381.386        1051.563          40.000    37656888.985   151628690.781         813.318          42.000  
C10  38638751.403   201202125.829         915.753          35.000    38638747.892   155582236.730         708.171          43.000  
> 2025 10 28 07 06 59.0760000  0 21                     
G03  21841661.359   114778704.579       -1578.913          42.000    21841656.296    89437933.648       -1230.287          37.000  
G16  19895641.942   104552308.457        2016.471          45.000                                                                  
G26  18884404.336    99238213.587        -524.338          49.000    18884395.206    77328443.308        -408.678          46.000  
G28  20469967.502   107570406.764       -1747.396          45.000    20469956.366    83821050.547       -1361.667          45.000  
G29  22215506.364                3      -2008.625          21.000    22215500.373                       -1566.964          29.000  
G31  19272598.405   101278191.758        -520.626          47.000    19272586.285    78918022.571        -405.783          45.000  
C06  35197588.153   183283079.472         -81.254          47.000    35197568.586   141726024.850         -62.689          47.000  
C09  36347381.578   189270355.589         -49.415          45.000    36347365.114   146355779.569         -38.236          47.000  
C13  37994847.795   197849138.434       -2440.677          38.000    37994846.257   152989498.475       -1887.536          39.000  
C16  35633078.819   185550792.240         -94.164          48.000    35633065.558   143479590.311         -73.017          47.000  
C23  21696703.970   112980426.967       -1819.977          44.000                                                                  
C32  22070224.547   114925453.809       -2707.877          44.000                                                                  
G32  22072327.837   115990860.619       -3736.709          42.000    22072324.651    90382477.308       -2911.605          38.000  
G27  23223386.176   122039726.507        3660.078          35.000    23223403.309    95096014.712        2852.377          34.000  
G04  21724057.727                        2773.336          27.000    21724047.882    88956346.114        2160.743          31.000  
C37  21218033.322   110487867.658         314.491          50.000                                                                  
C08  38886153.861   202490404.074       -2539.116          33.000    38886152.623   156578410.193       -1962.771          42.000  
C20  22292237.903   116081532.206         494.260          49.000                                                                  
C28  24283190.262   126448965.554        2444.086          41.000                                                                  
C07  37656895.159   196089339.321        1051.544          40.000    37656880.910   151628658.258         813.129          42.000  
C10  38638744.371   201202089.218         915.315          35.000    38638740.885   155582208.411         708.028          43.000  
> 2025 10 28 07 06 59.1160000  0 21                     
G03  21841673.387   114778767.728       -1578.911          42.000    21841668.315    89437982.852       -1230.276          37.000  
G16  19895626.591   104552227.798        2016.417          45.000                                                                  
G26  18884408.340    99238234.563        -524.406          49.000    18884399.195    77328459.658        -408.777          46.000  
G28  20469980.777   107570476.662       -1747.467          45.000    20469969.683    83821105.015       -1361.725          45.000  
G29  22215523.044                3      -2008.625          20.000    22215515.355                       -1566.988          29.000  
G31  19272602.341   101278212.583        -520.693          47.000    19272590.211    78918038.792        -405.640          45.000  
C06  35197588.758   183283082.716         -81.199          47.000    35197569.192   141726027.364         -62.841          47.000  
C09  36347381.956   189270357.564         -49.432          45.000    36347365.495   146355781.098         -38.283          47.000  
C13  37994866.504   197849236.037       -2440.356          38.000    37994864.990   152989573.945       -1887.143          39.000  
C16  35633079.536   185550796.003         -94.155          48.000    35633066.296   143479593.215         -72.820          47.000  
C23  21696717.937   112980499.777       -1820.152          44.000                                                                  
C32  22070245.335   114925562.114       -2707.727          44.000                                                                  
G32  22072356.277   115991010.080       -3736.552          42.000    22072353.081    90382593.781       -2911.772          38.000  
G27  23223358.319   122039580.086        3660.461          35.000    23223375.460    95095900.640        2851.858          34.000  
G04  21724036.353                        2773.114          27.000    21724026.773    88956259.690        2160.605          31.000  
C37  21218030.903   110487855.080         314.412          50.000                                                                  
C08  38886173.482   202490505.596       -2538.547          33.000    38886172.149   156578488.699       -1962.723          42.000  
C20  22292234.115   116081512.434         494.218          49.000                                                                  
C28  24283171.489   126448867.788        2444.033          41.000                                                                  
C07  37656887.090   196089297.262        1051.477          40.000    37656872.813   151628625.735         813.049          42.000  
C10  38638737.328   201202052.587         915.497          35.000    38638733.836   155582180.073         708.340          43.000  
> 2025 10 28 07 06 59.1560000  0 21                     
G03  21841685.384   114778830.875       -1578.852          42.000    21841680.316    89438032.051       -1230.122          37.000  
G16  19895611.252   104552147.150        2016.184          45.000                                                                  
G26  18884412.333    99238255.547        -524.626          49.000    18884403.168    77328475.996        -408.574          46.000  
G28  20469994.115   107570546.576       -1747.802          45.000    20469983.010    83821159.492       -1361.930          45.000  
G29  22215537.581                3      -2008.625          20.000    22215530.684                       -1567.166          29.000  
G31  19272606.310   101278233.415        -520.841          47.000    19272594.160    78918055.024        -405.751          45.000  
C06  35197589.362   183283085.955         -81.084          47.000    35197569.802   141726029.869         -62.750          47.000  
C09  36347382.359   189270359.538         -49.418          45.000    36347365.862   146355782.633         -38.414          47.000  
C13  37994885.248   197849333.662       -2440.490          38.000    37994883.730   152989649.441       -1887.359          39.000  
C16  35633080.230   185550799.777         -94.324          48.000    35633067.019   143479596.129         -72.907          47.000  
C23  21696731.910   112980572.593       -1820.416          44.000                                                                  
C32  22070266.112   114925670.438       -2708.039          44.000                                                                  
G32  22072384.696   115991159.553       -3736.778          42.000    22072381.532    90382710.252       -2911.833          38.000  
G27  23223330.410   122039433.654        3660.802          35.000    23223347.599    95095786.614        2850.791          34.000  
G04  21724015.706                        2772.972          27.000    21724005.651    88956173.258        2160.554          31.000  
C37  21218028.466   110487842.501         314.402          50.000                                                                  
C08  38886192.993   202490607.131       -2538.520          33.000    38886191.627   156578567.220       -1963.016          42.000  
C20  22292230.308   116081492.669         494.095          49.000                                                                  
C28  24283152.719   126448770.031        2443.881          41.000                                                                  
C07  37656879.019   196089255.201        1051.447          40.000    37656864.748   151628593.226         812.769          42.000  
C10  38638730.278   201202015.960         915.576          35.000    38638726.776   155582151.754         708.117          43.000  
> 2025 10 28 07 06 59.1960000  0 21                     
G03  21841697.396   114778894.023       -1578.819          42.000    21841692.338    89438081.248       -1230.055          37.000  
G16  19895595.914   104552066.503        2016.104          45.000                                                                  
G26  18884416.328    99238276.538        -524.817          49.000    18884407.141    77328492.348        -408.713          46.000  
G28  20470007.435   107570616.480       -1747.739          45.000    20469996.305    83821213.963       -1361.904          45.000  
G29  22215552.487                3      -2008.625          20.000    22215545.895                       -1566.895          29.000  
G31  19272610.275   101278254.250        -520.938          47.000    19272598.125    78918071.258        -405.862          45.000  
C06  35197589.988   183283089.205         -81.211          47.000    35197570.402   141726032.385         -62.872          47.000  
C09  36347382.740   189270361.525         -49.626          45.000    36347366.248   146355784.168         -38.456          47.000  
C13  37994903.963   197849431.281       -2440.505          38.000    37994902.472   152989724.929       -1887.340          39.000  
C16  35633080.938   185550803.553         -94.461          48.000    35633067.752   143479599.050         -73.013          47.000  
C23  21696745.895   112980645.408       -1820.494          44.000                                                                  
C32  22070286.949   114925778.771       -2708.342          44.000                                                                  
G32  22072413.175   115991309.036       -3737.076          42.000    22072409.980    90382826.727       -2911.944          38.000  
G27  23223302.537   122039287.256        3660.347          35.000    23223319.725    95095672.524        2851.442          34.000  
G04  21723994.959                        2772.744          27.000    21723984.515    88956086.787        2161.174          31.000  
C37  21218026.033   110487829.930         314.270          50.000                                                                  
C08  38886212.522   202490708.688       -2538.834          33.000    38886211.131   156578645.740       -1963.119          42.000  
C20  22292226.481   116081472.911         493.917          49.000                                                                  
C28  24283133.948   126448672.279        2443.726          41.000                                                                  
C07  37656870.932   196089213.148        1051.324          40.000    37656856.650   151628560.706         812.878          42.000  
C10  38638723.259   201201979.333         915.595          35.000    38638719.755   155582123.429         708.120          43.000  
> 2025 10 28 07 06 59.2360000  0 21                     
G03  21841709.415   114778957.166       -1578.693          42.000    21841704.369    89438130.462       -1230.275          37.000  
G16  19895580.565   104551985.858        2016.017          45.000                                                                  
G26  18884420.318    99238297.526        -524.845          49.000    18884411.153    77328508.701        -408.832          46.000  
G28  20470020.742   107570686.387       -1747.726          45.000    20470009.606    83821268.426       -1361.724          45.000  
G29  22215567.686                3      -2008.625          20.000    22215561.526                       -1566.858          29.000  
G31  19272614.234   101278275.080        -520.863          47.000    19272602.071    78918087.489        -405.843          45.000  
C06  35197590.605   183283092.463         -81.420          47.000    35197571.036   141726034.903         -62.969          47.000  
C09  36347383.123   189270363.509         -49.667          45.000    36347366.632   146355785.699         -38.364          47.000  
C13  37994922.708   197849528.912       -2440.730          38.000    37994921.224   152989800.413       -1887.274          39.000  
C16  35633081.681   185550807.324         -94.409          48.000    35633068.482   143479601.969         -73.026          47.000  
C23  21696759.868   112980718.233       -1820.686          44.000                                                                  
C32  22070307.739   114925887.101       -2708.381          44.000                                                                  
G32  22072441.612   115991458.502       -3736.867          42.000    22072438.407    90382943.189       -2911.680          38.000  
G27  23223274.651   122039140.865        3659.747          35.000    23223291.847    95095558.419        2852.217          34.000  
G04  21723973.667                        2773.056          27.000    21723963.396                        2159.974          31.000  
C37  21218023.626   110487817.356         314.255          50.000                                                                  
C08  38886231.911   202490810.186       -2537.915          33.000    38886230.639   156578724.259       -1963.107          42.000  
C20  22292222.692   116081453.148         493.943          49.000                                                                  
C28  24283115.167   126448574.521        2443.815          41.000                                                                  
C07  37656862.860   196089171.104        1051.123          40.000    37656848.543   151628528.183         812.982          42.000  
C10  38638716.220   201201942.702         915.666          35.000    38638712.710   155582095.109         708.016          43.000  
> 2025 10 28 07 06 59.2760000  0 21                     
G03  21841721.444   114779020.326       -1578.933          42.000    21841716.400    89438179.670       -1230.318          37.000  
G16  19895565.215   104551905.207        2016.112          46.000                                                                  
G26  18884424.325    99238318.514        -524.790          49.000    18884415.152    77328525.061        -409.006          46.000  
G28  20470034.059   107570756.296       -1747.762          45.000    20470022.913    83821322.905       -1361.945          45.000  
G29  22215582.711                3      -2008.625          20.000    22215576.845                       -1566.969          29.000  
G31  19272618.207   101278295.921        -521.011          47.000    19272606.024    78918103.728        -406.002          45.000  
C06  35197591.242   183283095.715         -81.420          47.000    35197571.674   141726037.421         -63.016          47.000  
C09  36347383.515   189270365.503         -49.835          45.000    36347367.024   146355787.233         -38.409          47.000  
C13  37994941.450   197849626.536       -2440.750          38.000    37994939.985   152989875.910       -1887.432          39.000  
C16  35633082.394   185550811.095         -94.347          48.000    35633069.226   143479604.885         -72.972          47.000  
C23  21696773.848   112980791.047       -1820.511          44.000                                                                  
C32  22070328.541   114925995.431       -2708.392          44.000                                                                  
G32  22072470.061   115991607.987       -3737.072          42.000    22072466.839    90383059.681       -2912.136          38.000  
G27  23223246.839   122038994.499        3659.038          35.000    23223263.978    95095444.349        2852.087          34.000  
G04  21723952.447                        2772.858          27.000    21723942.321    88955913.981        2160.148          31.000  
C37  21218021.230   110487804.789         314.142          50.000                                                                  
C08  38886251.364   202490911.747       -2538.521          33.000    38886250.123   156578802.771       -1962.981          42.000  
C20  22292218.899   116081433.384         493.987          49.000                                                                  
C28  24283096.398   126448476.770        2443.720          41.000                                                                  
C07  37656854.763   196089129.056        1051.117          40.000    37656840.485   151628495.657         813.135          42.000  
C10  38638709.186   201201906.071         915.757          35.000    38638705.682   155582066.795         707.854          43.000  
> 2025 10 28 07 06 59.3160000  0 21                     
G03  21841733.459   114779083.489       -1579.145          42.000    21841728.438    89438228.903       -1230.807          37.000  
G16  19895549.894   104551824.561        2016.126          46.000                                                                  
G26  18884428.308    99238339.499        -524.695          49.000    18884419.137    77328541.415        -408.977          46.000  
G28  20470047.359   107570826.214       -1747.925          45.000    20470036.243    83821377.383       -1362.044          45.000  
G29  22215598.151                3      -2008.625          20.000    22215592.122                       -1567.061          29.000  
G31  19272622.145   101278316.752        -520.912          47.000    19272610.002    78918119.968        -406.063          45.000  
C06  35197591.887   183283098.969         -81.418          47.000    35197572.295   141726039.937         -62.993          47.000  
C09  36347383.906   189270367.480         -49.595          45.000    36347367.408   146355788.775         -38.547          47.000  
C13  37994960.228   197849724.180       -2441.048          38.000    37994958.713   152989951.409       -1887.538          39.000  
C16  35633083.116   185550814.869         -94.386          48.000    35633069.944   143479607.802         -72.966          47.000  
C23  21696787.838   112980863.865       -1820.491          44.000                                                                  
C32  22070349.356   114926103.764       -2708.427          44.000                                                                  
G32  22072498.495   115991757.466       -3737.052          42.000    22072495.276    90383176.154       -2912.041          38.000  
G27  23223218.971   122038848.092        3659.485          35.000    23223236.119    95095330.258        2852.225          34.000  
G04  21723931.007                        2772.517          27.000    21723921.227    88955827.578        2159.938          31.000  
C37  21218018.825   110487792.222         314.101          50.000                                                                  
C08  38886270.877   202491013.275       -2538.383          33.000    38886269.606   156578881.291       -1963.047          42.000  
C20  22292215.088   116081413.628         493.888          49.000                                                                  
C28  24283077.627   126448379.013        2443.766          41.000                                                                  
C07  37656846.703   196089087.008        1051.111          40.000    37656832.404   151628463.153         812.744          42.000  
C10  38638702.139   201201869.452         915.621          35.000    38638698.661   155582038.494         707.541          43.000  
> 2025 10 28 07 06 59.3560000  0 21                     
G03  21841745.478   114779146.654       -1579.241          42.000    21841740.471    89438278.116       -1230.579          37.000  
G16  19895534.550   104551743.915        2016.150          46.000                                                                  
G26  18884432.315    99238360.494        -524.821          49.000    18884423.126    77328557.778        -409.089          46.000  
G28  20470060.661   107570896.118       -1747.776          45.000    20470049.529    83821431.859       -1362.020          45.000  
G29  22215613.058                3      -2008.625          20.000    22215607.465                       -1567.251          29.000  
G31  19272626.115   101278337.591        -520.973          47.000    19272613.959    78918136.211        -406.137          45.000  
C06  35197592.517   183283102.225         -81.438          47.000    35197572.923   141726042.458         -63.063          47.000  
C09  36347384.284   189270369.460         -49.495          45.000    36347367.804   146355790.303         -38.354          47.000  
C13  37994978.971   197849821.816       -2441.025          38.000    37994977.439   152990026.921       -1887.817          39.000  
C16  35633083.828   185550818.646         -94.436          48.000    35633070.657   143479610.721         -72.978          47.000  
C23  21696801.820   112980936.677       -1820.360          44.000                                                                  
C32  22070370.163   114926212.099       -2708.438          44.000                                                                  
G32  22072526.961   115991906.948       -3737.094          42.000    22072523.728    90383292.628       -2911.915          38.000  
G27  23223191.123   122038701.692        3659.691          35.000    23223208.242    95095216.209        2851.631          34.000  
G04  21723909.448                        2772.477          27.000    21723900.115    88955741.092        2161.335          31.000  
C37  21218016.406   110487779.651         314.174          50.000                                                                  
C08  38886290.359   202491114.806       -2538.339          33.000    38886289.122   156578959.811       -1963.085          42.000  
C20  22292211.303   116081393.877         493.772          49.000                                                                  
C28  24283058.860   126448281.256        2443.852          41.000                                                                  
C07  37656838.629   196089044.955        1051.190          40.000    37656824.337   151628430.642         812.695          42.000  
C10  38638695.109   201201832.850         915.219          35.000    38638691.654   155582010.183         707.578          43.000  
> 2025 10 28 07 06 59.3960000  0 21                     
G03  21841757.522   114779209.820       -1579.269          42.000    21841752.491    89438327.341       -1230.691          37.000  
G16  19895519.167   104551663.268        2016.182          46.000                                                                  
G26  18884436.278    99238381.485        -524.820          49.000    18884427.129    77328574.139        -409.099          46.000  
G28  20470073.931   107570966.021       -1747.652          45.000    20470062.844    83821486.333       -1361.971          45.000  
G29  22215630.533                3      -2008.625          20.000    22215622.869                       -1567.318          29.000  
G31  19272630.097   101278358.435        -521.096          47.000    19272617.915    78918152.440        -405.858          45.000  
C06  35197593.155   183283105.474         -81.337          47.000    35197573.547   141726044.968         -62.876          47.000  
C09  36347384.671   189270371.443         -49.537          45.000    36347368.191   146355791.834         -38.278          47.000  
C13  37994997.714   197849919.437       -2440.776          38.000    37994996.194   152990102.402       -1887.377          39.000  
C16  35633084.556   185550822.417         -94.342          48.000    35633071.384   143479613.639         -72.992          47.000  
C23  21696815.810   112981009.489       -1820.298          44.000                                                                  
C32  22070390.996   114926320.416       -2708.121          44.000                                                                  
G32  22072555.399   115992056.421       -3736.931          42.000    22072552.156    90383409.097       -2911.802          38.000  
G27  23223163.250   122038555.274        3660.232          35.000    23223180.390    95095102.145        2851.509          34.000  
G04  21723888.032                        2772.708          27.000    21723879.007    88955654.676        2160.809          31.000  
C37  21218014.018   110487767.084         314.162          50.000                                                                  
C08  38886309.917   202491216.376       -2539.052          33.000    38886308.620   156579038.332       -1963.075          42.000  
C20  22292207.539   116081374.119         493.828          49.000                                                                  
C28  24283040.087   126448183.494        2443.965          41.000                                                                  
C07  37656830.546   196089002.895        1051.428          40.000    37656816.273   151628398.129         812.732          42.000  
C10  38638688.062   201201796.229         915.340          35.000    38638684.614   155581981.857         707.931          43.000  
> 2025 10 28 07 06 59.4360000  0 21                     
G03  21841769.534   114779272.970       -1578.932          42.000    21841764.513    89438376.549       -1230.406          37.000  
G16  19895503.825   104551582.633        2015.952          46.000                                                                  
G26  18884440.289    99238402.478        -524.844          49.000    18884431.114    77328590.493        -408.980          46.000  
G28  20470087.237   107571035.940       -1747.878          45.000    20470076.129    83821540.806       -1361.904          45.000  
G29  22215645.563                3      -2008.625          20.000    22215638.503                       -1567.330          29.000  
G31  19272634.047   101278379.274        -521.065          47.000    19272621.878    78918168.680        -405.958          45.000  
C06  35197593.775   183283108.728         -81.338          47.000    35197574.179   141726047.480         -62.832          47.000  
C09  36347385.063   189270373.424         -49.564          45.000    36347368.591   146355793.365         -38.249          47.000  
C13  37995016.469   197850017.074       -2440.877          38.000    37995014.933   152990177.878       -1887.000          39.000  
C16  35633085.309   185550826.190         -94.323          48.000    35633072.127   143479616.557         -72.990          47.000  
C23  21696829.807   112981082.307       -1820.387          44.000                                                                  
C32  22070411.788   114926428.748       -2708.235          44.000                                                                  
G32  22072583.830   115992205.900       -3736.995          42.000    22072580.591    90383525.582       -2912.047          38.000  
G27  23223135.384   122038408.841        3660.801          35.000    23223152.541    95094988.073        2851.688          34.000  
G04  21723867.296                        2772.746          27.000    21723857.905    88955568.211        2161.256          31.000  
C37  21218011.597   110487754.509         314.278          50.000                                                                  
C08  38886329.396   202491317.903       -2538.602          33.000    38886328.101   156579116.833       -1962.698          42.000  
C20  22292203.721   116081354.365         493.810          49.000                                                                  
C28  24283021.307   126448085.733        2444.015          41.000                                                                  
C07  37656822.466   196088960.858        1051.080          40.000    37656808.194   151628365.611         812.817          42.000  
C10  38638681.017   201201759.575         916.034          35.000    38638677.609   155581953.538         707.957          43.000  
> 2025 10 28 07 06 59.4760000  0 21                     
G03  21841781.574   114779336.125       -1578.847          42.000    21841776.525    89438425.748       -1230.074          37.000  
G16  19895488.475   104551501.994        2015.885          46.000                                                                  
G26  18884444.313    99238423.474        -524.913          49.000    18884435.108    77328606.841        -408.792          46.000  
G28  20470100.548   107571105.842       -1747.691          45.000    20470089.419    83821595.283       -1361.930          45.000  
G29  22215660.388                3      -2008.625          20.000    22215653.857                       -1567.059          29.000  
G31  19272637.977   101278400.104        -520.861          47.000    19272625.843    78918184.913        -405.915          45.000  
C06  35197594.425   183283111.980         -81.318          47.000    35197574.770   141726049.988         -62.738          47.000  
C09  36347385.457   189270375.409         -49.640          45.000    36347368.965   146355794.895         -38.231          47.000  
C13  37995035.221   197850114.685       -2440.427          38.000    37995033.664   152990253.376       -1887.244          39.000  
C16  35633086.048   185550829.959         -94.274          48.000    35633072.872   143479619.466         -72.822          47.000  
C23  21696843.789   112981155.123       -1820.386          44.000                                                                  
C32  22070432.599   114926537.073       -2708.154          44.000                                                                  
G32  22072612.297   115992355.382       -3737.076          42.000    22072609.025    90383642.062       -2912.083          38.000  
G27  23223107.530   122038262.483        3659.637          35.000    23223124.663    95094873.985        2852.000          34.000  
G04  21723845.930                        2773.113          27.000    21723836.799    88955481.785        2160.857          31.000  
C37  21218009.194   110487741.937         314.315          50.000                                                                  
C08  38886348.993   202491419.437       -2538.406          33.000    38886347.594   156579195.342       -1962.653          42.000  
C20  22292199.939   116081334.608         493.878          49.000                                                                  
C28  24283002.521   126447987.985        2443.769          41.000                                                                  
C07  37656814.375   196088918.811        1051.086          40.000    37656800.112   151628333.085         813.037          42.000  
C10  38638673.954   201201722.961         915.659          35.000    38638670.580   155581925.216         708.024          43.000  
> 2025 10 28 07 06 59.5160000  0 21                     
G03  21841793.614   114779399.276       -1578.781          42.000    21841788.535    89438474.960       -1230.219          37.000  
G16  19895473.111   104551421.342        2016.117          46.000                                                                  
G26  18884448.306    99238444.467        -524.893          49.000    18884439.088    77328623.193        -408.769          46.000  
G28  20470113.869   107571175.750       -1747.671          45.000    20470102.746    83821649.757       -1361.905          45.000  
G29  22215674.826                3      -2008.625          20.000    22215669.291                       -1567.065          29.000  
G31  19272641.949   101278420.938        -520.843          47.000    19272629.788    78918201.149        -405.940          45.000  
C06  35197595.094   183283115.221         -81.108          47.000    35197575.406   141726052.506         -62.887          47.000  
C09  36347385.815   189270377.398         -49.713          45.000    36347369.334   146355796.427         -38.297          47.000  
C13  37995053.990   197850212.319       -2440.577          38.000    37995052.382   152990328.856       -1887.125          39.000  
C16  35633086.779   185550833.729         -94.256          48.000    35633073.633   143479622.388         -72.975          47.000  
C23  21696857.761   112981227.954       -1820.649          44.000                                                                  
C32  22070453.370   114926645.404       -2708.241          44.000                                                                  
G32  22072640.718   115992504.866       -3737.144          42.000    22072637.462    90383758.534       -2911.920          38.000  
G27  23223079.658   122038116.089        3659.486          35.000    23223096.780    95094759.911        2851.904          34.000  
G04  21723824.533                        2773.261          27.000    21723815.700    88955395.377        2160.475          31.000  
C37  21218006.767   110487729.366         314.313          50.000                                                                  
C08  38886368.461   202491521.002       -2538.780          33.000    38886367.114   156579273.873       -1963.025          42.000  
C20  22292196.161   116081314.851         493.927          49.000                                                                  
C28  24282983.764   126447890.227        2443.828          41.000                                                                  
C07  37656806.303   196088876.755        1051.337          40.000    37656792.036   151628300.574         812.872          42.000  
C10  38638666.935   201201686.346         915.401          35.000    38638663.558   155581896.894         708.027          43.000  
> 2025 10 28 07 06 59.5560000  0 21                     
G03  21841805.631   114779462.436       -1578.966          42.000    21841800.557    89438524.173       -1230.372          37.000  
G16  19895457.736   104551340.689        2016.275          46.000                                                                  
G26  18884452.279    99238465.450        -524.653          49.000    18884443.084    77328639.552        -408.902          46.000  
G28  20470127.164   107571245.656       -1747.661          45.000    20470116.063    83821704.226       -1361.760          45.000  
G29  22215689.994                3      -2008.625          20.000    22215684.393                       -1567.220          29.000  
G31  19272645.921   101278441.773        -520.856          47.000    19272633.765    78918217.376        -405.767          45.000  
C06  35197595.710   183283118.472         -81.180          47.000    35197576.057   141726055.021         -62.913          47.000  
C09  36347386.189   189270379.371         -49.438          45.000    36347369.693   146355797.965         -38.416          47.000  
C13  37995072.734   197850309.939       -2440.528          38.000    37995071.166   152990404.367       -1887.528          39.000  
C16  35633087.526   185550837.494         -94.146          48.000    35633074.358   143479625.299         -72.870          47.000  
C23  21696871.723   112981300.763       -1820.409          44.000                                                                  
C32  22070474.194   114926753.730       -2708.185          44.000                                                                  
G32  22072669.154   115992654.336       -3736.932          42.000    22072665.904    90383875.010       -2911.876          38.000  
G27  23223051.836   122037969.710        3659.280          35.000    23223068.909    95094645.806        2852.551          34.000  
G04  21723803.343                        2773.365          27.000    21723794.584    88955308.963        2160.342          31.000  
C37  21218004.383   110487716.791         314.358          50.000                                                                  
C08  38886387.909   202491622.525       -2538.207          33.000    38886386.621   156579352.401       -1963.236          42.000  
C20  22292192.389   116081295.087         494.063          49.000                                                                  
C28  24282964.986   126447792.474        2443.812          41.000                                                                  
C07  37656798.224   196088834.690        1051.544          40.000    37656783.926   151628268.041         813.171          42.000  
C10  38638659.886   201201649.739         915.097          35.000    38638656.505   155581868.567         708.164          43.000  
> 2025 10 28 07 06 59.5960000  0 21                     
G03  21841817.656   114779525.604       -1579.185          42.000    21841812.601    89438573.403       -1230.748          37.000  
G16  19895442.407   104551260.043        2016.206          46.000                                                                  
G26  18884456.257    99238486.430        -524.518          49.000    18884447.100    77328655.909        -408.978          46.000  
G28  20470140.472   107571315.561       -1747.638          45.000    20470129.349    83821758.701       -1361.823          45.000  
G29  22215704.838                3      -2008.625          20.000    22215699.689                       -1567.271          29.000  
G31  19272649.908   101278462.609        -520.912          47.000    19272637.725    78918233.617        -405.928          45.000  
C06  35197596.343   183283121.720         -81.198          47.000    35197576.686   141726057.531         -62.853          47.000  
C09  36347386.595   189270381.343         -49.329          45.000    36347370.054   146355799.497         -38.363          47.000  
C13  37995091.470   197850407.571       -2440.724          38.000    37995089.928   152990479.860       -1887.480          39.000  
C16  35633088.264   185550841.264         -94.196          48.000    35633075.048   143479628.219         -72.976          47.000  
C23  21696885.719   112981373.583       -1820.505          44.000                                                                  
C32  22070495.018   114926862.061       -2708.235          44.000                                                                  
G32  22072697.608   115992803.819       -3737.013          42.000    22072694.343    90383991.480       -2911.778          38.000  
G27  23223023.980   122037823.272        3660.261          35.000    23223041.041    95094531.741        2852.025          34.000  
G04  21723782.401                        2772.984          27.000    21723773.455                        2161.210          31.000  
C37  21218002.003   110487704.216         314.368          50.000                                                                  
C08  38886407.442   202491724.047       -2537.927          33.000    38886406.096   156579430.898       -1962.723          42.000  
C20  22292188.565   116081275.333         493.908          49.000                                                                  
C28  24282946.189   126447694.705        2444.048          41.000                                                                  
C07  37656790.171   196088792.627        1051.660          40.000    37656775.838   151628235.524         813.055          42.000  
C10  38638652.869   201201613.111         915.357          35.000    38638649.487   155581840.251         708.003          43.000  
> 2025 10 28 07 06 59.6360000  0 21                     
G03  21841829.685   114779588.782       -1579.438          42.000    21841824.631    89438622.623       -1230.704          37.000  
G16  19895427.075   104551179.400        2016.101          46.000                                                                  
G26  18884460.274    99238507.420        -524.660          49.000    18884451.085    77328672.264        -408.951          46.000  
G28  20470153.788   107571385.471       -1747.726          45.000    20470142.660    83821813.170       -1361.760          45.000  
G29  22215720.738                3      -2008.625          20.000    22215714.872                       -1566.951          29.000  
G31  19272653.863   101278483.445        -520.924          47.000    19272641.693    78918249.858        -406.014          45.000  
C06  35197596.974   183283124.966         -81.185          47.000    35197577.337   141726060.039         -62.747          47.000  
C09  36347386.976   189270383.324         -49.479          45.000    36347370.448   146355801.028         -38.319          47.000  
C13  37995110.215   197850505.200       -2440.804          38.000    37995108.672   152990555.345       -1887.356          39.000  
C16  35633089.005   185550845.036         -94.262          48.000    35633075.775   143479631.130         -72.844          47.000  
C23  21696899.705   112981446.391       -1820.330          44.000                                                                  
C32  22070515.830   114926970.386       -2708.179          44.000                                                                  
G32  22072726.044   115992953.295       -3736.970          42.000    22072722.778    90384107.964       -2911.984          38.000  
G27  23222996.108   122037676.845        3660.747          35.000    23223013.167    95094417.666        2851.851          34.000  
G04  21723761.185                        2773.008          27.000    21723752.358                        2160.784          31.000  
C37  21217999.567   110487691.647         314.277          50.000                                                                  
C08  38886426.955   202491825.605       -2538.537          33.000    38886425.593   156579509.414       -1962.789          42.000  
C20  22292184.775   116081255.582         493.785          49.000                                                                  
C28  24282927.411   126447596.933        2444.270          41.000                                                                  
C07  37656782.092   196088750.566        1051.581          40.000    37656767.753   151628203.009         812.921          42.000  
C10  38638645.835   201201576.440         916.381          35.000    38638642.470   155581811.930         707.995          43.000  
> 2025 10 28 07 06 59.6760000  0 21                     
G03  21841841.710   114779651.926       -1578.886          42.000    21841836.653    89438671.822       -1230.191          37.000  
G16  19895411.743   104551098.756        2016.072          46.000                                                                  
G26  18884464.274    99238528.417        -524.867          49.000    18884455.080    77328688.621        -408.983          46.000  
G28  20470167.098   107571455.376       -1747.698          45.000    20470155.982    83821867.648       -1361.899          45.000  
G29  22215736.671                3      -2008.625          20.000    22215730.392                       -1567.454          29.000  
G31  19272657.808   101278504.276        -520.838          47.000    19272645.661    78918266.089        -405.865          45.000  
C06  35197597.609   183283128.212         -81.158          47.000    35197577.971   141726062.554         -62.843          47.000  
C09  36347387.357   189270385.303         -49.478          45.000    36347370.810   146355802.554         -38.211          47.000  
C13  37995128.935   197850602.838       -2440.992          38.000    37995127.410   152990630.811       -1886.863          39.000  
C16  35633089.731   185550848.809         -94.319          48.000    35633076.519   143479634.032         -72.617          47.000  
C23  21696913.660   112981519.190       -1820.054          44.000                                                                  
C32  22070536.631   114927078.711       -2708.123          44.000                                                                  
G32  22072754.497   115993102.775       -3737.007          42.000    22072751.234    90384224.440       -2911.953          38.000  
G27  23222968.256   122037530.452        3660.225          35.000    23222985.326    95094303.615        2851.431          34.000  
G04  21723740.221                        2772.766          27.000    21723731.239                        2161.009          31.000  
C37  21217997.137   110487679.075         314.272          50.000                                                                  
C08  38886446.504   202491927.157       -2538.766          33.000    38886445.105   156579587.926       -1962.812          42.000  
C20  22292180.997   116081235.826         493.834          49.000                                                                  
C28  24282908.635   126447499.176        2444.058          41.000                                                                  
C07  37656774.006   196088708.520        1051.257          40.000    37656759.709   151628170.493         812.921          42.000  
C10  38638638.791   201201539.827         915.833          35.000    38638635.437   155581783.612         707.944          43.000  
> 2025 10 28 07 06 59.7160000  0 21                     
G03  21841853.731   114779715.081       -1578.802          42.000    21841848.657    89438721.038       -1230.316          37.000  
G16  19895396.388   104551018.109        2016.108          45.000                                                                  
G26  18884468.280    99238549.407        -524.833          49.000    18884459.067    77328704.983        -409.070          46.000  
G28  20470180.390   107571525.286       -1747.755          45.000    20470169.254    83821922.116       -1361.793          45.000  
G29  22215751.693                3      -2008.625          20.000    22215745.745                       -1566.607          29.000  
G31  19272661.734   101278525.098        -520.647          47.000    19272649.621    78918282.313        -405.668          45.000  
C06  35197598.248   183283131.454         -81.082          47.000    35197578.614   141726065.061         -62.764          47.000  
C09  36347387.745   189270387.276         -49.370          45.000    36347371.154   146355804.073         -38.030          47.000  
C13  37995147.687   197850700.435       -2440.331          38.000    37995146.138   152990706.293       -1886.890          39.000  
C16  35633090.486   185550852.565         -94.071          48.000    35633077.184   143479636.945         -72.715          47.000  
C23  21696927.625   112981592.000       -1820.121          44.000                                                                  
C32  22070557.399   114927187.038       -2708.136          44.000                                                                  
G32  22072782.938   115993252.243       -3736.776          42.000    22072779.704    90384340.919       -2911.952          38.000  
G27  23222940.396   122037384.027        3660.553          35.000    23222957.446    95094189.537        2851.647          34.000  
G04  21723718.816                        2772.860          27.000    21723710.131                        2160.413          31.000  
C37  21217994.715   110487666.493         314.445          50.000                                                                  
C08  38886466.017   202492028.693       -2538.563          33.000    38886464.609   156579666.436       -1962.748          42.000  
C20  22292177.215   116081216.064         493.964          49.000                                                                  
C28  24282889.857   126447401.426        2443.835          41.000                                                                  
C07  37656765.952   196088666.472        1051.160          40.000    37656751.616   151628137.968         813.068          42.000  
C10  38638631.769   201201503.179         916.084          35.000    38638628.376   155581755.282         708.107          43.000  
> 2025 10 28 07 06 59.7560000  0 21                     
G03  21841865.753   114779778.232       -1578.749          42.000    21841860.663    89438770.262       -1230.511          37.000  
G16  19895381.036   104550937.464        2016.108          45.000                                                                  
G26  18884472.248    99238570.400        -524.844          49.000    18884463.048    77328721.332        -408.893          46.000  
G28  20470193.694   107571595.186       -1747.597          45.000    20470182.526    83821976.585       -1361.789          45.000  
G29  22215766.352                3      -2008.625          20.000    22215761.136                       -1566.424          29.000  
G31  19272665.713   101278545.930        -520.746          47.000    19272653.585    78918298.544        -405.675          45.000  
C06  35197598.871   183283134.701         -81.150          47.000    35197579.250   141726067.565         -62.668          47.000  
C09  36347388.127   189270389.252         -49.377          45.000    36347371.544   146355805.597         -38.040          47.000  
C13  37995166.440   197850798.044       -2440.210          38.000    37995164.871   152990781.786       -1887.143          39.000  
C16  35633091.227   185550856.324         -93.987          47.000    35633077.873   143479639.854         -72.697          47.000  
C23  21696941.593   112981664.821       -1820.411          44.000                                                                  
C32  22070578.181   114927295.363       -2708.162          44.000                                                                  
G32  22072811.382   115993401.717       -3736.778          42.000    22072808.144    90384457.391       -2911.884          38.000  
G27  23222912.525   122037237.617        3660.322          35.000    23222929.587    95094075.459        2851.771          34.000  
G04  21723697.622                        2772.849          27.000    21723689.035                        2160.694          31.000  
C37  21217992.316   110487653.916         314.455          49.000                                                                  
C08  38886485.506   202492130.204       -2537.990          33.000    38886484.096   156579744.956       -1962.922          42.000  
C20  22292173.435   116081196.301         494.069          49.000                                                                  
C28  24282871.071   126447303.665        2443.910          41.000                                                                  
C07  37656757.882   196088624.410        1051.361          40.000    37656743.533   151628105.443         813.123          42.000  
C10  38638624.749   201201466.587         915.176          35.000    38638621.363   155581726.954         708.184          43.000  
> 2025 10 28 07 06 59.7960000  0 21                     
G03  21841877.767   114779841.398       -1579.009          41.000    21841872.678    89438819.480       -1230.503          37.000  
G16  19895365.689   104550856.817        2016.100          45.000                                                                  
G26  18884476.232    99238591.388        -524.762          49.000    18884467.040    77328737.691        -408.970          46.000  
G28  20470206.997   107571665.089       -1747.576          45.000    20470195.830    83822031.049       -1361.701          45.000  
G29  22215780.912                3      -2008.625          20.000    22215776.282                       -1566.889          29.000  
G31  19272669.692   101278566.770        -520.944          47.000    19272657.573    78918314.782        -405.873          45.000  
C06  35197599.509   183283137.947         -81.163          47.000    35197579.884   141726070.066         -62.552          47.000  
C09  36347388.510   189270391.217         -49.207          45.000    36347371.921   146355807.124         -38.137          47.000  
C13  37995185.217   197850895.665       -2440.397          38.000    37995183.620   152990857.272       -1887.146          39.000  
C16  35633091.970   185550860.089         -94.049          47.000    35633078.592   143479642.766         -72.758          47.000  
C23  21696955.585   112981737.627       -1820.290          44.000                                                                  
C32  22070598.996   114927403.688       -2708.168          44.000                                                                  
G32  22072839.837   115993551.183       -3736.597          42.000    22072836.594    90384573.879       -2912.121          38.000  
G27  23222884.678   122037091.217        3660.062          35.000    23222901.721    95093961.359        2852.206          34.000  
G04  21723676.795                        2772.825          27.000    21723667.921                        2160.647          31.000  
C37  21217989.877   110487641.340         314.421          49.000                                                                  
C08  38886505.015   202492231.722       -2537.855          33.000    38886503.611   156579823.469       -1962.881          42.000  
C20  22292169.640   116081176.549         493.908          48.000                                                                  
C28  24282852.282   126447205.897        2444.156          41.000                                                                  
C07  37656749.805   196088582.328        1051.855          40.000    37656735.458   151628072.919         813.141          42.000  
C10  38638617.714   201201429.951         915.488          35.000    38638614.332   155581698.624         708.267          43.000  
> 2025 10 28 07 06 59.8360000  0 21                     
G03  21841889.809   114779904.573       -1579.366          41.000    21841884.695    89438868.691       -1230.403          37.000  
G16  19895350.350   104550776.182        2015.929          45.000                                                                  
G26  18884480.245    99238612.378        -524.763          49.000    18884471.022    77328754.041        -408.837          46.000  
G28  20470220.296   107571734.994       -1747.596          45.000    20470209.133    83822085.530       -1361.936          45.000  
G29  22215796.730                3      -2008.625          20.000    22215791.497                       -1565.994          29.000  
G31  19272673.649   101278587.611        -521.066          47.000    19272661.537    78918331.016        -405.904          45.000  
C06  35197600.115   183283141.188         -81.078          47.000    35197580.521   141726072.578         -62.701          47.000  
C09  36347388.895   189270393.202         -49.483          45.000    36347372.305   146355808.654         -38.232          47.000  
C13  37995203.965   197850993.287       -2440.526          38.000    37995202.380   152990932.763       -1887.251          39.000  
C16  35633092.695   185550863.861         -94.247          47.000    35633079.295   143479645.679         -72.822          47.000  
C23  21696969.564   112981810.438       -1820.290          44.000                                                                  
C32  22070619.772   114927512.025       -2708.360          44.000                                                                  
G32  22072868.274   115993700.665       -3736.905          42.000    22072865.016    90384690.348       -2911.858          38.000  
G27  23222856.809   122036944.831        3659.746          35.000    23222873.873    95093847.265        2852.301          34.000  
G04  21723655.843                        2773.210          27.000    21723646.784                        2160.802          31.000  
C37  21217987.428   110487628.775         314.204          49.000                                                                  
C08  38886524.530   202492333.270       -2538.254          33.000    38886523.138   156579901.989       -1962.964          42.000  
C20  22292165.824   116081156.802         493.723          48.000                                                                  
C28  24282833.478   126447108.134        2444.138          41.000                                                                  
C07  37656741.710   196088540.278        1051.453          40.000    37656727.392   151628040.393         813.184          42.000  
C10  38638610.677   201201393.329         915.451          35.000    38638607.320   155581670.312         707.948          43.000  
> 2025 10 28 07 06 59.8760000  0 21                     
G03  21841901.835   114779967.734       -1579.171          41.000    21841896.707    89438917.901       -1230.283          37.000  
G16  19895335.020   104550695.545        2015.874          45.000                                                                  
G26  18884484.259    99238633.373        -524.877          49.000    18884475.038    77328770.404        -409.007          46.000  
G28  20470233.586   107571804.906       -1747.774          45.000    20470222.447    83822140.010       -1362.049          45.000  
G29  22215811.447                3      -2008.625          20.000    22215806.814                       -1568.618          29.000  
G31  19272677.633   101278608.452        -521.059          47.000    19272665.513    78918347.267        -406.224          45.000  
C06  35197600.796   183283144.427         -81.016          47.000    35197581.121   141726075.094         -62.874          47.000  
C09  36347389.288   189270395.187         -49.665          45.000    36347372.703   146355810.184         -38.301          47.000  
C13  37995222.715   197851090.935       -2441.093          37.000    37995221.114   152991008.250       -1887.190          39.000  
C16  35633093.416   185550867.624         -94.143          47.000    35633079.998   143479648.592         -72.846          47.000  
C23  21696983.539   112981883.253       -1820.359          44.000                                                                  
C32  22070640.578   114927620.354       -2708.315          44.000                                                                  
G32  22072896.724   115993850.151       -3737.103          42.000    22072893.467    90384806.817       -2911.747          38.000  
G27  23222828.959   122036798.435        3659.718          35.000    23222846.023    95093733.206        2851.749          34.000  
G04  21723634.960                        2773.067          27.000    21723625.686                        2160.756          31.000  
C37  21217985.057   110487616.204         314.194          49.000                                                                  
C08  38886544.039   202492434.791       -2538.127          33.000    38886542.661   156579980.495       -1962.776          42.000  
C20  22292162.032   116081137.054         493.613          48.000                                                                  
C28  24282814.723   126447010.359        2444.308          41.000                                                                  
C07  37656733.625   196088498.231        1051.233          40.000    37656719.280   151628007.881         812.866          42.000  
C10  38638603.642   201201356.703         915.394          35.000    38638600.279   155581641.989         707.992          43.000  
> 2025 10 28 07 06 59.9160000  0 21                     
G03  21841913.849   114780030.889       -1578.970          41.000    21841908.734    89438967.117       -1230.367          37.000  
G16  19895319.659   104550614.902        2015.930          45.000                                                                  
G26  18884488.260    99238654.373        -525.027          49.000    18884479.071    77328786.769        -409.126          46.000  
G28  20470246.891   107571874.822       -1747.900          45.000    20470235.750    83822194.484       -1361.958          45.000  
G29  22215825.782                3      -2008.625          20.000    22215822.509                       -1568.822          29.000  
G31  19272681.576   101278629.285        -520.910          47.000    19272669.460    78918363.507        -406.179          45.000  
C06  35197601.408   183283147.681         -81.250          47.000    35197581.752   141726077.613         -63.004          47.000  
C09  36347389.679   189270397.167         -49.630          45.000    36347373.088   146355811.708         -38.211          47.000  
C13  37995241.467   197851188.572       -2441.087          37.000    37995239.861   152991083.752       -1887.488          39.000  
C16  35633094.161   185550871.390         -94.169          47.000    35633080.711   143479651.507         -72.910          47.000  
C23  21696997.537   112981956.071       -1820.478          44.000                                                                  
C32  22070661.354   114927728.685       -2708.321          44.000                                                                  
G32  22072925.160   115993999.636       -3737.214          42.000    22072921.914    90384923.297       -2911.967          38.000  
G27  23222801.096   122036651.997        3660.569          35.000    23222818.174    95093619.142        2851.537          34.000  
G04  21723613.666                        2772.787          27.000    21723604.613                        2160.756          31.000  
C37  21217982.658   110487603.635         314.171          49.000                                                                  
C08  38886563.503   202492536.324       -2538.181          33.000    38886562.160   156580059.017       -1962.995          42.000  
C20  22292158.248   116081117.307         493.577          48.000                                                                  
C28  24282795.955   126446912.608        2443.897          41.000                                                                  
C07  37656725.532   196088456.176        1051.245          40.000    37656711.185   151627975.365         812.830          42.000  
C10  38638596.635   201201320.075         915.582          35.000    38638593.241   155581613.674         707.879          43.000  
> 2025 10 28 07 06 59.9560000  0 21                     
G03  21841925.865   114780094.056       -1579.085          41.000    21841920.767    89439016.337       -1230.447          37.000  
G16  19895304.300   104550534.258        2016.011          45.000                                                                  
G26  18884492.237    99238675.372        -525.049          49.000    18884483.064    77328803.134        -409.205          46.000  
G28  20470260.168   107571944.730       -1747.809          45.000    20470249.047    83822248.951       -1361.772          45.000  
G29  22215841.606                3      -2008.625          20.000    22215837.638                       -1568.425          29.000  
G31  19272685.550   101278650.117        -520.793          47.000    19272673.427    78918379.735        -405.839          45.000  
C06  35197602.053   183283150.927         -81.244          47.000    35197582.371   141726080.118         -62.805          47.000  
C09  36347390.048   189270399.130         -49.259          45.000    36347373.450   146355813.239         -38.300          47.000  
C13  37995260.202   197851286.167       -2440.309          38.000    37995258.597   152991159.226       -1887.103          39.000  
C16  35633094.852   185550875.149         -94.023          47.000    35633081.446   143479654.421         -72.894          47.000  
C23  21697011.517   112982028.875       -1820.210          44.000                                                                  
C32  22070682.166   114927837.012       -2708.234          44.000                                                                  
G32  22072953.599   115994149.106       -3736.988          42.000    22072950.347    90385039.769       -2911.904          38.000  
G27  23222773.199   122036505.576        3660.643          35.000    23222790.336    95093505.058        2851.750          34.000  
G04  21723592.818                        2773.216          27.000    21723583.513                        2160.325          30.000  
C37  21217980.265   110487591.060         314.302          49.000                                                                  
C08  38886582.984   202492637.878       -2538.600          33.000    38886581.663   156580137.534       -1962.990          42.000  
C20  22292154.471   116081097.551         493.750          48.000                                                                  
C28  24282777.176   126446814.849        2443.864          41.000                                                                  
C07  37656717.442   196088414.120        1051.331          40.000    37656703.121   151627942.841         812.976          42.000  
C10  38638589.591   201201283.427         916.010          35.000    38638586.218   155581585.353         707.886          43.000  
> 2025 10 28 07 06 59.9960000  0 21                     
G03  21841937.900   114780157.210       -1578.960          41.000    21841932.767    89439065.548       -1230.353          37.000  
G16  19895288.970   104550453.612        2016.098          45.000                                                                  
G26  18884496.233    99238696.366        -524.947          49.000    18884487.052    77328819.494        -409.115          46.000  
G28  20470273.454   107572014.633       -1747.656          45.000    20470262.355    83822303.417       -1361.646          45.000  
G29  22215857.690                3      -2008.625          20.000    22215852.685                       -1568.256          29.000  
G31  19272689.511   101278670.945        -520.677          47.000    19272677.384    78918395.965        -405.723          45.000  
C06  35197602.662   183283154.168         -81.121          47.000    35197582.986   141726082.621         -62.664          47.000  
C09  36347390.409   189270401.091         -49.022          45.000    36347373.828   146355814.759         -38.096          47.000  
C13  37995278.946   197851383.786       -2440.270          38.000    37995277.336   152991234.687       -1886.688          39.000  
C16  35633095.571   185550878.916         -94.092          47.000    35633082.150   143479657.332         -72.843          47.000  
C23  21697025.487   112982101.686       -1820.219          44.000                                                                  
C32  22070702.968   114927945.352       -2708.427          44.000                                                                  
G32  22072982.051   115994298.586       -3737.076          42.000    22072978.783    90385156.234       -2911.755          38.000  
G27  23222745.312   122036359.149        3660.862          35.000    23222762.468    95093390.982        2851.870          34.000  
G04  21723571.301                        2773.134          27.000    21723562.404                        2160.568          30.000  
C37  21217977.877   110487578.486         314.339          49.000                                                                  
C08  38886602.482   202492739.396       -2538.116          33.000    38886601.158   156580216.037       -1962.711          42.000  
C20  22292150.686   116081077.797         493.830          48.000                                                                  
C28  24282758.417   126446717.084        2443.950          41.000                                                                  
C07  37656709.357   196088372.055        1051.581          40.000    37656695.037   151627910.319         813.049          42.000  
C10  38638582.531   201201246.792         915.999          35.000    38638579.161   155581557.020         708.143          43.000  
> 2025 10 28 07 07 00.0360000  0 21                     
G03  21841949.935   114780220.367       -1578.988          41.000    21841944.788    89439114.786       -1230.799          37.000  
G16  19895273.614   104550372.972        2015.991          45.000                                                                  
G26  18884500.238    99238717.365        -524.997          49.000    18884491.039    77328835.859        -409.127          46.000  
G28  20470286.760   107572084.541       -1747.682          45.000    20470275.670    83822357.898       -1361.892          45.000  
G29  22215873.115                3      -2008.625          20.000    22215868.060                       -1567.254          29.000  
G31  19272693.509   101278691.789        -520.961          47.000    19272681.358    78918412.203        -405.891          45.000  
C06  35197603.272   183283157.411         -81.118          47.000    35197583.593   141726085.125         -62.588          47.000  
C09  36347390.783   189270403.072         -49.300          45.000    36347374.228   146355816.292         -38.269          47.000  
C13  37995297.701   197851481.419       -2440.663          38.000    37995296.097   152991310.199       -1887.346          39.000  
C16  35633096.250   185550882.689         -94.271          47.000    35633082.848   143479660.238         -72.734          47.000  
C23  21697039.466   112982174.505       -1820.415          44.000                                                                  
C32  22070723.734   114928053.687       -2708.419          44.000                                                                  
G32  22073010.485   115994448.065       -3737.076          42.000    22073007.224    90385272.706       -2911.806          38.000  
G27  23222717.426   122036212.798        3659.611          35.000    23222734.587    95093276.875        2852.396          34.000  
G04  21723550.063                        2772.842          27.000    21723541.323                        2159.814          30.000  
C37  21217975.418   110487565.914         314.285          49.000                                                                  
C08  38886621.975   202492840.948       -2538.490          33.000    38886620.639   156580294.545       -1962.672          42.000  
C20  22292146.880   116081058.047         493.761          48.000                                                                  
C28  24282739.646   126446619.329        2443.862          41.000                                                                  
C07  37656701.283   196088330.001        1051.404          40.000    37656686.941   151627877.804         812.872          42.000  
C10  38638575.477   201201210.196         915.284          35.000    38638572.128   155581528.690         708.229          43.000  
> 2025 10 28 07 07 00.0760000  0 21                     
G03  21841961.957   114780283.550       -1579.446          41.000    21841956.820    89439163.999       -1230.498          37.000  
G16  19895258.294   104550292.342        2015.809          45.000                                                                  
G26  18884504.216    99238738.361        -524.940          49.000    18884495.025    77328852.220        -409.083          46.000  
G28  20470300.070   107572154.453       -1747.768          45.000    20470288.977    83822412.381       -1362.073          45.000  
G29  22215888.002                3      -2008.625          20.000    22215883.529                       -1567.334          29.000  
G31  19272697.496   101278712.631        -521.065          47.000    19272685.323    78918428.446        -406.039          45.000  
C06  35197603.865   183283160.659         -81.163          47.000    35197584.216   141726087.634         -62.659          47.000  
C09  36347391.189   189270405.055         -49.536          45.000    36347374.610   146355817.822         -38.280          47.000  
C13  37995316.455   197851579.052       -2440.793          38.000    37995314.816   152991385.692       -1887.372          39.000  
C16  35633096.977   185550886.452         -94.167          47.000    35633083.570   143479663.154         -72.841          47.000  
C23  21697053.452   112982247.325       -1820.515          44.000                                                                  
C32  22070744.545   114928162.027       -2708.518          44.000                                                                  
G32  22073038.943   115994597.546       -3737.069          42.000    22073035.687    90385389.202       -2912.253          38.000  
G27  23222689.572   122036066.406        3659.661          35.000    23222706.718    95093162.791        2852.361          34.000  
G04  21723529.132                        2772.861          27.000    21723520.166                        2160.718          30.000  
C37  21217972.996   110487553.351         314.099          49.000                                                                  
C08  38886641.497   202492942.467       -2538.132          33.000    38886640.133   156580373.059       -1962.826          42.000  
C20  22292143.066   116081038.302         493.657          48.000                                                                  
C28  24282720.883   126446521.572        2443.853          41.000                                                                  
C07  37656693.183   196088287.938        1051.471          40.000    37656678.853   151627845.290         812.762          42.000  
C10  38638568.438   201201173.591         915.091          35.000    38638565.073   155581500.374         708.015          43.000  
> 2025 10 28 07 07 00.1160000  0 21                     
G03  21841974.003   114780346.726       -1579.496          41.000    21841968.832    89439213.239       -1230.961          37.000  
G16  19895242.942   104550211.704        2015.837          45.000                                                                  
G26  18884508.194    99238759.362        -525.010          49.000    18884499.028    77328868.582        -409.071          46.000  
G28  20470313.362   107572224.367       -1747.872          45.000    20470302.306    83822466.855       -1361.961          45.000  
G29  22215902.622                3      -2008.625          20.000    22215898.826                       -1567.500          30.000  
G31  19272701.466   101278733.469        -521.028          47.000    19272689.307    78918444.696        -406.210          45.000  
C06  35197604.492   183283163.911         -81.289          47.000    35197584.832   141726090.151         -62.844          47.000  
C09  36347391.544   189270407.041         -49.703          45.000    36347374.965   146355819.348         -38.221          47.000  
C13  37995335.207   197851676.687       -2440.867          38.000    37995333.555   152991461.201       -1887.643          39.000  
C16  35633097.701   185550890.219         -94.173          47.000    35633084.271   143479666.064         -72.805          47.000  
C23  21697067.435   112982320.136       -1820.406          44.000                                                                  
C32  22070765.338   114928270.352       -2708.250          44.000                                                                  
G32  22073067.416   115994747.031       -3737.137          42.000    22073064.126    90385505.690       -2912.350          38.000  
G27  23222661.724   122035919.994        3660.010          35.000    23222678.847    95093048.724        2851.934          34.000  
G04  21723508.303                        2772.937          27.000    21723499.070                        2161.048          30.000  
C37  21217970.609   110487540.779         314.187          49.000                                                                  
C08  38886660.997   202493044.022       -2538.651          33.000    38886659.634   156580451.573       -1962.875          42.000  
C20  22292139.293   116081018.556         493.608          48.000                                                                  
C28  24282702.109   126446423.805        2444.093          41.000                                                                  
C07  37656685.093   196088245.889        1051.233          40.000    37656670.768   151627812.759         813.141          42.000  
C10  38638561.378   201201136.953         915.564          35.000    38638558.042   155581472.060         707.819          43.000  
> 2025 10 28 07 07 00.1560000  0 21                     
G03  21841986.027   114780409.921       -1579.850          41.000    21841980.856    89439262.471       -1230.903          37.000  
G16  19895227.590   104550131.068        2015.838          45.000                                                                  
G26  18884512.226    99238780.365        -525.090          49.000    18884503.038    77328884.942        -409.040          46.000  
G28  20470326.689   107572294.284       -1747.972          45.000    20470315.618    83822521.334       -1362.007          45.000  
G29  22215918.242                3      -2008.625          20.000    22215914.228                       -1566.859          29.000  
G31  19272705.453   101278754.317        -521.188          47.000    19272693.276    78918460.929        -406.006          45.000  
C06  35197605.110   183283167.149         -81.101          47.000    35197585.440   141726092.662         -62.875          47.000  
C09  36347391.927   189270409.015         -49.547          45.000    36347375.349   146355820.877         -38.254          47.000  
C13  37995353.937   197851774.297       -2440.419          38.000    37995352.287   152991536.688       -1887.411          39.000  
C16  35633098.431   185550893.984         -94.168          47.000    35633084.976   143479668.981         -72.898          47.000  
C23  21697081.449   112982392.951       -1820.399          44.000                                                                  
C32  22070786.155   114928378.683       -2708.238          44.000                                                                  
G32  22073095.839   115994896.514       -3737.155          42.000    22073092.546    90385622.166       -2912.079          38.000  
G27  23222633.871   122035773.579        3660.291          35.000    23222650.991    95092934.669        2851.401          34.000  
G04  21723487.108                        2773.011          27.000    21723477.951                        2160.704          30.000  
C37  21217968.215   110487528.213         314.122          50.000                                                                  
C08  38886680.488   202493145.560       -2538.530          33.000    38886679.138   156580530.082       -1962.780          42.000  
C20  22292135.507   116080998.815         493.510          48.000                                                                  
C28  24282683.321   126446326.050        2443.954          41.000                                                                  
C07  37656677.035   196088203.835        1051.251          40.000    37656662.663   151627780.240         813.061          42.000  
C10  38638554.322   201201100.315         915.867          35.000    38638550.994   155581443.748         707.716          43.000  
> 2025 10 28 07 07 00.1960000  0 21                     
G03  21841998.053   114780473.099       -1579.656          42.000    21841992.885    89439311.692       -1230.727          37.000  
G16  19895212.266   104550050.441        2015.682          45.000                                                                  
G26  18884516.204    99238801.368        -525.127          49.000    18884507.031    77328901.312        -409.217          46.000  
G28  20470339.972   107572364.193       -1747.857          45.000    20470328.924    83822575.821       -1362.155          45.000  
G29  22215933.917                3      -2008.625          20.000    22215929.503                       -1566.904          29.000  
G31  19272709.419   101278775.171        -521.372          47.000    19272697.232    78918477.170        -406.056          45.000  
C06  35197605.710   183283170.403         -81.260          47.000    35197586.037   141726095.171         -62.798          47.000  
C09  36347392.281   189270410.988         -49.412          45.000    36347375.714   146355822.407         -38.259          47.000  
C13  37995372.673   197851871.923       -2440.521          38.000    37995371.033   152991612.172       -1887.147          39.000  
C16  35633099.119   185550897.754         -94.261          47.000    35633085.687   143479671.891         -72.845          47.000  
C23  21697095.428   112982465.774       -1820.551          44.000                                                                  
C32  22070806.960   114928487.030       -2708.537          44.000                                                                  
G32  22073124.301   115995046.009       -3737.347          42.000    22073120.991    90385738.656       -2912.191          38.000  
G27  23222606.003   122035627.162        3660.499          35.000    23222623.145    95092820.573        2851.958          34.000  
G04  21723465.568                        2772.794          27.000    21723456.876                        2160.498          30.000  
C37  21217965.812   110487515.646         314.124          50.000                                                                  
C08  38886699.989   202493247.106       -2538.736          33.000    38886698.658   156580608.607       -1963.033          42.000  
C20  22292131.712   116080979.076         493.437          48.000                                                                  
C28  24282664.539   126446228.286        2444.038          41.000                                                                  
C07  37656668.966   196088161.790        1051.093          40.000    37656654.604   151627747.733         812.750          42.000  
C10  38638547.284   201201063.689         915.812          35.000    38638543.957   155581415.427         707.854          43.000  
> 2025 10 28 07 07 00.2360000  0 21                     
G03  21842010.075   114780536.252       -1579.083          42.000    21842004.905    89439360.903       -1230.433          37.000  
G16  19895196.920   104549969.805        2015.762          45.000                                                                  
G26  18884520.211    99238822.370        -525.086          49.000    18884511.064    77328917.684        -409.341          46.000  
G28  20470353.280   107572434.109       -1747.881          45.000    20470342.206    83822630.299       -1362.053          45.000  
G31  19272713.361   101278796.010        -521.155          47.000    19272701.171    78918493.410        -406.043          45.000  
C06  35197606.318   183283173.654         -81.324          47.000    35197586.660   141726097.678         -62.738          47.000  
C09  36347392.690   189270412.957         -49.248          45.000    36347376.112   146355823.942         -38.354          47.000  
C13  37995391.417   197851969.535       -2440.397          38.000    37995389.799   152991687.669       -1887.285          39.000  
C16  35633099.821   185550901.526         -94.322          47.000    35633086.401   143479674.801         -72.811          47.000  
C23  21697109.398   112982538.588       -1820.488          44.000                                                                  
C32  22070827.781   114928595.368       -2708.562          44.000                                                                  
G32  22073152.775   115995195.486       -3737.090          42.000    22073149.428    90385855.127       -2911.936          38.000  
G27  23222578.145   122035480.765        3660.182          35.000    23222595.304    95092706.495        2852.018          34.000  
G04  21723444.323                        2772.993          27.000    21723435.773                        2160.434          30.000  
C37  21217963.404   110487503.075         314.222          50.000                                                                  
C08  38886719.482   202493348.665       -2539.049          33.000    38886718.158   156580687.114       -1962.857          42.000  
C20  22292127.893   116080959.340         493.363          48.000                                                                  
C28  24282645.762   126446130.531        2443.934          40.000                                                                  
C07  37656660.899   196088119.748        1050.958          40.000    37656646.529   151627715.211         812.921          42.000  
C10  38638540.243   201201027.071         915.515          35.000    38638536.913   155581387.101         708.004          43.000  
G29                                                                  22215945.011                       -1567.115          29.000  
> 2025 10 28 07 07 00.2760000  0 21                     
G03  21842022.111   114780599.412       -1578.944          42.000    21842016.923    89439410.129       -1230.581          37.000  
G16  19895181.576   104549889.167        2015.857          45.000                                                                  
G26  18884524.195    99238843.370        -525.017          49.000    18884515.054    77328934.044        -409.155          46.000  
G28  20470366.586   107572504.020       -1747.835          45.000    20470355.497    83822684.767       -1361.824          45.000  
G31  19272717.331   101278816.846        -520.958          47.000    19272705.146    78918509.651        -406.068          45.000  
C06  35197606.939   183283176.903         -81.301          47.000    35197587.269   141726100.192         -62.825          47.000  
C09  36347393.063   189270414.934         -49.334          45.000    36347376.476   146355825.477         -38.396          47.000  
C13  37995410.199   197852067.154       -2440.463          38.000    37995408.534   152991763.149       -1887.111          39.000  
C16  35633100.541   185550905.288         -94.162          47.000    35633087.083   143479677.710         -72.746          47.000  
C23  21697123.369   112982611.411       -1820.599          44.000                                                                  
C32  22070848.588   114928703.706       -2708.530          44.000                                                                  
G32  22073181.208   115995344.962       -3736.916          42.000    22073177.858    90385971.598       -2911.776          38.000  
G27  23222550.292   122035334.329        3660.598          35.000    23222567.467    95092592.446        2851.458          34.000  
G04  21723423.038                        2772.832          27.000    21723414.679                        2160.284          30.000  
C37  21217960.994   110487490.506         314.200          50.000                                                                  
C08  38886738.966   202493450.179       -2538.429          33.000    38886737.665   156580765.627       -1962.850          42.000  
C20  22292124.105   116080939.595         493.493          48.000                                                                  
C28  24282626.970   126446032.769        2444.000          40.000                                                                  
C07  37656652.814   196088077.681        1051.404          40.000    37656638.467   151627682.684         813.086          42.000  
C10  38638533.199   201200990.465         915.042          35.000    38638529.874   155581358.776         708.098          43.000  
G29                                                                  22215960.160                       -1568.470          29.000  
> 2025 10 28 07 07 00.3160000  0 21                     
G03  21842034.120   114780662.575       -1578.962          42.000    21842028.956    89439459.365       -1230.858          37.000  
G16  19895166.234   104549808.527        2015.976          45.000                                                                  
G26  18884528.202    99238864.372        -525.050          49.000    18884519.065    77328950.402        -409.018          46.000  
G28  20470379.869   107572573.927       -1747.746          45.000    20470368.794    83822739.237       -1361.740          45.000  
G31  19272721.277   101278837.675        -520.718          47.000    19272709.127    78918525.887        -406.000          45.000  
C06  35197607.556   183283180.143         -81.144          47.000    35197587.873   141726102.702         -62.792          47.000  
C09  36347393.456   189270416.904         -49.279          45.000    36347376.848   146355827.000         -38.193          47.000  
C13  37995428.954   197852164.785       -2440.697          38.000    37995427.264   152991838.636       -1887.094          39.000  
C16  35633101.267   185550909.045         -93.990          47.000    35633087.838   143479680.623         -72.788          47.000  
C23  21697137.334   112982684.217       -1820.309          44.000                                                                  
C32  22070869.400   114928812.041       -2708.429          44.000                                                                  
G32  22073209.672   115995494.443       -3736.943          42.000    22073206.303    90386088.065       -2911.647          38.000  
G27  23222522.446   122035187.908        3660.750          35.000    23222539.601    95092478.354        2851.927          34.000  
G04  21723401.811                        2772.577          27.000    21723393.557                        2160.328          30.000  
C37  21217958.540   110487477.936         314.240          50.000                                                                  
C08  38886758.474   202493551.730       -2538.666          33.000    38886757.159   156580844.133       -1962.708          42.000  
C20  22292120.329   116080919.849         493.616          48.000                                                                  
C28  24282608.216   126445935.013        2443.929          40.000                                                                  
C07  37656644.731   196088035.611        1051.740          40.000    37656630.372   151627650.163         813.049          42.000  
C10  38638526.156   201200953.801         915.931          35.000    38638522.848   155581330.452         708.142          43.000  
G29                                                                  22215975.574                       -1567.977          29.000  
> 2025 10 28 07 07 00.3560000  0 21                     
G03  21842046.187   114780725.756       -1579.335          42.000    21842040.975    89439508.595       -1230.899          37.000  
G16  19895150.899   104549727.895        2015.900          45.000                                                                  
G26  18884532.221    99238885.369        -524.963          49.000    18884523.069    77328966.757        -408.869          46.000  
G28  20470393.163   107572643.827       -1747.559          45.000    20470382.121    83822793.707       -1361.732          45.000  
G31  19272725.247   101278858.504        -520.671          47.000    19272713.101    78918542.123        -405.914          45.000  
C06  35197608.147   183283183.372         -80.851          47.000    35197588.498   141726105.211         -62.756          47.000  
C09  36347393.836   189270418.877         -49.298          45.000    36347377.229   146355828.515         -37.941          47.000  
C13  37995447.723   197852262.413       -2440.836          38.000    37995446.037   152991914.124       -1887.137          39.000  
C16  35633101.975   185550912.795         -93.814          47.000    35633088.622   143479683.525         -72.603          47.000  
C23  21697151.304   112982757.019       -1820.059          44.000                                                                  
C32  22070890.193   114928920.374       -2708.361          44.000                                                                  
G32  22073238.115   115995643.926       -3736.999          42.000    22073234.744    90386204.556       -2912.098          38.000  
G27  23222494.578   122035041.536        3659.873          35.000    23222511.726    95092364.225        2852.866          34.000  
G04  21723380.774   114157138.2451       2772.616          27.000    21723372.437                        2160.188          30.000  
C37  21217956.148   110487465.359         314.386          50.000                                                                  
C08  38886778.007   202493653.248       -2538.280          33.000    38886776.662   156580922.644       -1962.725          42.000  
C20  22292116.554   116080900.102         493.677          48.000                                                                  
C28  24282589.439   126445837.236        2444.309          40.000                                                                  
C07  37656636.649   196087993.533        1051.984          40.000    37656622.293   151627617.636         813.141          42.000  
C10  38638519.124   201200917.168         915.860          35.000    38638515.822   155581302.125         708.190          43.000  
G29                                                                  22215990.611                       -1566.633          29.000  
> 2025 10 28 07 07 00.3960000  0 21                     
G03  21842058.216   114780788.934       -1579.496          42.000    21842052.997    89439557.802       -1230.457          37.000  
G16  19895135.531   104549647.251        2016.016          45.000                                                                  
G26  18884536.197    99238906.357        -524.769          49.000    18884527.070    77328983.115        -408.897          46.000  
G28  20470406.497   107572713.741       -1747.735          45.000    20470395.412    83822848.180       -1361.802          45.000  
G31  19272729.223   101278879.346        -520.918          47.000    19272717.059    78918558.358        -405.877          45.000  
C06  35197608.744   183283186.610         -80.848          47.000    35197589.113   141726107.710         -62.576          47.000  
C09  36347394.211   189270420.846         -49.255          45.000    36347377.645   146355830.041         -38.055          47.000  
C13  37995466.487   197852360.028       -2440.642          38.000    37995464.757   152991989.608       -1887.115          39.000  
C16  35633102.682   185550916.553         -93.855          47.000    35633089.360   143479686.441         -72.792          47.000  
C23  21697165.263   112982829.825       -1820.045          44.000                                                                  
C32  22070910.987   114929028.702       -2708.244          44.000                                                                  
G32  22073266.552   115995793.404       -3736.969          42.000    22073263.199    90386321.037       -2912.159          38.000  
G27  23222466.700   122034895.103        3660.418          35.000    23222483.857    95092250.125        2852.919          34.000  
G04  21723359.603   114157027.323        2772.797          27.000    21723351.365                        2160.374          30.000  
C37  21217953.722   110487452.784         314.408          50.000                                                                  
C08  38886797.507   202493754.744       -2537.694          33.000    38886796.184   156581001.151       -1962.687          42.000  
C20  22292112.764   116080880.350         493.782          48.000                                                                  
C28  24282570.673   126445739.471        2444.250          41.000                                                                  
C07  37656628.578   196087951.470        1051.721          40.000    37656614.216   151627585.114         813.068          42.000  
C10  38638512.089   201200880.533         915.897          35.000    38638508.797   155581273.787         708.403          43.000  
G29                                                                  22216005.707                       -1567.556          29.000  
> 2025 10 28 07 07 00.4360000  0 21                     
G03  21842070.199   114780852.107       -1579.436          42.000    21842065.010    89439607.040       -1230.781          37.000  
G16  19895120.215   104549566.614        2015.965          45.000                                                                  
G26  18884540.202    99238927.356        -524.885          49.000    18884531.086    77328999.488        -409.206          46.000  
G28  20470419.827   107572783.652       -1747.813          45.000    20470408.720    83822902.662       -1361.990          45.000  
G31  19272733.201   101278900.193        -521.158          47.000    19272721.012    78918574.598        -405.939          45.000  
C06  35197609.343   183283189.853         -80.999          47.000    35197589.728   141726110.213         -62.550          47.000  
C09  36347394.596   189270422.822         -49.357          45.000    36347378.014   146355831.560         -37.999          47.000  
C13  37995485.233   197852457.645       -2440.461          38.000    37995483.491   152992065.097       -1887.227          39.000  
C16  35633103.367   185550920.320         -94.089          47.000    35633090.077   143479689.349         -72.752          47.000  
C23  21697179.252   112982902.642       -1820.319          44.000                                                                  
C32  22070931.796   114929137.033       -2708.226          44.000                                                                  
G32  22073294.979   115995942.875       -3736.877          42.000    22073291.665    90386437.508       -2912.021          38.000  
G27  23222438.842   122034748.671        3660.673          35.000    23222455.979    95092136.076        2851.808          34.000  
G04  21723338.439   114156916.427        2772.610          27.000    21723330.221                        2161.322          30.000  
C37  21217951.296   110487440.211         314.342          50.000                                                                  
C08  38886817.038   202493856.306       -2538.602          33.000    38886815.678   156581079.663       -1962.740          42.000  
C20  22292108.940   116080860.606         493.676          48.000                                                                  
C28  24282551.877   126445641.697        2444.349          41.000                                                                  
C07  37656620.496   196087909.433        1051.129          40.000    37656606.125   151627552.599         812.878          42.000  
C10  38638505.031   201200843.915         915.624          35.000    38638501.779   155581245.476         708.038          43.000  
G29                                                                  22216021.170                       -1566.348          29.000  
> 2025 10 28 07 07 00.4760000  0 21                     
G03  21842082.225   114780915.270       -1579.203          42.000    21842077.029    89439656.267       -1230.773          37.000  
G16  19895104.885   104549485.991        2015.648          45.000                                                                  
G26  18884544.216    99238948.359        -525.036          49.000    18884535.094    77329015.853        -409.223          46.000  
G28  20470433.119   107572853.564       -1747.843          45.000    20470422.020    83822957.139       -1361.973          45.000  
G31  19272737.175   101278921.041        -521.268          47.000    19272724.979    78918590.833        -405.915          45.000  
C06  35197609.959   183283193.097         -81.085          47.000    35197590.347   141726112.720         -62.667          47.000  
C09  36347394.954   189270424.800         -49.452          45.000    36347378.369   146355833.078         -37.956          47.000  
C13  37995503.966   197852555.264       -2440.435          38.000    37995502.226   152992140.584       -1887.221          39.000  
C16  35633104.078   185550924.083         -94.136          47.000    35633090.805   143479692.254         -72.687          47.000  
C23  21697193.243   112982975.453       -1820.349          44.000                                                                  
C32  22070952.569   114929245.372       -2708.402          44.000                                                                  
G32  22073323.417   115996092.354       -3736.984          42.000    22073320.083    90386553.992       -2912.107          38.000  
G27  23222410.978   122034602.282        3660.005          35.000    23222428.140    95092022.033        2851.176          34.000  
G04  21723317.377                        2772.575          27.000    21723309.101                        2160.779          30.000  
C37  21217948.908   110487427.640         314.291          50.000                                                                  
C08  38886836.573   202493957.830       -2538.287          33.000    38886835.185   156581158.173       -1962.787          42.000  
C20  22292105.141   116080840.868         493.498          48.000                                                                  
C28  24282533.091   126445543.938        2444.101          40.000                                                                  
C07  37656612.434   196087867.384        1051.099          40.000    37656598.058   151627520.067         813.135          42.000  
C10  38638497.980   201200807.317         915.022          35.000    38638494.753   155581217.165         707.772          43.000  
G29                                                                  22216036.660                       -1566.759          29.000  
> 2025 10 28 07 07 00.5160000  0 21                     
G03  21842094.226   114780978.445       -1579.376          42.000    21842089.050    89439705.477       -1230.419          37.000  
G16  19895089.557   104549405.362        2015.578          45.000                                                                  
G26  18884548.230    99238969.374        -525.336          49.000    18884539.093    77329032.223        -409.303          46.000  
G28  20470446.425   107572923.478       -1747.914          45.000    20470435.319    83823011.619       -1362.042          45.000  
G31  19272741.133   101278941.885        -521.218          47.000    19272728.931    78918607.073        -405.964          45.000  
C06  35197610.578   183283196.342         -81.168          47.000    35197590.974   141726115.230         -62.750          47.000  
C09  36347395.325   189270426.764         -49.266          45.000    36347378.739   146355834.607         -38.174          47.000  
C13  37995522.700   197852652.891       -2440.572          38.000    37995520.955   152992216.065       -1887.092          39.000  
C16  35633104.810   185550927.850         -94.223          47.000    35633091.525   143479695.154         -72.573          47.000  
C23  21697207.237   112983048.271       -1820.499          44.000                                                                  
C32  22070973.348   114929353.715       -2708.581          44.000                                                                  
G32  22073351.865   115996241.834       -3737.033          42.000    22073348.533    90386670.464       -2911.888          38.000  
G27  23222383.107   122034455.860        3660.235          35.000    23222400.259    95091907.951        2851.593          34.000  
G04  21723296.088                        2772.717          27.000    21723288.009                        2160.330          30.000  
C37  21217946.472   110487415.076         314.144          50.000                                                                  
C08  38886856.057   202494059.341       -2537.837          33.000    38886854.680   156581236.677       -1962.704          42.000  
C20  22292101.366   116080821.133         493.350          48.000                                                                  
C28  24282514.321   126445446.164        2444.244          41.000                                                                  
C07  37656604.369   196087825.322        1051.331          40.000    37656589.965   151627487.540         813.177          42.000  
C10  38638490.945   201200770.690         915.345          35.000    38638487.720   155581188.838         707.986          43.000  
G29                                                                  22216052.033                       -1567.683          29.000  
> 2025 10 28 07 07 00.5560000  0 21                     
G03  21842106.247   114781041.629       -1579.620          42.000    21842101.061    89439754.692       -1230.374          37.000  
G16  19895074.218   104549324.729        2015.680          45.000                                                                  
G26  18884552.212    99238990.385        -525.375          49.000    18884543.090    77329048.593        -409.320          46.000  
G28  20470459.735   107572993.387       -1747.819          45.000    20470448.635    83823066.089       -1361.917          45.000  
G31  19272745.098   101278962.717        -520.934          47.000    19272732.894    78918623.311        -405.964          45.000  
C06  35197611.204   183283199.579         -81.052          47.000    35197591.614   141726117.735         -62.695          47.000  
C09  36347395.697   189270428.740         -49.331          45.000    36347379.148   146355836.138         -38.291          47.000  
C13  37995541.456   197852750.517       -2440.642          38.000    37995539.691   152992291.555       -1887.131          39.000  
C16  35633105.556   185550931.610         -94.058          47.000    35633092.240   143479698.061         -72.641          47.000  
C23  21697221.211   112983121.088       -1820.527          44.000                                                                  
C32  22070994.124   114929462.055       -2708.573          44.000                                                                  
G32  22073380.328   115996391.325       -3737.262          42.000    22073376.989    90386786.938       -2911.852          38.000  
G27  23222355.260   122034309.484        3659.745          35.000    23222372.374    95091793.840        2852.311          34.000  
G04  21723274.645                        2772.798          27.000    21723266.906                        2160.820          30.000  
C37  21217944.069   110487402.509         314.115          50.000                                                                  
C08  38886875.580   202494160.881       -2538.190          33.000    38886874.170   156581315.190       -1962.835          42.000  
C20  22292097.581   116080801.393         493.401          48.000                                                                  
C28  24282495.543   126445348.404        2444.085          41.000                                                                  
C07  37656596.296   196087783.254        1051.636          40.000    37656581.864   151627455.026         812.952          42.000  
C10  38638483.903   201200734.032         916.104          35.000    38638480.659   155581160.511         708.117          43.000  
G29                                                                  22216067.306                       -1567.848          29.000  
> 2025 10 28 07 07 00.5960000  0 21                     
G03  21842118.265   114781104.811       -1579.712          42.000    21842113.094    89439803.932       -1230.796          37.000  
G16  19895058.877   104549244.089        2015.868          45.000                                                                  
G26  18884556.204    99239011.382        -525.103          49.000    18884547.075    77329064.952        -409.104          46.000  
G28  20470473.031   107573063.293       -1747.715          45.000    20470461.921    83823120.563       -1361.913          45.000  
G31  19272749.047   101278983.552        -520.867          47.000    19272736.860    78918639.551        -406.044          45.000  
C06  35197611.842   183283202.817         -80.992          47.000    35197592.270   141726120.236         -62.625          47.000  
C09  36347396.068   189270430.708         -49.254          45.000    36347379.522   146355837.656         -38.111          47.000  
C13  37995560.215   197852848.116       -2440.201          38.000    37995558.413   152992367.034       -1887.094          39.000  
C16  35633106.310   185550935.370         -93.988          47.000    35633092.984   143479700.981         -72.917          47.000  
C23  21697235.187   112983193.904       -1820.506          44.000                                                                  
C32  22071014.927   114929570.386       -2708.404          44.000                                                                  
G32  22073408.755   115996540.811       -3737.222          42.000    22073405.410    90386903.408       -2911.760          38.000  
G27  23222327.365   122034163.054        3660.241          35.000    23222344.515    95091679.741        2852.495          34.000  
G04  21723253.625                        2773.157          27.000    21723245.815                        2160.013          30.000  
C37  21217941.675   110487389.936         314.226          50.000                                                                  
C08  38886895.065   202494262.433       -2538.707          33.000    38886893.671   156581393.690       -1962.659          42.000  
C20  22292093.807   116080781.653         493.438          48.000                                                                  
C28  24282476.772   126445250.636        2444.144          41.000                                                                  
C07  37656588.199   196087741.192        1051.660          40.000    37656573.768   151627422.504         812.982          42.000  
C10  38638476.857   201200697.380         916.367          35.000    38638473.616   155581132.185         708.131          43.000  
G29                                                                  22216082.857                       -1567.851          29.000  
> 2025 10 28 07 07 00.6360000  0 21                     
G03  21842130.288   114781167.977       -1579.349          42.000    21842125.114    89439853.167       -1230.944          37.000  
G16  19895043.525   104549163.450        2015.950          45.000                                                                  
G26  18884560.194    99239032.372        -524.852          49.000    18884551.087    77329081.316        -409.094          46.000  
G28  20470486.312   107573133.200       -1747.692          45.000    20470475.246    83823175.036       -1361.866          45.000  
G31  19272753.014   101279004.390        -520.923          47.000    19272740.833    78918655.800        -406.254          45.000  
C06  35197612.453   183283206.060         -81.069          47.000    35197592.890   141726122.746         -62.723          47.000  
C09  36347396.417   189270432.668         -49.079          45.000    36347379.891   146355839.173         -37.971          47.000  
C13  37995578.957   197852945.738       -2440.409          38.000    37995577.180   152992442.512       -1887.017          39.000  
C16  35633107.053   185550939.124         -93.875          47.000    35633093.729   143479703.881         -72.707          47.000  
C23  21697249.151   112983266.706       -1820.217          44.000                                                                  
C32  22071035.742   114929678.717       -2708.305          44.000                                                                  
G32  22073437.195   115996690.284       -3736.934          42.000    22073433.849    90387019.900       -2912.222          38.000  
G27  23222299.494   122034016.640        3660.299          35.000    23222316.645    95091565.681        2851.855          34.000  
G04  21723232.243                        2773.491          27.000    21723224.685                        2161.450          30.000  
C37  21217939.252   110487377.361         314.320          50.000                                                                  
C08  38886914.529   202494363.962       -2538.542          33.000    38886913.195   156581472.205       -1962.829          42.000  
C20  22292090.022   116080761.910         493.512          48.000                                                                  
C28  24282457.989   126445152.867        2444.176          41.000                                                                  
C07  37656580.142   196087699.119        1051.825          40.000    37656565.706   151627389.970         813.281          42.000  
C10  38638469.840   201200660.750         916.097          35.000    38638466.572   155581103.847         708.336          43.000  
G29                                                                  22216098.273                       -1566.401          29.000  
> 2025 10 28 07 07 00.6760000  0 21                     
G03  21842142.309   114781231.145       -1579.174          42.000    21842137.132    89439902.394       -1230.814          37.000  
G16  19895028.186   104549082.819        2015.860          45.000                                                                  
G26  18884564.176    99239053.368        -524.831          49.000    18884555.099    77329097.690        -409.296          46.000  
G28  20470499.628   107573203.109       -1747.694          45.000    20470488.558    83823229.524       -1362.117          45.000  
G31  19272756.980   101279025.234        -521.053          47.000    19272744.787    78918672.037        -406.105          45.000  
C06  35197613.074   183283209.299         -81.021          47.000    35197593.515   141726125.247         -62.623          47.000  
C09  36347396.806   189270434.631         -49.057          45.000    36347380.244   146355840.697         -38.038          47.000  
C13  37995597.722   197853043.342       -2440.183          38.000    37995595.915   152992518.008       -1887.322          39.000  
C16  35633107.757   185550942.886         -93.964          48.000    35633094.465   143479706.787         -72.668          47.000  
C23  21697263.127   112983339.512       -1820.111          44.000                                                                  
C32  22071056.532   114929787.052       -2708.344          44.000                                                                  
G32  22073465.649   115996839.764       -3736.924          42.000    22073462.300    90387136.382       -2912.188          38.000  
G27  23222271.654   122033870.232        3660.253          35.000    23222288.762    95091451.596        2851.893          34.000  
G04  21723211.424                        2773.364          27.000    21723203.563                        2160.873          30.000  
C37  21217936.816   110487364.784         314.389          50.000                                                                  
C08  38886934.045   202494465.473       -2538.030          33.000    38886932.725   156581550.717       -1962.879          42.000  
C20  22292086.252   116080742.162         493.666          48.000                                                                  
C28  24282439.222   126445055.097        2444.273          41.000                                                                  
C07  37656572.076   196087657.066        1051.483          40.000    37656557.619   151627357.447         813.123          42.000  
C10  38638462.824   201200624.116         915.881          35.000    38638459.530   155581075.528         708.122          43.000  
G29                                                                  22216113.538                       -1566.522          30.000  
> 2025 10 28 07 07 00.7160000  0 21                     
G03  21842154.332   114781294.315       -1579.209          42.000    21842149.152    89439951.623       -1230.781          37.000  
G16  19895012.820   104549002.190        2015.732          45.000                                                                  
G26  18884568.174    99239074.376        -525.091          49.000    18884559.099    77329114.052        -409.194          46.000  
G28  20470512.944   107573273.017       -1747.716          45.000    20470501.823    83823283.997       -1361.994          45.000  
G31  19272760.944   101279046.081        -521.200          47.000    19272748.745    78918688.278        -406.080          45.000  
C06  35197613.715   183283212.537         -80.981          47.000    35197594.141   141726127.751         -62.611          47.000  
C09  36347397.170   189270436.605         -49.288          45.000    36347380.640   146355842.215         -37.982          47.000  
C13  37995616.487   197853140.966       -2440.479          38.000    37995614.646   152992593.495       -1887.304          39.000  
C16  35633108.499   185550946.638         -93.863          48.000    35633095.192   143479709.691         -72.625          47.000  
C23  21697277.114   112983412.323       -1820.164          44.000                                                                  
C32  22071077.311   114929895.395       -2708.525          44.000                                                                  
G32  22073494.097   115996989.256       -3737.167          42.000    22073490.752    90387252.867       -2912.174          38.000  
G27  23222243.773   122033723.815        3660.427          35.000    23222260.887    95091337.518        2851.927          34.000  
G04  21723190.200                        2773.350          27.000    21723182.441                        2160.797          30.000  
C37  21217934.391   110487352.212         314.335          50.000                                                                  
C08  38886953.550   202494566.993       -2538.005          33.000    38886952.238   156581629.220       -1962.715          42.000  
C20  22292082.456   116080722.425         493.505          48.000                                                                  
C28  24282420.438   126444957.346        2443.925          41.000                                                                  
C07  37656564.003   196087615.009        1051.355          40.000    37656549.532   151627324.926         813.025          42.000  
C10  38638455.790   201200587.486         915.728          35.000    38638452.504   155581047.210         707.982          43.000  
G29                                                                  22216129.031                       -1567.594          30.000  
> 2025 10 28 07 07 00.7560000  0 21                     
G03  21842166.351   114781357.493       -1579.432          42.000    21842161.188    89440000.856       -1230.774          37.000  
G16  19894997.481   104548921.553        2015.836          45.000                                                                  
G26  18884572.205    99239095.387        -525.284          49.000    18884563.086    77329130.414        -409.119          46.000  
G28  20470526.266   107573342.933       -1747.872          45.000    20470515.126    83823338.463       -1361.792          45.000  
G31  19272764.904   101279066.927        -521.236          47.000    19272752.692    78918704.506        -405.815          45.000  
C06  35197614.357   183283215.771         -80.863          47.000    35197594.755   141726130.261         -62.711          47.000  
C09  36347397.546   189270438.582         -49.431          45.000    36347380.989   146355843.742         -38.162          47.000  
C13  37995635.257   197853238.598       -2440.767          38.000    37995633.410   152992668.976       -1887.190          39.000  
C16  35633109.253   185550950.392         -93.872          48.000    35633095.933   143479712.594         -72.574          47.000  
C23  21697291.100   112983485.143       -1820.424          44.000                                                                  
C32  22071098.144   114930003.736       -2708.580          44.000                                                                  
G32  22073522.545   115997138.737       -3737.123          42.000    22073519.211    90387369.324       -2911.714          38.000  
G27  23222215.900   122033577.391        3660.569          35.000    23222233.003    95091223.414        2852.310          34.000  
G04  21723168.814                        2773.224          27.000    21723161.342                        2160.765          30.000  
C37  21217931.960   110487339.646         314.195          50.000                                                                  
C08  38886973.085   202494668.546       -2538.537          33.000    38886971.715   156581707.724       -1962.644          42.000  
C20  22292078.626   116080702.688         493.394          48.000                                                                  
C28  24282401.646   126444859.572        2444.179          41.000                                                                  
C07  37656555.921   196087572.956        1051.239          40.000    37656541.472   151627292.393         813.214          42.000  
C10  38638448.756   201200550.854         915.735          35.000    38638445.464   155581018.881         708.110          43.000  
G29                                                                  22216144.634                       -1568.636          30.000  
> 2025 10 28 07 07 00.7960000  0 21                     
G03  21842178.374   114781420.671       -1579.525          42.000    21842173.206    89440050.085       -1230.743          37.000  
G16  19894982.165   104548840.924        2015.750          45.000                                                                  
G26  18884576.199    99239116.394        -525.282          49.000    18884567.113    77329146.780        -409.151          46.000  
G28  20470539.543   107573412.844       -1747.848          45.000    20470528.438    83823392.928       -1361.667          45.000  
G31  19272768.868   101279087.763        -521.014          47.000    19272756.647    78918720.734        -405.705          45.000  
C06  35197614.955   183283219.006         -80.841          47.000    35197595.384   141726132.761         -62.618          47.000  
C09  36347397.900   189270440.547         -49.275          45.000    36347381.369   146355845.268         -38.210          47.000  
C13  37995654.030   197853336.215       -2440.605          38.000    37995652.145   152992744.436       -1886.687          39.000  
C16  35633109.986   185550954.150         -93.912          48.000    35633096.628   143479715.501         -72.647          47.000  
C23  21697305.080   112983557.958       -1820.473          44.000                                                                  
C32  22071118.947   114930112.069       -2708.468          44.000                                                                  
G32  22073550.973   115997288.220       -3737.136          42.000    22073547.641    90387485.798       -2911.811          38.000  
G27  23222188.057   122033430.999        3660.168          35.000    23222205.154    95091109.338        2852.029          34.000  
G04  21723147.746                        2772.820          27.000    21723140.211                        2161.344          30.000  
C37  21217929.543   110487327.079         314.133          50.000                                                                  
C08  38886992.575   202494770.054       -2537.963          33.000    38886991.192   156581786.233       -1962.725          42.000  
C20  22292074.832   116080682.952         493.358          48.000                                                                  
C28  24282382.877   126444761.801        2444.221          41.000                                                                  
C07  37656547.861   196087530.890        1051.489          40.000    37656533.415   151627259.872         813.086          42.000  
C10  38638441.715   201200514.229         915.574          35.000    38638438.426   155580990.545         708.283          43.000  
G29                                                                  22216160.092                       -1568.044          30.000  
> 2025 10 28 07 07 00.8360000  0 21                     
G03  21842190.418   114781483.855       -1579.680          42.000    21842185.231    89440099.304       -1230.543          37.000  
G16  19894966.824   104548760.292        2015.764          45.000                                                                  
G26  18884580.195    99239137.400        -525.229          49.000    18884571.131    77329163.150        -409.233          46.000  
G28  20470552.843   107573482.754       -1747.819          45.000    20470541.733    83823447.409       -1361.892          45.000  
G31  19272772.805   101279108.592        -520.768          47.000    19272760.625    78918736.983        -406.088          45.000  
C06  35197615.572   183283222.248         -80.963          47.000    35197596.018   141726135.259         -62.494          47.000  
C09  36347398.284   189270442.514         -49.206          45.000    36347381.755   146355846.792         -38.170          47.000  
C13  37995672.767   197853433.827       -2440.396          38.000    37995670.896   152992819.931       -1887.046          39.000  
C16  35633110.714   185550957.908         -93.959          48.000    35633097.315   143479718.407         -72.661          47.000  
C23  21697319.063   112983630.762       -1820.244          44.000                                                                  
C32  22071139.775   114930220.404       -2708.424          44.000                                                                  
G32  22073579.418   115997437.692       -3736.962          42.000    22073576.100    90387602.277       -2911.922          38.000  
G27  23222160.171   122033284.570        3660.533          35.000    23222177.298    95090995.263        2851.841          34.000  
G04  21723126.892                        2772.604          27.000    21723119.108                        2160.820          30.000  
C37  21217927.159   110487314.508         314.186          50.000                                                                  
C08  38887012.047   202494871.571       -2537.909          33.000    38887010.692   156581864.735       -1962.655          42.000  
C20  22292071.060   116080663.218         493.309          48.000                                                                  
C28  24282364.098   126444664.028        2444.276          41.000                                                                  
C07  37656539.781   196087488.825        1051.636          40.000    37656525.339   151627227.347         813.055          42.000  
C10  38638434.682   201200477.580         915.922          35.000    38638431.382   155580962.220         708.147          43.000  
G29                                                                  22216175.399                       -1566.951          30.000  
> 2025 10 28 07 07 00.8760000  0 21                     
G03  21842202.457   114781547.026       -1579.463          42.000    21842197.244    89440148.518       -1230.389          37.000  
G16  19894951.476   104548679.665        2015.693          45.000                                                                  
G26  18884584.163    99239158.404        -525.153          49.000    18884575.145    77329179.523        -409.345          46.000  
G28  20470566.137   107573552.661       -1747.727          45.000    20470555.039    83823501.891       -1362.040          45.000  
G31  19272776.760   101279129.432        -520.880          47.000    19272764.606    78918753.231        -406.229          45.000  
C06  35197616.201   183283225.482         -80.902          47.000    35197596.675   141726137.761         -62.496          47.000  
C09  36347398.670   189270444.476         -49.113          45.000    36347382.149   146355848.315         -38.104          47.000  
C13  37995691.504   197853531.434       -2440.208          38.000    37995689.654   152992895.415       -1887.105          39.000  
C16  35633111.430   185550961.674         -94.120          48.000    35633098.035   143479721.311         -72.647          47.000  
C23  21697333.040   112983703.576       -1820.321          44.000                                                                  
C32  22071160.563   114930328.744       -2708.505          44.000                                                                  
G32  22073607.847   115997587.172       -3737.013          42.000    22073604.526    90387718.765       -2912.146          38.000  
G27  23222132.302   122033138.151        3660.494          35.000    23222149.412    95090881.176        2851.929          34.000  
G04  21723105.910                        2772.364          27.000    21723098.040                        2160.346          30.000  
C37  21217924.765   110487301.933         314.295          50.000                                                                  
C08  38887031.531   202494973.122       -2538.421          33.000    38887030.203   156581943.234       -1962.539          42.000  
C20  22292067.268   116080643.482         493.359          48.000                                                                  
C28  24282345.310   126444566.263        2444.185          41.000                                                                  
C07  37656531.709   196087446.759        1051.648          40.000    37656517.272   151627194.829         812.964          42.000  
C10  38638427.636   201200440.943         915.932          35.000    38638424.363   155580933.893         708.121          43.000  
G29                                                                  22216190.614                       -1567.140          30.000  
> 2025 10 28 07 07 00.9160000  0 21                     
G03  21842214.478   114781610.207       -1579.500          42.000    21842209.257    89440197.761       -1230.845          37.000  
G16  19894936.120   104548599.033        2015.714          45.000                                                                  
G26  18884588.164    99239179.405        -525.072          49.000    18884579.138    77329195.892        -409.331          46.000  
G28  20470579.448   107573622.570       -1747.731          45.000    20470568.334    83823556.370       -1362.029          45.000  
G31  19272780.733   101279150.272        -520.979          47.000    19272768.554    78918769.465        -406.056          45.000  
C06  35197616.830   183283228.718         -80.909          47.000    35197597.286   141726140.259         -62.460          47.000  
C09  36347399.043   189270446.442         -49.134          45.000    36347382.521   146355849.832         -37.985          47.000  
C13  37995710.244   197853629.059       -2440.428          38.000    37995708.421   152992970.891       -1886.972          39.000  
C16  35633112.157   185550965.422         -93.845          48.000    35633098.754   143479724.214         -72.594          47.000  
C23  21697347.033   112983776.384       -1820.239          44.000                                                                  
C32  22071181.378   114930437.088       -2708.629          44.000                                                                  
G32  22073636.281   115997736.654       -3737.063          42.000    22073632.965    90387835.238       -2911.944          38.000  
G27  23222104.404   122032991.736        3660.348          35.000    23222121.522    95090767.058        2852.550          34.000  
G04  21723084.781                        2772.385          27.000    21723076.921                        2160.585          30.000  
C37  21217922.351   110487289.362         314.274          50.000                                                                  
C08  38887051.013   202495074.652       -2538.309          33.000    38887049.736   156582021.744       -1962.656          42.000  
C20  22292063.491   116080623.742         493.451          48.000                                                                  
C28  24282326.545   126444468.502        2444.005          41.000                                                                  
C07  37656523.618   196087404.701        1051.495          40.000    37656509.184   151627162.305         813.013          42.000  
C10  38638420.611   201200404.317         915.697          35.000    38638417.318   155580905.580         707.922          43.000  
G29                                                                  22216205.888                       -1567.214          30.000  
> 2025 10 28 07 07 00.9560000  0 21                     
G03  21842226.508   114781673.390       -1579.550          42.000    21842221.281    89440246.989       -1230.855          37.000  
G16  19894920.761   104548518.401        2015.741          45.000                                                                  
G26  18884592.191    99239200.416        -525.211          49.000    18884583.121    77329212.265        -409.393          46.000  
G28  20470592.766   107573692.485       -1747.842          45.000    20470581.627    83823610.849       -1362.053          45.000  
G31  19272784.712   101279171.120        -521.189          47.000    19272772.508    78918785.703        -405.988          45.000  
C06  35197617.497   183283231.960         -80.996          47.000    35197597.933   141726142.768         -62.633          47.000  
C09  36347399.430   189270448.416         -49.306          45.000    36347382.903   146355851.355         -38.038          47.000  
C13  37995729.025   197853726.677       -2440.440          38.000    37995727.157   152993046.376       -1887.126          39.000  
C16  35633112.862   185550969.176         -93.824          48.000    35633099.490   143479727.123         -72.681          47.000  
C23  21697361.022   112983849.196       -1820.283          44.000                                                                  
C32  22071202.173   114930545.438       -2708.796          44.000                                                                  
G32  22073664.729   115997886.138       -3737.150          42.000    22073661.389    90387951.722       -2912.032          38.000  
G27  23222076.561   122032845.333        3660.008          35.000    23222093.645    95090652.990        2852.194          34.000  
G04  21723063.404                        2772.467          27.000    21723055.817                        2160.185          30.000  
C37  21217919.921   110487276.788         314.312          50.000                                                                  
C08  38887070.473   202495176.181       -2538.359          33.000    38887069.216   156582100.246       -1962.570          42.000  
C20  22292059.700   116080604.005         493.420          48.000                                                                  
C28  24282307.759   126444370.732        2444.090          41.000                                                                  
C07  37656515.554   196087362.648        1051.294          40.000    37656501.129   151627129.782         813.019          42.000  
C10  38638413.593   201200367.685         915.689          35.000    38638410.287   155580877.250         708.085          43.000  
G29                                                                  22216221.076                       -1567.017          30.000  
> 2025 10 28 07 07 00.9960000  0 21                     
G03  21842238.529   114781736.578       -1579.727          42.000    21842233.304    89440296.231       -1231.086          37.000  
G16  19894905.421   104548437.779        2015.596          45.000                                                                  
G26  18884596.214    99239221.431        -525.361          49.000    18884587.114    77329228.634        -409.283          46.000  
G28  20470606.075   107573762.404       -1747.984          45.000    20470594.940    83823665.322       -1361.905          45.000  
G31  19272788.687   101279191.970        -521.305          47.000    19272776.481    78918801.951        -406.198          45.000  
C06  35197618.128   183283235.198         -81.016          47.000    35197598.568   141726145.278         -62.748          47.000  
C09  36347399.822   189270450.386         -49.330          45.000    36347383.291   146355852.873         -38.021          47.000  
C13  37995747.775   197853824.292       -2440.413          38.000    37995745.898   152993121.870       -1887.341          39.000  
C16  35633113.572   185550972.935         -93.931          48.000    35633100.201   143479730.038         -72.856          47.000  
C23  21697374.991   112983922.015       -1820.453          44.000                                                                  
C32  22071222.976   114930653.776       -2708.619          44.000                                                                  
G32  22073693.181   115998035.615       -3737.050          42.000    22073689.831    90388068.215       -2912.280          38.000  
G27  23222048.680   122032698.926        3659.776          35.000    23222065.783    95090538.909        2852.079          34.000  
G04  21723041.959                        2772.561          27.000    21723034.715                        2160.667          31.000  
C37  21217917.445   110487264.224         314.125          50.000                                                                  
C08  38887089.968   202495277.701       -2538.019          33.000    38887088.723   156582178.757       -1962.694          42.000  
C20  22292055.879   116080584.281         493.155          48.000                                                                  
C28  24282288.985   126444272.959        2444.227          41.000                                                                  
C07  37656507.503   196087320.590        1051.361          40.000    37656493.049   151627097.257         813.061          42.000  
C10  38638406.543   201200331.063         915.469          35.000    38638403.285   155580848.930         708.033          43.000  
G29                                                                  22216236.349                       -1566.851          30.000  
> 2025 10 28 07 07 01.0360000  0 21                     
G03  21842250.558   114781799.766       -1579.826          42.000    21842245.344    89440345.478       -1231.277          37.000  
G16  19894890.084   104548357.165        2015.376          46.000                                                                  
G26  18884600.191    99239242.444        -525.384          49.000    18884591.115    77329245.007        -409.309          46.000  
G28  20470619.372   107573832.319       -1747.979          45.000    20470608.242    83823719.804       -1361.983          45.000  
G31  19272792.665   101279212.813        -521.211          47.000    19272780.462    78918818.192        -406.129          45.000  
C06  35197618.749   183283238.436         -80.992          47.000    35197599.202   141726147.784         -62.688          47.000  
C09  36347400.203   189270452.358         -49.347          45.000    36347383.676   146355854.401         -38.180          47.000  
C13  37995766.532   197853921.923       -2440.650          38.000    37995764.657   152993197.363       -1887.395          39.000  
C16  35633114.290   185550976.705         -94.152          48.000    35633100.919   143479732.945         -72.799          47.000  
C23  21697388.966   112983994.828       -1820.395          44.000                                                                  
C32  22071243.776   114930762.117       -2708.602          44.000                                                                  
G32  22073721.628   115998185.104       -3737.193          42.000    22073718.264    90388184.693       -2912.079          38.000  
G27  23222020.814   122032552.476        3660.670          35.000    23222037.914    95090424.833        2852.002          34.000  
G04  21723020.840                        2772.543          27.000    21723013.610                        2160.824          31.000  
C37  21217915.024   110487251.662         314.020          50.000                                                                  
C08  38887109.481   202495379.237       -2538.199          33.000    38887108.217   156582257.274       -1962.867          42.000  
C20  22292052.104   116080564.553         493.113          48.000                                                                  
C28  24282270.209   126444175.194        2444.168          41.000                                                                  
C07  37656499.411   196087278.519        1051.617          40.000    37656485.009   151627064.735         813.013          42.000  
C10  38638399.512   201200294.436         915.447          35.000    38638396.261   155580820.604         708.072          43.000  
G29                                                                  22216251.526                       -1567.113          30.000  
> 2025 10 28 07 07 01.0760000  0 21                     
G03  21842262.569   114781862.947       -1579.697          42.000    21842257.386    89440394.717       -1231.191          37.000  
G16  19894874.740   104548276.533        2015.592          46.000                                                                  
G26  18884604.170    99239263.452        -525.288          49.000    18884595.111    77329261.382        -409.353          46.000  
G28  20470632.655   107573902.233       -1747.910          45.000    20470621.538    83823774.280       -1361.959          45.000  
G31  19272796.633   101279233.650        -521.032          47.000    19272784.437    78918834.434        -406.080          45.000  
C06  35197619.392   183283241.677         -81.024          47.000    35197599.819   141726150.284         -62.582          47.000  
C09  36347400.590   189270454.321         -49.200          45.000    36347384.058   146355855.923         -38.127          47.000  
C13  37995785.274   197854019.527       -2440.326          38.000    37995783.407   152993272.845       -1887.186          39.000  
C16  35633115.027   185550980.461         -94.034          48.000    35633101.610   143479735.847         -72.661          47.000  
C23  21697402.944   112984067.633       -1820.218          44.000                                                                  
C32  22071264.591   114930870.457       -2708.590          44.000                                                                  
G32  22073750.105   115998334.595       -3737.297          42.000    22073746.712    90388301.161       -2911.799          38.000  
G27  23221992.962   122032406.082        3660.216          35.000    23222010.042    95090310.737        2852.238          34.000  
G04  21722999.590                        2772.849          27.000    21722992.476                        2160.371          31.000  
C37  21217912.611   110487239.096         314.075          50.000                                                                  
C08  38887128.961   202495480.774       -2538.357          33.000    38887127.724   156582335.774       -1962.635          42.000  
C20  22292048.337   116080544.824         493.132          48.000                                                                  
C28  24282251.451   126444077.425        2444.168          41.000                                                                  
C07  37656491.355   196087236.460        1051.532          40.000    37656476.914   151627032.223         812.823          42.000  
C10  38638392.474   201200257.812         915.469          35.000    38638389.217   155580792.281         708.086          43.000  
G29                                                                  22216266.951                       -1568.113          30.000  
> 2025 10 28 07 07 01.1160000  0 21                     
G03  21842274.589   114781926.126       -1579.577          42.000    21842269.405    89440443.937       -1230.671          37.000  
G16  19894859.388   104548195.902        2015.725          46.000                                                                  
G26  18884608.169    99239284.458        -525.168          49.000    18884599.107    77329277.752        -409.296          46.000  
G28  20470645.966   107573972.146       -1747.858          46.000    20470634.828    83823828.752       -1361.862          45.000  
G31  19272800.592   101279254.487        -520.928          47.000    19272788.407    78918850.672        -406.006          45.000  
C06  35197620.007   183283244.906         -80.791          47.000    35197600.429   141726152.784         -62.520          47.000  
C09  36347400.948   189270456.291         -49.226          45.000    36347384.421   146355857.443         -38.057          47.000  
C13  37995804.020   197854117.156       -2440.541          38.000    37995802.167   152993348.328       -1887.131          39.000  
C16  35633115.749   185550984.215         -93.889          48.000    35633102.318   143479738.748         -72.551          47.000  
C23  21697416.924   112984140.447       -1820.269          44.000                                                                  
C32  22071285.378   114930978.797       -2708.514          44.000                                                                  
G32  22073778.570   115998484.081       -3737.196          42.000    22073775.143    90388417.636       -2911.777          38.000  
G27  23221965.106   122032259.672        3660.258          35.000    23221982.172    95090196.644        2852.189          34.000  
G04  21722978.552                        2772.574          27.000    21722971.379                        2159.919          31.000  
C37  21217910.220   110487226.522         314.229          50.000                                                                  
C08  38887148.425   202495582.266       -2537.653          33.000    38887147.232   156582414.283       -1962.676          42.000  
C20  22292044.557   116080525.089         493.299          49.000                                                                  
C28  24282232.672   126443979.656        2444.213          41.000                                                                  
C07  37656483.268   196087194.400        1051.434          40.000    37656468.846   151626999.696         812.994          42.000  
C10  38638385.434   201200221.168         915.922          35.000    38638382.190   155580763.953         708.198          43.000  
G29                                                                  22216282.453                       -1567.771          30.000  
> 2025 10 28 07 07 01.1560000  0 21                     
G03  21842286.587   114781989.296       -1579.346          42.000    21842281.426    89440493.163       -1230.582          37.000  
G16  19894844.043   104548115.273        2015.775          46.000                                                                  
G26  18884612.167    99239305.461        -525.075          49.000    18884603.112    77329294.124        -409.329          46.000  
G28  20470659.257   107574042.043       -1747.561          46.000    20470648.120    83823883.230       -1361.876          45.000  
G31  19272804.573   101279275.328        -520.978          47.000    19272792.349    78918866.906        -405.889          45.000  
C06  35197620.648   183283248.141         -80.804          47.000    35197601.044   141726155.278         -62.391          47.000  
C09  36347401.330   189270458.256         -49.156          45.000    36347384.782   146355858.956         -37.911          47.000  
C13  37995822.749   197854214.769       -2440.460          37.000    37995820.927   152993423.798       -1886.878          39.000  
C16  35633116.455   185550987.959         -93.631          48.000    35633103.039   143479741.646         -72.472          47.000  
C23  21697430.928   112984213.255       -1820.194          44.000                                                                  
C32  22071306.165   114931087.139       -2708.501          44.000                                                                  
G32  22073807.004   115998633.562       -3737.083          42.000    22073803.579    90388534.116       -2911.877          38.000  
G27  23221937.236   122032113.260        3660.371          35.000    23221954.306    95090082.546        2852.384          34.000  
G04  21722957.381                        2772.748          27.000    21722950.248                        2161.405          31.000  
C37  21217907.841   110487213.941         314.458          50.000                                                                  
C08  38887167.923   202495683.784       -2537.764          33.000    38887166.722   156582492.781       -1962.502          42.000  
C20  22292040.789   116080505.351         493.409          49.000                                                                  
C28  24282213.892   126443881.887        2444.198          41.000                                                                  
C07  37656475.181   196087152.326        1051.685          40.000    37656460.764   151626967.159         813.330          42.000  
C10  38638378.388   201200184.532         916.033          35.000    38638375.143   155580735.625         708.213          43.000  
G29                                                                  22216297.778                       -1566.923          30.000  
> 2025 10 28 07 07 01.1960000  0 21                     
G03  21842298.640   114782052.478       -1579.437          42.000    21842293.455    89440542.385       -1230.492          37.000  
G16  19894828.704   104548034.640        2015.845          46.000                                                                  
G26  18884616.151    99239326.469        -525.134          49.000    18884607.102    77329310.487        -409.159          46.000  
G28  20470672.585   107574111.952       -1747.633          46.000    20470661.416    83823937.699       -1361.824          45.000  
G31  19272808.538   101279296.170        -521.040          47.000    19272796.304    78918883.143        -405.921          45.000  
C06  35197621.247   183283251.367         -80.704          47.000    35197601.659   141726157.776         -62.397          47.000  
C09  36347401.697   189270460.208         -48.898          45.000    36347385.154   146355860.466         -37.774          47.000  
C13  37995841.482   197854312.371       -2440.215          37.000    37995839.669   152993499.272       -1886.852          39.000  
C16  35633117.171   185550991.709         -93.674          48.000    35633103.781   143479744.540         -72.345          47.000  
C23  21697444.911   112984286.060       -1820.139          44.000                                                                  
C32  22071326.982   114931195.471       -2708.315          44.000                                                                  
G32  22073835.435   115998783.030       -3736.811          42.000    22073832.032    90388650.601       -2912.045          39.000  
G27  23221909.359   122031966.834        3660.577          35.000    23221926.440    95089968.486        2851.764          34.000  
G04  21722935.971                        2772.561          27.000    21722929.113                        2160.996          31.000  
C37  21217905.408   110487201.365         314.464          50.000                                                                  
C08  38887187.402   202495785.332       -2538.451          33.000    38887186.234   156582571.281       -1962.504          42.000  
C20  22292037.006   116080485.610         493.520          49.000                                                                  
C28  24282195.119   126443784.113        2444.282          41.000                                                                  
C07  37656467.107   196087110.252        1051.837          40.000    37656452.660   151626934.626         813.391          42.000  
C10  38638371.333   201200147.882         916.186          35.000    38638368.105   155580707.289         708.339          43.000  
G29                                                                  22216313.098                       -1567.129          30.000  
> 2025 10 28 07 07 01.2360000  0 21                     
G03  21842310.673   114782115.675       -1579.796          42.000    21842305.487    89440591.617       -1230.710          37.000  
G16  19894813.358   104547954.013        2015.758          45.000                                                                  
G26  18884620.177    99239347.476        -525.192          49.000    18884611.102    77329326.850        -409.105          46.000  
G28  20470685.874   107574181.866       -1747.780          46.000    20470674.726    83823992.172       -1361.831          45.000  
G31  19272812.528   101279317.016        -521.138          47.000    19272800.309    78918899.385        -406.032          45.000  
C06  35197621.837   183283254.600         -80.754          47.000    35197602.259   141726160.280         -62.540          47.000  
C09  36347402.080   189270462.168         -48.909          45.000    36347385.527   146355861.986         -37.905          47.000  
C13  37995860.235   197854409.985       -2440.247          38.000    37995858.410   152993574.763       -1887.160          39.000  
C16  35633117.885   185550995.465         -93.816          48.000    35633104.486   143479747.441         -72.450          47.000  
C23  21697458.892   112984358.874       -1820.279          44.000                                                                  
C32  22071347.795   114931303.803       -2708.280          44.000                                                                  
G32  22073863.857   115998932.514       -3737.001          42.000    22073860.475    90388767.074       -2911.958          39.000  
G27  23221881.506   122031820.442        3659.910          35.000    23221898.592    95089854.406        2851.929          34.000  
G04  21722914.499                        2773.059          27.000    21722908.021                        2160.235          31.000  
C37  21217902.966   110487188.793         314.352          50.000                                                                  
C08  38887206.896   202495886.857       -2538.326          33.000    38887205.720   156582649.780       -1962.487          42.000  
C20  22292033.207   116080465.875         493.439          49.000                                                                  
C28  24282176.347   126443686.337        2444.337          41.000                                                                  
C07  37656459.026   196087068.188        1051.709          40.000    37656444.580   151626902.098         813.281          42.000  
C10  38638364.288   201200111.250         916.039          35.000    38638361.058   155580678.956         708.339          43.000  
G29                                                                  22216328.525                       -1568.332          30.000  
> 2025 10 28 07 07 01.2760000  0 21                     
G03  21842322.696   114782178.858       -1579.710          42.000    21842317.534    89440640.855       -1230.910          37.000  
G16  19894798.018   104547873.388        2015.663          45.000                                                                  
G26  18884624.186    99239368.493        -525.379          49.000    18884615.095    77329343.227        -409.345          46.000  
G28  20470699.180   107574251.773       -1747.727          46.000    20470688.043    83824046.647       -1361.892          45.000  
G31  19272816.498   101279337.855        -521.052          47.000    19272804.313    78918915.630        -406.155          45.000  
C06  35197622.432   183283257.842         -80.961          47.000    35197602.887   141726162.778         -62.505          47.000  
C09  36347402.461   189270464.126         -48.918          45.000    36347385.934   146355863.508         -38.025          47.000  
C13  37995878.980   197854507.603       -2440.486          38.000    37995877.153   152993650.248       -1887.157          39.000  
C16  35633118.573   185550999.216         -93.810          48.000    35633105.201   143479750.344         -72.549          47.000  
C23  21697472.880   112984431.687       -1820.348          44.000                                                                  
C32  22071368.590   114931412.152       -2708.580          44.000                                                                  
G32  22073892.312   115999082.008       -3737.274          42.000    22073888.924    90388883.548       -2911.851          38.000  
G27  23221853.660   122031673.986        3660.847          35.000    23221870.716    95089740.287        2852.738          34.000  
G04  21722893.277                        2773.015          27.000    21722886.918                        2159.981          31.000  
C37  21217900.523   110487176.221         314.281          50.000                                                                  
C08  38887226.384   202495988.369       -2538.116          33.000    38887225.209   156582728.278       -1962.457          42.000  
C20  22292029.386   116080446.152         493.173          49.000                                                                  
C28  24282157.575   126443588.556        2444.536          41.000                                                                  
C07  37656450.966   196087026.126        1051.611          40.000    37656436.530   151626869.575         813.147          42.000  
C10  38638357.248   201200074.612         915.977          35.000    38638354.040   155580650.625         708.284          43.000  
G29                                                                  22216343.671                       -1566.962          30.000  
> 2025 10 28 07 07 01.3160000  0 21                     
G03  21842334.705   114782242.031       -1579.548          42.000    21842329.550    89440690.104       -1231.216          37.000  
G16  19894782.662   104547792.772        2015.424          45.000                                                                  
G26  18884628.186    99239389.509        -525.440          49.000    18884619.085    77329359.609        -409.557          46.000  
G28  20470712.477   107574321.692       -1747.951          46.000    20470701.373    83824101.134       -1362.126          45.000  
G31  19272820.480   101279358.699        -521.101          47.000    19272808.283    78918931.874        -406.198          45.000  
C06  35197623.062   183283261.077         -80.963          47.000    35197603.509   141726165.282         -62.576          47.000  
C09  36347402.827   189270466.092         -49.065          45.000    36347386.312   146355865.022         -37.928          47.000  
C13  37995897.741   197854605.222       -2440.644          38.000    37995895.864   152993725.728       -1887.098          39.000  
C16  35633119.259   185551002.974         -93.947          48.000    35633105.935   143479753.247         -72.592          47.000  
C23  21697486.887   112984504.492       -1820.234          44.000                                                                  
C32  22071389.412   114931520.502       -2708.740          44.000                                                                  
G32  22073920.751   115999231.484       -3737.074          42.000    22073917.395    90389000.042       -2912.201          38.000  
G27  23221825.771   122031527.572        3660.606          35.000    23221842.829    95089626.192        2852.625          34.000  
G04  21722872.337                        2773.156          27.000    21722865.794                        2160.902          31.000  
C37  21217898.054   110487163.658         314.097          50.000                                                                  
C08  38887245.852   202496089.890       -2537.987          33.000    38887244.737   156582806.789       -1962.704          42.000  
C20  22292025.594   116080426.430         493.002          49.000                                                                  
C28  24282138.777   126443490.796        2444.144          41.000                                                                  
C07  37656442.863   196086984.074        1051.331          40.000    37656428.471   151626837.052         813.061          42.000  
C10  38638350.209   201200037.968         916.046          35.000    38638347.038   155580622.303         708.082          43.000  
G29                                                                  22216359.009                       -1567.247          30.000  
> 2025 10 28 07 07 01.3560000  0 21                     
G03  21842346.706   114782305.224       -1579.749          42.000    21842341.587    89440739.353       -1231.356          37.000  
G16  19894767.335   104547712.155        2015.349          45.000                                                                  
G26  18884632.189    99239410.527        -525.500          49.000    18884623.058    77329375.984        -409.509          46.000  
G28  20470725.807   107574391.611       -1748.036          46.000    20470714.714    83824155.614       -1362.096          45.000  
G31  19272824.440   101279379.546        -521.199          47.000    19272812.271    78918948.126        -406.301          45.000  
C06  35197623.697   183283264.310         -80.908          47.000    35197604.115   141726167.785         -62.618          47.000  
C09  36347403.165   189270468.065         -49.279          45.000    36347386.692   146355866.547         -38.081          47.000  
C13  37995916.490   197854702.841       -2440.582          38.000    37995914.602   152993801.215       -1887.171          39.000  
C16  35633119.979   185551006.733         -94.007          48.000    35633106.670   143479756.163         -72.836          47.000  
C23  21697500.864   112984577.312       -1820.416          44.000                                                                  
C32  22071410.242   114931628.850       -2708.751          44.000                                                                  
G32  22073949.187   115999380.970       -3737.167          42.000    22073945.854    90389116.537       -2912.391          38.000  
G27  23221797.925   122031381.150        3660.576          35.000    23221814.963    95089512.152        2851.427          34.000  
G04  21722851.170                        2772.968          27.000    21722844.690                        2160.565          31.000  
C37  21217895.641   110487151.095         314.026          50.000                                                                  
C08  38887265.325   202496191.398       -2537.855          33.000    38887264.252   156582885.304       -1962.858          42.000  
C20  22292021.806   116080406.705         493.022          49.000                                                                  
C28  24282119.973   126443393.029        2444.072          41.000                                                                  
C07  37656434.792   196086942.016        1051.294          40.000    37656420.381   151626804.530         813.007          42.000  
C10  38638343.169   201200001.351         915.693          35.000    38638340.019   155580593.990         707.889          43.000  
G29                                                                  22216374.326                       -1568.578          30.000  
> 2025 10 28 07 07 01.3960000  0 21                     
G03  21842358.762   114782368.429       -1580.093          42.000    21842353.606    89440788.594       -1231.251          37.000  
G16  19894751.981   104547631.529        2015.476          46.000                                                                  
G26  18884636.173    99239431.537        -525.380          49.000    18884627.042    77329392.358        -409.419          46.000  
G28  20470739.116   107574461.530       -1748.083          46.000    20470728.011    83824210.093       -1362.048          45.000  
G31  19272828.409   101279400.397        -521.304          47.000    19272816.243    78918964.368        -406.177          45.000  
C06  35197624.307   183283267.547         -80.934          47.000    35197604.723   141726170.293         -62.689          47.000  
C09  36347403.534   189270470.031         -49.243          45.000    36347387.037   146355868.074         -38.187          47.000  
C13  37995935.241   197854800.454       -2440.421          38.000    37995933.372   152993876.688       -1886.938          39.000  
C16  35633120.691   185551010.489         -93.965          48.000    35633107.398   143479759.068         -72.778          47.000  
C23  21697514.856   112984650.124       -1820.396          44.000                                                                  
C32  22071431.044   114931737.198       -2708.787          44.000                                                                  
G32  22073977.639   115999530.459       -3737.254          42.000    22073974.287    90389233.007       -2912.003          38.000  
G27  23221770.061   122031234.755        3660.002          35.000    23221787.106    95089398.039        2852.167          34.000  
G04  21722829.879                        2772.918          27.000    21722823.576                        2160.340          31.000  
C37  21217893.251   110487138.530         314.049          50.000                                                                  
C08  38887284.813   202496292.947       -2538.467          33.000    38887283.759   156582963.813       -1962.806          42.000  
C20  22292018.037   116080386.982         493.022          49.000                                                                  
C28  24282101.200   126443295.262        2444.083          41.000                                                                  
C07  37656426.710   196086899.949        1051.501          40.000    37656412.286   151626772.011         812.903          42.000  
C10  38638336.148   201199964.739         915.368          35.000    38638333.006   155580565.665         708.001          43.000  
G29                                                                  22216389.484                       -1567.774          30.000  
> 2025 10 28 07 07 01.4360000  0 21                     
G03  21842370.794   114782431.620       -1579.942          42.000    21842365.617    89440837.832       -1231.118          37.000  
G16  19894736.645   104547550.906        2015.523          46.000                                                                  
G26  18884640.158    99239452.552        -525.367          49.000    18884631.046    77329408.733        -409.400          46.000  
G28  20470752.411   107574531.442       -1747.968          46.000    20470741.325    83824264.570       -1362.010          45.000  
G31  19272832.371   101279421.248        -521.346          47.000    19272820.198    78918980.606        -406.011          45.000  
C06  35197624.918   183283270.779         -80.902          47.000    35197605.309   141726172.793         -62.622          47.000  
C09  36347403.891   189270471.999         -49.281          45.000    36347387.439   146355869.593         -38.088          47.000  
C13  37995953.999   197854898.065       -2440.215          38.000    37995952.129   152993952.172       -1887.040          39.000  
C16  35633121.398   185551014.243         -93.917          48.000    35633108.135   143479761.969         -72.657          47.000  
C23  21697528.822   112984722.936       -1820.338          44.000                                                                  
C32  22071451.860   114931845.544       -2708.724          44.000                                                                  
G32  22074006.089   115999679.948       -3737.284          42.000    22074002.749    90389349.498       -2912.141          38.000  
G27  23221742.202   122031088.348        3659.819          35.000    23221759.246    95089283.963        2851.910          34.000  
G04  21722808.508                        2772.837          27.000    21722802.494                        2160.142          31.000  
C37  21217890.843   110487125.956         314.217          50.000                                                                  
C08  38887304.307   202496394.477       -2538.455          33.000    38887303.246   156583042.311       -1962.565          42.000  
C20  22292014.255   116080367.254         493.127          49.000                                                                  
C28  24282082.421   126443197.491        2444.161          41.000                                                                  
C07  37656418.618   196086857.882        1051.636          40.000    37656404.236   151626739.488         812.970          42.000  
C10  38638329.100   201199928.080         916.008          35.000    38638325.962   155580537.326         708.308          43.000  
G29                                                                  22216404.754                       -1566.887          30.000  
> 2025 10 28 07 07 01.4760000  0 21                     
G03  21842382.821   114782494.798       -1579.615          42.000    21842377.647    89440887.055       -1230.663          37.000  
G16  19894721.294   104547470.281        2015.570          46.000                                                                  
G26  18884644.165    99239473.570        -525.456          49.000    18884635.032    77329425.103        -409.307          46.000  
G28  20470765.704   107574601.355       -1747.903          46.000    20470754.625    83824319.054       -1362.129          45.000  
G31  19272836.334   101279442.089        -521.136          47.000    19272824.156    78918996.847        -406.006          45.000  
C06  35197625.499   183283274.009         -80.809          47.000    35197605.929   141726175.288         -62.463          47.000  
C09  36347404.291   189270473.958         -49.094          45.000    36347387.818   146355871.104         -37.892          47.000  
C13  37995972.733   197854995.695       -2440.526          38.000    37995970.890   152994027.658       -1887.143          39.000  
C16  35633122.113   185551017.991         -93.754          48.000    35633108.824   143479764.870         -72.568          47.000  
C23  21697542.808   112984795.737       -1820.157          44.000                                                                  
C32  22071472.678   114931953.890       -2708.724          44.000                                                                  
G32  22074034.540   115999829.431       -3737.158          42.000    22074031.174    90389465.969       -2911.893          38.000  
G27  23221714.337   122030941.918        3660.264          35.000    23221731.392    95089169.891        2851.761          34.000  
G04  21722787.212   114154032.648        2772.738          27.000    21722781.398                        2160.339          31.000  
C37  21217888.452   110487113.379         314.348          50.000                                                                  
C08  38887323.807   202496496.022       -2538.620          33.000    38887322.764   156583120.831       -1962.820          42.000  
C20  22292010.472   116080347.524         493.219          49.000                                                                  
C28  24282063.651   126443099.716        2444.249          41.000                                                                  
C07  37656410.537   196086815.820        1051.605          40.000    37656396.161   151626706.954         813.257          42.000  
C10  38638322.073   201199891.449         915.846          35.000    38638318.921   155580508.995         708.306          43.000  
G29                                                                  22216420.087                       -1567.408          30.000  
> 2025 10 28 07 07 01.5160000  0 21                     
G03  21842394.855   114782557.987       -1579.668          42.000    21842389.673    89440936.276       -1230.410          37.000  
G16  19894705.951   104547389.660        2015.556          45.000                                                                  
G26  18884648.189    99239494.591        -525.537          49.000    18884639.037    77329441.486        -409.522          46.000  
G28  20470779.009   107574671.266       -1747.819          46.000    20470767.939    83824373.529       -1361.989          45.000  
G31  19272840.292   101279462.929        -521.032          47.000    19272828.124    78919013.091        -406.080          45.000  
C06  35197626.089   183283277.242         -80.825          47.000    35197606.541   141726177.792         -62.533          47.000  
C09  36347404.657   189270475.918         -48.981          45.000    36347388.183   146355872.615         -37.794          47.000  
C13  37995991.482   197855093.310       -2440.449          38.000    37995989.625   152994103.142       -1887.203          39.000  
C16  35633122.819   185551021.739         -93.686          48.000    35633109.551   143479767.763         -72.408          47.000  
C23  21697556.770   112984868.548       -1820.241          44.000                                                                  
C32  22071493.502   114932062.225       -2708.551          44.000                                                                  
G32  22074062.976   115999978.916       -3737.153          42.000    22074059.622    90389582.445       -2911.870          38.000  
G27  23221686.443   122030795.509        3660.262          35.000    23221703.536    95089055.798        2851.989          34.000  
G04  21722765.991   114153921.768        2772.354          27.000    21722760.290                        2160.398          31.000  
C37  21217885.992   110487100.817         314.180          50.000                                                                  
C08  38887343.320   202496597.540       -2538.245          33.000    38887342.251   156583199.327       -1962.614          42.000  
C20  22292006.692   116080327.798         493.194          49.000                                                                  
C28  24282044.866   126443001.949        2444.198          41.000                                                                  
C07  37656402.424   196086773.759        1051.550          40.000    37656388.103   151626674.430         813.171          42.000  
C10  38638315.057   201199854.810         915.889          35.000    38638311.885   155580480.679         707.986          43.000  
G29                                                                  22216435.403                       -1568.265          30.000  
> 2025 10 28 07 07 01.5560000  0 21                     
G03  21842406.867   114782621.180       -1579.795          42.000    21842401.688    89440985.527       -1231.003          37.000  
G16  19894690.620   104547309.042        2015.463          46.000                                                                  
G26  18884652.190    99239515.609        -525.516          49.000    18884643.027    77329457.868        -409.602          46.000  
G28  20470792.303   107574741.178       -1747.808          46.000    20470781.244    83824428.005       -1361.952          45.000  
G31  19272844.275   101279483.769        -521.008          47.000    19272832.099    78919029.337        -406.172          45.000  
C06  35197626.712   183283280.479         -80.931          47.000    35197607.136   141726180.289         -62.489          47.000  
C09  36347405.034   189270477.881         -49.023          45.000    36347388.571   146355874.143         -38.056          47.000  
C13  37996010.224   197855190.899       -2439.955          38.000    37996008.385   152994178.630       -1887.350          39.000  
C16  35633123.557   185551025.487         -93.658          48.000    35633110.267   143479770.657         -72.322          47.000  
C23  21697570.739   112984941.371       -1820.499          44.000                                                                  
C32  22071514.285   114932170.579       -2708.756          44.000                                                                  
G32  22074091.435   116000128.412       -3737.365          42.000    22074088.069    90389698.927       -2911.970          38.000  
G27  23221658.568   122030649.074        3660.710          35.000    23221675.659    95088941.657        2852.998          34.000  
G04  21722744.745   114153810.839        2772.654          27.000    21722739.195                        2160.555          31.000  
C37  21217883.539   110487088.252         314.116          50.000                                                                  
C08  38887362.791   202496699.022       -2537.304          33.000    38887361.725   156583277.823       -1962.462          42.000  
C20  22292002.872   116080308.079         493.022          49.000                                                                  
C28  24282026.098   126442904.175        2444.302          41.000                                                                  
C07  37656394.328   196086731.691        1051.642          40.000    37656380.019   151626641.897         813.306          42.000  
C10  38638308.027   201199818.161         916.125          35.000    38638304.825   155580452.350         708.049          43.000  
G29                                                                  22216450.738                       -1566.361          30.000  
> 2025 10 28 07 07 01.5960000  0 21                     
G03  21842418.898   114782684.366       -1579.719          42.000    21842413.711    89441034.764       -1231.058          37.000  
G16  19894675.260   104547228.416        2015.579          46.000                                                                  
G26  18884656.190    99239536.624        -525.427          49.000    18884647.010    77329474.244        -409.479          46.000  
G28  20470805.608   107574811.097       -1747.934          46.000    20470794.567    83824482.484       -1361.964          45.000  
G31  19272848.239   101279504.617        -521.156          47.000    19272836.062    78919045.587        -406.240          45.000  
C06  35197627.323   183283283.713         -80.916          47.000    35197607.726   141726182.790         -62.502          47.000  
C09  36347405.400   189270479.839         -48.979          45.000    36347388.929   146355875.661         -38.009          47.000  
C13  37996028.962   197855288.515       -2440.163          38.000    37996027.127   152994254.119       -1887.344          39.000  
C16  35633124.287   185551029.246         -93.871          48.000    35633110.983   143479773.563         -72.538          47.000  
C23  21697584.729   112985014.183       -1820.400          44.000                                                                  
C32  22071535.116   114932278.926       -2708.730          44.000                                                                  
G32  22074119.881   116000277.892       -3737.164          42.000    22074116.526    90389815.421       -2912.332          39.000  
G27  23221630.687   122030502.635        3661.064          35.000    23221647.782    95088827.634        2851.469          34.000  
G04  21722723.707   114153699.935        2772.624          27.000    21722718.091                        2160.885          31.000  
C37  21217881.102   110487075.682         314.184          50.000                                                                  
C08  38887382.278   202496800.543       -2537.713          33.000    38887381.214   156583356.322       -1962.434          42.000  
C20  22291999.099   116080288.354         493.047          49.000                                                                  
C28  24282007.302   126442806.397        2444.427          41.000                                                                  
C07  37656386.254   196086689.625        1051.648          40.000    37656371.943   151626609.372         813.208          42.000  
C10  38638301.017   201199781.534         915.907          35.000    38638297.784   155580424.018         708.135          43.000  
G29                                                                  22216466.116                       -1566.837          30.000  
> 2025 10 28 07 07 01.6360000  0 21                     
G03  21842430.921   114782747.561       -1579.845          42.000    21842425.745    89441084.020       -1231.432          37.000  
G16  19894659.922   104547147.799        2015.470          46.000                                                                  
G26  18884660.171    99239557.635        -525.309          49.000    18884651.005    77329490.618        -409.392          46.000  
G28  20470818.905   107574881.009       -1747.860          46.000    20470807.869    83824536.964       -1361.970          45.000  
G31  19272852.234   101279525.477        -521.458          47.000    19272840.042    78919061.830        -406.178          45.000  
C06  35197627.961   183283286.944         -80.848          47.000    35197608.334   141726185.293         -62.570          47.000  
C09  36347405.780   189270481.799         -49.000          45.000    36347389.349   146355877.174         -37.902          47.000  
C13  37996047.708   197855386.138       -2440.490          37.000    37996045.854   152994329.590       -1887.035          39.000  
C16  35633125.037   185551033.005         -93.971          48.000    35633111.712   143479776.470         -72.678          47.000  
C23  21697598.713   112985086.995       -1820.317          44.000                                                                  
C32  22071555.918   114932387.271       -2708.687          44.000                                                                  
G32  22074148.328   116000427.381       -3737.234          42.000    22074144.967    90389931.911       -2912.436          38.000  
G27  23221602.794   122030356.225        3660.638          35.000    23221619.903    95088713.516        2852.244          34.000  
G04  21722702.772   114153589.038        2772.512          27.000    21722696.952                        2159.947          31.000  
C37  21217878.670   110487063.118         314.113          50.000                                                                  
C08  38887401.787   202496902.073       -2538.149          33.000    38887400.728   156583434.828       -1962.580          42.000  
C20  22291995.319   116080268.632         493.010          49.000                                                                  
C28  24281988.540   126442708.615        2444.532          41.000                                                                  
C07  37656378.182   196086647.571        1051.434          40.000    37656363.868   151626576.846         813.165          42.000  
C10  38638293.963   201199744.921         915.471          35.000    38638290.748   155580395.689         708.168          43.000  
G29                                                                  22216481.418                       -1567.079          30.000  
> 2025 10 28 07 07 01.6760000  0 21                     
G03  21842442.949   114782810.756       -1579.874          42.000    21842437.767    89441133.282       -1231.704          37.000  
G16  19894644.571   104547067.184        2015.414          46.000                                                                  
G26  18884664.169    99239578.650        -525.354          49.000    18884655.005    77329506.991        -409.343          46.000  
G28  20470832.205   107574950.924       -1747.900          46.000    20470821.168    83824591.435       -1361.870          45.000  
G31  19272856.202   101279546.329        -521.413          47.000    19272843.991    78919078.066        -405.999          45.000  
C06  35197628.587   183283290.173         -80.764          47.000    35197608.944   141726187.793         -62.555          47.000  
C09  36347406.160   189270483.759         -49.020          45.000    36347389.725   146355878.685         -37.822          47.000  
C13  37996066.454   197855483.776       -2440.942          38.000    37996064.591   152994405.074       -1887.067          39.000  
C16  35633125.796   185551036.759         -93.955          48.000    35633112.428   143479779.377         -72.712          47.000  
C23  21697612.704   112985159.800       -1820.155          44.000                                                                  
C32  22071576.721   114932495.619       -2708.686          44.000                                                                  
G32  22074176.756   116000576.849       -3736.872          42.000    22074173.433    90390048.378       -2911.941          39.000  
G27  23221574.935   122030209.813        3660.459          35.000    23221592.019    95088599.406        2852.694          34.000  
G04  21722682.198   114153478.124        2772.618          27.000    21722675.850                        2160.551          31.000  
C37  21217876.282   110487050.544         314.274          50.000                                                                  
C08  38887421.291   202497003.602       -2538.307          33.000    38887420.218   156583513.325       -1962.522          42.000  
C20  22291991.559   116080248.906         493.059          49.000                                                                  
C28  24281969.758   126442610.846        2444.350          41.000                                                                  
C07  37656370.118   196086605.504        1051.544          40.000    37656355.801   151626544.315         813.287          42.000  
C10  38638286.927   201199708.279         915.755          35.000    38638283.709   155580367.358         708.214          43.000  
G29                                                                  22216496.790                       -1567.381          30.000  
> 2025 10 28 07 07 01.7160000  0 21                     
G03  21842454.960   114782873.953       -1579.949          42.000    21842449.780    89441182.505       -1230.986          37.000  
G16  19894629.221   104546986.567        2015.381          45.000                                                                  
G26  18884668.198    99239599.667        -525.443          49.000    18884659.001    77329523.362        -409.294          46.000  
G28  20470845.508   107575020.840       -1747.906          46.000    20470834.506    83824645.922       -1362.100          45.000  
G31  19272860.170   101279567.172        -521.191          47.000    19272847.962    78919094.305        -405.963          45.000  
C06  35197629.220   183283293.404         -80.768          47.000    35197609.561   141726190.284         -62.391          47.000  
C09  36347406.543   189270485.724         -49.115          45.000    36347390.105   146355880.203         -37.913          47.000  
C13  37996085.178   197855581.383       -2440.496          38.000    37996083.346   152994480.547       -1886.954          39.000  
C16  35633126.542   185551040.509         -93.851          48.000    35633113.151   143479782.275         -72.599          47.000  
C23  21697626.667   112985232.609       -1820.163          44.000                                                                  
C32  22071597.530   114932603.972       -2708.805          44.000                                                                  
G32  22074205.211   116000726.341       -3737.174          42.000    22074201.875    90390164.874       -2912.286          39.000  
G27  23221547.049   122030063.406        3660.187          35.000    23221564.150    95088485.339        2852.107          34.000  
G04  21722661.265   114153367.226        2772.500          27.000    21722654.739                        2160.716          31.000  
C37  21217873.893   110487037.973         314.291          50.000                                                                  
C08  38887440.795   202497105.156       -2538.787          33.000    38887439.692   156583591.839       -1962.732          42.000  
C20  22291987.750   116080229.188         492.955          49.000                                                                  
C28  24281950.991   126442513.090        2443.972          41.000                                                                  
C07  37656362.034   196086563.436        1051.593          40.000    37656347.710   151626511.791         813.190          42.000  
C10  38638279.865   201199671.619         916.229          35.000    38638276.670   155580339.030         708.200          43.000  
G29                                                                  22216512.129                       -1567.971          30.000  
> 2025 10 28 07 07 01.7560000  0 21                     
G03  21842466.969   114782937.144       -1579.859          42.000    21842461.789    89441231.729       -1230.618          37.000  
G16  19894613.897   104546905.955        2015.256          45.000                                                                  
G26  18884672.227    99239620.696        -525.713          49.000    18884662.990    77329539.739        -409.384          46.000  
G28  20470858.817   107575090.756       -1747.938          46.000    20470847.815    83824700.403       -1362.123          45.000  
G31  19272864.124   101279588.012        -521.043          47.000    19272851.936    78919110.555        -406.154          45.000  
C06  35197629.833   183283296.639         -80.856          47.000    35197610.187   141726192.777         -62.350          47.000  
C09  36347406.910   189270487.689         -49.137          45.000    36347390.491   146355881.729         -38.135          47.000  
C13  37996103.915   197855679.005       -2440.619          38.000    37996102.092   152994556.036       -1887.137          39.000  
C16  35633127.267   185551044.262         -93.851          48.000    35633113.858   143479785.174         -72.514          47.000  
C23  21697640.640   112985305.426       -1820.354          44.000                                                                  
C32  22071618.335   114932712.323       -2708.829          44.000                                                                  
G32  22074233.669   116000875.831       -3737.272          42.000    22074230.329    90390281.359       -2912.279          38.000  
G27  23221519.156   122029916.980        3660.393          35.000    23221536.260    95088371.254        2852.001          33.000  
G04  21722639.918   114153256.313        2772.600          27.000    21722633.656                        2160.740          31.000  
C37  21217871.480   110487025.416         314.032          50.000                                                                  
C08  38887460.294   202497206.690       -2538.621          33.000    38887459.201   156583670.350       -1962.798          42.000  
C20  22291983.927   116080209.475         492.801          49.000                                                                  
C28  24281932.239   126442415.322        2443.998          41.000                                                                  
C07  37656353.966   196086521.376        1051.471          40.000    37656339.644   151626479.266         813.141          42.000  
C10  38638272.843   201199634.987         916.010          35.000    38638269.632   155580310.704         708.119          43.000  
G29                                                                  22216527.565                       -1568.106          30.000  
> 2025 10 28 07 07 01.7960000  0 21                     
G03  21842479.008   114783000.345       -1580.018          42.000    21842473.808    89441280.976       -1230.849          37.000  
G16  19894598.561   104546825.346        2015.177          46.000                                                                  
G26  18884676.241    99239641.731        -525.917          49.000    18884667.007    77329556.128        -409.647          46.000  
G28  20470872.107   107575160.676       -1747.987          46.000    20470861.128    83824754.901       -1362.386          45.000  
G31  19272868.089   101279608.860        -521.137          47.000    19272855.914    78919126.808        -406.320          45.000  
C06  35197630.459   183283299.887         -81.110          47.000    35197610.842   141726195.290         -62.688          47.000  
C09  36347407.324   189270489.663         -49.294          45.000    36347390.864   146355883.247         -38.094          47.000  
C13  37996122.675   197855776.611       -2440.333          38.000    37996120.836   152994631.525       -1887.296          39.000  
C16  35633128.007   185551048.023         -93.989          48.000    35633114.563   143479788.084         -72.678          47.000  
C23  21697654.608   112985378.245       -1820.478          44.000                                                                  
C32  22071639.165   114932820.672       -2708.790          44.000                                                                  
G32  22074262.122   116001025.346       -3737.794          42.000    22074258.776    90390397.865       -2912.582          39.000  
G27  23221491.278   122029770.557        3660.493          35.000    23221508.392    95088257.178        2851.780          33.000  
G04  21722618.781   114153145.394        2772.755          27.000    21722612.566                        2160.721          31.000  
C37  21217869.079   110487012.854         313.972          50.000                                                                  
C08  38887479.784   202497308.218       -2538.419          33.000    38887478.708   156583748.867       -1962.896          42.000  
C20  22291980.135   116080189.763         492.703          49.000                                                                  
C28  24281913.443   126442317.562        2443.945          41.000                                                                  
C07  37656345.893   196086479.304        1051.703          40.000    37656331.580   151626446.743         813.074          42.000  
C10  38638265.802   201199598.376         915.402          35.000    38638262.608   155580282.375         708.148          43.000  
G29                                                                  22216542.821                       -1568.062          30.000  
> 2025 10 28 07 07 01.8360000  0 21                     
G03  21842491.026   114783063.561       -1580.393          42.000    21842485.835    89441330.245       -1231.467          37.000  
G16  19894583.226   104546744.739        2015.132          45.000                                                                  
G26  18884680.229    99239662.756        -525.806          49.000    18884671.011    77329572.520        -409.844          46.000  
G28  20470885.390   107575230.601       -1748.115          46.000    20470874.428    83824809.374       -1362.077          45.000  
G31  19272872.071   101279629.722        -521.476          47.000    19272859.893    78919143.060        -406.362          45.000  
C06  35197631.080   183283303.121         -81.002          47.000    35197611.451   141726197.800         -62.836          47.000  
C09  36347407.725   189270491.627         -49.190          45.000    36347391.239   146355884.765         -38.042          47.000  
C13  37996141.421   197855874.242       -2440.647          38.000    37996139.587   152994707.007       -1887.170          39.000  
C16  35633128.756   185551051.779         -93.993          48.000    35633115.295   143479790.992         -72.749          47.000  
C23  21697668.592   112985451.061       -1820.470          44.000                                                                  
C32  22071659.960   114932929.028       -2708.909          44.000                                                                  
G32  22074290.584   116001174.839       -3737.590          42.000    22074287.182    90390514.334       -2912.075          39.000  
G27  23221463.391   122029624.161        3660.005          35.000    23221480.520    95088143.085        2851.899          33.000  
G04  21722598.354   114153034.489        2772.692          27.000    21722591.470    88950382.703        2159.859          31.000  
C37  21217866.682   110487000.296         313.905          50.000                                                                  
C08  38887499.308   202497409.749       -2538.355          33.000    38887498.201   156583827.364       -1962.595          42.000  
C20  22291976.350   116080170.049         492.753          49.000                                                                  
C28  24281894.693   126442219.788        2444.187          41.000                                                                  
C07  37656337.811   196086437.254        1051.379          40.000    37656323.494   151626414.224         812.970          42.000  
C10  38638258.775   201199561.745         915.496          35.000    38638255.577   155580254.045         708.209          43.000  
G29                                                                  22216557.984                       -1568.338          30.000  
> 2025 10 28 07 07 01.8760000  0 21                     
G03  21842503.052   114783126.758       -1580.109          42.000    21842497.843    89441379.486       -1231.286          37.000  
G16  19894567.879   104546664.120        2015.328          46.000                                                                  
G26  18884684.209    99239683.771        -525.553          49.000    18884675.020    77329588.906        -409.777          46.000  
G28  20470898.672   107575300.525       -1748.137          46.000    20470887.755    83824863.852       -1361.974          45.000  
G31  19272876.036   101279650.582        -521.561          47.000    19272863.858    78919159.311        -406.349          45.000  
C06  35197631.707   183283306.351         -80.841          47.000    35197612.101   141726200.301         -62.706          47.000  
C09  36347408.097   189270493.590         -49.121          45.000    36347391.593   146355886.283         -38.003          47.000  
C13  37996160.187   197855971.858       -2440.461          37.000    37996158.327   152994782.498       -1887.249          39.000  
C16  35633129.501   185551055.530         -93.885          48.000    35633116.021   143479793.893         -72.628          47.000  
C23  21697682.576   112985523.878       -1820.455          44.000                                                                  
C32  22071680.758   114933037.385       -2708.919          44.000                                                                  
G32  22074319.017   116001324.325       -3737.309          42.000    22074315.618    90390630.810       -2911.890          39.000  
G27  23221435.565   122029477.777        3659.679          35.000    23221452.651    95088028.989        2852.131          33.000  
G04  21722577.098   114152923.584        2772.693          27.000    21722570.371    88950296.276        2160.237          31.000  
C37  21217864.253   110486987.728         314.069          50.000                                                                  
C08  38887518.783   202497511.253       -2537.848          33.000    38887517.698   156583905.870       -1962.572          42.000  
C20  22291972.585   116080150.334         492.810          49.000                                                                  
C28  24281875.899   126442122.004        2444.491          41.000                                                                  
C07  37656329.761   196086395.189        1051.544          40.000    37656315.400   151626381.694         813.153          42.000  
C10  38638251.732   201199525.101         915.669          35.000    38638248.564   155580225.727         708.012          43.000  
G29                                                                  22216573.150                       -1568.129          30.000  
> 2025 10 28 07 07 01.9160000  0 21                     
G03  21842515.086   114783189.951       -1579.889          42.000    21842509.875    89441428.726       -1231.128          37.000  
G16  19894552.544   104546583.500        2015.436          46.000                                                                  
G26  18884688.212    99239704.788        -525.454          49.000    18884679.026    77329605.287        -409.645          46.000  
G28  20470911.972   107575370.430       -1747.808          46.000    20470901.062    83824918.329       -1361.913          45.000  
G31  19272880.002   101279671.435        -521.443          47.000    19272867.852    78919175.553        -406.158          45.000  
C06  35197632.348   183283309.583         -80.793          47.000    35197612.720   141726202.792         -62.428          47.000  
C09  36347408.463   189270495.548         -48.989          45.000    36347391.997   146355887.801         -37.983          47.000  
C13  37996178.929   197856069.472       -2440.350          37.000    37996177.060   152994857.975       -1887.045          39.000  
C16  35633130.249   185551059.281         -93.795          48.000    35633116.712   143479796.789         -72.486          47.000  
C23  21697696.545   112985596.696       -1820.461          44.000                                                                  
C32  22071701.583   114933145.737       -2708.876          44.000                                                                  
G32  22074347.468   116001473.797       -3736.899          42.000    22074344.055    90390747.286       -2911.831          38.000  
G27  23221407.688   122029331.300        3661.257          35.000    23221424.778    95087914.895        2852.234          33.000  
G04  21722556.260   114152812.689        2772.506          27.000    21722549.270    88950209.863        2160.205          31.000  
C37  21217861.838   110486975.159         314.176          50.000                                                                  
C08  38887538.285   202497612.774       -2537.995          33.000    38887537.173   156583984.376       -1962.636          42.000  
C20  22291968.825   116080130.616         492.908          49.000                                                                  
C28  24281857.125   126442024.223        2444.620          41.000                                                                  
C07  37656321.660   196086353.128        1051.501          40.000    37656307.292   151626349.161         813.300          42.000  
C10  38638244.714   201199488.463         915.811          35.000    38638241.550   155580197.404         707.994          43.000  
G29                                                                  22216588.475                       -1568.122          30.000  
> 2025 10 28 07 07 01.9560000  0 21                     
G03  21842527.101   114783253.143       -1579.831          42.000    21842521.885    89441477.959       -1230.934          37.000  
G16  19894537.182   104546502.879        2015.482          46.000                                                                  
G26  18884692.216    99239725.806        -525.432          49.000    18884683.024    77329621.654        -409.305          46.000  
G28  20470925.294   107575440.346       -1747.827          46.000    20470914.357    83824972.814       -1362.048          45.000  
G31  19272883.961   101279692.275        -521.109          47.000    19272871.829    78919191.797        -406.078          45.000  
C06  35197633.010   183283312.807         -80.638          47.000    35197613.330   141726205.289         -62.394          47.000  
C09  36347408.836   189270497.501         -48.845          45.000    36347392.388   146355889.310         -37.819          47.000  
C13  37996197.674   197856167.071       -2440.088          37.000    37996195.781   152994933.452       -1886.974          39.000  
C16  35633131.019   185551063.025         -93.642          48.000    35633117.435   143479799.679         -72.315          47.000  
C23  21697710.512   112985669.493       -1820.045          44.000                                                                  
C32  22071722.363   114933254.083       -2708.746          44.000                                                                  
G32  22074375.942   116001623.278       -3736.891          42.000    22074372.507    90390863.781       -2912.219          38.000  
G27  23221379.823   122029184.873        3661.211          35.000    23221396.917    95087800.809        2852.144          33.000  
G04  21722534.876                        2772.644          27.000    21722528.129    88950123.394        2161.307          31.000  
C37  21217859.422   110486962.583         314.346          50.000                                                                  
C08  38887557.753   202497714.311       -2538.373          33.000    38887556.672   156584062.877       -1962.544          42.000  
C20  22291965.041   116080110.895         492.988          49.000                                                                  
C28  24281838.342   126441926.442        2444.633          41.000                                                                  
C07  37656313.556   196086311.055        1051.740          40.000    37656299.237   151626316.627         813.354          42.000  
C10  38638237.672   201199451.815         916.100          35.000    38638234.537   155580169.063         708.317          43.000  
G29                                                                  22216603.811                       -1567.956          30.000  
> 2025 10 28 07 07 01.9960000  0 21                     
G03  21842539.127   114783316.327       -1579.658          42.000    21842533.909    89441527.211       -1231.188          37.000  
G16  19894521.829   104546422.261        2015.500          46.000                                                                  
G26  18884696.267    99239746.830        -525.553          49.000    18884687.008    77329638.028        -409.285          46.000  
G28  20470938.609   107575510.255       -1747.747          46.000    20470927.662    83825027.291       -1361.948          45.000  
G31  19272887.919   101279713.106        -520.809          47.000    19272875.782    78919208.038        -406.036          45.000  
C06  35197633.635   183283316.032         -80.580          47.000    35197613.961   141726207.780         -62.286          47.000  
C09  36347409.206   189270499.449         -48.697          45.000    36347392.782   146355890.825         -37.835          47.000  
C13  37996216.405   197856264.687       -2440.247          37.000    37996214.554   152995008.937       -1887.137          39.000  
C16  35633131.743   185551066.767         -93.550          48.000    35633118.139   143479802.577         -72.381          47.000  
C23  21697724.489   112985742.301       -1820.115          44.000                                                                  
C32  22071743.159   114933362.426       -2708.597          44.000                                                                  
G32  22074404.379   116001772.760       -3736.987          42.000    22074400.939    90390980.254       -2912.000          39.000  
G27  23221351.980   122029038.461        3660.718          35.000    23221369.057    95087686.734        2851.917          33.000  
G04  21722513.906   114152590.870        2772.663          27.000    21722507.032    88950037.014        2160.229          31.000  
C37  21217856.972   110486950.017         314.252          50.000                                                                  
C08  38887577.263   202497815.824       -2538.074          33.000    38887576.182   156584141.369       -1962.395          42.000  
C20  22291961.285   116080091.170         493.104          49.000                                                                  
C28  24281819.562   126441828.666        2444.552          41.000                                                                  
C07  37656305.518   196086268.980        1051.935          40.000    37656291.166   151626284.106         813.110          42.000  
C10  38638230.629   201199415.173         916.187          35.000    38638227.456   155580140.731         708.323          43.000  
G29                                                                  22216619.205                       -1567.324          30.000  
> 2025 10 28 07 07 02.0360000  0 21                     
G03  21842551.166   114783379.520       -1579.768          42.000    21842545.935    89441576.462       -1231.300          37.000  
G16  19894506.492   104546341.640        2015.516          46.000                                                                  
G26  18884700.273    99239767.847        -525.489          49.000    18884691.003    77329654.409        -409.451          46.000  
G28  20470951.890   107575580.169       -1747.818          46.000    20470940.974    83825081.771       -1361.985          45.000  
G31  19272891.900   101279733.947        -520.866          47.000    19272879.724    78919224.284        -406.104          45.000  
C06  35197634.240   183283319.261         -80.674          47.000    35197614.595   141726210.275         -62.313          47.000  
C09  36347409.588   189270501.412         -48.904          45.000    36347393.141   146355892.331         -37.729          47.000  
C13  37996235.136   197856362.301       -2440.344          37.000    37996233.334   152995084.413       -1887.007          39.000  
C16  35633132.462   185551070.511         -93.528          48.000    35633118.853   143479805.476         -72.461          47.000  
C23  21697738.460   112985815.107       -1820.097          44.000                                                                  
C32  22071763.942   114933470.777       -2708.686          44.000                                                                  
G32  22074432.829   116001922.260       -3737.354          42.000    22074429.383    90391096.724       -2911.819          39.000  
G27  23221324.113   122028892.051        3660.344          35.000    23221341.192    95087572.656        2851.822          33.000  
G04  21722493.145   114152479.957        2772.750          27.000    21722485.915    88949950.591        2160.430          31.000  
C37  21217854.570   110486937.445         314.275          50.000                                                                  
C08  38887596.759   202497917.318       -2537.526          33.000    38887595.689   156584219.878       -1962.592          42.000  
C20  22291957.470   116080071.454         492.993          49.000                                                                  
C28  24281800.769   126441730.908        2444.142          41.000                                                                  
C07  37656297.425   196086226.909        1051.898          40.000    37656283.055   151626251.572         813.251          42.000  
C10  38638223.578   201199378.543         915.917          35.000    38638220.437   155580112.408         708.171          43.000  
G29                                                                  22216634.479                       -1567.565          30.000  
> 2025 10 28 07 07 02.0760000  0 21                     
G03  21842563.208   114783442.727       -1580.063          42.000    21842557.973    89441625.703       -1231.134          37.000  
G16  19894491.149   104546261.031        2015.329          46.000                                                                  
G26  18884704.260    99239788.864        -525.446          49.000    18884694.969    77329670.793        -409.589          46.000  
G28  20470965.202   107575650.087       -1747.922          46.000    20470954.284    83825136.246       -1361.906          45.000  
G31  19272895.875   101279754.799        -521.176          47.000    19272883.683    78919240.522        -406.012          45.000  
C06  35197634.849   183283322.485         -80.634          47.000    35197615.235   141726212.770         -62.334          47.000  
C09  36347409.960   189270503.365         -48.846          45.000    36347393.535   146355893.844         -37.762          47.000  
C13  37996253.885   197856459.919       -2440.403          38.000    37996252.069   152995159.873       -1886.656          39.000  
C16  35633133.170   185551074.263         -93.703          48.000    35633119.568   143479808.374         -72.458          47.000  
C23  21697752.412   112985887.916       -1820.167          44.000                                                                  
C32  22071784.740   114933579.133       -2708.917          44.000                                                                  
G32  22074461.258   116002071.743       -3737.246          42.000    22074457.814    90391213.206       -2911.958          39.000  
G27  23221296.264   122028745.652        3659.951          35.000    23221313.329    95087458.561        2852.127          33.000  
G04  21722471.845   114152369.064        2772.569          27.000    21722464.798    88949864.141        2161.123          31.000  
C37  21217852.126   110486924.878         314.192          50.000                                                                  
C08  38887616.245   202498018.833       -2537.614          33.000    38887615.171   156584298.381       -1962.630          42.000  
C20  22291953.694   116080051.737         492.949          49.000                                                                  
C28  24281781.977   126441633.129        2444.327          41.000                                                                  
C07  37656289.343   196086184.833        1051.965          40.000    37656274.963   151626219.046         813.159          42.000  
C10  38638216.557   201199341.917         915.689          35.000    38638213.391   155580084.063         708.473          43.000  
G29                                                                  22216649.901                       -1567.817          30.000  
> 2025 10 28 07 07 02.1160000  0 21                     
G03  21842575.220   114783505.913       -1579.744          42.000    21842569.998    89441674.934       -1230.897          37.000  
G16  19894475.830   104546180.418        2015.267          46.000                                                                  
G26  18884708.257    99239809.883        -525.459          49.000    18884698.952    77329687.170        -409.525          46.000  
G28  20470978.499   107575719.998       -1747.855          46.000    20470967.575    83825190.722       -1361.908          45.000  
G31  19272899.831   101279775.655        -521.384          47.000    19272887.681    78919256.774        -406.246          45.000  
C06  35197635.474   183283325.708         -80.590          47.000    35197615.884   141726215.270         -62.440          47.000  
C09  36347410.342   189270505.312         -48.740          45.000    36347393.943   146355895.350         -37.675          47.000  
C13  37996272.624   197856557.534       -2440.376          38.000    37996270.818   152995235.354       -1886.863          39.000  
C16  35633133.873   185551078.007         -93.669          48.000    35633120.256   143479811.275         -72.517          47.000  
C23  21697766.360   112985960.727       -1820.275          44.000                                                                  
C32  22071805.594   114933687.481       -2708.841          44.000                                                                  
G32  22074489.722   116002221.230       -3737.176          42.000    22074486.255    90391329.693       -2912.094          39.000  
G27  23221268.410   122028599.202        3660.627          35.000    23221285.435    95087344.402        2853.373          33.000  
G04  21722450.813   114152258.144        2772.718          27.000    21722443.715    88949777.716        2160.900          31.000  
C37  21217849.748   110486912.305         314.263          50.000                                                                  
C08  38887635.714   202498120.388       -2538.487          33.000    38887634.675   156584376.875       -1962.489          42.000  
C20  22291949.948   116080032.016         492.980          49.000                                                                  
C28  24281763.213   126441535.353        2444.306          41.000                                                                  
C07  37656281.267   196086142.767        1051.794          40.000    37656266.880   151626186.510         813.330          42.000  
C10  38638209.518   201199305.280         915.758          35.000    38638206.365   155580055.725         708.492          43.000  
G29                                                                  22216665.319                       -1567.780          30.000  
> 2025 10 28 07 07 02.1560000  0 21                     
G03  21842587.254   114783569.109       -1579.847          42.000    21842582.008    89441724.175       -1231.028          37.000  
G16  19894460.487   104546099.798        2015.392          46.000                                                                  
G26  18884712.260    99239830.902        -525.497          49.000    18884702.960    77329703.548        -409.486          46.000  
G28  20470991.798   107575789.910       -1747.835          46.000    20470980.891    83825245.200       -1361.915          45.000  
G31  19272903.781   101279796.501        -521.291          47.000    19272891.649    78919273.009        -406.042          45.000  
C06  35197636.096   183283328.930         -80.558          47.000    35197616.539   141726217.762         -62.374          47.000  
C09  36347410.711   189270507.267         -48.798          45.000    36347394.319   146355896.865         -37.823          47.000  
C13  37996291.348   197856655.149       -2440.400          38.000    37996289.583   152995310.837       -1887.036          39.000  
C16  35633134.576   185551081.754         -93.681          48.000    35633120.957   143479814.169         -72.438          47.000  
C23  21697780.341   112986033.542       -1820.373          44.000                                                                  
C32  22071826.387   114933795.822       -2708.660          44.000                                                                  
G32  22074518.182   116002370.705       -3736.954          42.000    22074514.706    90391446.169       -2911.949          39.000  
G27  23221240.550   122028452.760        3660.973          35.000    23221257.561    95087230.303        2852.954          33.000  
G04  21722429.359   114152147.230        2772.773          27.000    21722422.593    88949691.293        2160.690          31.000  
C37  21217847.340   110486899.732         314.322          50.000                                                                  
C08  38887655.203   202498221.875       -2537.711          33.000    38887654.144   156584455.366       -1962.381          42.000  
C20  22291946.176   116080012.298         492.968          49.000                                                                  
C28  24281744.442   126441437.556        2444.723          41.000                                                                  
C07  37656273.204   196086100.697        1051.715          40.000    37656258.788   151626153.976         813.312          42.000  
C10  38638202.500   201199268.645         915.761          35.000    38638199.352   155580027.396         708.345          43.000  
G29                                                                  22216680.805                       -1567.792          30.000  
> 2025 10 28 07 07 02.1960000  0 21                     
G03  21842599.269   114783632.307       -1579.955          42.000    21842594.047    89441773.429       -1231.297          37.000  
G16  19894445.118   104546019.173        2015.535          46.000                                                                  
G26  18884716.257    99239851.922        -525.547          49.000    18884706.944    77329719.927        -409.499          46.000  
G28  20471005.105   107575859.818       -1747.752          46.000    20470994.184    83825299.667       -1361.752          45.000  
G31  19272907.744   101279817.339        -521.062          47.000    19272895.596    78919289.247        -405.975          45.000  
C06  35197636.718   183283332.149         -80.496          47.000    35197617.182   141726220.243         -62.180          47.000  
C09  36347411.087   189270509.219         -48.824          45.000    36347394.675   146355898.373         -37.784          47.000  
C13  37996310.055   197856752.725       -2439.736          38.000    37996308.322   152995386.311       -1886.971          39.000  
C16  35633135.282   185551085.488         -93.486          48.000    35633121.663   143479817.057         -72.269          47.000  
C23  21697794.347   112986106.332       -1819.989          44.000                                                                  
C32  22071847.184   114933904.168       -2708.655          44.000                                                                  
G32  22074546.609   116002520.186       -3736.948          42.000    22074543.154    90391562.658       -2912.149          39.000  
G27  23221212.696   122028306.320        3661.028          35.000    23221229.723    95087116.255        2851.663          33.000  
G04  21722408.320   114152036.337        2772.549          27.000    21722401.499    88949604.869        2160.571          31.000  
C37  21217844.919   110486887.156         314.384          50.000                                                                  
C08  38887674.683   202498323.382       -2537.642          33.000    38887673.622   156584533.866       -1962.434          42.000  
C20  22291942.414   116079992.574         493.036          49.000                                                                  
C28  24281725.660   126441339.769        2444.720          41.000                                                                  
C07  37656265.148   196086058.634        1051.575          40.000    37656250.727   151626121.443         813.251          42.000  
C10  38638195.457   201199231.986         916.238          35.000    38638192.332   155579999.068         708.214          43.000  
G29                                                                  22216696.183                       -1567.786          30.000  
> 2025 10 28 07 07 02.2360000  0 21                     
G03  21842611.312   114783695.500       -1579.871          42.000    21842606.074    89441822.682       -1231.380          37.000  
G16  19894429.777   104545938.547        2015.622          46.000                                                                  
G26  18884720.262    99239872.942        -525.547          49.000    18884710.926    77329736.306        -409.519          46.000  
G28  20471018.418   107575929.727       -1747.742          46.000    20471007.472    83825354.136       -1361.678          45.000  
G31  19272911.691   101279838.173        -520.872          47.000    19272899.550    78919305.486        -405.957          45.000  
C06  35197637.323   183283335.379         -80.684          47.000    35197617.811   141726222.741         -62.357          47.000  
C09  36347411.451   189270511.171         -48.812          45.000    36347395.048   146355899.878         -37.669          47.000  
C13  37996328.774   197856850.332       -2439.901          37.000    37996327.048   152995461.800       -1887.132          39.000  
C16  35633135.997   185551089.229         -93.524          48.000    35633122.379   143479819.948         -72.260          47.000  
C23  21697808.317   112986179.137       -1820.062          44.000                                                                  
C32  22071867.986   114934012.510       -2708.581          44.000                                                                  
G32  22074575.062   116002669.659       -3736.870          42.000    22074571.606    90391679.137       -2912.017          39.000  
G27  23221184.819   122028159.915        3660.398          35.000    23221201.876    95087002.181        2851.492          33.000  
G04  21722387.147   114151925.419        2772.705          27.000    21722380.372    88949518.451        2160.234          31.000  
C37  21217842.466   110486874.584         314.350          50.000                                                                  
C08  38887694.183   202498424.934       -2538.524          33.000    38887693.134   156584612.360       -1962.362          42.000  
C20  22291938.624   116079972.858         492.949          49.000                                                                  
C28  24281706.874   126441241.993        2444.464          41.000                                                                  
C07  37656257.060   196086016.567        1051.581          40.000    37656242.672   151626088.908         813.306          42.000  
C10  38638188.419   201199195.339         916.289          35.000    38638185.308   155579970.733         708.299          43.000  
G29                                                                  22216711.445                       -1567.725          30.000  
