     3.04           OBSERVATION DATA    M: Mixed            RINEX VERSION / TYPE
RTKCONV 2.4.3 b34                       20251027 032134 UTC PGM / RUN BY / DATE 
format: u-blox UBX                                          COMMENT             
log: D:\GPdata\10_27\fingure_110_10_27_1.ubx                COMMENT             
                                                            MARKER NAME         
                                                            MARKER NUMBER       
                                                            MARKER TYPE         
                                                            OBSERVER / AGENCY   
                                                            REC # / TYPE / VERS 
                                                            ANT # / TYPE        
        0.0000        0.0000        0.0000                  APPROX POSITION XYZ 
        0.0000        0.0000        0.0000                  ANTENNA: DELTA H/E/N
G    8 C1C L1C D1C S1C C2L L2L D2L S2L                      SYS / # / OBS TYPES 
C    8 C2I L2I D2I S2I C7I L7I D7I S7I                      SYS / # / OBS TYPES 
  2025    10    27    02    45   51.6360000     GPS         TIME OF FIRST OBS   
  2025    10    27    02    46   19.6360000     GPS         TIME OF LAST OBS    
G L1C                                                       SYS / PHASE SHIFT   
G L2L  0.00000                                              SYS / PHASE SHIFT   
C L2I                                                       SYS / PHASE SHIFT   
C L7I                                                       SYS / PHASE SHIFT   
  0                                                         GLONASS SLOT / FRQ #
 C1C    0.000 C1P    0.000 C2C    0.000 C2P    0.000        GLONASS COD/PHS/BIS 
                                                            END OF HEADER       
> 2025 10 27 02 45 51.6360000  0 19                     
G12  20803528.421   109323281.5901       1063.677          44.000    20803516.790    85186919.9041        828.936          41.000  
G15  23073492.405   121252017.1331      -3216.680          37.000    23073483.317    94482053.7271      -2505.608          32.000  
G18  23378076.182   122852623.5161      -3695.423          38.000    23378070.467    95729285.1821      -2879.904          36.000  
G23  19150732.022   100637774.9061      -1906.186          46.000    19150720.097    78418971.3111      -1485.279          47.000  
G24  20758372.090                3      -3297.373          29.000    20758365.316                       -2569.153          32.000  
G32  20981697.725   110259567.6821       1540.451          44.000    20981687.633    85916491.6301       1200.435          42.000  
C08  34693814.427   180659793.2251       -284.900          45.000    34693797.336   139697532.9791       -220.300          49.000  
C13  34710955.439   180749051.9901          4.474          47.000    34710946.730   139766586.3791          3.522          48.000  
C16  35673078.555   185759082.2011         42.328          45.000    35673068.978   143640665.7271         32.474          48.000  
C25  22122879.184   115199633.0641      -2436.532          37.000                                                                  
C32  21100517.369   109875935.3971        953.264          49.000                                                                  
C06  35375828.408   184211222.8221        222.086          45.000    35375812.825   142443738.7351        171.946          47.000  
G25  20636198.111   108443960.4021       2675.439          46.000    20636188.956    84501744.8141       2084.535          41.000  
G10  19573300.777   102858386.0301       1209.454          49.000    19573289.320    80149348.0631        942.407          44.000  
G28  22176220.298   116536831.8031       2674.745          41.000    22176210.333    90807900.7961       2084.182          41.000  
C23  20745640.908   108027993.4971        426.015          51.000                                                                  
C09  36849460.733   191884814.2191        319.423          42.000    36849448.753   148377457.1721        247.128          46.000  
C33  25956779.979   135163774.3881      -2884.793          29.000                                                                  
C37  23016935.219   119855232.6121       2767.567          44.000                                                                  
> 2025 10 27 02 45 51.6760000  0 19                     
G12  20803520.334   109323239.041        1063.669          44.000    20803508.699    85186886.751         828.803          41.000  
G15  23073516.900   121252145.796       -3216.654          37.000    23073507.761    94482153.965       -2505.644          32.000  
G18  23378104.324   122852771.334       -3695.486          38.000    23378098.583    95729400.350       -2879.537          36.000  
G23  19150746.522   100637851.162       -1906.410          46.000    19150734.626    78419030.727       -1485.373          47.000  
G24  20758398.938                3      -3298.393          29.000    20758390.409                       -2568.664          32.000  
G32  20981686.015   110259506.073        1540.294          44.000    20981675.897    85916443.627        1200.208          42.000  
C08  34693816.618   180659804.624        -284.979          45.000    34693799.529   139697541.791        -220.355          49.000  
C13  34710955.423   180749051.817           4.303          47.000    34710946.691   139766586.238           3.485          48.000  
C16  35673078.235   185759080.531          42.005          45.000    35673068.606   143640664.438          32.223          48.000  
C25  22122897.924   115199730.511       -2436.373          37.000                                                                  
C32  21100510.063   109875897.264         953.278          49.000                                                                  
C06  35375826.689   184211213.947         221.841          45.000    35375811.120   142443731.875         171.616          47.000  
G25  20636177.746   108443853.408        2675.001          46.000    20636168.617    84501661.416        2084.779          41.000  
G10  19573291.575   102858337.649        1209.424          49.000    19573280.112    80149310.368         942.310          44.000  
G28  22176199.956   116536724.820        2674.553          41.000    22176189.983    90807817.434        2084.059          41.000  
C23  20745637.625   108027976.459         425.915          51.000                                                                  
C09  36849458.297   191884801.435         319.484          42.000    36849446.303   148377447.294         246.965          46.000  
C33  25956801.911   135163889.784       -2884.864          29.000                                                                  
C37  23016913.944   119855121.926        2767.304          44.000                                                                  
> 2025 10 27 02 45 51.7160000  0 19                     
G12  20803512.232   109323196.493        1063.687          44.000    20803500.613    85186853.620         828.310          41.000  
G15  23073541.371   121252274.461       -3216.711          37.000    23073532.252    94482254.255       -2506.611          32.000  
G18  23378132.461   122852919.143       -3695.264          38.000    23378126.686    95729515.516       -2879.269          36.000  
G23  19150761.032   100637927.410       -1906.346          46.000    19150749.169    78419090.147       -1485.503          47.000  
G24  20758424.524                2      -3297.592          29.000    20758415.535                       -2569.450          32.000  
G32  20981674.274   110259444.455        1540.387          44.000    20981664.183    85916395.617        1200.191          42.000  
C08  34693818.789   180659816.022        -284.998          45.000    34693801.722   139697550.613        -220.557          49.000  
C13  34710955.402   180749051.646           4.205          47.000    34710946.669   139766586.105           3.326          48.000  
C16  35673077.932   185759078.853          41.918          45.000    35673068.233   143640663.137          32.338          48.000  
C25  22122916.629   115199827.979       -2436.653          37.000                                                                  
C32  21100502.728   109875859.137         953.158          49.000                                                                  
C06  35375825.002   184211205.064         221.951          45.000    35375809.423   142443725.012         171.519          47.000  
G25  20636157.358   108443746.389        2675.239          46.000    20636148.257    84501578.026        2084.787          41.000  
G10  19573282.355   102858289.269        1209.424          49.000    19573270.880    80149272.662         942.481          44.000  
G28  22176179.592   116536617.848        2674.225          41.000    22176169.615    90807734.058        2084.279          41.000  
C23  20745634.392   108027959.418         425.931          51.000                                                                  
C09  36849455.828   191884788.656         319.435          42.000    36849443.811   148377437.410         247.017          46.000  
C33  25956824.262   135164005.171       -2884.777          29.000                                                                  
C37  23016892.684   119855011.246        2767.058          44.000                                                                  
> 2025 10 27 02 45 51.7560000  0 19                     
G12  20803504.111   109323153.944        1063.686          44.000    20803492.520    85186820.470         828.418          41.000  
G15  23073565.870   121252403.126       -3216.725          37.000    23073556.743    94482354.544       -2507.269          32.000  
G18  23378160.584   122853066.955       -3695.250          38.000    23378154.826    95729630.688       -2879.323          36.000  
G23  19150775.548   100638003.661       -1906.338          46.000    19150763.669    78419149.566       -1485.551          47.000  
G24  20758449.390                2      -3297.762          29.000    20758440.631    85002340.945       -2569.094          32.000  
G32  20981662.548   110259382.839        1540.365          44.000    20981652.468    85916347.612        1200.077          42.000  
C08  34693820.984   180659827.416        -284.888          45.000    34693803.902   139697559.426        -220.496          49.000  
C13  34710955.390   180749051.465           4.388          47.000    34710946.646   139766585.968           3.339          48.000  
C16  35673077.595   185759077.177          41.857          45.000    35673067.872   143640661.836          32.438          48.000  
C25  22122935.377   115199925.426       -2436.427          37.000                                                                  
C32  21100495.393   109875821.014         953.052          49.000                                                                  
C06  35375823.314   184211196.181         221.999          45.000    35375807.748   142443718.139         171.670          47.000  
G25  20636136.976   108443639.363        2675.500          46.000    20636127.898    84501494.652        2084.478          41.000  
G10  19573273.141   102858240.886        1209.485          49.000    19573261.671    80149234.965         942.395          44.000  
G28  22176159.219   116536510.832        2674.932          41.000    22176149.241    90807650.688        2084.278          41.000  
C23  20745631.112   108027942.384         425.850          51.000                                                                  
C09  36849453.362   191884775.866         319.638          42.000    36849441.363   148377427.531         246.943          46.000  
C33  25956846.343   135164120.593       -2885.139          29.000                                                                  
C37  23016871.431   119854900.549        2767.237          44.000                                                                  
> 2025 10 27 02 45 51.7960000  0 19                     
G12  20803496.018   109323111.403        1063.558          44.000    20803484.439    85186787.297         828.955          41.000  
G15  23073590.388   121252531.796       -3216.732          37.000    23073581.233    94482454.809       -2506.987          32.000  
G18  23378188.703   122853214.764       -3695.194          38.000    23378182.953    95729745.886       -2879.836          36.000  
G23  19150790.049   100638079.909       -1906.275          46.000    19150778.175    78419208.983       -1485.519          47.000  
G24  20758475.224                2      -3297.551          29.000    20758465.696    85002443.753       -2569.932          32.000  
G32  20981650.845   110259321.225        1540.366          44.000    20981640.758    85916299.595        1200.282          42.000  
C08  34693823.171   180659838.804        -284.747          45.000    34693806.061   139697568.235        -220.343          49.000  
C13  34710955.354   180749051.277           4.626          47.000    34710946.618   139766585.825           3.485          48.000  
C16  35673077.295   185759075.490          42.031          45.000    35673067.547   143640660.530          32.594          48.000  
C25  22122954.077   115200022.887       -2436.597          37.000                                                                  
C32  21100488.093   109875782.885         953.133          49.000                                                                  
C06  35375821.645   184211187.291         222.197          45.000    35375806.051   142443711.267         171.749          47.000  
G25  20636116.618   108443532.344        2675.506          46.000    20636107.514    84501411.264        2084.589          41.000  
G10  19573263.930   102858192.503        1209.552          49.000    19573252.455    80149197.264         942.432          44.000  
G28  22176138.858   116536403.847        2674.774          41.000    22176128.867    90807567.320        2084.196          41.000  
C23  20745627.861   108027925.340         425.989          51.000                                                                  
C09  36849450.906   191884763.091         319.460          42.000    36849438.905   148377417.645         247.064          46.000  
C33  25956868.537   135164235.981       -2884.979          29.000                                                                  
C37  23016850.204   119854789.852        2767.386          44.000                                                                  
> 2025 10 27 02 45 51.8360000  0 19                     
G12  20803487.901   109323068.844        1063.813          44.000    20803476.329    85186754.126         829.205          41.000  
G15  23073614.863   121252660.448       -3216.452          37.000    23073605.714    94482555.084       -2506.948          32.000  
G18  23378216.844   122853362.580       -3695.326          38.000    23378211.071    95729861.044       -2879.304          36.000  
G23  19150804.533   100638156.156       -1906.194          46.000    19150792.692    78419268.389       -1485.301          47.000  
G24  20758501.008                2      -3297.220          29.000    20758490.799                       -2569.219          32.000  
G32  20981639.102   110259259.606        1540.443          44.000    20981629.023    85916251.577        1200.368          42.000  
C08  34693825.338   180659850.198        -284.839          45.000    34693808.238   139697577.038        -220.135          49.000  
C13  34710955.328   180749051.085           4.810          47.000    34710946.598   139766585.683           3.522          48.000  
C16  35673076.961   185759073.803          42.125          45.000    35673067.206   143640659.223          32.682          48.000  
C25  22122972.799   115200120.327       -2436.298          37.000                                                                  
C32  21100480.778   109875744.744         953.389          49.000                                                                  
C06  35375819.957   184211178.390         222.437          45.000    35375804.359   142443704.393         171.853          47.000  
G25  20636096.263   108443425.344        2675.148          46.000    20636087.141    84501327.875        2084.663          41.000  
G10  19573254.728   102858144.117        1209.625          49.000    19573243.244    80149159.559         942.560          44.000  
G28  22176118.492   116536296.863        2674.700          40.000    22176108.517    90807483.928        2084.645          41.000  
C23  20745624.624   108027908.297         426.046          51.000                                                                  
C09  36849448.449   191884750.302         319.611          42.000    36849436.449   148377407.750         247.302          46.000  
C33  25956890.887   135164351.387       -2885.094          29.000                                                                  
C37  23016828.947   119854679.159        2767.375          44.000                                                                  
> 2025 10 27 02 45 51.8760000  0 19                     
G12  20803479.801   109323026.292        1063.828          44.000    20803468.256    85186720.983         828.795          41.000  
G15  23073639.348   121252789.098       -3216.288          37.000    23073630.191    94482655.318       -2506.162          32.000  
G18  23378244.979   122853510.384       -3695.222          38.000    23378239.197    95729976.222       -2879.397          36.000  
G23  19150819.061   100638232.410       -1906.301          46.000    19150807.211    78419327.807       -1485.408          47.000  
G24  20758526.181                2      -3297.101          29.000    20758515.882                       -2569.144          32.000  
G32  20981627.361   110259197.987        1540.420          44.000    20981617.314    85916203.569        1200.229          42.000  
C08  34693827.534   180659861.591        -284.857          45.000    34693810.423   139697585.840        -220.050          49.000  
C13  34710955.276   180749050.904           4.633          47.000    34710946.571   139766585.538           3.607          48.000  
C16  35673076.646   185759072.107          42.329          45.000    35673066.880   143640657.926          32.533          48.000  
C25  22122991.510   115200217.768       -2436.131          37.000                                                                  
C32  21100473.457   109875706.610         953.378          49.000                                                                  
C06  35375818.262   184211169.495         222.419          45.000    35375802.657   142443697.516         171.938          47.000  
G25  20636075.909   108443318.324        2675.324          46.000    20636066.781    84501244.490        2084.628          41.000  
G10  19573245.544   102858095.733        1209.595          49.000    19573234.041    80149121.857         942.560          44.000  
G28  22176098.142   116536189.876        2674.676          40.000    22176088.158    90807400.566        2084.280          41.000  
C23  20745621.310   108027891.259         426.006          51.000                                                                  
C09  36849445.998   191884737.517         319.597          42.000    36849433.986   148377397.855         247.387          46.000  
C33  25956913.185   135164466.802       -2885.239          29.000                                                                  
C37  23016807.708   119854568.454        2767.535          44.000                                                                  
> 2025 10 27 02 45 51.9160000  0 19                     
G12  20803471.741   109322983.753        1063.587          44.000    20803460.174    85186687.840         828.579          41.000  
G15  23073663.841   121252917.777       -3216.716          37.000    23073654.663    94482755.537       -2505.509          32.000  
G18  23378273.107   122853658.197       -3695.323          38.000    23378267.314    95730091.415       -2879.698          36.000  
G23  19150833.568   100638308.656       -1906.207          46.000    19150821.716    78419387.223       -1485.420          47.000  
G24  20758551.020                2      -3297.231          29.000    20758541.008                       -2568.829          32.000  
G32  20981615.643   110259136.369        1540.420          44.000    20981605.578    85916155.549        1200.373          42.000  
C08  34693829.711   180659872.990        -284.985          45.000    34693812.660   139697594.647        -220.093          49.000  
C13  34710955.243   180749050.717           4.663          47.000    34710946.522   139766585.397           3.558          48.000  
C16  35673076.332   185759070.430          42.067          45.000    35673066.512   143640656.623          32.554          48.000  
C25  22123010.221   115200315.217       -2436.169          37.000                                                                  
C32  21100466.134   109875668.478         953.345          49.000                                                                  
C06  35375816.549   184211160.619         222.097          45.000    35375800.992   142443690.640         171.927          47.000  
G25  20636055.532   108443211.318        2675.162          46.000    20636046.442    84501161.105        2084.636          41.000  
G10  19573236.344   102858047.353        1209.509          49.000    19573224.819    80149084.156         942.548          44.000  
G28  22176077.775   116536082.873        2674.974          40.000    22176067.799    90807317.195        2084.238          41.000  
C23  20745618.026   108027874.218         426.012          51.000                                                                  
C09  36849443.543   191884724.734         319.579          42.000    36849431.537   148377387.975         247.126          46.000  
C33  25956935.454   135164582.179       -2884.954          29.000                                                                  
C37  23016786.442   119854457.760        2767.414          44.000                                                                  
> 2025 10 27 02 45 51.9560000  0 19                     
G12  20803463.644   109322941.211        1063.505          44.000    20803452.062    85186654.680         828.773          41.000  
G15  23073688.329   121253046.449       -3216.885          37.000    23073679.149    94482855.784       -2505.767          32.000  
G18  23378301.229   122853806.001       -3695.237          38.000    23378295.451    95730206.599       -2879.712          36.000  
G23  19150848.071   100638384.908       -1906.295          46.000    19150836.239    78419446.648       -1485.588          47.000  
G24  20758577.140                2      -3296.972          29.000    20758566.104                       -2569.749          32.000  
G32  20981603.954   110259074.761        1540.240          44.000    20981593.874    85916107.534        1200.371          42.000  
C08  34693831.903   180659884.377        -284.833          45.000    34693814.872   139697603.461        -220.300          49.000  
C13  34710955.188   180749050.541           4.462          47.000    34710946.510   139766585.254           3.558          48.000  
C16  35673076.036   185759068.752          41.946          45.000    35673066.172   143640655.323          32.500          48.000  
C25  22123028.948   115200412.679       -2436.475          37.000                                                                  
C32  21100458.809   109875630.349         953.274          49.000                                                                  
C06  35375814.824   184211151.737         221.997          45.000    35375799.286   142443683.770         171.827          47.000  
G25  20636035.189   108443104.304        2675.239          46.000    20636026.066    84501077.710        2084.785          41.000  
G10  19573227.154   102857998.977        1209.387          49.000    19573215.612    80149046.459         942.426          44.000  
G28  22176057.427   116535975.874        2675.015          40.000    22176047.433    90807233.832        2084.083          41.000  
C23  20745614.720   108027857.181         425.934          51.000                                                                  
C09  36849441.085   191884711.949         319.624          42.000    36849429.068   148377378.089         247.109          46.000  
C33  25956957.861   135164697.572       -2884.870          29.000                                                                  
C37  23016765.191   119854347.076        2767.160          44.000                                                                  
> 2025 10 27 02 45 51.9960000  0 19                     
G12  20803455.571   109322898.669        1063.444          44.000    20803443.959    85186621.528         828.747          41.000  
G15  23073712.819   121253175.098       -3216.530          37.000    23073703.626    94482956.050       -2506.230          32.000  
G18  23378329.370   122853953.818       -3695.382          38.000    23378323.581    95730321.785       -2879.753          36.000  
G23  19150862.603   100638461.170       -1906.500          46.000    19150850.749    78419506.060       -1485.425          47.000  
G24  20758603.058                2      -3297.261          29.000    20758591.211                       -2569.675          32.000  
G32  20981592.200   110259013.147        1540.261          44.000    20981582.172    85916059.527        1200.283          42.000  
C08  34693834.081   180659895.770        -284.827          45.000    34693817.080   139697612.275        -220.392          49.000  
C13  34710955.146   180749050.360           4.462          47.000    34710946.482   139766585.112           3.510          48.000  
C16  35673075.735   185759067.072          41.911          45.000    35673065.838   143640654.024          32.450          48.000  
C25  22123047.629   115200510.143       -2436.660          37.000                                                                  
C32  21100451.482   109875592.224         953.133          49.000                                                                  
C06  35375813.108   184211142.864         221.815          44.000    35375797.604   142443676.908         171.593          47.000  
G25  20636014.836   108442997.301        2675.130          46.000    20636005.742    84500994.332        2084.579          41.000  
G10  19573217.950   102857950.599        1209.387          49.000    19573206.416    80149008.768         942.249          44.000  
G28  22176037.048   116535868.883        2674.915          40.000    22176027.054    90807150.467        2084.079          41.000  
C23  20745611.451   108027840.151         425.780          51.000                                                                  
C09  36849438.612   191884699.169         319.470          42.000    36849426.596   148377368.211         246.978          46.000  
C33  25956980.470                       -2884.683          29.000                                                                  
C37  23016743.943   119854236.387        2767.121          44.000                                                                  
> 2025 10 27 02 45 52.0360000  0 19                     
G12  20803447.487   109322856.124        1063.539          44.000    20803435.884    85186588.381         828.645          41.000  
G15  23073737.297   121253303.781       -3216.919          37.000    23073728.137    94483056.362       -2507.472          33.000  
G18  23378357.505   122854101.623       -3695.253          38.000    23378351.691    95730436.928       -2878.923          36.000  
G23  19150877.103   100638537.425       -1906.492          46.000    19150865.240    78419565.481       -1485.481          47.000  
G24  20758628.828                2      -3297.223          29.000    20758616.291                       -2569.261          32.000  
G32  20981580.462   110258951.525        1540.417          44.000    20981570.433    85916011.509        1200.359          42.000  
C08  34693836.270   180659907.159        -284.760          45.000    34693819.287   139697621.095        -220.532          49.000  
C13  34710955.119   180749050.175           4.553          47.000    34710946.463   139766584.972           3.467          48.000  
C16  35673075.438   185759065.388          41.988          45.000    35673065.520   143640652.731          32.320          48.000  
C25  22123066.337   115200607.619       -2436.918          37.000                                                                  
C32  21100444.157   109875554.095         953.123          49.000                                                                  
C06  35375811.399   184211133.974         222.016          44.000    35375795.889   142443670.039         171.625          47.000  
G25  20635994.436   108442890.285        2675.282          46.000    20635985.389    84500910.949        2084.585          41.000  
G10  19573208.729   102857902.224        1209.351          49.000    19573197.231    80148971.078         942.175          44.000  
G28  22176016.697   116535761.908        2674.523          40.000    22176006.692    90807067.098        2084.161          41.000  
C23  20745608.200   108027823.117         425.765          51.000                                                                  
C09  36849436.152   191884686.392         319.364          42.000    36849424.148   148377358.326         247.031          46.000  
C33  25957002.697                       -2884.571          29.000                                                                  
C37  23016722.685   119854125.692        2767.228          44.000                                                                  
> 2025 10 27 02 45 52.0760000  0 19                     
G12  20803439.375   109322813.582        1063.547          44.000    20803427.799    85186555.233         828.690          41.000  
G15  23073761.765   121253432.452       -3216.837          37.000    23073752.610    94483156.590       -2506.464          33.000  
G18  23378385.635   122854249.421       -3695.031          38.000    23378379.817    95730552.108       -2879.168          36.000  
G23  19150891.592   100638613.680       -1906.453          46.000    19150879.744    78419624.901       -1485.499          47.000  
G24  20758653.746                2      -3297.547          29.000    20758641.395    85003163.137       -2569.121          32.000  
G32  20981568.740   110258889.913        1540.319          44.000    20981558.691    85915963.499        1200.261          42.000  
C08  34693838.441   180659918.557        -284.900          45.000    34693821.453   139697629.902        -220.337          49.000  
C13  34710955.061   180749049.991           4.596          47.000    34710946.442   139766584.832           3.461          48.000  
C16  35673075.133   185759063.708          41.988          45.000    35673065.191   143640651.427          32.449          48.000  
C25  22123085.054   115200705.061       -2436.437          37.000                                                                  
C32  21100436.870   109875515.965         953.183          49.000                                                                  
C06  35375809.719   184211125.077         222.291          44.000    35375794.142   142443663.166         171.720          47.000  
G25  20635974.097   108442783.278        2675.175          46.000    20635965.021    84500827.575        2084.395          41.000  
G10  19573199.521   102857853.848        1209.357          49.000    19573188.018    80148933.374         942.432          44.000  
G28  22175996.355   116535654.916        2674.656          40.000    22175986.309    90806983.726        2084.222          41.000  
C23  20745604.946   108027806.081         425.812          51.000                                                                  
C09  36849433.713   191884673.610         319.442          42.000    36849421.674   148377348.446         247.012          46.000  
C33  25957024.887                       -2884.737          29.000                                                                  
C37  23016701.418   119854015.003        2767.207          44.000                                                                  
> 2025 10 27 02 45 52.1160000  0 19                     
G12  20803431.274   109322771.049        1063.393          44.000    20803419.701    85186522.074         828.883          41.000  
G15  23073786.232   121253561.109       -3216.598          37.000    23073777.086    94483256.847       -2506.587          33.000  
G18  23378413.741   122854397.255       -3695.563          38.000    23378407.965    95730667.271       -2879.075          36.000  
G23  19150906.120   100638689.947       -1906.633          46.000    19150894.247    78419684.321       -1485.505          47.000  
G24  20758677.875                2      -3297.044          29.000    20758666.511    85003265.924       -2569.429          32.000  
G32  20981557.013   110258828.302        1540.270          44.000    20981546.988    85915915.497        1200.096          42.000  
C08  34693840.610   180659929.956        -284.998          45.000    34693823.648   139697638.710        -220.233          49.000  
C13  34710955.044   180749049.809           4.572          47.000    34710946.380   139766584.696           3.375          48.000  
C16  35673074.836   185759062.030          41.963          45.000    35673064.887   143640650.119          32.611          48.000  
C25  22123103.769   115200802.503       -2436.120          37.000                                                                  
C32  21100429.534   109875477.836         953.182          49.000                                                                  
C06  35375807.986   184211116.196         222.168          44.000    35375792.392   142443656.295         171.759          47.000  
G25  20635953.744   108442676.276        2675.073          46.000    20635944.657    84500744.182        2084.621          41.000  
G10  19573190.312   102857805.473        1209.338          49.000    19573178.795    80148895.677         942.450          44.000  
G28  22175975.998   116535547.935        2674.558          40.000    22175965.953    90806900.345        2084.439          41.000  
C23  20745601.674   108027789.049         425.774          51.000                                                                  
C09  36849431.249   191884660.817         319.643          42.000    36849419.231   148377338.571         246.900          46.000  
C33  25957046.870   135165159.123       -2884.649          29.000                                                                  
C37  23016680.186   119853904.318        2767.113          44.000                                                                  
> 2025 10 27 02 45 52.1560000  0 19                     
G12  20803423.186   109322728.510        1063.394          44.000    20803411.623    85186488.939         828.531          41.000  
G15  23073810.725   121253689.756       -3216.242          37.000    23073801.570    94483357.105       -2506.593          33.000  
G18  23378441.862   122854545.072       -3695.543          38.000    23378436.089    95730782.478       -2879.762          36.000  
G23  19150920.631   100638766.203       -1906.520          46.000    19150908.749    78419743.743       -1485.555          47.000  
G24  20758701.744                2      -3297.153          29.000    20758691.589    85003368.676       -2569.111          32.000  
G32  20981545.281   110258766.688        1540.290          44.000    20981535.255    85915867.479        1200.315          42.000  
C08  34693842.773   180659941.357        -285.059          45.000    34693825.837   139697647.524        -220.300          49.000  
C13  34710954.988   180749049.638           4.327          47.000    34710946.336   139766584.553           3.491          48.000  
C16  35673074.526   185759060.361          41.754          45.000    35673064.561   143640648.819          32.549          48.000  
C25  22123122.499   115200899.960       -2436.291          37.000                                                                  
C32  21100422.202   109875439.707         953.196          49.000                                                                  
C06  35375806.278   184211107.312         222.102          44.000    35375790.688   142443649.426         171.724          47.000  
G25  20635933.375   108442569.275        2674.972          46.000    20635924.312    84500660.804        2084.496          41.000  
G10  19573181.116   102857757.100        1209.308          49.000    19573169.599    80148857.981         942.407          44.000  
G28  22175955.642   116535440.947        2674.646          40.000    22175945.616    90806816.979        2084.225          41.000  
C23  20745598.382   108027772.020         425.704          51.000                                                                  
C09  36849428.806   191884648.039         319.503          42.000    36849416.782   148377328.687         246.976          46.000  
C33  25957068.998   135165274.518       -2884.708          29.000                                                                  
C37  23016658.949   119853793.619        2767.350          44.000                                                                  
> 2025 10 27 02 45 52.1960000  0 19                     
G12  20803415.090   109322685.968        1063.474          44.000    20803403.530    85186455.779         828.813          41.000  
G15  23073835.200   121253818.433       -3216.646          37.000    23073826.068    94483457.370       -2506.738          33.000  
G18  23378469.986   122854692.868       -3695.166          38.000    23378464.226    95730897.673       -2879.945          36.000  
G23  19150935.120   100638842.454       -1906.365          46.000    19150923.263    78419803.166       -1485.617          47.000  
G24  20758727.349                2      -3297.438          29.000    20758716.676    85003471.454       -2569.258          32.000  
G32  20981533.551   110258705.073        1540.323          44.000    20981523.546    85915819.478        1200.091          42.000  
C08  34693844.959   180659952.745        -284.839          45.000    34693828.007   139697656.337        -220.331          49.000  
C13  34710954.969   180749049.459           4.364          47.000    34710946.308   139766584.411           3.540          48.000  
C16  35673074.233   185759058.678          41.895          45.000    35673064.234   143640647.522          32.482          48.000  
C25  22123141.229   115200997.427       -2436.572          37.000                                                                  
C32  21100414.845   109875401.586         953.088          49.000                                                                  
C06  35375804.572   184211098.427         222.117          44.000    35375788.980   142443642.555         171.743          47.000  
G25  20635912.992   108442462.262        2675.193          46.000    20635903.959    84500577.426        2084.460          41.000  
G10  19573171.890   102857708.725        1209.351          49.000    19573160.415    80148820.288         942.328          44.000  
G28  22175935.297   116535333.976        2674.327          40.000    22175925.261    90806733.623        2083.934          41.000  
C23  20745595.125   108027754.988         425.732          51.000                                                                  
C09  36849426.352   191884635.265         319.398          42.000    36849414.332   148377318.800         247.089          46.000  
C33  25957090.901   135165389.921       -2884.850          29.000                                                                  
C37  23016637.699   119853682.927        2767.337          44.000                                                                  
> 2025 10 27 02 45 52.2360000  0 19                     
G12  20803406.984   109322643.424        1063.559          44.000    20803395.465    85186422.634         828.700          41.000  
G15  23073859.684   121253947.099       -3216.704          37.000    23073850.576    94483557.642       -2506.853          33.000  
G18  23378498.106   122854840.673       -3695.085          38.000    23378492.343    95731012.815       -2879.113          36.000  
G23  19150949.615   100638918.712       -1906.422          46.000    19150937.770    78419862.595       -1485.748          47.000  
G24  20758752.630                2      -3297.550          29.000    20758741.767    85003574.211       -2568.957          32.000  
G32  20981521.828   110258643.459        1540.343          44.000    20981511.806    85915771.460        1200.281          42.000  
C08  34693847.113   180659964.145        -284.930          45.000    34693830.201   139697665.147        -220.294          49.000  
C13  34710954.944   180749049.279           4.407          47.000    34710946.267   139766584.277           3.406          48.000  
C16  35673073.945   185759056.983          42.215          45.000    35673063.880   143640646.226          32.372          48.000  
C25  22123159.947   115201094.880       -2436.401          37.000                                                                  
C32  21100407.496   109875363.463         953.032          49.000                                                                  
C06  35375802.871   184211089.545         222.051          44.000    35375787.283   142443635.689         171.672          47.000  
G25  20635892.626   108442355.258        2675.138          46.000    20635883.596    84500494.053        2084.380          41.000  
G10  19573162.686   102857660.352        1209.283          49.000    19573151.228    80148782.595         942.291          44.000  
G28  22175914.930   116535226.993        2674.366          40.000    22175904.896    90806650.259        2083.948          41.000  
C23  20745591.902   108027737.955         425.766          51.000                                                                  
C09  36849423.903   191884622.486         319.392          42.000    36849411.862   148377308.909         247.220          46.000  
C33  25957113.420   135165505.341       -2885.164          29.000                                                                  
C37  23016616.403   119853572.241        2767.208          44.000                                                                  
> 2025 10 27 02 45 52.2760000  0 19                     
G12  20803398.899   109322600.890        1063.422          44.000    20803387.389    85186389.497         828.461          41.000  
G15  23073884.153   121254075.756       -3216.619          37.000    23073875.033    94483657.876       -2506.166          33.000  
G18  23378526.238   122854988.507       -3695.658          38.000    23378520.495    95731127.997       -2879.381          36.000  
G23  19150964.125   100638994.983       -1906.715          46.000    19150952.280    78419922.028       -1485.889          47.000  
G24  20758776.902                2      -3297.871          29.000    20758766.861    85003676.999       -2569.364          32.000  
G32  20981510.103   110258581.850        1540.278          44.000    20981500.095    85915723.448        1200.299          42.000  
C08  34693849.300   180659975.544        -285.004          45.000    34693832.425   139697673.966        -220.447          49.000  
C13  34710954.931   180749049.099           4.449          47.000    34710946.235   139766584.143           3.308          48.000  
C16  35673073.628   185759055.305          42.069          45.000    35673063.550   143640644.928          32.368          48.000  
C25  22123178.661   115201192.363       -2436.943          37.000                                                                  
C32  21100400.184   109875325.340         953.027          49.000                                                                  
C06  35375801.152   184211080.678         221.766          44.000    35375785.591   142443628.816         171.711          47.000  
G25  20635872.259   108442248.259        2675.021          46.000    20635863.231    84500410.667        2084.565          41.000  
G10  19573153.478   102857611.989        1209.082          49.000    19573142.013    80148744.909         942.120          44.000  
G28  22175894.567   116535119.999        2674.654          40.000    22175884.541    90806566.903        2083.870          41.000  
C23  20745588.585   108027720.933         425.578          51.000                                                                  
C09  36849421.441   191884609.705         319.463          42.000    36849409.417   148377299.030         247.055          46.000  
C33  25957135.614   135165620.758       -2885.353          29.000                                                                  
C37  23016595.168   119853461.559        2767.042          44.000                                                                  
> 2025 10 27 02 45 52.3160000  0 19                     
G12  20803390.783   109322558.365        1063.205          44.000    20803379.320    85186356.364         828.293          41.000  
G15  23073908.649   121254204.439       -3216.916          37.000    23073899.499    94483758.140       -2506.356          33.000  
G18  23378554.378   122855136.322       -3695.605          38.000    23378548.628    95731243.193       -2879.803          36.000  
G23  19150978.644   100639071.257       -1906.912          46.000    19150966.774    78419981.455       -1485.819          47.000  
G24  20758801.056                2      -3297.260          29.000    20758791.989    85003779.788       -2569.747          32.000  
G32  20981498.388   110258520.244        1540.176          44.000    20981488.357    85915675.445        1200.149          42.000  
C08  34693851.490   180659986.947        -285.089          45.000    34693834.659   139697682.789        -220.599          49.000  
C13  34710954.856   180749048.929           4.285          47.000    34710946.214   139766584.010           3.271          48.000  
C16  35673073.322   185759053.631          41.893          45.000    35673063.239   143640643.630          32.349          48.000  
C25  22123197.402   115201289.825       -2436.797          37.000                                                                  
C32  21100392.882   109875287.217         953.009          49.000                                                                  
C06  35375799.477   184211071.800         221.829          44.000    35375783.884   142443621.956         171.549          47.000  
G25  20635851.895   108442141.257        2675.005          46.000    20635842.871    84500327.286        2084.561          41.000  
G10  19573144.292   102857563.629        1208.954          49.000    19573132.811    80148707.231         941.907          44.000  
G28  22175874.212   116535013.015        2674.627          40.000    22175864.172    90806483.543        2083.927          41.000  
C23  20745585.282   108027703.915         425.440          51.000                                                                  
C09  36849419.005   191884596.932         319.356          42.000    36849406.988   148377289.157         246.873          46.000  
C33  25957157.933   135165736.143       -2885.122          29.000                                                                  
C37  23016573.876   119853350.878        2766.993          44.000                                                                  
> 2025 10 27 02 45 52.3560000  0 19                     
G12  20803382.701   109322515.847        1062.958          44.000    20803371.229    85186323.226         828.368          41.000  
G15  23073933.133   121254333.104       -3216.815          37.000    23073924.002    94483858.428       -2506.946          33.000  
G18  23378582.488   122855284.133       -3695.447          38.000    23378576.747    95731358.367       -2879.564          36.000  
G23  19150993.152   100639147.520       -1906.746          46.000    19150981.251    78420040.880       -1485.706          47.000  
G24  20758827.295                2      -3297.529          29.000    20758817.092    85003882.591       -2570.295          32.000  
G32  20981486.652   110258458.628        1540.288          44.000    20981476.643    85915627.436        1200.138          42.000  
C08  34693853.682   180659998.351        -285.114          45.000    34693836.875   139697691.605        -220.526          49.000  
C13  34710954.846   180749048.746           4.437          47.000    34710946.183   139766583.869           3.412          48.000  
C16  35673073.060   185759051.959          41.774          45.000    35673062.912   143640642.338          32.275          48.000  
C25  22123216.136   115201387.289       -2436.657          37.000                                                                  
C32  21100385.570   109875249.090         953.120          49.000                                                                  
C06  35375797.793   184211062.914         222.040          44.000    35375782.179   142443615.090         171.600          47.000  
G25  20635831.530   108442034.254        2675.053          46.000    20635822.505    84500243.913        2084.417          41.000  
G10  19573135.082   102857515.260        1209.076          49.000    19573123.622    80148669.537         942.157          44.000  
G28  22175853.853   116534906.027        2674.652          40.000    22175843.824    90806400.166        2084.251          41.000  
C23  20745582.005   108027686.887         425.570          51.000                                                                  
C09  36849416.557   191884584.158         319.307          42.000    36849404.559   148377279.283         246.788          46.000  
C33  25957180.063   135165851.562       -2885.321          29.000                                                                  
C37  23016552.606   119853240.194        2766.988          44.000                                                                  
> 2025 10 27 02 45 52.3960000  0 19                     
G12  20803374.596   109322473.314        1063.155          44.000    20803363.128    85186290.078         828.556          41.000  
G15  23073957.624   121254461.778       -3216.818          37.000    23073948.496    94483958.703       -2506.949          33.000  
G18  23378610.622   122855431.935       -3695.195          38.000    23378604.855    95731473.528       -2879.158          36.000  
G23  19151007.644   100639223.783       -1906.640          46.000    19150995.752    78420100.307       -1485.700          47.000  
G24  20758853.200                2      -3297.321          29.000    20758842.228    85003985.341       -2569.494          32.000  
G32  20981474.941   110258397.022        1540.171          44.000    20981464.932    85915579.438        1200.013          42.000  
C08  34693855.892   180660009.752        -285.089          45.000    34693839.050   139697700.420        -220.441          49.000  
C13  34710954.797   180749048.568           4.437          47.000    34710946.168   139766583.735           3.369          48.000  
C16  35673072.769   185759050.286          41.733          45.000    35673062.586   143640641.039          32.369          48.000  
C25  22123234.863   115201484.744       -2436.440          37.000                                                                  
C32  21100378.252   109875210.970         953.035          49.000                                                                  
C06  35375796.087   184211054.028         222.128          44.000    35375780.489   142443608.225         171.581          47.000  
G25  20635811.170   108441927.254        2675.027          46.000    20635802.143    84500160.540        2084.335          41.000  
G10  19573125.876   102857466.887        1209.222          49.000    19573114.404    80148631.846         942.218          44.000  
G28  22175833.510   116534799.047        2674.559          40.000    22175823.468    90806316.799        2084.281          41.000  
C23  20745578.770   108027669.862         425.604          51.000                                                                  
C09  36849414.110   191884571.377         319.420          42.000    36849402.080   148377269.407         246.809          46.000  
C33  25957201.825   135165966.973       -2885.375          29.000                                                                  
C37  23016531.346   119853129.509        2767.016          44.000                                                                  
> 2025 10 27 02 45 52.4360000  0 19                     
G12  20803366.505   109322430.772        1063.419          44.000    20803355.035    85186256.949         828.326          41.000  
G15  23073982.072   121254590.455       -3216.950          37.000    23073972.975    94484058.928       -2506.101          33.000  
G18  23378638.736   122855579.734       -3694.993          38.000    23378632.990    95731588.713       -2879.446          36.000  
G23  19151022.169   100639300.049       -1906.628          46.000    19151010.257    78420159.733       -1485.663          47.000  
G24  20758879.028                2      -3297.595          29.000    20758867.304    85004088.129       -2569.637          32.000  
G32  20981463.224   110258335.415        1540.147          44.000    20981453.208    85915531.429        1200.140          42.000  
C08  34693858.087   180660021.152        -285.040          45.000    34693841.208   139697709.229        -220.276          49.000  
C13  34710954.763   180749048.396           4.340          47.000    34710946.159   139766583.598           3.369          48.000  
C16  35673072.438   185759048.611          41.818          45.000    35673062.246   143640639.736          32.500          48.000  
C25  22123253.612   115201582.205       -2436.479          37.000                                                                  
C32  21100370.948   109875172.849         953.004          49.000                                                                  
C06  35375794.372   184211045.141         222.180          45.000    35375778.757   142443601.361         171.577          47.000  
G25  20635790.803   108441820.250        2675.080          46.000    20635781.792    84500077.164        2084.372          41.000  
G10  19573116.686   102857418.517        1209.259          49.000    19573105.215    80148594.151         942.346          44.000  
G28  22175813.130   116534692.052        2674.828          40.000    22175803.111    90806233.432        2084.229          41.000  
C23  20745575.520   108027652.833         425.700          51.000                                                                  
C09  36849411.681   191884558.589         319.596          42.000    36849399.602   148377259.517         247.086          46.000  
C33  25957223.943   135166082.349       -2884.991          29.000                                                                  
C37  23016510.091   119853018.817        2767.193          44.000                                                                  
> 2025 10 27 02 45 52.4760000  0 19                     
G12  20803358.406   109322388.229        1063.555          44.000    20803346.928    85186223.796         828.612          41.000  
G15  23074006.568   121254719.118       -3216.811          37.000    23073997.439    94484159.177       -2506.067          33.000  
G18  23378666.875   122855727.557       -3695.331          38.000    23378661.123    95731703.905       -2879.805          36.000  
G23  19151036.668   100639376.312       -1906.604          45.000    19151024.745    78420219.156       -1485.601          47.000  
G24  20758904.607                2      -3297.960          29.000    20758892.403    85004190.901       -2569.339          32.000  
G32  20981451.492   110258273.797        1540.322          45.000    20981441.493    85915483.418        1200.208          42.000  
C08  34693860.266   180660032.544        -284.845          45.000    34693843.384   139697718.037        -220.221          49.000  
C13  34710954.740   180749048.221           4.333          47.000    34710946.128   139766583.461           3.400          48.000  
C16  35673072.148   185759046.922          42.112          45.000    35673061.906   143640638.442          32.417          48.000  
C25  22123272.322   115201679.674       -2436.680          37.000                                                                  
C32  21100363.670   109875134.717         953.171          49.000                                                                  
C06  35375792.667   184211036.263         222.038          45.000    35375777.043   142443594.488         171.741          47.000  
G25  20635770.436   108441713.248        2675.060          46.000    20635761.422    84499993.776        2084.544          41.000  
G10  19573107.472   102857370.144        1209.320          49.000    19573096.006    80148556.460         942.310          44.000  
G28  22175792.795   116534585.069        2674.669          40.000    22175782.757    90806150.069        2084.104          41.000  
C23  20745572.250   108027635.804         425.736          51.000                                                                  
C09  36849409.235   191884545.807         319.594          42.000    36849397.164   148377249.630         247.178          46.000  
C33  25957246.089   135166197.756       -2885.065          29.000                                                                  
C37  23016488.856   119852908.127        2767.234          44.000                                                                  
> 2025 10 27 02 45 52.5160000  0 19                     
G12  20803350.324   109322345.701        1063.356          44.000    20803338.806    85186190.647         828.685          41.000  
G15  23074031.074   121254847.769       -3216.422          37.000    23074021.936    94484259.431       -2506.237          33.000  
G18  23378694.985   122855875.363       -3695.235          38.000    23378689.268    95731819.079       -2879.694          36.000  
G23  19151051.202   100639452.579       -1906.673          46.000    19151039.256    78420278.583       -1485.658          47.000  
G24  20758928.056                2      -3297.041          29.000    20758917.490    85004293.679       -2569.339          32.000  
G32  20981439.779   110258212.180        1540.391          45.000    20981429.734    85915435.403        1200.329          42.000  
C08  34693862.421   180660043.937        -284.784          45.000    34693845.547   139697726.854        -220.349          49.000  
C13  34710954.713   180749048.038           4.468          47.000    34710946.072   139766583.318           3.503          48.000  
C16  35673071.838   185759045.236          42.188          45.000    35673061.597   143640637.141          32.478          48.000  
C25  22123291.038   115201777.148       -2436.892          37.000                                                                  
C32  21100356.335   109875096.590         953.188          49.000                                                                  
C06  35375790.929   184211027.380         222.013          45.000    35375775.339   142443587.609         171.912          47.000  
G25  20635750.080   108441606.246        2675.047          46.000    20635741.081    84499910.396        2084.521          41.000  
G10  19573098.287   102857321.782        1209.119          49.000    19573086.811    80148518.778         942.090          44.000  
G28  22175772.444   116534478.084        2674.581          41.000    22175762.392    90806066.721        2083.769          41.000  
C23  20745568.932   108027618.784         425.572          51.000                                                                  
C09  36849406.783   191884533.034         319.404          42.000    36849394.708   148377239.742         247.200          46.000  
C33  25957268.220   135166313.156       -2885.019          29.000                                                                  
C37  23016467.575   119852797.442        2767.143          44.000                                                                  
> 2025 10 27 02 45 52.5560000  0 19                     
G12  20803342.243   109322303.186        1062.995          44.000    20803330.720    85186157.510         828.528          41.000  
G15  23074055.553   121254976.434       -3216.467          37.000    23074046.411    94484359.707       -2506.849          33.000  
G18  23378723.116   122856023.179       -3695.326          38.000    23378717.388    95731934.257       -2879.666          36.000  
G23  19151065.731   100639528.851       -1906.798          45.000    19151053.792    78420338.017       -1485.813          47.000  
G24  20758953.051                2      -3297.994          29.000    20758942.589    85004396.465       -2569.469          32.000  
G32  20981428.078   110258150.572        1540.251          45.000    20981417.993    85915387.394        1200.281          42.000  
C08  34693864.619   180660055.334        -284.851          45.000    34693847.702   139697735.670        -220.428          49.000  
C13  34710954.692   180749047.862           4.413          47.000    34710946.065   139766583.182           3.436          48.000  
C16  35673071.537   185759043.557          42.085          45.000    35673061.313   143640635.847          32.391          48.000  
C25  22123309.770   115201874.609       -2436.727          37.000                                                                  
C32  21100348.990   109875058.468         953.096          49.000                                                                  
C06  35375789.216   184211018.501         221.976          45.000    35375773.629   142443580.742         171.780          47.000  
G25  20635729.715   108441499.252        2674.903          46.000    20635720.715    84499827.023        2084.348          41.000  
G10  19573089.105   102857273.418        1209.058          49.000    19573077.604    80148481.092         942.078          44.000  
G28  22175752.104   116534371.100        2674.615          41.000    22175742.019    90805983.355        2083.958          41.000  
C23  20745565.664   108027601.762         425.510          51.000                                                                  
C09  36849404.337   191884520.255         319.444          42.000    36849392.235   148377229.862         247.054          46.000  
C33  25957290.165   135166428.538       -2884.788          29.000                                                                  
C37  23016446.301   119852686.761        2767.002          44.000                                                                  
> 2025 10 27 02 45 52.5960000  0 19                     
G12  20803334.140   109322260.655        1063.087          44.000    20803322.609    85186124.377         828.383          41.000  
G15  23074080.070   121255105.129       -3217.114          37.000    23074070.897    94484459.983       -2507.031          33.000  
G18  23378751.265   122856170.990       -3695.303          38.000    23378745.507    95732049.425       -2879.467          36.000  
G23  19151080.232   100639605.121       -1906.809          45.000    19151068.300    78420397.458       -1486.030          47.000  
G24  20758977.514                2      -3297.874          29.000    20758967.686    85004499.236       -2569.480          32.000  
G32  20981416.390   110258088.965        1540.156          44.000    20981406.271    85915339.388        1200.156          42.000  
C08  34693866.793   180660066.742        -285.077          45.000    34693849.892   139697744.486        -220.441          49.000  
C13  34710954.657   180749047.684           4.364          47.000    34710946.057   139766583.049           3.320          48.000  
C16  35673071.196   185759041.885          41.902          45.000    35673061.006   143640634.549          32.404          48.000  
C25  22123328.502   115201972.076       -2436.644          37.000                                                                  
C32  21100341.639   109875020.352         952.924          49.000                                                                  
C06  35375787.516   184211009.623         221.928          45.000    35375771.931   142443573.876         171.648          47.000  
G25  20635709.361   108441392.260        2674.789          46.000    20635700.361    84499743.655        2084.169          41.000  
G10  19573079.921   102857225.061        1208.911          49.000    19573068.401    80148443.409         941.986          44.000  
G28  22175731.751   116534264.129        2674.398          41.000    22175721.634    90805899.979        2084.225          41.000  
C23  20745562.381   108027584.743         425.447          51.000                                                                  
C09  36849401.883   191884507.481         319.388          42.000    36849389.787   148377219.980         246.998          46.000  
C33  25957312.671   135166543.924       -2884.655          29.000                                                                  
C37  23016425.025   119852576.079        2766.961          44.000                                                                  
> 2025 10 27 02 45 52.6360000  0 19                     
G12  20803326.044   109322218.134        1063.001          44.000    20803314.511    85186091.248         828.197          41.000  
G15  23074104.550   121255233.792       -3216.821          37.000    23074095.391    94484560.266       -2507.239          33.000  
G18  23378779.393   122856318.812       -3695.437          38.000    23378773.614    95732164.597       -2879.368          36.000  
G23  19151094.744   100639681.392       -1906.852          45.000    19151082.790    78420456.890       -1485.953          47.000  
G24  20759002.626                2      -3297.421          29.000    20758992.791    85004602.025       -2569.629          32.000  
G32  20981404.661   110258027.361        1540.049          44.000    20981394.525    85915291.384        1200.047          42.000  
C08  34693868.980   180660078.143        -285.083          45.000    34693852.105   139697753.304        -220.465          49.000  
C13  34710954.609   180749047.512           4.236          47.000    34710946.000   139766582.915           3.333          48.000  
C16  35673070.883   185759040.219          41.669          45.000    35673060.715   143640633.255          32.333          48.000  
C25  22123347.239   115202069.543       -2436.626          37.000                                                                  
C32  21100334.308   109874982.235         952.863          49.000                                                                  
C06  35375785.817   184211000.744         221.937          45.000    35375770.235   142443567.015         171.528          47.000  
G25  20635689.002   108441285.263        2674.828          46.000    20635680.027    84499660.286        2084.110          41.000  
G10  19573070.708   102857176.698        1208.972          49.000    19573059.191    80148405.721         942.114          44.000  
G28  22175711.388   116534157.164        2674.169          41.000    22175701.283    90805816.619        2084.061          41.000  
C23  20745559.134   108027567.725         425.399          51.000                                                                  
C09  36849399.410   191884494.711         319.250          42.000    36849387.335   148377210.103         246.866          46.000  
C33  25957334.713   135166659.313       -2884.628          29.000                                                                  
C37  23016403.774   119852465.388        2767.112          44.000                                                                  
> 2025 10 27 02 45 52.6760000  0 19                     
G12  20803317.974   109322175.619        1062.856          44.000    20803306.413    85186058.125         828.036          41.000  
G15  23074129.043   121255362.481       -3217.116          37.000    23074119.905    94484660.516       -2506.700          33.000  
G18  23378807.538   122856466.625       -3695.375          38.000    23378801.760    95732279.760       -2879.154          36.000  
G23  19151109.286   100639757.669       -1906.944          45.000    19151097.309    78420516.326       -1485.971          47.000  
G24  20759026.981                2      -3297.601          29.000    20759017.868    85004704.776       -2569.058          32.000  
G32  20981392.931   110257965.748        1540.183          44.000    20981382.808    85915243.382        1199.952          42.000  
C08  34693871.186   180660089.546        -285.107          45.000    34693854.281   139697762.123        -220.496          49.000  
C13  34710954.566   180749047.339           4.218          47.000    34710945.942   139766582.782           3.314          48.000  
C16  35673070.570   185759038.537          41.874          45.000    35673060.419   143640631.956          32.395          48.000  
C25  22123365.966   115202166.999       -2436.484          37.000                                                                  
C32  21100327.002   109874944.116         952.892          49.000                                                                  
C06  35375784.127   184210991.867         221.904          45.000    35375768.523   142443560.153         171.475          47.000  
G25  20635668.635   108441178.272        2674.763          46.000    20635659.668    84499576.915        2084.163          41.000  
G10  19573061.503   102857128.338        1208.942          49.000    19573050.009    80148368.044         941.956          44.000  
G28  22175691.016   116534050.180        2674.383          41.000    22175680.911    90805733.253        2084.061          41.000  
C23  20745555.893   108027550.709         425.363          51.000                                                                  
C09  36849396.959   191884481.924         319.503          42.000    36849384.885   148377200.231         246.743          46.000  
C33  25957356.793   135166774.743       -2885.083          29.000                                                                  
C37  23016382.536   119852354.717        2766.856          44.000                                                                  
> 2025 10 27 02 45 52.7160000  0 19                     
G12  20803309.876   109322133.093        1063.004          44.000    20803298.306    85186024.987         828.250          41.000  
G15  23074153.516   121255491.139       -3216.725          37.000    23074144.403    94484760.781       -2506.590          33.000  
G18  23378835.664   122856614.431       -3695.240          38.000    23378829.888    95732394.961       -2879.750          36.000  
G23  19151123.800   100639833.952       -1907.092          45.000    19151111.814    78420575.759       -1485.902          47.000  
G24  20759052.673                2      -3297.854          29.000    20759042.938    85004807.551       -2569.341          32.000  
G32  20981381.223   110257904.146        1540.065          44.000    20981371.078    85915195.379        1200.005          42.000  
C08  34693873.379   180660100.952        -285.181          45.000    34693856.473   139697770.943        -220.551          49.000  
C13  34710954.545   180749047.168           4.242          47.000    34710945.918   139766582.646           3.333          48.000  
C16  35673070.232   185759036.864          41.801          45.000    35673060.108   143640630.663          32.329          48.000  
C25  22123384.697   115202264.476       -2436.810          37.000                                                                  
C32  21100319.686   109874906.001         952.842          49.000                                                                  
C06  35375782.441   184210982.996         221.734          45.000    35375766.840   142443553.292         171.475          47.000  
G25  20635648.267   108441071.272        2674.868          46.000    20635639.319    84499493.531        2084.433          41.000  
G10  19573052.328   102857079.983        1208.856          49.000    19573040.810    80148330.358         942.035          44.000  
G28  22175670.656   116533943.191        2674.613          41.000    22175660.566    90805649.903        2083.794          41.000  
C23  20745552.627   108027533.697         425.282          51.000                                                                  
C09  36849394.498   191884469.145         319.501          42.000    36849382.420   148377190.363         246.627          46.000  
C33  25957378.822   135166890.161       -2885.319          29.000                                                                  
C37  23016361.319   119852244.034        2766.916          44.000                                                                  
> 2025 10 27 02 45 52.7560000  0 19                     
G12  20803301.771   109322090.566        1063.119          44.000    20803290.232    85185991.842         828.529          41.000  
G15  23074177.994   121255619.793       -3216.447          37.000    23074168.878    94484861.019       -2506.107          33.000  
G18  23378863.784   122856762.239       -3695.198          38.000    23378858.018    95732510.126       -2879.370          36.000  
G23  19151138.310   100639910.234       -1907.108          45.000    19151126.325    78420635.197       -1485.958          47.000  
G24  20759077.479                2      -3297.297          29.000    20759068.014    85004910.343       -2569.726          32.000  
G32  20981369.523   110257842.546        1539.938          44.000    20981359.350    85915147.373        1200.037          42.000  
C08  34693875.534   180660112.364        -285.327          45.000    34693858.672   139697779.764        -220.569          49.000  
C13  34710954.495   180749046.996           4.242          47.000    34710945.882   139766582.514           3.278          48.000  
C16  35673069.908   185759035.191          41.795          45.000    35673059.780   143640629.372          32.265          48.000  
C25  22123403.415   115202361.941       -2436.727          37.000                                                                  
C32  21100312.376   109874867.884         952.837          49.000                                                                  
C06  35375780.749   184210974.117         221.831          45.000    35375765.136   142443546.426         171.576          47.000  
G25  20635627.919   108440964.274        2674.923          46.000    20635618.939    84499410.162        2084.338          41.000  
G10  19573043.108   102857031.625        1208.899          49.000    19573031.591    80148292.677         941.986          44.000  
G28  22175650.310   116533836.199        2674.753          41.000    22175640.234    90805566.551        2083.722          41.000  
C23  20745549.370   108027516.684         425.251          51.000                                                                  
C09  36849392.020   191884456.377         319.274          42.000    36849379.983   148377180.483         246.812          46.000  
C33  25957401.196   135167005.581       -2885.488          29.000                                                                  
C37  23016340.075   119852133.345        2767.073          44.000                                                                  
> 2025 10 27 02 45 52.7960000  0 19                     
G12  20803293.696   109322048.047        1063.020          44.000    20803282.148    85185958.706         828.477          41.000  
G15  23074202.473   121255748.472       -3216.758          37.000    23074193.368    94484961.257       -2505.726          33.000  
G18  23378891.914   122856910.049       -3695.270          38.000    23378886.144    95732625.314       -2879.569          36.000  
G23  19151152.840   100639986.508       -1906.958          45.000    19151140.850    78420694.632       -1485.914          47.000  
G24  20759102.426                2      -3296.849          29.000    20759093.132    85005013.108       -2569.376          32.000  
G32  20981357.797   110257780.931        1540.188          44.000    20981347.635    85915099.363        1200.174          42.000  
C08  34693877.686   180660123.759        -285.028          45.000    34693860.832   139697788.580        -220.502          49.000  
C13  34710954.450   180749046.823           4.272          47.000    34710945.869   139766582.381           3.265          48.000  
C16  35673069.555   185759033.521          41.696          45.000    35673059.461   143640628.073          32.385          48.000  
C25  22123422.157   115202459.410       -2436.777          37.000                                                                  
C32  21100305.088   109874829.759         953.006          49.000                                                                  
C06  35375779.053   184210965.235         221.956          45.000    35375763.430   142443539.558         171.666          47.000  
G25  20635607.576   108440857.288        2674.724          46.000    20635598.592    84499326.798        2084.161          41.000  
G10  19573033.893   102856983.262        1208.997          49.000    19573022.382    80148254.996         942.017          44.000  
G28  22175629.961   116533729.233        2674.277          41.000    22175619.881    90805483.187        2083.968          41.000  
C23  20745546.107   108027499.666         425.351          51.000                                                                  
C09  36849389.555   191884443.595         319.421          42.000    36849377.514   148377170.588         247.233          46.000  
C33  25957423.569   135167120.967       -2885.199          29.000                                                                  
C37  23016318.845   119852022.662        2767.105          44.000                                                                  
> 2025 10 27 02 45 52.8360000  0 19                     
G12  20803285.609   109322005.530        1062.951          44.000    20803274.065    85185925.568         828.448          41.000  
G15  23074226.970   121255877.152       -3216.917          37.000    23074217.850    94485061.532       -2506.353          33.000  
G18  23378920.047   122857057.864       -3695.341          38.000    23378914.250    95732740.466       -2879.062          36.000  
G23  19151167.363   100640062.776       -1906.790          45.000    19151155.323    78420754.063       -1485.827          47.000  
G24  20759127.922                2      -3296.938          29.000    20759118.270    85005115.916       -2569.870          32.000  
G32  20981346.065   110257719.313        1540.379          45.000    20981335.899    85915051.346        1200.351          42.000  
C08  34693879.842   180660135.162        -285.059          45.000    34693863.032   139697797.396        -220.435          49.000  
C13  34710954.427   180749046.643           4.407          47.000    34710945.828   139766582.240           3.430          48.000  
C16  35673069.240   185759031.839          41.875          45.000    35673059.174   143640626.774          32.458          48.000  
C25  22123440.883   115202556.880       -2436.807          37.000                                                                  
C32  21100297.815   109874791.634         953.106          49.000                                                                  
C06  35375777.326   184210956.354         222.034          45.000    35375761.683   142443532.687         171.753          47.000  
G25  20635587.220   108440750.298        2674.688          46.000    20635578.235    84499243.425        2084.243          41.000  
G10  19573024.668   102856934.900        1209.052          49.000    19573013.169    80148217.308         942.169          44.000  
G28  22175609.598   116533622.265        2674.125          41.000    22175599.520    90805399.827        2084.022          41.000  
C23  20745542.856   108027482.648         425.409          51.000                                                                  
C09  36849387.116   191884430.824         319.372          42.000    36849375.033   148377160.698         247.303          46.000  
C33  25957445.581   135167236.384       -2885.313          29.000                                                                  
C37  23016297.557   119851911.992        2766.850          44.000                                                                  
> 2025 10 27 02 45 52.8760000  0 19                     
G12  20803277.492   109321963.002        1063.116          44.000    20803265.967    85185892.442         828.255          41.000  
G15  23074251.456   121256005.821       -3216.825          37.000    23074242.324    94485161.805       -2506.742          33.000  
G18  23378948.152   122857205.687       -3695.527          38.000    23378942.349    95732855.661       -2879.568          36.000  
G23  19151181.894   100640139.050       -1906.817          45.000    19151169.839    78420813.499       -1485.909          47.000  
G24  20759152.520                2      -3297.290          29.000    20759143.381    85005218.701       -2569.798          32.000  
G32  20981334.325   110257657.697        1540.465          44.000    20981324.171    85915003.337        1200.303          42.000  
C08  34693882.043   180660146.559        -284.937          45.000    34693865.217   139697806.211        -220.410          49.000  
C13  34710954.387   180749046.472           4.303          47.000    34710945.772   139766582.105           3.394          48.000  
C16  35673068.918   185759030.164          41.860          45.000    35673058.843   143640625.477          32.439          48.000  
C25  22123459.584   115202654.349       -2436.845          37.000                                                                  
C32  21100290.472   109874753.513         953.077          49.000                                                                  
C06  35375775.599   184210947.467         222.154          45.000    35375759.966   142443525.822         171.699          47.000  
G25  20635566.847   108440643.297        2674.860          46.000    20635557.854    84499160.045        2084.377          41.000  
G10  19573015.464   102856886.540        1208.978          49.000    19573003.969    80148179.615         942.285          44.000  
G28  22175589.226   116533515.281        2674.370          41.000    22175579.175    90805316.469        2083.990          41.000  
C23  20745539.615   108027465.630         425.446          51.000                                                                  
C09  36849384.662   191884418.039         319.534          42.000    36849372.583   148377150.821         247.080          46.000  
C33  25957467.899   135167351.781       -2885.183          29.000                                                                  
C37  23016276.322   119851801.303        2767.047          44.000                                                                  
> 2025 10 27 02 45 52.9160000  0 19                     
G12  20803269.409   109321920.482        1063.061          44.000    20803257.880    85185859.312         828.186          41.000  
G15  23074275.931   121256134.478       -3216.576          37.000    23074266.804    94485262.090       -2507.133          33.000  
G18  23378976.279   122857353.502       -3695.505          38.000    23378970.460    95732970.823       -2879.200          36.000  
G23  19151196.399   100640215.329       -1906.930          45.000    19151184.359    78420872.935       -1485.921          47.000  
G24  20759177.008                2      -3297.113          29.000    20759168.455    85005321.483       -2569.680          32.000  
G32  20981322.589   110257596.093        1540.233          44.000    20981312.457    85914955.326        1200.328          42.000  
C08  34693884.229   180660157.961        -284.998          45.000    34693867.389   139697815.025        -220.367          49.000  
C13  34710954.351   180749046.296           4.315          47.000    34710945.743   139766581.972           3.308          48.000  
C16  35673068.583   185759028.482          41.957          45.000    35673058.546   143640624.179          32.426          48.000  
C25  22123478.301   115202751.838       -2437.250          37.000                                                                  
C32  21100283.144   109874715.394         953.005          49.000                                                                  
C06  35375773.867   184210938.586         222.132          45.000    35375758.262   142443518.962         171.566          47.000  
G25  20635546.492   108440536.295        2674.968          46.000    20635537.511    84499076.679        2084.219          41.000  
G10  19573006.258   102856838.184        1208.887          49.000    19572994.772    80148141.943         941.925          44.000  
G28  22175568.877   116533408.292        2674.594          41.000    22175558.805    90805233.094        2084.276          41.000  
C23  20745536.322   108027448.618         425.334          51.000                                                                  
C09  36849382.196   191884405.264         319.425          42.000    36849370.123   148377140.947         246.892          46.000  
C33  25957490.117   135167467.198       -2885.299          29.000                                                                  
C37  23016255.063   119851690.610        2767.236          44.000                                                                  
> 2025 10 27 02 45 52.9560000  0 19                     
G12  20803261.337   109321877.961        1063.026          44.000    20803249.778    85185826.177         828.267          41.000  
G15  23074300.414   121256263.154       -3216.781          37.000    23074291.305    94485362.349       -2506.757          33.000  
G18  23379004.412   122857501.313       -3695.389          38.000    23378998.594    95733086.018       -2879.644          36.000  
G23  19151210.895   100640291.603       -1906.904          45.000    19151198.898    78420932.372       -1485.952          47.000  
G24  20759202.116                2      -3297.708          29.000    20759193.559    85005424.239       -2569.055          32.000  
G32  20981310.852   110257534.479        1540.280          44.000    20981300.733    85914907.324        1200.164          42.000  
C08  34693886.414   180660169.363        -285.065          45.000    34693869.588   139697823.841        -220.404          49.000  
C13  34710954.300   180749046.119           4.376          47.000    34710945.708   139766581.836           3.363          48.000  
C16  35673068.255   185759026.796          42.112          45.000    35673058.229   143640622.880          32.458          48.000  
C25  22123497.024   115202849.292       -2436.678          37.000                                                                  
C32  21100275.816   109874677.274         952.979          49.000                                                                  
C06  35375772.145   184210929.711         221.965          45.000    35375756.537   142443512.090         171.693          47.000  
G25  20635526.121   108440429.300        2674.918          46.000    20635517.141    84498993.297        2084.374          41.000  
G10  19572997.077   102856789.825        1208.917          49.000    19572985.544    80148104.264         941.937          44.000  
G28  22175548.519   116533301.305        2674.679          41.000    22175538.461    90805149.738        2084.056          41.000  
C23  20745533.084   108027431.603         425.336          51.000                                                                  
C09  36849379.722   191884392.482         319.501          42.000    36849367.669   148377131.066         246.920          46.000  
C33  25957512.303   135167582.588       -2885.084          29.000                                                                  
C37  23016233.809   119851579.927        2767.164          44.000                                                                  
> 2025 10 27 02 45 52.9960000  0 19                     
G12  20803253.248   109321835.444        1062.882          44.000    20803241.704    85185793.048         828.195          41.000  
G15  23074324.892   121256391.796       -3216.214          37.000    23074315.794    94485462.620       -2506.830          33.000  
G18  23379032.526   122857649.090       -3694.705          38.000    23379026.716    95733201.187       -2879.440          36.000  
G23  19151225.418   100640367.879       -1906.923          45.000    19151213.430    78420991.807       -1485.921          47.000  
G24  20759226.903                2      -3297.741          29.000    20759218.660    85005527.029       -2569.395          32.000  
G32  20981299.124   110257472.866        1540.292          44.000    20981289.012    85914859.319        1200.122          42.000  
C08  34693888.637   180660180.771        -285.217          45.000    34693871.803   139697832.655        -220.386          49.000  
C13  34710954.247   180749045.948           4.309          47.000    34710945.666   139766581.699           3.400          48.000  
C16  35673067.917   185759025.125          41.898          45.000    35673057.913   143640621.587          32.352          48.000  
C25  22123515.742   115202946.753       -2436.461          37.000                                                                  
C32  21100268.501   109874639.155         952.935          49.000                                                                  
C06  35375770.448   184210920.826         222.051          45.000    35375754.810   142443505.221         171.717          47.000  
G25  20635505.770   108440322.309        2674.773          46.000    20635496.796    84498909.933        2084.165          41.000  
G10  19572987.851   102856741.465        1208.936          49.000    19572976.332    80148066.582         941.986          44.000  
G28  22175528.174   116533194.324        2674.578          41.000    22175518.132    90805066.373        2084.087          41.000  
C23  20745529.838   108027414.587         425.370          51.000                                                                  
C09  36849377.264   191884379.706         319.386          42.000    36849365.226   148377121.182         247.028          46.000  
C33  25957534.149   135167697.982       -2884.944          29.000                                                                  
C37  23016212.545   119851469.246        2767.104          44.000                                                                  
> 2025 10 27 02 45 53.0360000  0 19                     
G12  20803245.175   109321792.925        1062.886          44.000    20803233.619    85185759.896         828.639          41.000  
G15  23074349.391   121256520.478       -3216.723          37.000    23074340.265    94485562.854       -2506.222          33.000  
G18  23379060.663   122857796.905       -3695.068          38.000    23379054.824    95733316.361       -2879.424          36.000  
G23  19151239.926   100640444.156       -1906.967          45.000    19151227.961    78421051.248       -1486.032          47.000  
G24  20759252.809                2      -3297.778          29.000    20759243.757    85005629.792       -2569.076          32.000  
G32  20981287.392   110257411.256        1540.233          44.000    20981277.265    85914811.307        1200.213          42.000  
C08  34693890.833   180660192.173        -285.175          45.000    34693874.005   139697841.472        -220.422          49.000  
C13  34710954.213   180749045.761           4.547          47.000    34710945.610   139766581.567           3.326          48.000  
C16  35673067.573   185759023.445          41.939          45.000    35673057.591   143640620.290          32.380          48.000  
C25  22123534.460   115203044.225       -2436.645          37.000                                                                  
C32  21100261.213   109874601.034         952.962          49.000                                                                  
C06  35375768.766   184210911.947         221.963          45.000    35375753.105   142443498.352         171.748          47.000  
G25  20635485.405   108440215.318        2674.737          46.000    20635476.424    84498826.558        2084.274          41.000  
G10  19572978.646   102856693.110        1208.862          49.000    19572967.139    80148028.895         942.126          44.000  
G28  22175507.818   116533087.331        2674.746          41.000    22175497.762    90804983.013        2084.013          41.000  
C23  20745526.561   108027397.573         425.337          51.000                                                                  
C09  36849374.800   191884366.930         319.362          42.000    36849362.771   148377111.294         247.152          46.000  
C33  25957556.134   135167813.359       -2884.635          29.000                                                                  
C37  23016191.268   119851358.566        2767.006          44.000                                                                  
> 2025 10 27 02 45 53.0760000  0 19                     
G12  20803237.070   109321750.404        1062.935          44.000    20803225.518    85185726.769         828.412          41.000  
G15  23074373.884   121256649.160       -3217.039          37.000    23074364.737    94485663.111       -2506.285          33.000  
G18  23379088.808   122857944.709       -3695.133          38.000    23379082.965    95733431.529       -2879.265          36.000  
G23  19151254.434   100640520.437       -1907.053          45.000    19151242.473    78421110.681       -1485.926          47.000  
G24  20759277.715                2      -3298.022          29.000    20759268.867    85005732.578       -2569.483          32.000  
G32  20981275.662   110257349.648        1540.197          45.000    20981265.544    85914763.290        1200.389          42.000  
C08  34693893.027   180660203.571        -285.034          45.000    34693876.190   139697850.288        -220.441          49.000  
C13  34710954.185   180749045.590           4.364          47.000    34710945.564   139766581.427           3.418          48.000  
C16  35673067.244   185759021.766          41.911          45.000    35673057.285   143640618.991          32.426          48.000  
C25  22123553.178   115203141.698       -2436.789          37.000                                                                  
C32  21100253.900   109874562.915         952.937          49.000                                                                  
C06  35375767.062   184210903.071         221.886          45.000    35375751.421   142443491.484         171.693          47.000  
G25  20635465.045   108440108.324        2674.726          46.000    20635456.054    84498743.192        2084.149          41.000  
G10  19572969.459   102856644.758        1208.777          49.000    19572957.936    80147991.224         941.901          44.000  
G28  22175487.463   116532980.356        2674.445          41.000    22175477.398    90804899.667        2083.727          41.000  
C23  20745523.291   108027380.556         425.363          51.000                                                                  
C09  36849372.346   191884354.150         319.439          42.000    36849360.289   148377101.410         247.119          46.000  
C33  25957577.928   135167928.759       -2884.727          29.000                                                                  
C37  23016170.020   119851247.885        2766.989          44.000                                                                  
> 2025 10 27 02 45 53.1160000  0 19                     
G12  20803228.986   109321707.889        1062.877          44.000    20803217.417    85185693.642         828.270          41.000  
G15  23074398.348   121256777.797       -3216.280          37.000    23074389.214    94485763.378       -2506.576          33.000  
G18  23379116.938   122858092.525       -3695.311          38.000    23379111.081    95733546.703       -2879.374          36.000  
G23  19151268.939   100640596.720       -1907.102          45.000    19151256.975    78421170.122       -1485.995          47.000  
G24  20759303.091                2      -3298.014          29.000    20759293.957    85005835.345       -2569.313          32.000  
G32  20981263.940   110257288.032        1540.280          45.000    20981253.830    85914715.289        1200.157          42.000  
C08  34693895.217   180660214.968        -284.930          45.000    34693878.413   139697859.100        -220.349          49.000  
C13  34710954.165   180749045.414           4.340          47.000    34710945.491   139766581.294           3.320          48.000  
C16  35673066.905   185759020.097          41.750          45.000    35673056.982   143640617.688          32.510          48.000  
C25  22123571.887   115203239.177       -2436.930          37.000                                                                  
C32  21100246.585   109874524.794         952.969          49.000                                                                  
C06  35375765.430   184210894.180         222.134          45.000    35375749.729   142443484.622         171.591          47.000  
G25  20635444.679   108440001.329        2674.793          46.000    20635435.693    84498659.813        2084.328          41.000  
G10  19572960.257   102856596.403        1208.807          49.000    19572948.752    80147953.545         941.888          44.000  
G28  22175467.111   116532873.377        2674.416          41.000    22175457.029    90804816.300        2083.959          41.000  
C23  20745519.996   108027363.548         425.241          51.000                                                                  
C09  36849369.915   191884341.374         319.395          42.000    36849357.859   148377091.536         246.892          46.000  
C33  25957600.045   135168044.170       -2884.950          29.000                                                                  
C37  23016148.770   119851137.195        2767.136          44.000                                                                  
> 2025 10 27 02 45 53.1560000  0 19                     
G12  20803220.893   109321665.368        1062.963          44.000    20803209.323    85185660.514         828.182          41.000  
G15  23074422.842   121256906.464       -3216.429          37.000    23074413.704    94485863.667       -2507.175          33.000  
G18  23379145.058   122858240.337       -3695.367          38.000    23379139.224    95733661.884       -2879.510          36.000  
G23  19151283.458   100640673.002       -1907.114          45.000    19151271.514    78421229.566       -1486.125          47.000  
G24  20759328.069                2      -3297.791          29.000    20759319.070    85005938.163       -2570.063          32.000  
G32  20981252.226   110257226.422        1540.221          44.000    20981242.103    85914667.278        1200.204          42.000  
C08  34693897.386   180660226.373        -285.071          45.000    34693880.581   139697867.922        -220.508          49.000  
C13  34710954.098   180749045.242           4.266          47.000    34710945.445   139766581.158           3.333          48.000  
C16  35673066.576   185759018.422          41.747          45.000    35673056.679   143640616.389          32.494          48.000  
C25  22123590.618   115203336.647       -2436.823          37.000                                                                  
C32  21100239.294   109874486.672         953.041          49.000                                                                  
C06  35375763.740   184210885.302         222.017          45.000    35375748.039   142443477.758         171.574          47.000  
G25  20635424.303   108439894.342        2674.628          46.000    20635415.314    84498576.445        2084.235          41.000  
G10  19572951.048   102856548.041        1208.948          49.000    19572939.532    80147915.859         942.047          44.000  
G28  22175446.755   116532766.410        2674.199          41.000    22175436.694    90804732.937        2084.008          41.000  
C23  20745516.720   108027346.540         425.165          51.000                                                                  
C09  36849367.421   191884328.601         319.306          42.000    36849355.432   148377081.662         246.793          46.000  
C33  25957622.354   135168159.572       -2884.995          29.000                                                                  
C37  23016127.485   119851026.527        2766.856          44.000                                                                  
> 2025 10 27 02 45 53.1960000  0 19                     
G12  20803212.808   109321622.862        1062.757          44.000    20803201.227    85185627.393         828.010          41.000  
G15  23074447.345   121257035.157       -3217.063          37.000    23074438.176    94485963.904       -2506.615          33.000  
G18  23379173.184   122858388.127       -3694.958          38.000    23379167.380    95733777.065       -2879.625          36.000  
G23  19151297.992   100640749.290       -1907.225          45.000    19151286.025    78421289.013       -1486.217          47.000  
G24  20759353.378                2      -3297.504          29.000    20759344.182    85006040.955       -2570.003          32.000  
G32  20981240.496   110257164.812        1540.237          44.000    20981230.400    85914619.277        1200.020          42.000  
C08  34693899.583   180660237.781        -285.205          45.000    34693882.752   139697876.739        -220.502          49.000  
C13  34710954.069   180749045.075           4.169          47.000    34710945.430   139766581.030           3.174          48.000  
C16  35673066.269   185759016.739          41.933          45.000    35673056.365   143640615.100          32.277          48.000  
C25  22123609.324   115203434.111       -2436.655          37.000                                                                  
C32  21100231.961   109874448.559         952.872          49.000                                                                  
C06  35375762.017   184210876.431         221.827          45.000    35375746.334   142443470.889         171.640          47.000  
G25  20635403.951   108439787.356        2674.574          46.000    20635394.957    84498493.077        2084.176          41.000  
G10  19572941.856   102856499.691        1208.801          49.000    19572930.332    80147878.173         942.139          44.000  
G28  22175426.410   116532659.438        2674.189          41.000    22175416.314    90804649.582        2083.927          41.000  
C23  20745513.453   108027329.535         425.078          51.000                                                                  
C09  36849364.996   191884315.817         319.510          42.000    36849352.951   148377071.789         246.752          46.000  
C33  25957644.322                       -2885.262          29.000                                                                  
C37  23016106.234   119850915.844        2766.926          44.000                                                                  
> 2025 10 27 02 45 53.2360000  0 19                     
G12  20803204.712   109321580.352        1062.676          44.000    20803193.124    85185594.270         827.943          41.000  
G15  23074471.835   121257163.868       -3217.727          37.000    23074462.650    94486064.137       -2506.024          33.000  
G18  23379201.334   122858535.951       -3695.319          38.000    23379195.517    95733892.250       -2879.731          36.000  
G23  19151312.495   100640825.577       -1907.248          45.000    19151300.522    78421348.457       -1486.197          47.000  
G24  20759378.367                2      -3297.410          29.000    20759369.278    85006143.760       -2570.273          32.000  
G32  20981228.758   110257103.207        1540.160          44.000    20981218.659    85914571.269        1200.022          42.000  
C08  34693901.740   180660249.190        -285.291          45.000    34693884.936   139697885.565        -220.648          49.000  
C13  34710954.055   180749044.908           4.108          47.000    34710945.410   139766580.897           3.210          48.000  
C16  35673065.934   185759015.063          41.884          45.000    35673056.075   143640613.812          32.151          48.000  
C25  22123628.026   115203531.594       -2436.873          37.000                                                                  
C32  21100224.659   109874410.445         952.811          49.000                                                                  
C06  35375760.320   184210867.555         221.806          45.000    35375744.650   142443464.018         171.691          47.000  
G25  20635383.581   108439680.372        2674.520          46.000    20635374.597    84498409.709        2084.146          41.000  
G10  19572932.665   102856451.346        1208.600          49.000    19572921.143    80147840.505         941.815          44.000  
G28  22175406.051   116532552.455        2674.389          41.000    22175395.963    90804566.229        2083.816          41.000  
C23  20745510.210   108027312.527         425.115          51.000                                                                  
C09  36849362.541   191884303.040         319.502          42.000    36849350.482   148377061.912         246.823          46.000  
C33  25957666.534                       -2885.026          29.000                                                                  
C37  23016084.974   119850805.173        2766.811          44.000                                                                  
> 2025 10 27 02 45 53.2760000  0 19                     
G12  20803196.644   109321537.854        1062.467          44.000    20803185.054    85185561.156         827.794          41.000  
G15  23074496.316   121257292.548       -3217.490          37.000    23074487.144    94486164.421       -2506.682          33.000  
G18  23379229.453   122858683.768       -3695.385          38.000    23379223.627    95734007.431       -2879.729          36.000  
G23  19151327.004   100640901.870       -1907.347          45.000    19151315.039    78421407.903       -1486.202          47.000  
G24  20759403.239                2      -3297.715          29.000    20759394.391    85006246.518       -2569.439          32.000  
G32  20981217.045   110257041.611        1539.944          44.000    20981206.929    85914523.268        1199.949          42.000  
C08  34693903.942   180660260.598        -285.291          45.000    34693887.131   139697894.388        -220.679          49.000  
C13  34710954.032   180749044.734           4.218          47.000    34710945.368   139766580.768           3.186          48.000  
C16  35673065.616   185759013.396          41.686          45.000    35673055.763   143640612.524          32.112          48.000  
C25  22123646.746   115203629.097       -2437.439          37.000                                                                  
C32  21100217.336   109874372.335         952.717          49.000                                                                  
C06  35375758.605   184210858.684         221.739          45.000    35375742.925   142443457.161         171.493          47.000  
G25  20635363.227   108439573.383        2674.623          46.000    20635354.215    84498326.343        2084.130          41.000  
G10  19572923.486   102856403.011        1208.368          49.000    19572911.939    80147802.843         941.565          44.000  
G28  22175385.717   116532445.488        2674.246          41.000    22175375.576    90804482.888        2083.543          41.000  
C23  20745506.914   108027295.525         425.032          51.000                                                                  
C09  36849360.080   191884290.271         319.326          42.000    36849348.041   148377052.038         246.811          46.000  
C33  25957689.005                       -2884.974          29.000                                                                  
C37  23016063.725   119850694.502        2766.744          44.000                                                                  
> 2025 10 27 02 45 53.3160000  0 19                     
G12  20803188.562   109321495.353        1062.403          44.000    20803176.960    85185528.028         828.000          41.000  
G15  23074520.804   121257421.204       -3216.860          37.000    23074511.648    94486264.707       -2507.069          33.000  
G18  23379257.580   122858831.575       -3695.248          38.000    23379251.755    95734122.593       -2879.348          36.000  
G23  19151341.511   100640978.159       -1907.333          45.000    19151329.544    78421467.345       -1486.090          47.000  
G24  20759427.889                2      -3298.068          29.000    20759419.460    85006349.270       -2568.971          32.000  
G32  20981205.317   110256980.005        1540.032          44.000    20981195.192    85914475.265        1199.986          42.000  
C08  34693906.173   180660272.004        -285.217          45.000    34693889.330   139697903.210        -220.636          49.000  
C13  34710953.996   180749044.562           4.242          47.000    34710945.358   139766580.636           3.265          48.000  
C16  35673065.320   185759011.729          41.615          45.000    35673055.486   143640611.228          32.267          48.000  
C25  22123665.454   115203726.578       -2437.299          37.000                                                                  
C32  21100210.024   109874334.223         952.713          49.000                                                                  
C06  35375756.889   184210849.807         221.849          45.000    35375741.215   142443450.303         171.401          47.000  
G25  20635342.855   108439466.394        2674.668          46.000    20635333.844    84498242.985        2083.974          41.000  
G10  19572914.266   102856354.661        1208.557          49.000    19572902.746    80147765.171         941.650          44.000  
G28  22175365.369   116532338.515        2674.240          41.000    22175355.227    90804399.531        2083.764          41.000  
C23  20745503.682   108027278.523         425.016          51.000                                                                  
C09  36849357.616   191884277.500         319.277          42.000    36849345.583   148377042.158         246.950          46.000  
C33  25957711.279                       -2885.283          29.000                                                                  
C37  23016042.474   119850583.823        2766.825          44.000                                                                  
> 2025 10 27 02 45 53.3560000  0 19                     
G12  20803180.447   109321452.829        1062.854          44.000    20803168.864    85185494.914         827.837          41.000  
G15  23074545.268   121257549.870       -3216.724          37.000    23074536.126    94486364.958       -2506.550          33.000  
G18  23379285.704   122858979.386       -3695.250          38.000    23379279.884    95734237.754       -2879.089          36.000  
G23  19151356.038   100641054.451       -1907.352          45.000    19151344.039    78421526.792       -1486.140          47.000  
G24  20759452.423                2      -3297.794          29.000    20759444.565    85006452.082       -2569.814          32.000  
G32  20981193.590   110256918.393        1540.182          44.000    20981183.445    85914427.252        1200.145          42.000  
C08  34693908.389   180660283.413        -285.248          45.000    34693891.518   139697912.028        -220.551          49.000  
C13  34710953.956   180749044.394           4.169          47.000    34710945.302   139766580.498           3.375          48.000  
C16  35673065.004   185759010.061          41.599          45.000    35673055.190   143640609.930          32.370          48.000  
C25  22123684.168   115203824.047       -2436.929          37.000                                                                  
C32  21100202.710   109874296.112         952.702          49.000                                                                  
C06  35375755.188   184210840.926         221.985          45.000    35375739.503   142443443.444         171.393          47.000  
G25  20635322.506   108439359.410        2674.608          46.000    20635313.478    84498159.618        2084.057          41.000  
G10  19572905.056   102856306.310        1208.685          49.000    19572893.548    80147727.495         941.833          44.000  
G28  22175345.020   116532231.539        2674.290          41.000    22175334.860    90804316.164        2084.031          41.000  
C23  20745500.467   108027261.519         425.031          51.000                                                                  
C09  36849355.185   191884264.725         319.322          42.000    36849343.143   148377032.278         247.025          46.000  
C33  25957733.693   135168736.598       -2885.266          29.000                                                                  
C37  23016021.237   119850473.147        2766.837          44.000                                                                  
> 2025 10 27 02 45 53.3960000  0 19                     
G12  20803172.385   109321410.324        1062.741          44.000    20803160.769    85185461.788         828.063          41.000  
G15  23074569.727   121257678.524       -3216.472          37.000    23074560.586    94486465.253       -2506.952          33.000  
G18  23379313.844   122859127.211       -3695.535          38.000    23379307.987    95734352.913       -2878.894          36.000  
G23  19151370.567   100641130.742       -1907.345          45.000    19151358.555    78421586.239       -1486.190          47.000  
G24  20759476.530                2      -3297.502          29.000    20759469.669    85006554.884       -2570.046          32.000  
G32  20981181.862   110256856.787        1540.179          44.000    20981171.715    85914379.258        1199.905          42.000  
C08  34693910.580   180660294.826        -285.333          45.000    34693893.717   139697920.853        -220.612          49.000  
C13  34710953.896   180749044.227           4.108          47.000    34710945.250   139766580.366           3.320          48.000  
C16  35673064.658   185759008.393          41.624          45.000    35673054.864   143640608.641          32.269          48.000  
C25  22123702.877   115203921.520       -2436.749          37.000                                                                  
C32  21100195.398   109874258.002         952.685          49.000                                                                  
C06  35375753.432   184210832.057         221.840          45.000    35375737.782   142443436.586         171.396          47.000  
G25  20635302.151   108439252.435        2674.415          46.000    20635293.132    84498076.258        2083.999          41.000  
G10  19572895.871   102856257.963        1208.698          49.000    19572884.369    80147689.832         941.626          44.000  
G28  22175324.649   116532124.573        2674.172          41.000    22175314.517    90804232.807        2084.023          41.000  
C23  20745497.212   108027244.521         424.955          51.000                                                                  
C09  36849352.749   191884251.953         319.291          42.000    36849340.654   148377022.400         246.991          46.000  
C33  25957755.679   135168852.040       -2885.675          29.000                                                                  
C37  23016000.005   119850362.466        2766.959          44.000                                                                  
> 2025 10 27 02 45 53.4360000  0 19                     
G12  20803164.282   109321367.818        1062.693          44.000    20803152.682    85185428.652         828.311          41.000  
G15  23074594.224   121257807.198       -3216.708          37.000    23074585.046    94486565.488       -2506.297          33.000  
G18  23379341.971   122859275.015       -3695.314          38.000    23379336.116    95734468.114       -2879.597          36.000  
G23  19151385.071   100641207.034       -1907.357          45.000    19151373.065    78421645.686       -1486.208          47.000  
G24  20759501.168                2      -3297.712          29.000    20759494.786    85006657.667       -2569.818          32.000  
G32  20981170.150   110256795.196        1539.854          44.000    20981159.985    85914331.252        1199.986          42.000  
C08  34693912.789   180660306.230        -285.162          45.000    34693895.889   139697929.670        -220.502          49.000  
C13  34710953.873   180749044.057           4.150          47.000    34710945.205   139766580.237           3.247          48.000  
C16  35673064.322   185759006.710          41.892          45.000    35673054.516   143640607.346          32.309          48.000  
C25  22123721.598   115204019.003       -2436.965          37.000                                                                  
C32  21100188.112   109874219.889         952.737          49.000                                                                  
C06  35375751.724   184210823.183         221.835          45.000    35375736.087   142443429.713         171.645          47.000  
G25  20635281.780   108439145.452        2674.479          46.000    20635272.743    84497992.889        2084.139          41.000  
G10  19572886.658   102856209.620        1208.582          49.000    19572875.163    80147652.155         941.779          44.000  
G28  22175304.295   116532017.607        2674.086          41.000    22175294.170    90804149.465        2083.705          41.000  
C23  20745493.958   108027227.521         424.957          51.000                                                                  
C09  36849350.270   191884239.178         319.329          42.000    36849338.177   148377012.524         246.915          46.000  
C33  25957777.725                       -2885.351          29.000                                                                  
C37  23015978.737   119850251.795        2766.829          44.000                                                                  
> 2025 10 27 02 45 53.4760000  0 19                     
G12  20803156.180   109321325.329        1062.337          44.000    20803144.593    85185395.538         828.031          41.000  
G15  23074618.683   121257935.871       -3216.834          37.000    23074609.534    94486665.749       -2506.339          33.000  
G18  23379370.103   122859422.832       -3695.414          38.000    23379364.245    95734583.329       -2880.308          36.000  
G23  19151399.589   100641283.331       -1907.444          45.000    19151387.582    78421705.133       -1486.202          47.000  
G24  20759527.320                2      -3297.458          29.000    20759519.827    85006760.425       -2569.279          32.000  
G32  20981158.417   110256733.590        1539.984          44.000    20981148.282    85914283.254        1199.917          42.000  
C08  34693914.966   180660317.633        -285.126          45.000    34693898.060   139697938.494        -220.581          49.000  
C13  34710953.858   180749043.887           4.187          47.000    34710945.150   139766580.108           3.198          48.000  
C16  35673063.968   185759005.047          41.697          45.000    35673054.183   143640606.056          32.257          48.000  
C25  22123740.313   115204116.488       -2437.184          37.000                                                                  
C32  21100180.787   109874181.780         952.711          49.000                                                                  
C06  35375750.032   184210814.307         221.886          45.000    35375734.367   142443422.851         171.573          47.000  
G25  20635261.414   108439038.469        2674.527          46.000    20635252.405    84497909.540        2083.823          41.000  
G10  19572877.463   102856161.282        1208.429          49.000    19572865.986    80147614.488         941.711          44.000  
G28  22175283.940   116531910.646        2673.905          41.000    22175273.831    90804066.116        2083.644          41.000  
C23  20745490.667   108027210.521         424.952          51.000                                                                  
C09  36849347.829   191884226.419         319.052          42.000    36849335.744   148377002.648         246.865          46.000  
C33  25957799.877                       -2884.686          29.000                                                                  
C37  23015957.500   119850141.118        2766.813          44.000                                                                  
> 2025 10 27 02 45 53.5160000  0 19                     
G12  20803148.096   109321282.834        1062.274          44.000    20803136.515    85185362.424         827.859          41.000  
G15  23074643.168   121258064.573       -3217.437          37.000    23074634.015    94486766.035       -2506.838          33.000  
G18  23379398.256   122859570.637       -3695.199          38.000    23379392.384    95734698.503       -2879.850          36.000  
G23  19151414.143   100641359.630       -1907.543          45.000    19151402.108    78421764.594       -1486.475          47.000  
G24  20759552.909                2      -3297.723          29.000    20759544.954    85006863.207       -2569.335          32.000  
G32  20981146.688   110256671.981        1540.106          44.000    20981136.559    85914235.246        1200.086          42.000  
C08  34693917.138   180660329.049        -285.339          45.000    34693900.228   139697947.320        -220.667          49.000  
C13  34710953.782   180749043.722           4.132          47.000    34710945.127   139766579.987           3.033          48.000  
C16  35673063.657   185759003.379          41.666          45.000    35673053.853   143640604.766          32.212          48.000  
C25  22123759.038   115204213.977       -2437.293          37.000                                                                  
C32  21100173.445   109874143.675         952.623          49.000                                                                  
C06  35375748.351   184210805.441         221.723          45.000    35375732.675   142443415.994         171.435          47.000  
G25  20635241.057   108438931.492        2674.430          46.000    20635232.029    84497826.182        2083.877          41.000  
G10  19572868.248   102856112.943        1208.405          49.000    19572856.765    80147576.822         941.632          44.000  
G28  22175263.582   116531803.671        2674.138          41.000    22175253.477    90803982.762        2083.739          41.000  
C23  20745487.372   108027193.527         424.835          51.000                                                                  
C09  36849345.372   191884213.646         319.180          42.000    36849333.286   148376992.781         246.677          46.000  
C33  25957822.076                       -2884.917          29.000                                                                  
C37  23015936.236   119850030.452        2766.659          44.000                                                                  
> 2025 10 27 02 45 53.5560000  0 19                     
G12  20803139.997   109321240.332        1062.396          44.000    20803128.451    85185329.316         827.684          41.000  
G15  23074667.650   121258193.279       -3217.718          37.000    23074658.486    94486866.299       -2506.890          33.000  
G18  23379426.381   122859718.456       -3695.361          38.000    23379420.505    95734813.663       -2879.336          36.000  
G23  19151428.631   100641435.928       -1907.547          45.000    19151416.606    78421824.050       -1486.498          47.000  
G24  20759578.019                2      -3297.490          29.000    20759570.076    85006966.012       -2569.901          32.000  
G32  20981134.965   110256610.385        1539.909          44.000    20981124.852    85914187.232        1200.271          42.000  
C08  34693919.314   180660340.466        -285.413          45.000    34693902.406   139697956.149        -220.746          49.000  
C13  34710953.733   180749043.560           4.016          47.000    34710945.094   139766579.860           3.101          48.000  
C16  35673063.314   185759001.702          41.804          45.000    35673053.519   143640603.480          32.141          48.000  
C25  22123777.777   115204311.466       -2437.297          37.000                                                                  
C32  21100166.125   109874105.566         952.644          49.000                                                                  
C06  35375746.667   184210796.575         221.642          45.000    35375730.990   142443409.139         171.334          47.000  
G25  20635220.720   108438824.518        2674.347          46.000    20635211.667    84497742.820        2083.958          41.000  
G10  19572859.063   102856064.612        1208.246          49.000    19572847.550    80147539.158         941.577          44.000  
G28  22175243.221   116531696.711        2673.994          41.000    22175233.121    90803899.414        2083.689          41.000  
C23  20745484.098   108027176.535         424.754          51.000                                                                  
C09  36849342.922   191884200.880         319.124          42.000    36849330.821   148376982.914         246.617          46.000  
C33  25957843.907                       -2885.048          29.000                                                                  
C37  23015914.980   119849919.796        2766.385          44.000                                                                  
> 2025 10 27 02 45 53.5960000  0 19                     
G12  20803131.893   109321197.836        1062.385          44.000    20803120.384    85185296.207         827.666          41.000  
G15  23074692.152   121258321.922       -3216.719          37.000    23074682.984    94486966.554       -2506.639          33.000  
G18  23379454.521   122859866.283       -3695.575          38.000    23379448.614    95734928.833       -2879.273          36.000  
G23  19151443.160   100641512.230       -1907.596          45.000    19151431.097    78421883.506       -1486.490          47.000  
G24  20759603.227                2      -3297.687          29.000    20759595.183    85007068.835       -2570.526          32.000  
G32  20981123.238   110256548.787        1539.901          44.000    20981113.143    85914139.240        1199.958          42.000  
C08  34693921.517   180660351.879        -285.394          45.000    34693904.582   139697964.977        -220.752          49.000  
C13  34710953.684   180749043.394           4.065          47.000    34710945.073   139766579.735           3.107          48.000  
C16  35673062.971   185759000.043          41.567          45.000    35673053.220   143640602.192          32.139          48.000  
C25  22123796.505   115204408.952       -2437.240          37.000                                                                  
C32  21100158.805   109874067.462         952.587          49.000                                                                  
C06  35375744.985   184210787.709         221.594          45.000    35375729.276   142443402.275         171.476          47.000  
G25  20635200.369   108438717.545        2674.278          46.000    20635191.307    84497659.459        2084.004          41.000  
G10  19572849.856   102856016.273        1208.331          49.000    19572838.321    80147501.499         941.449          44.000  
G28  22175222.869   116531589.745        2674.001          41.000    22175212.771    90803816.067        2083.652          41.000  
C23  20745480.824   108027159.542         424.752          51.000                                                                  
C09  36849340.440   191884188.108         319.200          42.000    36849328.382   148376973.042         246.721          46.000  
C33  25957866.488                       -2885.210          29.000                                                                  
C37  23015893.718   119849809.120        2766.667          44.000                                                                  
> 2025 10 27 02 45 53.6360000  0 19                     
G12  20803123.809   109321155.331        1062.542          44.000    20803112.273    85185263.087         827.878          41.000  
G15  23074716.650   121258450.595       -3216.656          37.000    23074707.470    94487066.862       -2507.313          33.000  
G18  23379482.647   122860014.077       -3695.129          38.000    23379476.755    95735043.984       -2878.942          36.000  
G23  19151457.666   100641588.522       -1907.402          45.000    19151445.620    78421942.959       -1486.402          47.000  
G24  20759628.666                2      -3298.060          29.000    20759620.293    85007171.610       -2569.794          32.000  
G32  20981111.514   110256487.180        1540.086          44.000    20981101.431    85914091.241        1199.936          42.000  
C08  34693923.712   180660363.291        -285.370          45.000    34693906.770   139697973.798        -220.642          49.000  
C13  34710953.671   180749043.219           4.272          47.000    34710945.043   139766579.597           3.357          48.000  
C16  35673062.634   185758998.372          41.679          45.000    35673052.853   143640600.891          32.394          48.000  
C25  22123815.228   115204506.443       -2437.276          37.000                                                                  
C32  21100151.521   109874029.351         952.692          49.000                                                                  
C06  35375743.281   184210778.830         221.799          45.000    35375727.589   142443395.415         171.481          47.000  
G25  20635179.994   108438610.558        2674.503          46.000    20635170.952    84497576.097        2084.005          41.000  
G10  19572840.642   102855967.929        1208.508          49.000    19572829.131    80147463.825         941.699          44.000  
G28  22175202.496   116531482.772        2674.208          41.000    22175192.430    90803732.709        2083.878          41.000  
C23  20745477.595   108027142.545         424.846          51.000                                                                  
C09  36849337.981   191884175.332         319.338          42.000    36849325.922   148376963.160         246.947          46.000  
C33  25957888.514                       -2885.377          29.000                                                                  
C37  23015872.426   119849698.447        2766.772          44.000                                                                  
> 2025 10 27 02 45 53.6760000  0 19                     
G12  20803115.699   109321112.833        1062.506          44.000    20803104.188    85185229.971         827.901          41.000  
G15  23074741.132   121258579.272       -3216.711          37.000    23074731.940    94487167.120       -2506.816          33.000  
G18  23379510.751   122860161.872       -3694.896          38.000    23379504.897    95735159.162       -2879.200          36.000  
G23  19151472.180   100641664.818       -1907.391          45.000    19151460.111    78422002.405       -1486.196          47.000  
G24  20759653.743                2      -3297.836          29.000    20759645.341    85007274.362       -2569.072          32.000  
G32  20981099.767   110256425.567        1540.284          44.000    20981089.713    85914043.237        1200.015          42.000  
C08  34693925.903   180660374.704        -285.364          45.000    34693908.979   139697982.618        -220.538          49.000  
C13  34710953.649   180749043.048           4.309          47.000    34710945.008   139766579.461           3.412          48.000  
C16  35673062.276   185758996.697          41.793          45.000    35673052.541   143640599.597          32.403          48.000  
C25  22123833.951   115204603.906       -2436.829          37.000                                                                  
C32  21100144.182   109873991.235         952.838          49.000                                                                  
C06  35375741.579   184210769.947         222.011          45.000    35375725.858   142443388.546         171.650          47.000  
G25  20635159.644   108438503.573        2674.619          46.000    20635150.596    84497492.739        2083.933          41.000  
G10  19572831.431   102855919.588        1208.545          49.000    19572819.925    80147426.150         941.852          44.000  
G28  22175182.124   116531375.804        2674.207          41.000    22175172.066    90803649.356        2083.883          41.000  
C23  20745474.334   108027125.544         424.962          51.000                                                                  
C09  36849335.529   191884162.562         319.280          42.000    36849323.461   148376953.274         247.133          46.000  
C33  25957910.541                       -2885.780          29.000                                                                  
C37  23015851.180   119849587.767        2766.982          44.000                                                                  
> 2025 10 27 02 45 53.7160000  0 19                     
G12  20803107.618   109321070.328        1062.575          44.000    20803096.069    85185196.841         828.142          41.000  
G15  23074765.589   121258707.956       -3216.947          37.000    23074756.427    94487267.372       -2506.401          33.000  
G18  23379538.897   122860309.691       -3695.200          38.000    23379533.034    95735274.361       -2879.780          37.000  
G23  19151486.723   100641741.114       -1907.392          45.000    19151474.661    78422061.858       -1486.280          47.000  
G24  20759678.165                2      -3297.945          29.000    20759670.450    85007377.179       -2569.947          32.000  
G32  20981088.059   110256363.963        1540.200          44.000    20981077.993    85913995.230        1200.140          42.000  
C08  34693928.115   180660386.108        -285.181          45.000    34693911.185   139697991.440        -220.532          49.000  
C13  34710953.604   180749042.877           4.291          47.000    34710944.981   139766579.328           3.375          48.000  
C16  35673061.932   185758995.028          41.752          45.000    35673052.250   143640598.308          32.253          48.000  
C25  22123852.682   115204701.386       -2436.894          37.000                                                                  
C32  21100136.865   109873953.123         952.840          49.000                                                                  
C06  35375739.877   184210761.068         222.022          45.000    35375724.150   142443381.681         171.638          47.000  
G25  20635139.323   108438396.588        2674.640          46.000    20635130.219    84497409.369        2084.110          41.000  
G10  19572822.247   102855871.254        1208.423          49.000    19572810.735    80147388.493         941.565          44.000  
G28  22175161.757   116531268.831        2674.287          41.000    22175151.730    90803566.002        2083.875          41.000  
C23  20745471.035   108027108.547         424.959          51.000                                                                  
C09  36849333.078   191884149.792         319.255          42.000    36849321.003   148376943.403         246.921          46.000  
C33  25957932.432                       -2885.927          29.000                                                                  
C37  23015829.925   119849477.092        2766.980          44.000                                                                  
> 2025 10 27 02 45 53.7560000  0 19                     
G12  20803099.549   109321027.833        1062.397          44.000    20803087.990    85185163.738         827.734          41.000  
G15  23074790.063   121258836.620       -3216.794          37.000    23074780.939    94487367.619       -2506.052          33.000  
G18  23379567.033   122860457.514       -3695.527          38.000    23379561.196    95735389.574       -2880.285          36.000  
G23  19151501.236   100641817.417       -1907.561          45.000    19151489.169    78422121.314       -1486.361          47.000  
G24  20759702.945                2      -3297.887          29.000    20759695.524    85007479.960       -2569.806          32.000  
G32  20981076.323   110256302.363        1540.055          44.000    20981066.285    85913947.235        1199.982          42.000  
C08  34693930.297   180660397.520        -285.266          45.000    34693913.403   139698000.265        -220.605          49.000  
C13  34710953.555   180749042.709           4.218          47.000    34710944.959   139766579.200           3.259          48.000  
C16  35673061.603   185758993.358          41.717          45.000    35673051.942   143640597.024          32.085          48.000  
C25  22123871.434   115204798.883       -2437.294          37.000                                                                  
C32  21100129.521   109873915.018         952.678          49.000                                                                  
C06  35375738.166   184210752.201         221.734          45.000    35375722.416   142443374.823         171.527          47.000  
G25  20635118.982   108438289.618        2674.375          46.000    20635109.851    84497326.009        2084.021          41.000  
G10  19572813.054   102855822.913        1208.453          49.000    19572801.543    80147350.824         941.656          44.000  
G28  22175141.403   116531161.861        2674.235          41.000    22175131.379    90803482.664        2083.532          41.000  
C23  20745467.737   108027091.554         424.840          51.000                                                                  
C09  36849330.615   191884137.028         319.149          42.000    36849318.534   148376933.534         246.733          46.000  
C33  25957954.988                       -2885.347          29.000                                                                  
C37  23015808.658   119849366.428        2766.710          44.000                                                                  
> 2025 10 27 02 45 53.7960000  0 19                     
G12  20803091.471   109320985.352        1062.092          44.000    20803079.895    85185130.623         827.779          41.000  
G15  23074814.583   121258965.307       -3217.102          37.000    23074805.406    94487467.873       -2506.109          33.000  
G18  23379595.175   122860605.333       -3695.582          38.000    23379589.324    95735504.745       -2879.822          36.000  
G23  19151515.759   100641893.720       -1907.622          45.000    19151503.695    78422180.768       -1486.385          47.000  
G24  20759727.691                2      -3297.967          29.000    20759720.600    85007582.740       -2569.648          32.000  
G32  20981064.626   110256240.769        1539.896          44.000    20981054.566    85913899.231        1200.041          42.000  
C08  34693932.459   180660408.935        -285.358          45.000    34693915.584   139698009.090        -220.642          49.000  
C13  34710953.489   180749042.546           4.059          47.000    34710944.931   139766579.079           3.027          48.000  
C16  35673061.273   185758991.695          41.601          45.000    35673051.595   143640595.738          32.058          48.000  
C25  22123890.191   115204896.385       -2437.578          37.000                                                                  
C32  21100122.203   109873876.920         952.456          49.000                                                                  
C06  35375736.457   184210743.333         221.608          45.000    35375720.722   142443367.967         171.432          47.000  
G25  20635098.630   108438182.649        2674.182          46.000    20635089.511    84497242.656        2083.832          41.000  
G10  19572803.843   102855774.577        1208.411          49.000    19572792.331    80147313.171         941.437          44.000  
G28  22175121.065   116531054.894        2674.123          41.000    22175111.016    90803399.314        2083.564          41.000  
C23  20745464.432   108027074.566         424.713          51.000                                                                  
C09  36849328.183   191884124.256         319.245          42.000    36849316.071   148376923.664         246.691          46.000  
C33  25957977.046                       -2885.232          29.000                                                                  
C37  23015787.386   119849255.769        2766.471          44.000                                                                  
> 2025 10 27 02 45 53.8360000  0 19                     
G12  20803083.377   109320942.853        1062.247          44.000    20803071.808    85185097.509         827.802          41.000  
G15  23074839.051   121259093.988       -3217.196          37.000    23074829.910    94487568.180       -2507.095          33.000  
G18  23379623.293   122860753.140       -3695.334          38.000    23379617.443    95735619.903       -2879.213          36.000  
G23  19151530.250   100641970.020       -1907.589          45.000    19151518.229    78422240.227       -1486.510          47.000  
G24  20759753.259                2      -3298.298          29.000    20759745.698    85007685.558       -2570.272          32.000  
G32  20981052.897   110256179.171        1539.854          44.000    20981042.864    85913851.229        1200.055          42.000  
C08  34693934.642   180660420.353        -285.486          45.000    34693917.782   139698017.918        -220.709          49.000  
C13  34710953.444   180749042.380           4.077          47.000    34710944.884   139766578.946           3.180          48.000  
C16  35673060.946   185758990.024          41.697          45.000    35673051.276   143640594.447          32.147          48.000  
C25  22123908.917   115204993.877       -2437.435          37.000                                                                  
C32  21100114.875   109873838.813         952.544          49.000                                                                  
C06  35375734.759   184210734.461         221.676          45.000    35375719.014   142443361.108         171.429          47.000  
G25  20635078.262   108438075.669        2674.313          46.000    20635069.160    84497159.305        2083.727          41.000  
G10  19572794.650   102855726.241        1208.386          49.000    19572783.125    80147275.500         941.650          44.000  
G28  22175100.723   116530947.947        2673.719          41.000    22175090.656    90803315.960        2083.766          41.000  
C23  20745461.174   108027057.577         424.666          51.000                                                                  
C09  36849325.722   191884111.481         319.260          42.000    36849313.601   148376913.784         246.876          46.000  
C33  25957998.802                       -2885.127          29.000                                                                  
C37  23015766.144   119849145.091        2766.722          44.000                                                                  
> 2025 10 27 02 45 53.8760000  0 19                     
G12  20803075.276   109320900.352        1062.397          44.000    20803063.753    85185064.400         827.713          41.000  
G15  23074863.525   121259222.655       -3216.950          37.000    23074854.398    94487668.438       -2506.823          33.000  
G18  23379651.426   122860900.943       -3695.160          38.000    23379645.547    95735735.080       -2879.225          36.000  
G23  19151544.769   100642046.323       -1907.582          45.000    19151532.753    78422299.683       -1486.471          47.000  
G24  20759778.526                2      -3297.922          29.000    20759770.811    85007788.316       -2569.511          32.000  
G32  20981041.176   110256117.564        1540.033          44.000    20981031.147    85913803.229        1200.015          42.000  
C08  34693936.843   180660431.763        -285.352          45.000    34693919.943   139698026.744        -220.691          49.000  
C13  34710953.418   180749042.210           4.181          47.000    34710944.839   139766578.815           3.235          48.000  
C16  35673060.650   185758988.342          41.937          45.000    35673050.933   143640593.149          32.343          48.000  
C25  22123927.618   115205091.352       -2437.049          37.000                                                                  
C32  21100107.573   109873800.699         952.752          49.000                                                                  
C06  35375733.053   184210725.595         221.648          45.000    35375717.285   142443354.254         171.352          47.000  
G25  20635057.894   108437968.690        2674.379          46.000    20635048.802    84497075.935        2084.054          41.000  
G10  19572785.467   102855677.906        1208.331          49.000    19572773.923    80147237.834         941.705          44.000  
G28  22175080.361   116530840.984        2673.796          41.000    22175070.283    90803232.605        2083.877          41.000  
C23  20745457.901   108027040.584         424.753          51.000                                                                  
C09  36849323.278   191884098.714         319.153          42.000    36849311.171   148376903.903         246.995          46.000  
C33  25958020.854                       -2885.020          29.000                                                                  
C37  23015744.903   119849034.414        2766.846          44.000                                                                  
> 2025 10 27 02 45 53.9160000  0 19                     
G12  20803067.196   109320857.855        1062.415          44.000    20803055.672    85185031.289         827.763          41.000  
G15  23074888.000   121259351.328       -3216.852          37.000    23074878.867    94487768.682       -2506.302          33.000  
G18  23379679.547   122861048.750       -3695.155          38.000    23379673.657    95735850.230       -2878.830          36.000  
G23  19151559.299   100642122.626       -1907.594          45.000    19151547.281    78422359.142       -1486.501          47.000  
G24  20759804.079                2      -3297.993          29.000    20759795.897    85007891.115       -2569.680          32.000  
G32  20981029.435   110256055.950        1540.291          44.000    20981019.415    85913755.218        1200.168          42.000  
C08  34693939.046   180660443.165        -285.126          45.000    34693922.148   139698035.564        -220.575          49.000  
C13  34710953.420   180749042.038           4.285          47.000    34710944.774   139766578.680           3.314          48.000  
C16  35673060.343   185758986.677          41.727          45.000    35673050.581   143640591.855          32.359          48.000  
C25  22123946.336   115205188.845       -2437.335          37.000                                                                  
C32  21100100.270   109873762.585         952.851          49.000                                                                  
C06  35375731.331   184210716.721         221.753          45.000    35375715.585   142443347.383         171.628          47.000  
G25  20635037.549   108437861.712        2674.406          46.000    20635028.473    84496992.584        2083.922          41.000  
G10  19572776.276   102855629.580        1208.154          49.000    19572764.718    80147200.166         941.742          44.000  
G28  22175059.992   116530734.015        2673.965          41.000    22175049.930    90803149.256        2083.763          41.000  
C23  20745454.662   108027023.588         424.856          51.000                                                                  
C09  36849320.821   191884085.948         319.104          42.000    36849308.716   148376894.024         246.986          46.000  
C33  25958043.024                       -2885.280          29.000                                                                  
C37  23015723.664   119848923.741        2766.855          44.000                                                                  
> 2025 10 27 02 45 53.9560000  0 19                     
G12  20803059.095   109320815.365        1062.276          44.000    20803047.595    85184998.174         827.874          41.000  
G15  23074912.460   121259480.003       -3216.840          37.000    23074903.353    94487868.990       -2507.264          33.000  
G18  23379707.677   122861196.555       -3695.112          38.000    23379701.789    95735965.409       -2879.220          36.000  
G23  19151573.820   100642198.926       -1907.544          45.000    19151561.802    78422418.601       -1486.507          47.000  
G24  20759829.123                2      -3297.993          29.000    20759821.023    85007993.908       -2569.773          32.000  
G32  20981017.716   110255994.343        1540.238          44.000    20981007.692    85913707.210        1200.157          42.000  
C08  34693941.227   180660454.577        -285.211          45.000    34693924.348   139698044.391        -220.636          49.000  
C13  34710953.393   180749041.871           4.187          47.000    34710944.729   139766578.551           3.241          48.000  
C16  35673060.005   185758985.012          41.618          45.000    35673050.265   143640590.565          32.298          48.000  
C25  22123965.063   115205286.314       -2436.897          37.000                                                                  
C32  21100092.926   109873724.476         952.783          49.000                                                                  
C06  35375729.654   184210707.844         221.891          45.000    35375713.893   142443340.521         171.596          47.000  
G25  20635017.188   108437754.731        2674.468          46.000    20635008.117    84496909.220        2084.080          41.000  
G10  19572767.077   102855581.252        1208.112          49.000    19572755.517    80147162.511         941.461          44.000  
G28  22175039.623   116530627.049        2674.047          41.000    22175029.550    90803065.907        2083.682          41.000  
C23  20745451.391   108027006.596         424.808          51.000                                                                  
C09  36849318.383   191884073.173         319.263          42.000    36849306.279   148376884.148         246.915          46.000  
C33  25958065.264                       -2884.855          29.000                                                                  
C37  23015702.420   119848813.077        2766.666          44.000                                                                  
> 2025 10 27 02 45 53.9960000  0 19                     
G12  20803051.006   109320772.881        1062.097          44.000    20803039.488    85184965.068         827.763          41.000  
G15  23074936.932   121259608.679       -3216.879          37.000    23074927.840    94487969.231       -2506.573          33.000  
G18  23379735.819   122861344.363       -3695.117          38.000    23379729.934    95736080.593       -2879.591          37.000  
G23  19151588.346   100642275.232       -1907.625          45.000    19151576.317    78422478.058       -1486.469          47.000  
G24  20759855.428                2      -3297.715          29.000    20759846.162    85008096.736       -2570.387          32.000  
G32  20981005.998   110255932.739        1540.137          44.000    20980995.976    85913659.217        1199.883          42.000  
C08  34693943.446   180660465.988        -285.266          45.000    34693926.566   139698053.214        -220.630          49.000  
C13  34710953.377   180749041.707           4.095          47.000    34710944.676   139766578.424           3.192          48.000  
C16  35673059.664   185758983.354          41.446          45.000    35673049.925   143640589.276          32.219          48.000  
C25  22123983.789   115205383.811       -2437.260          37.000                                                                  
C32  21100085.607   109873686.379         952.513          49.000                                                                  
C06  35375727.959   184210698.969         221.890          45.000    35375712.214   142443333.665         171.444          47.000  
G25  20634996.840   108437647.763        2674.258          46.000    20634987.762    84496825.867        2083.904          41.000  
G10  19572757.846   102855532.919        1208.203          49.000    19572746.333    80147124.856         941.327          44.000  
G28  22175019.265   116530520.079        2674.171          41.000    22175009.175    90802982.561        2083.551          41.000  
C23  20745448.119   108026989.609         424.705          51.000                                                                  
C09  36849315.940   191884060.398         319.370          42.000    36849303.824   148376874.279         246.740          46.000  
C33  25958087.360                       -2884.975          29.000                                                                  
C37  23015681.167   119848702.409        2766.679          44.000                                                                  
> 2025 10 27 02 45 54.0360000  0 19                     
G12  20803042.938   109320730.403        1061.902          44.000    20803031.409    85184931.969         827.516          41.000  
G15  23074961.420   121259737.369       -3217.218          37.000    23074952.338    94488069.507       -2506.736          33.000  
G18  23379763.951   122861492.191       -3695.480          38.000    23379758.082    95736195.780       -2879.806          37.000  
G23  19151602.887   100642351.547       -1907.868          45.000    19151590.845    78422537.518       -1486.526          47.000  
G24  20759880.023                2      -3297.470          29.000    20759871.238    85008199.496       -2569.559          32.000  
G32  20980994.275   110255871.144        1539.912          44.000    20980984.266    85913611.219        1199.810          42.000  
C08  34693945.627   180660477.417        -285.626          45.000    34693928.744   139698062.042        -220.709          49.000  
C13  34710953.360   180749041.551           3.906          47.000    34710944.641   139766578.309           2.930          48.000  
C16  35673059.347   185758981.680          41.647          45.000    35673049.567   143640587.996          32.058          48.000  
C25  22124002.521   115205481.316       -2437.621          37.000                                                                  
C32  21100078.274   109873648.277         952.473          49.000                                                                  
C06  35375726.246   184210690.099         221.782          45.000    35375710.514   142443326.808         171.401          47.000  
G25  20634976.480   108437540.792        2674.203          46.000    20634967.403    84496742.516        2083.773          41.000  
G10  19572748.665   102855484.590        1208.209          49.000    19572737.154    80147087.206         941.187          44.000  
G28  22174998.900   116530413.116        2674.031          41.000    22174988.837    90802899.223        2083.378          41.000  
C23  20745444.849   108026972.628         424.526          51.000                                                                  
C09  36849313.507   191884047.635         319.192          42.000    36849301.363   148376864.411         246.641          46.000  
C33  25958109.528                       -2884.650          29.000                                                                  
C37  23015659.924   119848591.743        2766.634          44.000                                                                  
> 2025 10 27 02 45 54.0760000  0 19                     
G12  20803034.832   109320687.917        1061.995          44.000    20803023.341    85184898.870         827.425          41.000  
G15  23074985.909   121259866.056       -3217.300          37.000    23074976.828    94488169.762       -2506.535          33.000  
G18  23379792.079   122861640.026       -3695.815          38.000    23379786.199    95736310.950       -2879.487          37.000  
G23  19151617.417   100642427.866       -1908.034          45.000    19151605.356    78422596.982       -1486.625          47.000  
G24  20759904.464                2      -3297.049          29.000    20759896.323    85008302.268       -2569.278          32.000  
G32  20980982.550   110255809.557        1539.666          44.000    20980972.554    85913563.232        1199.600          42.000  
C08  34693947.829   180660488.842        -285.718          45.000    34693930.951   139698070.876        -220.868          49.000  
C13  34710953.361   180749041.396           3.815          47.000    34710944.638   139766578.180           3.082          48.000  
C16  35673059.069   185758980.016          41.587          45.000    35673049.240   143640586.703          32.187          48.000  
C25  22124021.247   115205578.818       -2437.711          37.000                                                                  
C32  21100070.945   109873610.182         952.335          49.000                                                                  
C06  35375724.547   184210681.239         221.570          45.000    35375708.828   142443319.959         171.254          47.000  
G25  20634956.135   108437433.829        2674.036          46.000    20634947.043    84496659.179        2083.438          41.000  
G10  19572739.465   102855436.264        1208.154          49.000    19572727.948    80147049.543         941.400          44.000  
G28  22174978.546   116530306.164        2673.770          41.000    22174968.492    90802815.882        2083.381          41.000  
C23  20745441.581   108026955.653         424.350          51.000                                                                  
C09  36849311.042   191884034.862         319.274          42.000    36849298.899   148376854.546         246.536          46.000  
C33  25958131.551                       -2885.758          29.000                                                                  
C37  23015638.667   119848481.079        2766.597          44.000                                                                  
> 2025 10 27 02 45 54.1160000  0 19                     
G12  20803026.729   109320645.424        1062.151          44.000    20803015.254    85184865.756         827.669          41.000  
G15  23075010.419   121259994.742       -3217.295          37.000    23075001.330    94488270.052       -2507.126          33.000  
G18  23379820.196   122861787.825       -3695.341          38.000    23379814.323    95736426.137       -2879.663          37.000  
G23  19151631.936   100642504.182       -1908.025          45.000    19151619.884    78422656.462       -1486.935          47.000  
G24  20759929.661                2      -3297.467          29.000    20759921.404    85008405.095       -2570.258          32.000  
G32  20980970.829   110255747.964        1539.682          44.000    20980960.816    85913515.237        1199.667          42.000  
C08  34693950.009   180660500.257        -285.547          45.000    34693933.180   139698079.707        -220.837          49.000  
C13  34710953.335   180749041.229           4.010          47.000    34710944.573   139766578.056           3.101          48.000  
C16  35673058.750   185758978.347          41.633          45.000    35673048.918   143640585.417          32.134          48.000  
C25  22124039.997   115205676.307       -2437.478          37.000                                                                  
C32  21100063.606   109873572.082         952.351          49.000                                                                  
C06  35375722.831   184210672.374         221.530          45.000    35375707.156   142443313.104         171.266          47.000  
G25  20634935.784   108437326.864        2673.984          46.000    20634926.683    84496575.816        2083.783          41.000  
G10  19572730.274   102855387.940        1208.093          49.000    19572718.723    80147011.883         941.480          44.000  
G28  22174958.197   116530199.207        2673.787          41.000    22174948.130    90802732.544        2083.364          41.000  
C23  20745438.331   108026938.674         424.351          51.000                                                                  
C09  36849308.587   191884022.110         318.877          42.000    36849296.439   148376844.668         246.759          46.000  
C33  25958153.766                       -2885.505          29.000                                                                  
C37  23015617.380   119848370.433        2766.226          44.000                                                                  
> 2025 10 27 02 45 54.1560000  0 19                     
G12  20803018.632   109320602.948        1061.976          44.000    20803007.178    85184832.657         827.497          41.000  
G15  23075034.886   121260123.417       -3217.042          37.000    23075025.834    94488370.309       -2506.950          33.000  
G18  23379848.336   122861935.635       -3695.283          38.000    23379842.470    95736541.306       -2879.342          37.000  
G23  19151646.470   100642580.500       -1908.036          45.000    19151634.418    78422715.925       -1486.764          47.000  
G24  20759955.389                2      -3297.835          29.000    20759946.500    85008507.920       -2570.700          32.000  
G32  20980959.094   110255686.359        1539.933          44.000    20980949.085    85913467.227        1200.036          42.000  
C08  34693952.185   180660511.678        -285.541          45.000    34693935.352   139698088.538        -220.831          49.000  
C13  34710953.295   180749041.069           4.010          47.000    34710944.528   139766577.935           3.009          48.000  
C16  35673058.395   185758976.694          41.364          45.000    35673048.600   143640584.131          32.122          48.000  
C25  22124058.727   115205773.806       -2437.553          37.000                                                                  
C32  21100056.309   109873533.982         952.387          49.000                                                                  
C06  35375721.126   184210663.516         221.397          45.000    35375705.458   142443306.252         171.256          47.000  
G25  20634915.409   108437219.899        2673.996          46.000    20634906.303    84496492.463        2083.822          41.000  
G10  19572721.095   102855339.622        1207.941          49.000    19572709.520    80146974.225         941.467          44.000  
G28  22174937.842   116530092.260        2673.619          41.000    22174927.769    90802649.208        2083.302          41.000  
C23  20745435.097   108026921.695         424.382          51.000                                                                  
C09  36849306.130   191884009.350         318.863          42.000    36849293.990   148376834.797         246.758          46.000  
C33  25958175.973                       -2885.777          29.000                                                                  
C37  23015596.128   119848259.774        2766.270          44.000                                                                  
> 2025 10 27 02 45 54.1960000  0 19                     
G12  20803010.567   109320560.473        1061.891          44.000    20802999.098    85184799.557         827.443          41.000  
G15  23075059.370   121260252.126       -3217.465          37.000    23075050.365    94488470.605       -2507.362          33.000  
G18  23379876.464   122862083.440       -3695.077          38.000    23379870.604    95736656.489       -2879.506          37.000  
G23  19151660.981   100642656.812       -1907.905          45.000    19151648.919    78422775.386       -1486.614          47.000  
G24  20759980.621                2      -3297.809          29.000    20759971.610    85008610.711       -2570.240          32.000  
G32  20980947.383   110255624.763        1539.937          44.000    20980937.389    85913419.238        1199.856          42.000  
C08  34693954.368   180660523.091        -285.400          45.000    34693937.546   139698097.368        -220.795          49.000  
C13  34710953.244   180749040.907           4.034          47.000    34710944.509   139766577.811           3.040          48.000  
C16  35673058.074   185758975.034          41.366          45.000    35673048.248   143640582.849          32.080          48.000  
C25  22124077.435   115205871.289       -2437.234          37.000                                                                  
C32  21100048.989   109873495.884         952.400          49.000                                                                  
C06  35375719.419   184210654.643         221.632          45.000    35375703.732   142443299.389         171.446          47.000  
G25  20634895.042   108437112.922        2674.289          46.000    20634885.948    84496409.101        2084.003          41.000  
G10  19572711.897   102855291.299        1207.965          49.000    19572700.339    80146936.578         941.223          44.000  
G28  22174917.473   116529985.316        2673.434          41.000    22174907.435    90802565.851        2083.714          41.000  
C23  20745431.812   108026904.716         424.410          51.000                                                                  
C09  36849303.668   191883996.586         318.947          42.000    36849291.555   148376824.929         246.700          46.000  
C33  25958198.027                       -2885.894          29.000                                                                  
C37  23015574.891   119848149.097        2766.665          44.000                                                                  
> 2025 10 27 02 45 54.2360000  0 19                     
G12  20803002.488   109320517.991        1061.939          44.000    20802991.019    85184766.465         827.310          41.000  
G15  23075083.852   121260380.789       -3216.890          37.000    23075074.869    94488570.917       -2507.799          33.000  
G18  23379904.591   122862231.260       -3695.347          38.000    23379898.725    95736771.679       -2879.689          37.000  
G23  19151675.529   100642733.133       -1908.017          45.000    19151663.432    78422834.851       -1486.602          47.000  
G24  20760006.127                2      -3298.242          29.000    20759996.690    85008713.471       -2569.428          32.000  
G32  20980935.664   110255563.167        1539.902          44.000    20980925.672    85913371.249        1199.726          42.000  
C08  34693956.559   180660534.515        -285.504          45.000    34693939.706   139698106.199        -220.807          49.000  
C13  34710953.222   180749040.749           3.925          47.000    34710944.470   139766577.690           3.003          48.000  
C16  35673057.759   185758973.378          41.311          45.000    35673047.927   143640581.567          32.030          48.000  
C25  22124096.156   115205968.784       -2437.254          37.000                                                                  
C32  21100041.706   109873457.787         952.368          49.000                                                                  
C06  35375717.702   184210645.782         221.531          45.000    35375702.029   142443292.538         171.311          47.000  
G25  20634874.661   108437005.955        2674.217          46.000    20634865.604    84496325.767        2083.545          41.000  
G10  19572702.693   102855242.978        1207.983          49.000    19572691.143    80146898.931         941.113          44.000  
G28  22174897.123   116529878.354        2673.722          41.000    22174887.075    90802482.506        2083.636          41.000  
C23  20745428.573   108026887.739         424.404          51.000                                                                  
C09  36849301.207   191883983.816         319.188          42.000    36849289.109   148376815.069         246.532          46.000  
C33  25958220.545                       -2885.798          29.000                                                                  
C37  23015553.647   119848038.438        2766.584          44.000                                                                  
> 2025 10 27 02 45 54.2760000  0 19                     
G12  20802994.401   109320475.516        1061.876          44.000    20802982.922    85184733.358         827.502          41.000  
G15  23075108.333   121260509.479       -3217.156          37.000    23075099.368    94488671.174       -2507.151          33.000  
G18  23379932.720   122862379.087       -3695.635          38.000    23379926.878    95736886.859       -2879.633          37.000  
G23  19151690.060   100642809.452       -1908.048          45.000    19151677.961    78422894.325       -1486.764          47.000  
G24  20760031.588                2      -3298.223          29.000    20760021.803    85008816.284       -2569.915          32.000  
G32  20980923.947   110255501.577        1539.794          44.000    20980913.972    85913323.242        1199.987          42.000  
C08  34693958.758   180660545.937        -285.577          45.000    34693941.919   139698115.035        -220.898          49.000  
C13  34710953.172   180749040.593           3.870          47.000    34710944.415   139766577.571           2.930          48.000  
C16  35673057.468   185758971.711          41.498          45.000    35673047.586   143640580.277          32.176          48.000  
C25  22124114.872   115206066.290       -2437.541          37.000                                                                  
C32  21100034.354   109873419.691         952.363          49.000                                                                  
C06  35375715.981   184210636.915         221.555          45.000    35375700.318   142443285.689         171.234          47.000  
G25  20634854.316   108436898.994        2674.053          46.000    20634845.228    84496242.422        2083.527          41.000  
G10  19572693.503   102855194.660        1207.922          49.000    19572681.943    80146861.276         941.248          44.000  
G28  22174876.746   116529771.395        2673.910          41.000    22174866.719    90802399.162        2083.611          41.000  
C23  20745425.292   108026870.765         424.353          51.000                                                                  
C09  36849298.768   191883971.044         319.324          42.000    36849286.674   148376805.202         246.572          46.000  
C33  25958242.724                       -2885.575          29.000                                                                  
C37  23015532.386   119847927.775        2766.570          44.000                                                                  
> 2025 10 27 02 45 54.3160000  0 19                     
G12  20802986.332   109320433.042        1061.791          44.000    20802974.827    85184700.263         827.410          41.000  
G15  23075132.826   121260638.153       -3216.928          37.000    23075123.848    94488771.404       -2506.053          33.000  
G18  23379960.849   122862526.920       -3695.838          38.000    23379954.995    95737002.048       -2879.706          37.000  
G23  19151704.599   100642885.776       -1908.147          45.000    19151692.480    78422953.802       -1486.951          47.000  
G24  20760057.068                2      -3298.221          29.000    20760046.930    85008919.060       -2569.662          32.000  
G32  20980912.232   110255439.985        1539.741          44.000    20980902.260    85913275.248        1199.920          42.000  
C08  34693960.941   180660557.360        -285.620          45.000    34693944.131   139698123.867        -220.874          49.000  
C13  34710953.116   180749040.444           3.717          47.000    34710944.378   139766577.450           2.954          48.000  
C16  35673057.159   185758970.054          41.450          45.000    35673047.263   143640578.999          32.030          48.000  
C25  22124133.597   115206163.813       -2438.020          37.000                                                                  
C32  21100027.018   109873381.600         952.254          49.000                                                                  
C06  35375714.272   184210628.064         221.323          45.000    35375698.593   142443278.837         171.224          47.000  
G25  20634833.984   108436792.040        2673.895          46.000    20634824.853    84496159.071        2083.582          41.000  
G10  19572684.295   102855146.342        1207.892          49.000    19572672.751    80146823.626         941.229          44.000  
G28  22174856.411   116529664.443        2673.840          41.000    22174846.360    90802315.839        2083.182          41.000  
C23  20745422.026   108026853.790         424.308          51.000                                                                  
C09  36849296.320   191883958.294         318.950          42.000    36849284.212   148376795.336         246.591          46.000  
C33  25958265.093                       -2885.136          29.000                                                                  
C37  23015511.103   119847817.128        2766.282          44.000                                                                  
> 2025 10 27 02 45 54.3560000  0 19                     
G12  20802978.265   109320390.576        1061.647          44.000    20802966.731    85184667.176         827.205          41.000  
G15  23075157.321   121260766.850       -3217.251          37.000    23075148.313    94488871.686       -2506.495          33.000  
G18  23379988.964   122862674.731       -3695.538          38.000    23379983.096    95737117.217       -2879.370          37.000  
G23  19151719.131   100642962.103       -1908.233          45.000    19151707.008    78423013.283       -1487.098          47.000  
G24  20760082.288                2      -3298.617          29.000    20760072.058    85009021.881       -2570.300          32.000  
G32  20980900.517   110255378.393        1539.732          44.000    20980890.542    85913227.261        1199.753          42.000  
C08  34693963.148   180660568.785        -285.651          45.000    34693946.372   139698132.704        -220.947          49.000  
C13  34710953.074   180749040.290           3.754          47.000    34710944.339   139766577.327           3.009          48.000  
C16  35673056.877   185758968.392          41.482          45.000    35673046.942   143640577.724          31.866          48.000  
C25  22124152.332   115206261.317       -2437.822          37.000                                                                  
C32  21100019.677   109873343.510         952.199          49.000                                                                  
C06  35375712.602   184210619.203         221.380          45.000    35375696.910   142443271.986         171.212          47.000  
G25  20634813.606   108436685.079        2673.928          46.000    20634804.503    84496075.734        2083.415          41.000  
G10  19572675.128   102855098.034        1207.703          49.000    19572663.567    80146785.983         941.058          44.000  
G28  22174836.037   116529557.494        2673.689          40.000    22174826.010    90802232.506        2083.210          41.000  
C23  20745418.761   108026836.826         424.129          51.000                                                                  
C09  36849293.882   191883945.545         318.752          42.000    36849281.750   148376785.468         246.617          46.000  
C33  25958287.283                       -2885.361          29.000                                                                  
C37  23015489.832   119847706.482        2766.090          44.000                                                                  
> 2025 10 27 02 45 54.3960000  0 19                     
G12  20802970.190   109320348.103        1061.697          44.000    20802958.621    85184634.085         827.185          41.000  
G15  23075181.816   121260895.552       -3217.537          37.000    23075172.800    94488971.976       -2507.015          33.000  
G18  23380017.095   122862822.539       -3695.319          38.000    23380011.219    95737232.404       -2879.531          37.000  
G23  19151733.657   100643038.430       -1908.275          45.000    19151721.534    78423072.762       -1487.096          47.000  
G24  20760107.877                2      -3298.462          29.000    20760097.157    85009124.701       -2570.616          32.000  
G32  20980888.803   110255316.807        1539.637          44.000    20980878.801    85913179.265        1199.798          42.000  
C08  34693965.327   180660580.210        -285.651          45.000    34693948.592   139698141.539        -220.917          49.000  
C13  34710953.072   180749040.138           3.735          47.000    34710944.265   139766577.210           2.936          48.000  
C16  35673056.593   185758966.732          41.497          45.000    35673046.630   143640576.442          31.918          48.000  
C25  22124171.048   115206358.809       -2437.504          37.000                                                                  
C32  21100012.361   109873305.420         952.203          49.000                                                                  
C06  35375710.927   184210610.346         221.350          45.000    35375695.231   142443265.136         171.208          47.000  
G25  20634793.261   108436578.128        2673.781          46.000    20634784.155    84495992.388        2083.506          41.000  
G10  19572665.948   102855049.726        1207.623          49.000    19572654.361    80146748.335         941.125          44.000  
G28  22174815.705   116529450.555        2673.466          40.000    22174805.642    90802149.168        2083.292          41.000  
C23  20745415.514   108026819.856         424.141          51.000                                                                  
C09  36849291.443   191883932.793         318.705          42.000    36849279.291   148376775.603         246.610          46.000  
C33  25958309.399                       -2885.535          29.000                                                                  
C37  23015468.583   119847595.825        2766.243          44.000                                                                  
> 2025 10 27 02 45 54.4360000  0 19                     
G12  20802962.105   109320305.634        1061.701          44.000    20802950.532    85184600.978         827.493          41.000  
G15  23075206.319   121261024.233       -3217.292          37.000    23075197.271    94489072.252       -2507.059          33.000  
G18  23380045.246   122862970.349       -3695.219          38.000    23380039.338    95737347.596       -2879.692          37.000  
G23  19151748.166   100643114.752       -1908.162          45.000    19151736.050    78423132.223       -1486.740          47.000  
G24  20760132.867                2      -3298.359          29.000    20760122.236    85009227.472       -2569.854          32.000  
G32  20980877.063   110255255.214        1539.739          44.000    20980867.082    85913131.274        1199.727          42.000  
C08  34693967.514   180660591.632        -285.583          45.000    34693950.802   139698150.374        -220.898          49.000  
C13  34710953.056   180749039.978           3.876          47.000    34710944.211   139766577.088           2.985          48.000  
C16  35673056.288   185758965.083          41.265          45.000    35673046.327   143640575.156          32.036          48.000  
C25  22124189.778   115206456.312       -2437.542          37.000                                                                  
C32  21100005.058   109873267.324         952.340          49.000                                                                  
C06  35375709.266   184210601.477         221.575          45.000    35375693.550   142443258.283         171.255          47.000  
G25  20634772.924   108436471.165        2673.956          46.000    20634763.810    84495909.033        2083.770          41.000  
G10  19572656.745   102855001.405        1207.874          49.000    19572645.149    80146710.682         941.260          44.000  
G28  22174795.348   116529343.601        2673.630          40.000    22174785.274    90802065.827        2083.429          41.000  
C23  20745412.269   108026802.882         424.247          51.000                                                                  
C09  36849289.003   191883920.045         318.606          42.000    36849276.850   148376765.738         246.617          46.000  
C33  25958331.988                       -2885.316          29.000                                                                  
C37  23015447.308   119847485.166        2766.373          44.000                                                                  
> 2025 10 27 02 45 54.4760000  0 19                     
G12  20802954.021   109320263.155        1061.877          44.000    20802942.446    85184567.886         827.371          41.000  
G15  23075230.809   121261152.911       -3216.983          37.000    23075221.772    94489172.557       -2507.497          33.000  
G18  23380073.405   122863118.171       -3695.367          38.000    23380067.458    95737462.797       -2879.974          37.000  
G23  19151762.665   100643191.069       -1908.006          45.000    19151750.579    78423191.696       -1486.754          47.000  
G24  20760157.714                2      -3298.399          29.000    20760147.346    85009330.265       -2569.802          32.000  
G32  20980865.323   110255193.618        1539.834          45.000    20980855.363    85913083.277        1199.819          42.000  
C08  34693969.707   180660603.056        -285.590          45.000    34693953.003   139698159.201        -220.740          49.000  
C13  34710953.039   180749039.824           3.864          47.000    34710944.177   139766576.965           3.040          48.000  
C16  35673055.963   185758963.427          41.269          45.000    35673045.984   143640573.871          32.121          48.000  
C25  22124208.496   115206553.817       -2437.592          37.000                                                                  
C32  21099997.735   109873229.224         952.459          49.000                                                                  
C06  35375707.569   184210592.618         221.507          45.000    35375691.868   142443251.429         171.327          47.000  
G25  20634752.569   108436364.191        2674.242          46.000    20634743.424    84495825.678        2083.867          41.000  
G10  19572647.555   102854953.084        1208.002          49.000    19572635.955    80146673.031         941.284          44.000  
G28  22174774.986   116529236.646        2673.748          40.000    22174764.900    90801982.475        2083.740          41.000  
C23  20745409.061   108026785.910         424.286          51.000                                                                  
C09  36849286.589   191883907.277         318.968          42.000    36849274.413   148376755.871         246.623          46.000  
C33  25958354.296                       -2885.626          29.000                                                                  
C37  23015426.057   119847374.503        2766.535          44.000                                                                  
> 2025 10 27 02 45 54.5160000  0 19                     
G12  20802945.938   109320220.681        1061.879          44.000    20802934.352    85184534.785         827.481          41.000  
G15  23075255.295   121261281.598       -3217.050          37.000    23075246.251    94489272.797       -2506.780          33.000  
G18  23380101.547   122863265.994       -3695.506          38.000    23380095.580    95737577.953       -2879.369          37.000  
G23  19151777.216   100643267.392       -1908.045          45.000    19151765.109    78423251.166       -1486.755          47.000  
G24  20760182.362                2      -3298.374          29.000    20760172.448    85009433.088       -2570.302          32.000  
G32  20980853.578   110255132.016        1539.993          45.000    20980843.643    85913035.276        1199.949          42.000  
C08  34693971.881   180660614.480        -285.614          45.000    34693955.175   139698168.027        -220.648          49.000  
C13  34710953.019   180749039.669           3.851          47.000    34710944.128   139766576.842           3.070          48.000  
C16  35673055.634   185758961.755          41.599          45.000    35673045.636   143640572.585          32.137          48.000  
C25  22124227.224   115206651.325       -2437.590          37.000                                                                  
C32  21099990.412   109873191.128         952.423          49.000                                                                  
C06  35375705.887   184210583.752         221.590          45.000    35375690.158   142443244.566         171.481          47.000  
G25  20634732.229   108436257.234        2674.092          46.000    20634723.064    84495742.330        2083.775          41.000  
G10  19572638.404   102854904.767        1207.977          49.000    19572626.768    80146635.389         941.107          44.000  
G28  22174754.645   116529129.686        2673.960          40.000    22174744.560    90801899.131        2083.700          41.000  
C23  20745405.799   108026768.938         424.290          51.000                                                                  
C09  36849284.124   191883894.505         319.235          42.000    36849271.952   148376745.999         246.742          46.000  
C33  25958376.538                       -2885.958          29.000                                                                  
C37  23015404.777   119847263.840        2766.594          44.000                                                                  
> 2025 10 27 02 45 54.5560000  0 19                     
G12  20802937.852   109320178.217        1061.663          44.000    20802926.284    85184501.699         827.280          41.000  
G15  23075279.799   121261410.287       -3217.155          37.000    23075270.741    94489373.063       -2506.598          33.000  
G18  23380129.679   122863413.824       -3695.715          38.000    23380123.691    95737693.134       -2879.524          37.000  
G23  19151791.743   100643343.722       -1908.207          45.000    19151779.649    78423310.646       -1486.968          47.000  
G24  20760207.368                2      -3298.487          29.000    20760197.560    85009535.878       -2569.992          32.000  
G32  20980841.847   110255070.423        1539.925          45.000    20980831.913    85912987.286        1199.804          42.000  
C08  34693974.064   180660625.907        -285.669          45.000    34693957.336   139698176.858        -220.709          49.000  
C13  34710953.005   180749039.505           4.016          47.000    34710944.097   139766576.717           3.119          48.000  
C16  35673055.314   185758960.099          41.490          45.000    35673045.322   143640571.302          32.088          48.000  
C25  22124245.950   115206748.824       -2437.460          37.000                                                                  
C32  21099983.057   109873153.038         952.299          49.000                                                                  
C06  35375704.162   184210574.888         221.635          45.000    35375688.471   142443237.713         171.418          47.000  
G25  20634711.879   108436150.279        2673.940          46.000    20634702.711    84495658.997        2083.435          41.000  
G10  19572629.217   102854856.458        1207.794          49.000    19572617.561    80146597.742         941.101          44.000  
G28  22174734.293   116529022.746        2673.646          40.000    22174724.216    90801815.810        2083.188          41.000  
C23  20745402.528   108026751.970         424.198          51.000                                                                  
C09  36849281.661   191883881.744         319.149          42.000    36849269.509   148376736.125         246.803          46.000  
C33  25958398.692                       -2885.745          29.000                                                                  
C37  23015383.485   119847153.197        2766.220          44.000                                                                  
> 2025 10 27 02 45 54.5960000  0 19                     
G12  20802929.764   109320135.748        1061.633          44.000    20802918.216    85184468.620         827.032          41.000  
G15  23075304.294   121261538.981       -3217.359          37.000    23075295.222    94489473.351       -2506.889          33.000  
G18  23380157.822   122863561.654       -3695.804          38.000    23380151.822    95737808.308       -2879.438          37.000  
G23  19151806.250   100643420.054       -1908.324          45.000    19151794.201    78423370.123       -1487.016          47.000  
G24  20760232.863                2      -3297.976          29.000    20760222.677    85009638.699       -2570.349          32.000  
G32  20980830.128   110255008.835        1539.754          45.000    20980820.171    85912939.296        1199.782          42.000  
C08  34693976.287   180660637.325        -285.522          45.000    34693959.514   139698185.692        -220.813          49.000  
C13  34710952.981   180749039.348           3.973          47.000    34710944.049   139766576.600           2.972          48.000  
C16  35673054.990   185758958.441          41.463          45.000    35673044.999   143640570.021          32.044          48.000  
C25  22124264.670   115206846.331       -2437.586          37.000                                                                  
C32  21099975.744   109873114.949         952.199          49.000                                                                  
C06  35375702.458   184210566.026         221.573          45.000    35375686.773   142443230.866         171.219          47.000  
G25  20634691.541   108436043.330        2673.781          46.000    20634682.364    84495575.671        2083.145          41.000  
G10  19572620.033   102854808.149        1207.703          49.000    19572608.364    80146560.107         940.881          44.000  
G28  22174713.941   116528915.796        2673.660          40.000    22174703.876    90801732.472        2083.266          41.000  
C23  20745399.243   108026735.005         424.103          51.000                                                                  
C09  36849279.193   191883868.988         319.003          42.000    36849267.056   148376726.266         246.583          46.000  
C33  25958420.556                       -2885.633          29.000                                                                  
C37  23015362.245   119847042.541        2766.277          44.000                                                                  
> 2025 10 27 02 45 54.6360000  0 19                     
G12  20802921.676   109320093.283        1061.580          44.000    20802910.128    85184435.524         827.232          41.000  
G15  23075328.816   121261667.669       -3217.317          37.000    23075319.713    94489573.647       -2507.173          33.000  
G18  23380185.941   122863709.450       -3695.291          38.000    23380179.961    95737923.508       -2879.812          37.000  
G23  19151820.770   100643496.386       -1908.366          45.000    19151808.725    78423429.605       -1487.102          47.000  
G24  20760258.039                2      -3298.338          29.000    20760247.751    85009741.506       -2570.331          32.000  
G32  20980818.424   110254947.251        1539.595          45.000    20980808.457    85912891.294        1199.931          42.000  
C08  34693978.499   180660648.746        -285.498          45.000    34693961.715   139698194.531        -220.966          48.000  
C13  34710952.945   180749039.194           3.925          47.000    34710944.018   139766576.483           2.911          48.000  
C16  35673054.701   185758956.779          41.502          45.000    35673044.671   143640568.740          31.998          47.000  
C25  22124283.383   115206943.837       -2437.662          37.000                                                                  
C32  21099968.460   109873076.856         952.248          49.000                                                                  
C06  35375700.742   184210557.170         221.450          45.000    35375685.051   142443224.011         171.275          47.000  
G25  20634671.187   108435936.369        2673.884          46.000    20634662.025    84495492.332        2083.233          41.000  
G10  19572610.839   102854759.844        1207.593          49.000    19572599.171    80146522.466         940.924          44.000  
G28  22174693.594   116528808.848        2673.604          40.000    22174683.517    90801649.146        2083.112          41.000  
C23  20745395.954   108026718.039         424.074          51.000                                                                  
C09  36849276.719   191883856.234         318.840          42.000    36849264.607   148376716.401         246.539          46.000  
C33  25958442.647                       -2885.910          29.000                                                                  
C37  23015340.964   119846931.880        2766.390          44.000                                                                  
> 2025 10 27 02 45 54.6760000  0 19                     
G12  20802913.571   109320050.816        1061.615          44.000    20802902.055    85184402.427         827.382          41.000  
G15  23075353.294   121261796.348       -3217.123          37.000    23075344.188    94489673.926       -2507.109          33.000  
G18  23380214.054   122863857.253       -3695.089          38.000    23380208.093    95738038.698       -2879.857          37.000  
G23  19151835.274   100643572.709       -1908.190          45.000    19151823.218    78423489.079       -1486.983          47.000  
G24  20760282.659                1      -3298.300          29.000    20760272.816    85009844.286       -2569.841          32.000  
G32  20980806.679   110254885.656        1539.702          45.000    20980796.733    85912843.301        1199.842          42.000  
C08  34693980.680   180660660.172        -285.590          45.000    34693963.920   139698203.368        -221.008          48.000  
C13  34710952.918   180749039.038           3.876          47.000    34710943.987   139766576.361           2.972          48.000  
C16  35673054.400   185758955.125          41.398          45.000    35673044.330   143640567.463          31.936          47.000  
C25  22124302.107   115207041.346       -2437.761          37.000                                                                  
C32  21099961.169   109873038.762         952.307          49.000                                                                  
C06  35375699.031   184210548.311         221.439          45.000    35375683.353   142443217.158         171.284          47.000  
G25  20634650.832   108435829.408        2673.978          46.000    20634641.676    84495408.984        2083.479          41.000  
G10  19572601.647   102854711.532        1207.672          49.000    19572589.967    80146484.816         941.156          44.000  
G28  22174673.244   116528701.901        2673.618          40.000    22174663.180    90801565.800        2083.450          41.000  
C23  20745392.664   108026701.073         424.083          51.000                                                                  
C09  36849274.264   191883843.466         319.050          42.000    36849262.154   148376706.532         246.655          46.000  
C33  25958464.762                       -2886.035          29.000                                                                  
C37  23015319.667   119846821.235        2766.184          44.000                                                                  
> 2025 10 27 02 45 54.7160000  0 19                     
G12  20802905.499   109320008.352        1061.591          44.000    20802893.968    85184369.322         827.536          41.000  
G15  23075377.752   121261925.021       -3216.922          37.000    23075368.683    94489774.171       -2506.406          33.000  
G18  23380242.156   122864005.063       -3695.131          38.000    23380236.220    95738153.877       -2879.658          37.000  
G23  19151849.777   100643649.034       -1908.122          45.000    19151837.745    78423548.553       -1486.915          47.000  
G24  20760307.379                       -3297.280          29.000    20760297.918    85009947.075       -2569.652          32.000  
G32  20980794.946   110254824.064        1539.748          45.000    20980785.032    85912795.305        1199.876          42.000  
C08  34693982.876   180660671.599        -285.675          45.000    34693966.142   139698212.204        -220.978          48.000  
C13  34710952.895   180749038.878           3.937          47.000    34710943.977   139766576.233           3.131          48.000  
C16  35673054.071   185758953.469          41.339          45.000    35673044.019   143640566.181          31.991          47.000  
C25  22124320.818   115207138.861       -2437.858          37.000                                                                  
C32  21099953.879   109873000.668         952.364          49.000                                                                  
C06  35375697.327   184210539.446         221.573          45.000    35375681.617   142443210.313         171.134          47.000  
G25  20634630.492   108435722.450        2674.009          46.000    20634621.309    84495325.632        2083.704          41.000  
G10  19572592.429   102854663.220        1207.745          49.000    19572580.767    80146447.164         941.321          44.000  
G28  22174652.883   116528594.947        2673.730          40.000    22174642.786    90801482.451        2083.697          41.000  
C23  20745389.407   108026684.099         424.239          51.000                                                                  
C09  36849271.823   191883830.701         319.144          42.000    36849259.698   148376696.662         246.704          46.000  
C33  25958486.790                       -2885.420          29.000                                                                  
C37  23015298.416   119846710.579        2766.292          44.000                                                                  
> 2025 10 27 02 45 54.7560000  0 19                     
G12  20802897.431   109319965.881        1061.653          44.000    20802885.919    85184336.231         827.355          41.000  
G15  23075402.255   121262053.706       -3216.978          37.000    23075393.170    94489874.442       -2506.448          33.000  
G18  23380270.282   122864152.879       -3695.267          39.000    23380264.346    95738269.041       -2879.259          37.000  
G23  19151864.304   100643725.365       -1908.217          45.000    19151852.283    78423608.021       -1486.779          47.000  
G24  20760332.818                       -3297.813          29.000    20760323.016    85010049.870       -2569.647          32.000  
G32  20980783.208   110254762.462        1539.934          45.000    20980773.301    85912747.308        1199.921          42.000  
C08  34693985.092   180660683.015        -285.468          45.000    34693968.358   139698221.032        -220.807          49.000  
C13  34710952.907   180749038.715           4.053          47.000    34710943.919   139766576.110           3.113          48.000  
C16  35673053.775   185758951.803          41.512          45.000    35673043.719   143640564.891          32.146          48.000  
C25  22124339.538   115207236.332       -2437.110          37.000                                                                  
C32  21099946.585   109872962.570         952.426          49.000                                                                  
C06  35375695.625   184210530.576         221.714          45.000    35375679.917   142443203.456         171.309          47.000  
G25  20634610.131   108435615.484        2674.103          46.000    20634600.947    84495242.285        2083.695          41.000  
G10  19572583.228   102854614.905        1207.825          49.000    19572571.565    80146409.519         941.199          44.000  
G28  22174632.531   116528487.991        2673.791          40.000    22174622.403    90801399.111        2083.582          41.000  
C23  20745386.177   108026667.126         424.328          51.000                                                                  
C09  36849269.352   191883817.951         318.846          42.000    36849257.246   148376686.797         246.634          46.000  
C33  25958509.244                       -2884.762          29.000                                                                  
C37  23015277.182   119846599.914        2766.489          44.000                                                                  
> 2025 10 27 02 45 54.7960000  0 19                     
G12  20802889.331   109319923.403        1061.861          44.000    20802877.829    85184303.145         827.129          41.000  
G15  23075426.737   121262182.400       -3217.274          37.000    23075417.647    94489974.718       -2506.639          33.000  
G18  23380298.406   122864300.695       -3695.393          38.000    23380292.472    95738384.205       -2879.067          37.000  
G23  19151878.819   100643801.686       -1908.073          45.000    19151866.829    78423667.496       -1486.849          47.000  
G24  20760357.965                       -3297.720          29.000    20760348.101    85010152.675       -2569.886          32.000  
G32  20980771.501   110254700.865        1539.931          45.000    20980761.587    85912699.313        1199.908          42.000  
C08  34693987.264   180660694.437        -285.522          45.000    34693970.569   139698229.855        -220.618          49.000  
C13  34710952.857   180749038.557           3.967          47.000    34710943.881   139766575.986           3.113          48.000  
C16  35673053.485   185758950.138          41.621          45.000    35673043.363   143640563.599          32.287          48.000  
C25  22124358.257   115207333.835       -2437.302          37.000                                                                  
C32  21099939.256   109872924.474         952.410          49.000                                                                  
C06  35375693.920   184210521.709         221.742          45.000    35375678.194   142443196.601         171.359          47.000  
G25  20634589.776   108435508.537        2673.825          46.000    20634580.590    84495158.932        2083.776          41.000  
G10  19572574.057   102854566.591        1207.837          49.000    19572562.365    80146371.873         941.132          44.000  
G28  22174612.166   116528381.039        2673.809          40.000    22174602.046    90801315.777        2083.426          41.000  
C23  20745382.908   108026650.157         424.267          51.000                                                                  
C09  36849266.928   191883805.190         318.911          42.000    36849254.801   148376676.931         246.648          46.000  
C33  25958531.358                       -2884.883          29.000                                                                  
C37  23015255.932   119846489.243        2766.737          44.000                                                                  
> 2025 10 27 02 45 54.8360000  0 19                     
G12  20802881.272   109319880.941        1061.698          44.000    20802869.757    85184270.070         826.872          41.000  
G15  23075451.210   121262311.096       -3217.417          37.000    23075442.146    94490074.956       -2506.140          33.000  
G18  23380326.560   122864448.517       -3695.518          38.000    23380320.601    95738499.393       -2879.464          37.000  
G23  19151893.364   100643878.026       -1908.386          45.000    19151881.372    78423726.983       -1487.122          47.000  
G24  20760383.445                       -3297.880          29.000    20760373.196    85010255.508       -2570.545          32.000  
G32  20980759.778   110254639.275        1539.814          45.000    20980749.862    85912651.315        1199.912          42.000  
C08  34693989.434   180660705.863        -285.645          45.000    34693972.749   139698238.689        -220.752          49.000  
C13  34710952.842   180749038.398           3.967          47.000    34710943.837   139766575.865           3.033          47.000  
C16  35673053.187   185758948.481          41.478          45.000    35673043.063   143640562.319          32.104          48.000  
C25  22124376.985   115207431.353       -2437.745          37.000                                                                  
C32  21099931.905   109872886.384         952.268          49.000                                                                  
C06  35375692.215   184210512.851         221.527          45.000    35375676.503   142443189.744         171.387          47.000  
G25  20634569.463   108435401.597        2673.516          46.000    20634560.257    84495075.607        2083.310          41.000  
G10  19572564.876   102854518.283        1207.721          49.000    19572553.198    80146334.226         941.132          44.000  
G28  22174591.803   116528274.090        2673.697          40.000    22174581.680    90801232.437        2083.477          41.000  
C23  20745379.636   108026633.195         424.098          51.000                                                                  
C09  36849264.482   191883792.420         319.106          42.000    36849252.374   148376667.057         246.786          46.000  
C33  25958553.454                       -2884.756          29.000                                                                  
C37  23015234.693   119846378.577        2766.775          44.000                                                                  
> 2025 10 27 02 45 54.8760000  0 19                     
G12  20802873.206   109319838.482        1061.543          44.000    20802861.682    85184236.970         827.196          41.000  
G15  23075475.685   121262439.779       -3217.256          37.000    23075466.636    94490175.286       -2507.498          33.000  
G18  23380354.682   122864596.314       -3695.145          38.000    23380348.722    95738614.558       -2879.326          37.000  
G23  19151907.890   100643954.351       -1908.253          45.000    19151895.902    78423786.468       -1487.188          47.000  
G24  20760408.500                       -3298.441          29.000    20760398.305    85010358.310       -2570.414          32.000  
G32  20980748.055   110254577.675        1539.924          45.000    20980738.165    85912603.317        1199.939          42.000  
C08  34693991.614   180660717.288        -285.675          45.000    34693974.916   139698247.526        -220.892          49.000  
C13  34710952.771   180749038.245           3.851          47.000    34710943.797   139766575.744           2.997          48.000  
C16  35673052.913   185758946.817          41.545          45.000    35673042.759   143640561.036          32.052          48.000  
C25  22124395.716   115207528.873       -2438.022          37.000                                                                  
C32  21099924.584   109872848.287         952.348          49.000                                                                  
C06  35375690.510   184210503.989         221.505          45.000    35375674.831   142443182.894         171.308          47.000  
G25  20634549.100   108435294.633        2673.850          46.000    20634539.892    84494992.270        2083.301          41.000  
G10  19572555.705   102854469.978        1207.617          49.000    19572544.009    80146296.586         941.016          44.000  
G28  22174571.460   116528167.147        2673.586          40.000    22174561.327    90801149.110        2083.203          41.000  
C23  20745376.384   108026616.235         423.992          51.000                                                                  
C09  36849262.019   191883779.670         318.865          42.000    36849249.911   148376657.196         246.628          46.000  
C33  25958575.658                       -2885.368          29.000                                                                  
C37  23015213.443   119846267.932        2766.379          44.000                                                                  
> 2025 10 27 02 45 54.9160000  0 19                     
G12  20802865.121   109319796.017        1061.525          44.000    20802853.608    85184203.876         827.318          41.000  
G15  23075500.170   121262568.459       -3217.101          37.000    23075491.105    94490275.542       -2506.957          33.000  
G18  23380382.841   122864744.135       -3695.406          38.000    23380376.852    95738729.740       -2879.518          37.000  
G23  19151922.420   100644030.687       -1908.391          45.000    19151910.421    78423845.946       -1487.075          47.000  
G24  20760433.320                       -3298.765          29.000    20760423.401    85010461.081       -2569.676          32.000  
G32  20980736.345   110254516.088        1539.747          45.000    20980726.469    85912555.338        1199.630          42.000  
C08  34693993.804   180660728.707        -285.590          45.000    34693977.086   139698256.357        -220.843          49.000  
C13  34710952.763   180749038.082           3.992          47.000    34710943.727   139766575.615           3.168          48.000  
C16  35673052.602   185758945.159          41.465          45.000    35673042.450   143640559.755          31.989          48.000  
C25  22124414.431   115207626.374       -2437.777          37.000                                                                  
C32  21099917.258   109872810.197         952.258          49.000                                                                  
C06  35375688.841   184210495.120         221.625          45.000    35375673.128   142443176.042         171.270          47.000  
G25  20634528.738   108435187.665        2674.114          46.000    20634519.513    84494908.917        2083.579          41.000  
G10  19572546.501   102854421.667        1207.684          49.000    19572534.832    80146258.939         941.125          44.000  
G28  22174551.122   116528060.194        2673.711          40.000    22174540.975    90801065.774        2083.273          41.000  
C23  20745373.150   108026599.268         424.075          51.000                                                                  
C09  36849259.581   191883766.901         319.075          42.000    36849247.458   148376647.334         246.553          46.000  
C33  25958597.503                       -2885.546          29.000                                                                  
C37  23015192.189   119846157.297        2765.946          44.000                                                                  
> 2025 10 27 02 45 54.9560000  0 19                     
G12  20802857.030   109319753.554        1061.541          44.000    20802845.526    85184170.791         827.178          41.000  
G15  23075524.673   121262697.145       -3217.156          37.000    23075515.596    94490375.830       -2507.115          33.000  
G18  23380410.994   122864891.956       -3695.498          38.000    23380404.970    95738844.926       -2879.640          37.000  
G23  19151936.940   100644107.023       -1908.489          45.000    19151924.964    78423905.415       -1486.838          47.000  
G24  20760458.266                       -3298.867          29.000    20760448.491    85010563.880       -2569.806          32.000  
G32  20980724.633   110254454.502        1539.600          45.000    20980714.762    85912507.331        1199.916          42.000  
C08  34693995.992   180660740.121        -285.455          45.000    34693979.263   139698265.191        -220.862          49.000  
C13  34710952.750   180749037.922           4.028          47.000    34710943.673   139766575.493           3.070          48.000  
C16  35673052.279   185758943.505          41.336          45.000    35673042.134   143640558.475          31.939          48.000  
C25  22124433.170   115207723.877       -2437.640          37.000                                                                  
C32  21099909.954   109872772.104         952.266          49.000                                                                  
C06  35375687.151   184210486.267         221.394          45.000    35375671.410   142443169.188         171.296          47.000  
G25  20634508.407   108435080.709        2674.028          46.000    20634499.154    84494825.576        2083.528          41.000  
G10  19572537.284   102854373.362        1207.611          49.000    19572525.625    80146221.296         941.077          44.000  
G28  22174530.757   116527953.239        2673.855          40.000    22174520.609    90800982.431        2083.461          41.000  
C23  20745369.910   108026582.304         424.073          51.000                                                                  
C09  36849257.120   191883754.142         319.043          42.000    36849244.986   148376637.467         246.604          46.000  
C33  25958619.638                       -2885.589          29.000                                                                  
C37  23015170.932   119846046.646        2766.040          44.000                                                                  
> 2025 10 27 02 45 54.9960000  0 19                     
G12  20802848.969   109319711.097        1061.406          44.000    20802837.454    85184137.706         827.082          41.000  
G15  23075549.152   121262825.805       -3216.677          37.000    23075540.105    94490476.089       -2506.646          33.000  
G18  23380439.126   122865039.766       -3695.354          38.000    23380433.107    95738960.110       -2879.716          37.000  
G23  19151951.456   100644183.355       -1908.400          45.000    19151939.509    78423964.895       -1486.907          47.000  
G24  20760483.601                       -3298.251          29.000    20760473.584    85010666.668       -2569.672          32.000  
G32  20980712.919   110254392.904        1539.773          45.000    20980703.016    85912459.339        1199.795          42.000  
C08  34693998.188   180660751.544        -285.522          45.000    34693981.481   139698274.026        -220.905          49.000  
C13  34710952.719   180749037.764           3.979          47.000    34710943.640   139766575.374           2.985          48.000  
C16  35673051.992   185758941.846          41.379          45.000    35673041.809   143640557.187          32.052          48.000  
C25  22124451.886   115207821.376       -2437.510          37.000                                                                  
C32  21099902.641   109872734.012         952.287          49.000                                                                  
C06  35375685.426   184210477.402         221.484          45.000    35375669.723   142443162.331         171.355          47.000  
G25  20634488.054   108434973.753        2673.960          46.000    20634478.794    84494742.233        2083.527          41.000  
G10  19572528.065   102854325.053        1207.654          49.000    19572516.459    80146183.662         940.881          44.000  
G28  22174510.378   116527846.287        2673.860          40.000    22174500.274    90800899.091        2083.453          42.000  
C23  20745366.621   108026565.340         424.068          51.000                                                                  
C09  36849254.676   191883741.384         318.967          42.000    36849242.502   148376627.600         246.629          46.000  
C33  25958642.041                       -2885.771          29.000                                                                  
C37  23015149.701   119845935.985        2766.298          44.000                                                                  
> 2025 10 27 02 45 55.0360000  0 19                     
G12  20802840.899   109319668.627        1061.591          44.000    20802829.399    85184104.617         827.131          41.000  
G15  23075573.633   121262954.502       -3217.139          37.000    23075564.618    94490576.348       -2506.482          33.000  
G18  23380467.234   122865187.569       -3695.209          38.000    23380461.249    95739075.286       -2879.550          37.000  
G23  19151965.987   100644259.684       -1908.301          45.000    19151954.037    78424024.378       -1487.045          47.000  
G24  20760508.881                       -3297.096          29.000    20760498.676    85010769.487       -2570.235          32.000  
G32  20980701.183   110254331.305        1539.874          45.000    20980691.309    85912411.337        1199.926          42.000  
C08  34694000.365   180660762.968        -285.602          45.000    34693983.676   139698282.857        -220.837          49.000  
C13  34710952.681   180749037.604           3.986          47.000    34710943.592   139766575.252           2.997          48.000  
C16  35673051.686   185758940.180          41.559          45.000    35673041.500   143640555.900          32.124          48.000  
C25  22124470.604   115207918.909       -2438.058          37.000                                                                  
C32  21099895.335   109872695.917         952.324          49.000                                                                  
C06  35375683.727   184210468.537         221.564          45.000    35375668.014   142443155.477         171.348          47.000  
G25  20634467.717   108434866.803        2673.811          46.000    20634458.425    84494658.897        2083.360          41.000  
G10  19572518.852   102854276.745        1207.666          49.000    19572507.259    80146146.021         940.948          44.000  
G28  22174490.044   116527739.350        2673.573          40.000    22174479.926    90800815.755        2083.428          42.000  
C23  20745363.379   108026548.376         424.068          51.000                                                                  
C09  36849252.236   191883728.621         318.985          42.000    36849240.046   148376617.721         246.880          46.000  
C33  25958664.092                       -2885.732          29.000                                                                  
C37  23015128.497   119845825.320        2766.579          44.000                                                                  
> 2025 10 27 02 45 55.0760000  0 19                     
G12  20802832.810   109319626.153        1061.791          44.000    20802821.307    85184071.522         827.273          41.000  
G15  23075598.135   121263083.192       -3217.290          37.000    23075589.079    94490676.625       -2506.798          33.000  
G18  23380495.359   122865335.381       -3695.288          38.000    23380489.371    95739190.458       -2879.386          37.000  
G23  19151980.525   100644336.023       -1908.419          45.000    19151968.560    78424083.864       -1487.138          47.000  
G24  20760533.781                       -3297.683          29.000    20760523.766    85010872.261       -2569.661          32.000  
G32  20980689.450   110254269.697        1540.105          45.000    20980679.603    85912363.344        1199.847          42.000  
C08  34694002.555   180660774.392        -285.632          45.000    34693985.909   139698291.688        -220.807          49.000  
C13  34710952.648   180749037.446           3.967          47.000    34710943.562   139766575.128           3.064          48.000  
C16  35673051.388   185758938.515          41.635          45.000    35673041.200   143640554.616          32.095          48.000  
C25  22124489.325   115208016.409       -2437.769          37.000                                                                  
C32  21099888.041   109872657.827         952.246          49.000                                                                  
C06  35375681.998   184210459.674         221.582          45.000    35375666.299   142443148.627         171.256          47.000  
G25  20634447.374   108434759.855        2673.684          46.000    20634438.083    84494575.564        2083.262          41.000  
G10  19572509.691   102854228.442        1207.581          49.000    19572498.056    80146108.379         941.016          44.000  
G28  22174469.715   116527632.408        2673.500          40.000    22174459.553    90800732.418        2083.422          42.000  
C23  20745360.113   108026531.413         424.048          51.000                                                                  
C09  36849249.769   191883715.862         318.954          42.000    36849237.583   148376607.851         246.834          46.000  
C33  25958686.417                       -2885.536          29.000                                                                  
C37  23015107.236   119845714.658        2766.591          44.000                                                                  
> 2025 10 27 02 45 55.1160000  0 19                     
G12  20802824.723   109319583.698        1061.532          44.000    20802813.228    85184038.450         826.922          41.000  
G15  23075622.614   121263211.865       -3217.040          37.000    23075613.572    94490776.942       -2507.665          33.000  
G18  23380523.489   122865483.194       -3695.305          38.000    23380517.502    95739305.630       -2879.284          37.000  
G23  19151995.045   100644412.363       -1908.505          45.000    19151983.071    78424143.346       -1487.137          47.000  
G24  20760558.927                       -3298.155          29.000    20760548.875    85010975.078       -2570.174          32.000  
G32  20980677.740   110254208.100        1540.015          44.000    20980667.913    85912315.344        1199.878          42.000  
C08  34694004.759   180660785.810        -285.571          45.000    34693988.099   139698300.517        -220.758          49.000  
C13  34710952.627   180749037.285           3.998          47.000    34710943.514   139766575.006           3.033          48.000  
C16  35673051.086   185758936.858          41.492          45.000    35673040.894   143640553.330          32.121          48.000  
C25  22124508.044   115208113.905       -2437.520          37.000                                                                  
C32  21099880.722   109872619.730         952.356          49.000                                                                  
C06  35375680.285   184210450.810         221.601          45.000    35375664.586   142443141.774         171.270          47.000  
G25  20634427.017   108434652.896        2673.851          46.000    20634417.737    84494492.217        2083.505          41.000  
G10  19572500.482   102854180.131        1207.684          49.000    19572488.846    80146070.732         941.125          44.000  
G28  22174449.361   116527525.459        2673.601          40.000    22174439.207    90800649.085        2083.278          42.000  
C23  20745356.831   108026514.453         423.971          51.000                                                                  
C09  36849247.301   191883703.098         319.037          42.000    36849235.128   148376597.988         246.637          46.000  
C33  25958708.518                       -2885.690          29.000                                                                  
C37  23015085.983   119845603.999        2766.537          44.000                                                                  
> 2025 10 27 02 45 55.1560000  0 19                     
G12  20802816.639   109319541.251        1061.224          44.000    20802805.136    85184005.355         827.112          41.000  
G15  23075647.068   121263340.569       -3217.375          37.000    23075638.029    94490877.175       -2506.583          33.000  
G18  23380551.613   122865631.018       -3695.493          38.000    23380545.625    95739420.788       -2878.966          36.000  
G23  19152009.572   100644488.695       -1908.405          45.000    19151997.590    78424202.824       -1487.043          47.000  
G24  20760583.796                       -3298.160          29.000    20760573.994    85011077.851       -2569.678          32.000  
G32  20980666.033   110254146.513        1539.762          44.000    20980656.199    85912267.350        1199.862          42.000  
C08  34694006.927   180660797.243        -285.760          45.000    34693990.276   139698309.350        -220.813          49.000  
C13  34710952.583   180749037.133           3.851          47.000    34710943.475   139766574.883           3.027          48.000  
C16  35673050.734   185758935.197          41.500          45.000    35673040.587   143640552.050          32.017          48.000  
C25  22124526.748   115208211.408       -2437.548          37.000                                                                  
C32  21099873.391   109872581.644         952.215          49.000                                                                  
C06  35375678.544   184210441.952         221.475          45.000    35375662.887   142443134.922         171.280          47.000  
G25  20634406.651   108434545.946        2673.780          46.000    20634397.366    84494408.870        2083.639          41.000  
G10  19572491.291   102854131.824        1207.660          49.000    19572479.652    80146033.092         941.010          44.000  
G28  22174429.004   116527418.509        2673.726          40.000    22174418.867    90800565.742        2083.435          42.000  
C23  20745353.573   108026497.493         423.947          51.000                                                                  
C09  36849244.863   191883690.328         319.213          42.000    36849232.665   148376588.121         246.607          46.000  
C33  25958730.610                       -2885.727          29.000                                                                  
C37  23015064.730   119845493.357        2766.197          44.000                                                                  
> 2025 10 27 02 45 55.1960000  0 19                     
G12  20802808.552   109319498.796        1061.213          44.000    20802797.074    85183972.271         827.121          41.000  
G15  23075671.530   121263469.244       -3217.076          37.000    23075662.480    94490977.442       -2506.595          33.000  
G18  23380579.742   122865778.817       -3695.172          38.000    23380573.762    95739535.987       -2879.600          37.000  
G23  19152024.103   100644565.032       -1908.411          45.000    19152012.103    78424262.310       -1487.149          47.000  
G24  20760608.797                       -3298.375          29.000    20760599.102    85011180.672       -2570.177          32.000  
G32  20980654.337   110254084.929        1539.586          45.000    20980644.472    85912219.360        1199.772          42.000  
C08  34694009.114   180660808.668        -285.730          45.000    34693992.457   139698318.187        -220.898          49.000  
C13  34710952.591   180749036.971           3.949          47.000    34710943.432   139766574.761           3.033          48.000  
C16  35673050.426   185758933.536          41.513          45.000    35673040.285   143640550.768          32.005          48.000  
C25  22124545.475   115208308.948       -2438.277          37.000                                                                  
C32  21099866.075   109872543.556         952.125          49.000                                                                  
C06  35375676.810   184210433.084         221.606          45.000    35375661.176   142443128.062         171.402          47.000  
G25  20634386.297   108434438.987        2673.891          46.000    20634377.021    84494325.517        2083.812          41.000  
G10  19572482.123   102854083.525        1207.495          49.000    19572470.466    80145995.455         940.894          44.000  
G28  22174408.647   116527311.573        2673.469          40.000    22174398.510    90800482.418        2083.179          42.000  
C23  20745350.311   108026480.539         423.853          51.000                                                                  
C09  36849242.401   191883677.567         319.116          42.000    36849230.201   148376578.255         246.609          46.000  
C33  25958752.536                       -2885.610          29.000                                                                  
C37  23015043.482   119845382.712        2766.065          44.000                                                                  
> 2025 10 27 02 45 55.2360000  0 19                     
G12  20802800.466   109319456.342        1061.252          44.000    20802789.005    85183939.186         827.156          41.000  
G15  23075696.029   121263597.938       -3217.218          37.000    23075686.998    94491077.720       -2506.772          33.000  
G18  23380607.866   122865926.632       -3695.284          38.000    23380601.882    95739651.181       -2879.966          37.000  
G23  19152038.636   100644641.370       -1908.462          45.000    19152026.648    78424321.801       -1487.273          47.000  
G24  20760633.756                       -3298.694          29.000    20760624.203    85011283.459       -2569.703          32.000  
G32  20980642.616   110254023.336        1539.683          45.000    20980632.735    85912171.353        1199.998          42.000  
C08  34694011.303   180660820.093        -285.681          45.000    34693994.621   139698327.020        -220.905          49.000  
C13  34710952.575   180749036.817           3.845          47.000    34710943.400   139766574.639           3.027          48.000  
C16  35673050.091   185758931.874          41.527          45.000    35673039.964   143640549.490          31.935          48.000  
C25  22124564.213   115208406.451       -2437.943          37.000                                                                  
C32  21099858.799   109872505.465         952.180          49.000                                                                  
C06  35375675.134   184210424.218         221.625          45.000    35375659.474   142443121.212         171.295          47.000  
G25  20634365.966   108434332.044        2673.681          46.000    20634356.670    84494242.185        2083.526          41.000  
G10  19572472.929   102854035.226        1207.428          49.000    19572461.263    80145957.821         940.778          44.000  
G28  22174388.304   116527204.625        2673.589          40.000    22174378.162    90800399.087        2083.175          42.000  
C23  20745347.082   108026463.580         423.875          51.000                                                                  
C09  36849239.930   191883664.810         318.971          42.000    36849227.748   148376568.387         246.667          46.000  
C33  25958774.884                       -2885.551          29.000                                                                  
C37  23015022.245   119845272.063        2766.094          44.000                                                                  
> 2025 10 27 02 45 55.2760000  0 19                     
G12  20802792.373   109319413.878        1061.454          44.000    20802780.939    85183906.112         826.920          41.000  
G15  23075720.517   121263726.613       -3217.013          37.000    23075711.507    94491178.024       -2507.440          33.000  
G18  23380635.993   122866074.447       -3695.349          38.000    23380630.012    95739766.374       -2880.076          37.000  
G23  19152053.165   100644717.713       -1908.573          45.000    19152041.175    78424381.289       -1487.290          47.000  
G24  20760659.073                       -3298.183          29.000    20760649.294    85011386.271       -2569.960          32.000  
G32  20980630.888   110253961.728        1540.022          45.000    20980620.998    85912123.367        1199.775          42.000  
C08  34694013.492   180660831.519        -285.669          45.000    34693996.801   139698335.858        -220.978          49.000  
C13  34710952.533   180749036.660           3.876          47.000    34710943.373   139766574.519           2.997          48.000  
C16  35673049.751   185758930.215          41.500          45.000    35673039.672   143640548.209          31.937          48.000  
C25  22124582.955   115208503.959       -2437.843          37.000                                                                  
C32  21099851.517   109872467.377         952.175          49.000                                                                  
C06  35375673.444   184210415.363         221.456          45.000    35375657.783   142443114.363         171.196          47.000  
G25  20634345.591   108434225.085        2673.856          46.000    20634336.316    84494158.842        2083.512          41.000  
G10  19572463.732   102853986.929        1207.373          49.000    19572452.071    80145920.187         940.753          44.000  
G28  22174367.948   116527097.679        2673.582          40.000    22174357.812    90800315.753        2083.307          42.000  
C23  20745343.866   108026446.620         423.935          51.000                                                                  
C09  36849237.479   191883652.054         318.839          42.000    36849225.297   148376558.523         246.604          46.000  
C33  25958796.930                       -2885.377          29.000                                                                  
C37  23015001.015   119845161.411        2766.135          44.000                                                                  
> 2025 10 27 02 45 55.3160000  0 19                     
G12  20802784.297   109319371.417        1061.503          44.000    20802772.861    85183873.038         826.810          41.000  
G15  23075744.990   121263855.304       -3217.173          37.000    23075735.973    94491278.325       -2507.625          33.000  
G18  23380664.134   122866222.253       -3695.251          38.000    23380658.112    95739881.525       -2879.280          37.000  
G23  19152067.689   100644794.052       -1908.541          45.000    19152055.692    78424440.771       -1487.139          47.000  
G24  20760684.096                       -3298.395          29.000    20760674.381    85011489.078       -2570.146          32.000  
G32  20980619.158   110253900.132        1539.997          45.000    20980609.290    85912075.379        1199.656          42.000  
C08  34694015.702   180660842.944        -285.645          45.000    34693998.981   139698344.695        -220.996          49.000  
C13  34710952.510   180749036.501           3.906          47.000    34710943.333   139766574.400           2.954          48.000  
C16  35673049.423   185758928.567          41.267          45.000    35673039.348   143640546.920          32.108          48.000  
C25  22124601.689   115208601.481       -2437.960          37.000                                                                  
C32  21099844.196   109872429.293         952.099          49.000                                                                  
C06  35375671.772   184210406.510         221.329          45.000    35375656.100   142443107.508         171.271          47.000  
G25  20634325.236   108434118.140        2673.717          46.000    20634315.967    84494075.511        2083.292          41.000  
G10  19572454.527   102853938.628        1207.458          49.000    19572442.857    80145882.556         940.717          44.000  
G28  22174347.579   116526990.726        2673.744          40.000    22174337.476    90800232.424        2083.245          42.000  
C23  20745340.570   108026429.668         423.833          51.000                                                                  
C09  36849235.059   191883639.305         318.717          42.000    36849222.864   148376548.656         246.655          46.000  
C33  25958819.117                       -2885.509          29.000                                                                  
C37  23014979.773   119845050.748        2766.389          44.000                                                                  
> 2025 10 27 02 45 55.3560000  0 19                     
G12  20802776.226   109319328.968        1061.312          44.000    20802764.800    85183839.953         826.978          41.000  
G15  23075769.478   121263983.982       -3217.037          37.000    23075760.433    94491378.546       -2506.406          33.000  
G18  23380692.283   122866370.063       -3695.275          38.000    23380686.233    95739996.690       -2879.070          37.000  
G23  19152082.225   100644870.398       -1908.634          45.000    19152070.217    78424500.253       -1487.053          47.000  
G24  20760709.770                       -3298.604          29.000    20760699.476    85011591.923       -2570.892          32.000  
G32  20980607.444   110253838.546        1539.773          44.000    20980597.571    85912027.383        1199.736          42.000  
C08  34694017.923   180660854.368        -285.602          45.000    34694001.214   139698353.523        -220.801          49.000  
C13  34710952.479   180749036.344           3.912          47.000    34710943.323   139766574.280           2.942          48.000  
C16  35673049.090   185758926.912          41.277          45.000    35673039.026   143640545.639          32.045          48.000  
C25  22124620.418   115208698.996       -2437.992          37.000                                                                  
C32  21099836.910   109872391.203         952.158          49.000                                                                  
C06  35375670.065   184210397.651         221.394          45.000    35375654.412   142443100.658         171.234          47.000  
G25  20634304.881   108434011.187        2673.758          46.000    20634295.641    84493992.175        2083.319          41.000  
G10  19572445.343   102853890.331        1207.428          49.000    19572433.633    80145844.918         940.857          44.000  
G28  22174327.203   116526883.787        2673.576          40.000    22174317.128    90800149.076        2083.555          42.000  
C23  20745337.306   108026412.713         423.814          51.000                                                                  
C09  36849232.624   191883626.547         318.820          42.000    36849220.428   148376538.789         246.674          46.000  
C33  25958841.182                       -2885.226          29.000                                                                  
C37  23014958.506   119844940.097        2766.317          44.000                                                                  
> 2025 10 27 02 45 55.3960000  0 19                     
G12  20802768.157   109319286.518        1061.231          44.000    20802756.714    85183806.877         826.931          41.000  
G15  23075793.979   121264112.677       -3217.325          37.000    23075784.936    94491478.817       -2506.593          33.000  
G18  23380720.412   122866517.873       -3695.288          38.000    23380714.354    95740111.873       -2879.313          37.000  
G23  19152096.768   100644946.746       -1908.707          45.000    19152084.747    78424559.743       -1487.178          47.000  
G24  20760734.820                       -3298.417          29.000    20760724.576    85011694.711       -2570.350          32.000  
G32  20980595.715   110253776.962        1539.635          44.000    20980585.846    85911979.386        1199.828          42.000  
C08  34694020.107   180660865.796        -285.669          45.000    34694003.459   139698362.358        -220.856          49.000  
C13  34710952.426   180749036.193           3.796          47.000    34710943.275   139766574.160           2.954          48.000  
C16  35673048.784   185758925.253          41.374          45.000    35673038.717   143640544.359          31.980          48.000  
C25  22124639.161   115208796.509       -2437.840          37.000                                                                  
C32  21099829.589   109872353.114         952.189          49.000                                                                  
C06  35375668.347   184210388.785         221.551          45.000    35375652.714   142443093.810         171.209          47.000  
G25  20634284.558   108433904.243        2673.633          46.000    20634275.276    84493908.858        2083.017          41.000  
G10  19572436.156   102853842.035        1207.385          49.000    19572424.438    80145807.282         940.875          44.000  
G28  22174306.841   116526776.845        2673.545          40.000    22174296.762    90800065.747        2083.367          42.000  
C23  20745334.043   108026395.758         423.836          51.000                                                                  
C09  36849230.214   191883613.785         318.972          42.000    36849217.993   148376528.929         246.508          46.000  
C33  25958863.241                       -2885.539          29.000                                                                  
C37  23014937.246   119844829.446        2766.249          44.000                                                                  
> 2025 10 27 02 45 55.4360000  0 19                     
G12  20802760.053   109319244.064        1061.268          44.000    20802748.646    85183773.799         826.918          41.000  
G15  23075818.471   121264241.373       -3217.412          37.000    23075809.410    94491579.086       -2506.710          33.000  
G18  23380748.540   122866665.699       -3695.579          38.000    23380742.488    95740227.052       -2879.485          37.000  
G23  19152111.304   100645023.094       -1908.769          45.000    19152099.267    78424619.234       -1487.278          47.000  
G24  20760759.339                       -3299.042          29.000    20760749.693    85011797.535       -2570.479          32.000  
G32  20980583.996   110253715.380        1539.503          44.000    20980574.101    85911931.385        1199.949          42.000  
C08  34694022.292   180660877.226        -285.748          45.000    34694005.670   139698371.201        -221.014          49.000  
C13  34710952.374   180749036.046           3.674          47.000    34710943.244   139766574.041           2.930          48.000  
C16  35673048.461   185758923.598          41.366          45.000    35673038.401   143640543.076          32.022          48.000  
C25  22124657.848   115208894.016       -2437.730          37.000                                                                  
C32  21099822.268   109872315.029         952.105          49.000                                                                  
C06  35375666.621   184210379.919         221.612          45.000    35375651.000   142443086.961         171.191          47.000  
G25  20634264.213   108433797.297        2673.604          46.000    20634254.918    84493825.513        2083.325          41.000  
G10  19572426.972   102853793.740        1207.330          49.000    19572415.252    80145769.650         940.790          44.000  
G28  22174286.481   116526669.909        2673.371          40.000    22174276.422    90799982.416        2083.298          42.000  
C23  20745330.776   108026378.807         423.759          51.000                                                                  
C09  36849227.764   191883601.025         319.001          42.000    36849215.558   148376519.066         246.517          46.000  
C33  25958885.424                       -2885.775          29.000                                                                  
C37  23014916.005   119844718.804        2766.094          44.000                                                                  
> 2025 10 27 02 45 55.4760000  0 19                     
G12  20802751.999   109319201.635        1060.856          44.000    20802740.554    85183740.715         827.007          41.000  
G15  23075842.942   121264370.059       -3217.253          37.000    23075833.890    94491679.383       -2507.203          33.000  
G18  23380776.680   122866813.517       -3695.603          38.000    23380770.629    95740342.244       -2879.812          37.000  
G23  19152125.841   100645099.440       -1908.743          45.000    19152113.798    78424678.730       -1487.401          47.000  
G24  20760784.487                       -3297.927          29.000    20760774.774    85011900.306       -2569.604          32.000  
G32  20980572.272   110253653.792        1539.538          44.000    20980562.394    85911883.396        1199.804          42.000  
C08  34694024.476   180660888.654        -285.742          45.000    34694007.883   139698380.036        -220.947          49.000  
C13  34710952.373   180749035.893           3.729          47.000    34710943.227   139766573.926           2.856          48.000  
C16  35673048.132   185758921.946          41.282          45.000    35673038.095   143640541.798          31.950          48.000  
C25  22124676.595   115208991.527       -2437.782          37.000                                                                  
C32  21099814.925   109872276.945         952.061          49.000                                                                  
C06  35375664.890   184210371.062         221.510          45.000    35375649.271   142443080.111         171.219          47.000  
G25  20634243.877   108433690.363        2673.371          46.000    20634234.584    84493742.174        2083.400          41.000  
G10  19572417.786   102853745.450        1207.245          49.000    19572406.070    80145732.020         940.747          44.000  
G28  22174266.122   116526562.959        2673.609          40.000    22174256.097    90799899.094        2083.062          42.000  
C23  20745327.492   108026361.859         423.670          51.000                                                                  
C09  36849225.317   191883588.268         318.943          42.000    36849213.117   148376509.205         246.499          46.000  
C33  25958907.742                       -2885.941          29.000                                                                  
C37  23014894.747   119844608.160        2766.044          44.000                                                                  
> 2025 10 27 02 45 55.5160000  0 19                     
G12  20802743.923   109319159.188        1060.994          44.000    20802732.479    85183707.640         826.931          41.000  
G15  23075867.452   121264498.764       -3217.471          37.000    23075858.388    94491779.688       -2507.531          33.000  
G18  23380804.826   122866961.335       -3695.529          38.000    23380798.760    95740457.405       -2879.355          37.000  
G23  19152140.387   100645175.789       -1908.748          45.000    19152128.311    78424738.226       -1487.468          47.000  
G24  20760810.206                       -3298.431          29.000    20760799.866    85012003.084       -2569.395          32.000  
G32  20980560.538   110253592.185        1539.963          44.000    20980550.667    85911835.408        1199.668          42.000  
C08  34694026.661   180660900.083        -285.748          45.000    34694010.084   139698388.873        -220.935          49.000  
C13  34710952.381   180749035.738           3.815          47.000    34710943.218   139766573.808           2.869          48.000  
C16  35673047.796   185758920.288          41.360          45.000    35673037.807   143640540.525          31.827          48.000  
C25  22124695.320   115209089.066       -2438.317          37.000                                                                  
C32  21099807.614   109872238.860         952.084          49.000                                                                  
C06  35375663.152   184210362.213         221.269          45.000    35375647.546   142443073.262         171.205          47.000  
G25  20634223.517   108433583.412        2673.582          46.000    20634214.244    84493658.836        2083.464          41.000  
G10  19572408.598   102853697.163        1207.166          49.000    19572396.910    80145694.395         940.613          44.000  
G28  22174245.769   116526456.020        2673.496          40.000    22174235.755    90799815.763        2083.145          41.000  
C23  20745324.246   108026344.909         423.678          51.000                                                                  
C09  36849222.875   191883575.512         318.907          42.000    36849210.624   148376499.332         246.695          46.000  
C33  25958929.820                       -2885.828          29.000                                                                  
C37  23014873.497   119844497.514        2766.051          44.000                                                                  
> 2025 10 27 02 45 55.5560000  0 19                     
G12  20802735.847   109319116.735        1061.171          44.000    20802724.409    85183674.569         826.768          41.000  
G15  23075891.934   121264627.441       -3217.115          37.000    23075882.838    94491879.973       -2507.359          33.000  
G18  23380832.934   122867109.126       -3695.007          38.000    23380826.881    95740572.565       -2879.105          37.000  
G23  19152154.907   100645252.132       -1908.623          45.000    19152142.824    78424797.717       -1487.373          47.000  
G24  20760835.773                       -3298.627          29.000    20760824.980    85012105.899       -2569.764          32.000  
G32  20980548.798   110253530.583        1540.111          44.000    20980538.946    85911787.412        1199.804          42.000  
C08  34694028.860   180660911.508        -285.675          45.000    34694012.268   139698397.709        -220.917          49.000  
C13  34710952.355   180749035.583           3.851          47.000    34710943.180   139766573.688           2.942          48.000  
C16  35673047.474   185758918.631          41.414          45.000    35673037.490   143640539.242          31.940          48.000  
C25  22124714.067   115209186.592       -2438.338          37.000                                                                  
C32  21099800.350   109872200.771         952.148          49.000                                                                  
C06  35375661.404   184210353.359         221.256          45.000    35375645.826   142443066.410         171.266          47.000  
G25  20634203.160   108433476.464        2673.700          46.000    20634193.910    84493575.498        2083.441          41.000  
G10  19572399.380   102853648.860        1207.422          49.000    19572387.735    80145656.768         940.594          44.000  
G28  22174225.421   116526349.086        2673.379          40.000    22174215.430    90799732.432        2083.177          41.000  
C23  20745320.976   108026327.956         423.760          51.000                                                                  
C09  36849220.390   191883562.762         318.814          42.000    36849208.184   148376489.468         246.643          46.000  
C33  25958952.125                       -2885.418          29.000                                                                  
C37  23014852.266   119844386.859        2766.241          44.000                                                                  
> 2025 10 27 02 45 55.5960000  0 19                     
G12  20802727.760   109319074.284        1061.218          44.000    20802716.332    85183641.491         826.871          41.000  
G15  23075916.445   121264756.122       -3216.968          37.000    23075907.305    94491980.203       -2506.284          33.000  
G18  23380861.081   122867256.934       -3695.017          38.000    23380855.026    95740687.754       -2879.476          37.000  
G23  19152169.467   100645328.486       -1908.786          45.000    19152157.349    78424857.211       -1487.392          47.000  
G24  20760860.754                       -3297.651          29.000    20760850.085    85012208.697       -2569.819          32.000  
G32  20980537.089   110253468.994        1539.890          44.000    20980527.210    85911739.415        1199.880          42.000  
C08  34694031.049   180660922.937        -285.693          45.000    34694014.433   139698406.545        -220.905          49.000  
C13  34710952.331   180749035.430           3.845          47.000    34710943.163   139766573.566           2.997          48.000  
C16  35673047.141   185758916.973          41.423          45.000    35673037.186   143640537.956          32.030          48.000  
C25  22124732.800   115209284.105       -2438.055          37.000                                                                  
C32  21099793.043   109872162.686         952.135          49.000                                                                  
C06  35375659.722   184210344.501         221.340          45.000    35375644.138   142443059.559         171.283          47.000  
G25  20634182.777   108433369.508        2673.851          46.000    20634173.548    84493492.168        2083.331          41.000  
G10  19572390.200   102853600.568        1207.361          49.000    19572378.542    80145619.128         940.826          44.000  
G28  22174205.086   116526242.147        2673.449          40.000    22174195.078    90799649.100        2083.245          41.000  
C23  20745317.704   108026311.006         423.766          51.000                                                                  
C09  36849217.961   191883550.005         318.858          42.000    36849205.764   148376479.604         246.618          46.000  
C33  25958974.233                       -2885.247          28.000                                                                  
C37  23014831.038   119844276.203        2766.398          44.000                                                                  
> 2025 10 27 02 45 55.6360000  0 19                     
G12  20802719.699   109319031.833        1061.242          44.000    20802708.234    85183608.412         826.969          41.000  
G15  23075940.926   121264884.818       -3217.168          37.000    23075931.776    94492080.486       -2506.695          33.000  
G18  23380889.197   122867404.746       -3695.167          38.000    23380883.143    95740802.934       -2879.530          37.000  
G23  19152184.007   100645404.829       -1908.667          45.000    19152171.875    78424916.698       -1487.268          47.000  
G24  20760885.853                       -3297.403          29.000    20760875.198    85012311.529       -2570.465          32.000  
G32  20980525.359   110253407.408        1539.729          44.000    20980515.501    85911691.431        1199.671          42.000  
C08  34694033.270   180660934.356        -285.565          45.000    34694016.610   139698415.378        -220.862          49.000  
C13  34710952.275   180749035.277           3.809          47.000    34710943.124   139766573.448           2.954          48.000  
C16  35673046.797   185758915.310          41.520          45.000    35673036.891   143640536.668          32.139          48.000  
C25  22124751.538   115209381.623       -2438.045          37.000                                                                  
C32  21099785.732   109872124.601         952.121          49.000                                                                  
C06  35375658.013   184210335.634         221.575          45.000    35375642.432   142443052.710         171.242          47.000  
G25  20634162.424   108433262.555        2673.824          46.000    20634153.206    84493408.833        2083.367          41.000  
G10  19572380.988   102853552.271        1207.379          49.000    19572369.354    80145581.486         940.979          44.000  
G28  22174184.744   116526135.198        2673.686          40.000    22174174.729    90799565.765        2083.376          41.000  
C23  20745314.421   108026294.055         423.759          51.000                                                                  
C09  36849215.548   191883537.244         318.965          42.000    36849203.308   148376469.743         246.530          46.000  
C33  25958996.331                       -2885.144          28.000                                                                  
C37  23014809.800   119844165.563        2766.136          44.000                                                                  
> 2025 10 27 02 45 55.6760000  0 19                     
G12  20802711.643   109318989.392        1061.066          44.000    20802700.171    85183575.343         826.751          41.000  
G15  23075965.396   121265013.500       -3217.084          37.000    23075956.271    94492180.794       -2507.389          33.000  
G18  23380917.361   122867552.555       -3695.170          38.000    23380911.270    95740918.121       -2879.680          37.000  
G23  19152198.552   100645481.183       -1908.785          45.000    19152186.401    78424976.199       -1487.449          47.000  
G24  20760911.038                       -3297.588          29.000    20760900.312    85012414.352       -2570.606          32.000  
G32  20980513.657   110253345.833        1539.415          44.000    20980503.779    85911643.429        1199.949          42.000  
C08  34694035.478   180660945.784        -285.638          45.000    34694018.815   139698424.217        -220.941          49.000  
C13  34710952.245   180749035.127           3.748          47.000    34710943.093   139766573.329           2.966          48.000  
C16  35673046.495   185758913.657          41.378          45.000    35673036.560   143640535.393          31.952          48.000  
C25  22124770.279   115209479.136       -2437.927          37.000                                                                  
C32  21099778.428   109872086.518         952.056          49.000                                                                  
C06  35375656.307   184210326.768         221.673          45.000    35375640.745   142443045.858         171.227          47.000  
G25  20634142.068   108433155.618        2673.534          46.000    20634132.841    84493325.496        2083.426          41.000  
G10  19572371.819   102853503.983        1207.245          49.000    19572360.158    80145543.861         940.717          44.000  
G28  22174164.376   116526028.253        2673.722          40.000    22174154.382    90799482.438        2083.219          41.000  
C23  20745311.152   108026277.112         423.616          51.000                                                                  
C09  36849213.126   191883524.473         319.203          42.000    36849200.876   148376459.880         246.536          46.000  
C33  25959018.478                       -2885.703          28.000                                                                  
C37  23014788.559   119844054.909        2766.195          44.000                                                                  
> 2025 10 27 02 45 55.7160000  0 19                     
G12  20802703.554   109318946.953        1060.960          44.000    20802692.115    85183542.286         826.464          41.000  
G15  23075989.873   121265142.200       -3217.330          37.000    23075980.758    94492281.080       -2507.275          33.000  
G18  23380945.495   122867700.387       -3695.563          38.000    23380939.404    95741033.303       -2879.717          37.000  
G23  19152213.086   100645557.537       -1908.866          45.000    19152200.935    78425035.689       -1487.399          47.000  
G24  20760936.425                       -3298.645          29.000    20760925.412    85012517.165       -2570.391          32.000  
G32  20980501.935   110253284.243        1539.581          44.000    20980492.055    85911595.438        1199.895          42.000  
C08  34694037.656   180660957.219        -285.828          45.000    34694021.033   139698433.056        -220.959          49.000  
C13  34710952.234   180749034.974           3.772          47.000    34710943.095   139766573.214           2.887          48.000  
C16  35673046.156   185758912.002          41.349          45.000    35673036.262   143640534.115          31.889          48.000  
C25  22124789.001   115209576.666       -2438.151          37.000                                                                  
C32  21099771.108   109872048.437         951.994          49.000                                                                  
C06  35375654.603   184210317.923         221.295          45.000    35375639.066   142443039.013         171.144          47.000  
G25  20634121.711   108433048.694        2673.157          46.000    20634112.498    84493242.164        2083.338          41.000  
G10  19572362.635   102853455.697        1207.129          49.000    19572350.995    80145506.245         940.436          44.000  
G28  22174144.034   116525921.301        2673.743          40.000    22174134.033    90799399.109        2083.195          41.000  
C23  20745307.901   108026260.169         423.543          51.000                                                                  
C09  36849210.643   191883511.727         318.860          42.000    36849198.426   148376450.015         246.561          46.000  
C33  25959040.815                       -2886.060          28.000                                                                  
C37  23014767.331   119843944.265        2766.154          44.000                                                                  
> 2025 10 27 02 45 55.7560000  0 19                     
G12  20802695.458   109318904.506        1061.082          44.000    20802684.045    85183509.203         826.802          41.000  
G15  23076014.353   121265270.883       -3217.222          37.000    23076005.258    94492381.326       -2506.710          33.000  
G18  23380973.614   122867848.194       -3695.322          38.000    23380967.561    95741148.489       -2879.684          37.000  
G23  19152227.614   100645633.895       -1908.977          45.000    19152215.464    78425095.185       -1487.436          47.000  
G24  20760961.542                       -3298.623          29.000    20760950.529    85012619.961       -2570.023          32.000  
G32  20980490.196   110253222.652        1539.692          44.000    20980480.325    85911547.450        1199.798          42.000  
C08  34694039.886   180660968.656        -285.992          45.000    34694023.245   139698441.893        -220.959          49.000  
C13  34710952.203   180749034.822           3.790          47.000    34710943.057   139766573.098           2.881          48.000  
C16  35673045.839   185758910.356          41.210          45.000    35673035.970   143640532.838          31.845          48.000  
C25  22124807.721   115209674.178       -2437.951          37.000                                                                  
C32  21099763.792   109872010.354         952.022          49.000                                                                  
C06  35375652.880   184210309.066         221.349          45.000    35375637.373   142443032.167         171.108          47.000  
G25  20634101.357   108432941.753        2673.328          46.000    20634092.147    84493158.843        2083.098          41.000  
G10  19572353.435   102853407.413        1207.043          49.000    19572341.810    80145468.623         940.436          44.000  
G28  22174123.686   116525814.381        2673.182          40.000    22174113.684    90799315.786        2083.077          41.000  
C23  20745304.673   108026243.225         423.539          51.000                                                                  
C09  36849208.193   191883498.970         318.855          42.000    36849195.968   148376440.150         246.535          46.000  
C33  25959062.898                       -2885.614          28.000                                                                  
C37  23014746.096   119843833.624        2766.057          44.000                                                                  
> 2025 10 27 02 45 55.7960000  0 19                     
G12  20802687.385   109318862.065        1061.030          44.000    20802675.984    85183476.131         826.861          41.000  
G15  23076038.833   121265399.587       -3217.545          37.000    23076029.776    94492481.609       -2506.938          33.000  
G18  23381001.742   122867996.020       -3695.541          38.000    23380995.685    95741263.669       -2879.641          37.000  
G23  19152242.131   100645710.249       -1908.963          45.000    19152229.993    78425154.683       -1487.485          47.000  
G24  20760986.730                       -3298.351          29.000    20760975.625    85012722.763       -2570.030          32.000  
G32  20980478.505   110253161.057        1539.860          44.000    20980468.578    85911499.452        1199.873          42.000  
C08  34694042.086   180660980.083        -285.815          45.000    34694025.456   139698450.731        -221.002          49.000  
C13  34710952.192   180749034.672           3.741          47.000    34710943.025   139766572.982           2.875          48.000  
C16  35673045.528   185758908.705          41.235          45.000    35673035.656   143640531.560          31.869          48.000  
C25  22124826.432   115209771.697       -2437.926          37.000                                                                  
C32  21099756.500   109871972.271         952.035          49.000                                                                  
C06  35375651.174   184210300.208         221.366          45.000    35375635.679   142443025.317         171.184          47.000  
G25  20634080.999   108432834.809        2673.488          46.000    20634071.796    84493075.504        2083.292          41.000  
G10  19572344.231   102853359.124        1207.135          49.000    19572332.617    80145430.986         940.741          44.000  
G28  22174103.321   116525707.431        2673.504          40.000    22174093.338    90799232.453        2083.190          41.000  
C23  20745301.446   108026226.282         423.535          51.000                                                                  
C09  36849205.738   191883486.214         318.850          42.000    36849193.524   148376430.291         246.454          46.000  
C33  25959084.807                       -2885.691          28.000                                                                  
C37  23014724.850   119843722.984        2765.990          44.000                                                                  
> 2025 10 27 02 45 55.8360000  0 19                     
G12  20802679.303   109318819.620        1061.109          44.000    20802667.913    85183443.056         826.841          41.000  
G15  23076063.334   121265528.282       -3217.469          37.000    23076054.299    94492581.888       -2507.110          33.000  
G18  23381029.887   122868143.815       -3695.179          38.000    23381023.799    95741378.807       -2878.751          37.000  
G23  19152256.663   100645786.605       -1908.950          45.000    19152244.540    78425214.183       -1487.553          47.000  
G24  20761012.021                       -3297.924          29.000    20761000.771    85012825.582       -2570.457          32.000  
G32  20980466.780   110253099.465        1539.861          44.000    20980456.861    85911451.468        1199.650          42.000  
C08  34694044.282   180660991.507        -285.675          45.000    34694027.659   139698459.568        -220.972          49.000  
C13  34710952.128   180749034.526           3.632          47.000    34710943.003   139766572.867           2.869          48.000  
C16  35673045.182   185758907.045          41.372          45.000    35673035.350   143640530.278          31.956          48.000  
C25  22124845.149   115209869.217       -2437.965          37.000                                                                  
C32  21099749.172   109871934.189         952.029          49.000                                                                  
C06  35375649.489   184210291.350         221.386          45.000    35375633.981   142443018.462         171.293          47.000  
G25  20634060.633   108432727.868        2673.555          46.000    20634051.460    84492992.176        2083.241          41.000  
G10  19572335.030   102853310.832        1207.227          49.000    19572323.458    80145393.357         940.735          44.000  
G28  22174082.967   116525600.508        2673.193          40.000    22174072.966    90799149.135        2083.016          41.000  
C23  20745298.202   108026209.341         423.511          51.000                                                                  
C09  36849203.303   191883473.467         318.636          42.000    36849191.093   148376420.426         246.531          46.000  
C33  25959107.348                       -2885.750          28.000                                                                  
C37  23014703.612   119843612.336        2766.100          44.000                                                                  
> 2025 10 27 02 45 55.8760000  0 19                     
G12  20802671.220   109318777.181        1060.998          44.000    20802659.854    85183409.984         826.795          41.000  
G15  23076087.818   121265656.972       -3217.292          37.000    23076078.782    94492682.167       -2507.143          33.000  
G18  23381058.027   122868291.628       -3695.216          38.000    23381051.902    95741493.991       -2879.181          36.000  
G23  19152271.188   100645862.958       -1908.862          45.000    19152259.083    78425273.677       -1487.465          47.000  
G24  20761036.998                3      -3293.004          29.000    20761025.879    85012928.390       -2570.445          32.000  
G32  20980455.073   110253037.878        1539.735          44.000    20980445.128    85911403.477        1199.706          42.000  
C08  34694046.473   180661002.938        -285.754          45.000    34694029.827   139698468.410        -221.039          49.000  
C13  34710952.114   180749034.371           3.778          47.000    34710942.946   139766572.744           3.015          48.000  
C16  35673044.849   185758905.387          41.434          45.000    35673035.017   143640528.996          32.008          48.000  
C25  22124863.870   115209966.750       -2438.251          37.000                                                                  
C32  21099741.853   109871896.107         952.036          49.000                                                                  
C06  35375647.784   184210282.495         221.328          45.000    35375632.292   142443011.612         171.262          47.000  
G25  20634040.309   108432620.925        2673.604          46.000    20634031.103    84492908.852        2083.098          41.000  
G10  19572325.824   102853262.544        1207.208          49.000    19572314.282    80145355.732         940.680          44.000  
G28  22174062.619   116525493.573        2673.162          40.000    22174052.611    90799065.798        2083.291          41.000  
C23  20745294.962   108026192.399         423.512          51.000                                                                  
C09  36849200.862   191883460.702         318.896          42.000    36849188.641   148376410.565         246.538          46.000  
C33  25959129.578                       -2885.638          28.000                                                                  
C37  23014682.379   119843501.681        2766.328          44.000                                                                  
> 2025 10 27 02 45 55.9160000  0 19                     
G12  20802663.139   109318734.743        1060.955          44.000    20802651.780    85183376.925         826.524          41.000  
G15  23076112.293   121265785.652       -3217.061          37.000    23076103.259    94492782.452       -2507.112          33.000  
G18  23381086.146   122868439.436       -3695.193          38.000    23381080.036    95741609.174       -2879.535          36.000  
G23  19152285.718   100645939.311       -1908.813          45.000    19152273.615    78425333.176       -1487.477          47.000  
G24  20761061.705                3      -3296.118          29.000    20761050.965    85013031.189       -2570.300          32.000  
G32  20980443.371   110252976.288        1539.735          44.000    20980433.384    85911355.487        1199.701          42.000  
C08  34694048.659   180661014.370        -285.809          45.000    34694031.989   139698477.247        -220.990          49.000  
C13  34710952.089   180749034.220           3.760          47.000    34710942.918   139766572.626           3.003          48.000  
C16  35673044.538   185758903.728          41.464          45.000    35673034.664   143640527.717          31.965          48.000  
C25  22124882.600   115210064.286       -2438.391          37.000                                                                  
C32  21099734.556   109871858.023         952.068          49.000                                                                  
C06  35375646.083   184210273.636         221.402          45.000    35375630.565   142443004.769         171.138          47.000  
G25  20634019.955   108432513.980        2673.631          46.000    20634010.742    84492825.516        2083.334          41.000  
G10  19572316.613   102853214.252        1207.263          49.000    19572305.069    80145318.092         940.887          44.000  
G28  22174042.290   116525386.625        2673.551          40.000    22174032.237    90798982.472        2083.215          41.000  
C23  20745291.741   108026175.453         423.583          51.000                                                                  
C09  36849198.433   191883447.945         318.888          42.000    36849186.201   148376400.697         246.632          46.000  
C33  25959151.763                       -2885.343          28.000                                                                  
C37  23014661.132   119843391.036        2766.224          44.000                                                                  
> 2025 10 27 02 45 55.9560000  0 19                     
G12  20802655.051   109318692.306        1060.912          44.000    20802643.702    85183343.856         826.582          41.000  
G15  23076136.777   121265914.328       -3216.791          37.000    23076127.721    94492882.708       -2506.503          33.000  
G18  23381114.290   122868587.250       -3695.294          39.000    23381108.180    95741724.347       -2879.463          36.000  
G23  19152300.261   100646015.665       -1908.844          45.000    19152288.157    78425392.676       -1487.521          47.000  
G24  20761086.028                3      -3299.635          29.000    20761076.048    85013134.007       -2570.500          32.000  
G32  20980431.642   110252914.696        1539.756          44.000    20980421.671    85911307.496        1199.749          42.000  
C08  34694050.835   180661025.800        -285.803          45.000    34694034.130   139698486.079        -220.868          49.000  
C13  34710952.095   180749034.061           3.906          47.000    34710942.862   139766572.514           2.863          48.000  
C16  35673044.205   185758902.070          41.455          45.000    35673034.328   143640526.429          32.088          48.000  
C25  22124901.356   115210161.803       -2438.077          37.000                                                                  
C32  21099727.233   109871819.937         952.105          49.000                                                                  
C06  35375644.389   184210264.765         221.649          45.000    35375628.834   142442997.914         171.251          47.000  
G25  20633999.594   108432407.035        2673.605          46.000    20633990.394    84492742.193        2083.145          41.000  
G10  19572307.453   102853165.966        1207.159          49.000    19572295.898    80145280.473         940.619          44.000  
G28  22174021.937   116525279.674        2673.774          40.000    22174011.898    90798899.154        2083.047          41.000  
C23  20745288.519   108026158.505         423.673          51.000                                                                  
C09  36849196.027   191883435.190         318.882          42.000    36849183.770   148376390.826         246.724          46.000  
C33  25959173.853                       -2885.339          28.000                                                                  
C37  23014639.858   119843280.395        2766.081          44.000                                                                  
> 2025 10 27 02 45 55.9960000  0 19                     
G12  20802646.970   109318649.869        1060.908          44.000    20802635.643    85183310.789         826.597          41.000  
G15  23076161.267   121266043.033       -3217.297          37.000    23076152.182    94492982.986       -2506.619          33.000  
G18  23381142.432   122868735.063       -3695.376          39.000    23381136.303    95741839.526       -2879.481          37.000  
G23  19152314.827   100646092.026       -1908.982          45.000    19152302.697    78425452.171       -1487.452          47.000  
G24  20761110.662                3      -3299.883          29.000    20761101.144    85013236.854       -2571.232          32.000  
G32  20980419.906   110252853.093        1539.976          44.000    20980409.937    85911259.495        1199.941          42.000  
C08  34694053.002   180661037.225        -285.675          45.000    34694036.316   139698494.917        -220.911          49.000  
C13  34710952.056   180749033.909           3.851          47.000    34710942.818   139766572.393           2.954          48.000  
C16  35673043.882   185758900.414          41.427          45.000    35673034.002   143640525.150          31.992          48.000  
C25  22124920.073   115210259.317       -2437.955          37.000                                                                  
C32  21099719.917   109871781.850         952.136          49.000                                                                  
C06  35375642.653   184210255.911         221.480          45.000    35375627.130   142442991.064         171.256          47.000  
G25  20633979.256   108432300.101        2673.367          46.000    20633970.058    84492658.869        2083.060          41.000  
G10  19572298.286   102853117.684        1207.031          49.000    19572286.716    80145242.852         940.491          44.000  
G28  22174001.601   116525172.740        2673.585          40.000    22173991.549    90798815.819        2083.279          41.000  
C23  20745285.211   108026141.562         423.605          51.000                                                                  
C09  36849193.599   191883422.430         318.964          42.000    36849181.331   148376380.968         246.528          46.000  
C33  25959195.863                       -2885.592          28.000                                                                  
C37  23014618.626   119843169.755        2765.972          44.000                                                                  
> 2025 10 27 02 45 56.0360000  0 19                     
G12  20802638.869   109318607.427        1060.992          44.000    20802627.556    85183277.719         826.662          41.000  
G15  23076185.748   121266171.703       -3216.924          37.000    23076176.664    94493083.259       -2506.700          33.000  
G18  23381170.593   122868882.867       -3695.262          39.000    23381164.447    95741954.709       -2879.530          37.000  
G23  19152329.320   100646168.383       -1908.993          45.000    19152317.225    78425511.673       -1487.546          47.000  
G24  20761135.398                3      -3298.228          29.000    20761126.254    85013339.623       -2570.024          32.000  
G32  20980408.182   110252791.500        1539.919          44.000    20980398.211    85911211.489        1200.145          42.000  
C08  34694055.232   180661048.652        -285.687          45.000    34694038.536   139698503.755        -220.935          49.000  
C13  34710952.015   180749033.763           3.693          47.000    34710942.767   139766572.277           2.875          48.000  
C16  35673043.564   185758898.767          41.252          45.000    35673033.667   143640523.872          31.921          48.000  
C25  22124938.796   115210356.827       -2437.777          37.000                                                                  
C32  21099712.586   109871743.771         952.034          49.000                                                                  
C06  35375640.927   184210247.052         221.433          45.000    35375625.383   142442984.208         171.348          47.000  
G25  20633958.897   108432193.169        2673.251          46.000    20633949.684    84492575.528        2083.359          41.000  
G10  19572289.098   102853069.399        1207.031          49.000    19572277.535    80145205.235         940.393          44.000  
G28  22173981.245   116525065.800        2673.534          40.000    22173971.210    90798732.498        2083.116          41.000  
C23  20745281.921   108026124.625         423.464          51.000                                                                  
C09  36849191.147   191883409.667         319.039          42.000    36849178.879   148376371.103         246.573          46.000  
C33  25959217.920                       -2885.450          28.000                                                                  
C37  23014597.385   119843059.107        2766.047          44.000                                                                  
> 2025 10 27 02 45 56.0760000  0 19                     
G12  20802630.813   109318564.988        1060.972          45.000    20802619.494    85183244.652         826.609          41.000  
G15  23076210.247   121266300.405       -3217.297          37.000    23076201.152    94493183.528       -2506.736          33.000  
G18  23381198.705   122869030.670       -3695.137          39.000    23381192.579    95742069.874       -2879.252          37.000  
G23  19152343.859   100646244.747       -1909.105          45.000    19152331.749    78425571.171       -1487.501          47.000  
G24  20761160.544                3      -3297.619          29.000    20761151.336    85013442.436       -2570.210          32.000  
G32  20980396.459   110252729.912        1539.734          44.000    20980386.506    85911163.498        1199.999          42.000  
C08  34694057.407   180661060.076        -285.638          45.000    34694040.748   139698512.595        -221.014          49.000  
C13  34710951.953   180749033.613           3.674          47.000    34710942.729   139766572.161           2.875          48.000  
C16  35673043.247   185758897.108          41.347          45.000    35673033.339   143640522.592          31.925          48.000  
C25  22124957.547   115210454.356       -2438.179          37.000                                                                  
C32  21099705.286   109871705.690         952.003          49.000                                                                  
C06  35375639.232   184210238.204         221.219          45.000    35375623.695   142442977.367         171.121          47.000  
G25  20633938.519   108432086.227        2673.381          46.000    20633929.363    84492492.210        2083.100          41.000  
G10  19572279.917   102853021.117        1207.025          49.000    19572268.358    80145167.610         940.527          44.000  
G28  22173960.913   116524958.888        2672.943          40.000    22173950.880    90798649.170        2083.134          41.000  
C23  20745278.662   108026107.689         423.376          51.000                                                                  
C09  36849188.686   191883396.912         318.892          42.000    36849176.426   148376361.239         246.580          46.000  
C33  25959240.022                       -2885.884          28.000                                                                  
C37  23014576.133   119842948.465        2765.996          44.000                                                                  
> 2025 10 27 02 45 56.1160000  0 19                     
G12  20802622.744   109318522.557        1060.816          45.000    20802611.441    85183211.586         826.627          41.000  
G15  23076234.739   121266429.101       -3217.416          37.000    23076225.625    94493283.833       -2507.373          33.000  
G18  23381226.847   122869178.493       -3695.415          39.000    23381220.722    95742185.057       -2879.415          37.000  
G23  19152358.385   100646321.109       -1909.122          45.000    19152346.286    78425630.674       -1487.589          47.000  
G24  20761185.769                2      -3297.620          29.000    20761176.451    85013545.213       -2569.670          32.000  
G32  20980384.765   110252668.336        1539.447          44.000    20980374.790    85911115.511        1199.761          42.000  
C08  34694059.595   180661071.503        -285.657          45.000    34694042.971   139698521.433        -220.990          49.000  
C13  34710951.926   180749033.463           3.650          47.000    34710942.686   139766572.050           2.765          48.000  
C16  35673042.908   185758895.460          41.223          45.000    35673032.988   143640521.311          31.945          48.000  
C25  22124976.263   115210551.890       -2438.400          37.000                                                                  
C32  21099697.973   109871667.608         952.023          49.000                                                                  
C06  35375637.531   184210229.347         221.262          45.000    35375621.996   142442970.516         171.165          47.000  
G25  20633918.183   108431979.276        2673.630          46.000    20633909.014    84492408.875        2083.253          41.000  
G10  19572270.740   102852972.838        1206.934          49.000    19572259.187    80145129.984         940.601          44.000  
G28  22173940.575   116524851.965        2672.891          40.000    22173930.546    90798565.843        2083.128          41.000  
C23  20745275.432   108026090.752         423.340          51.000                                                                  
C09  36849186.244   191883384.169         318.610          42.000    36849173.976   148376351.373         246.586          46.000  
C33  25959262.113                       -2886.176          28.000                                                                  
C37  23014554.893   119842837.826        2765.961          44.000                                                                  
> 2025 10 27 02 45 56.1560000  0 19                     
G12  20802614.688   109318480.129        1060.671          44.000    20802603.376    85183178.534         826.353          41.000  
G15  23076259.212   121266557.792       -3217.392          37.000    23076250.127    94493384.122       -2507.278          33.000  
G18  23381254.976   122869326.311       -3695.497          39.000    23381248.860    95742300.248       -2879.657          37.000  
G23  19152372.913   100646397.473       -1909.165          45.000    19152360.816    78425690.180       -1487.694          47.000  
G24  20761210.725                2      -3297.664          29.000    20761201.584    85013648.034       -2570.171          32.000  
G32  20980373.038   110252606.754        1539.417          44.000    20980363.100    85911067.538        1199.357          42.000  
C08  34694061.826   180661082.935        -285.779          45.000    34694045.165   139698530.273        -221.014          49.000  
C13  34710951.954   180749033.311           3.723          47.000    34710942.668   139766571.936           2.759          48.000  
C16  35673042.604   185758893.807          41.246          45.000    35673032.657   143640520.039          31.802          48.000  
C25  22124994.987   115210649.420       -2438.365          37.000                                                                  
C32  21099690.640   109871629.536         951.865          49.000                                                                  
C06  35375635.862   184210220.491         221.298          45.000    35375620.325   142442963.666         171.200          47.000  
G25  20633897.834   108431872.353        2673.281          46.000    20633888.658    84492325.547        2083.206          41.000  
G10  19572261.545   102852924.554        1206.982          49.000    19572249.987    80145092.358         940.643          44.000  
G28  22173920.216   116524745.023        2673.299          40.000    22173910.215    90798482.525        2082.998          41.000  
C23  20745272.213   108026073.817         423.311          51.000                                                                  
C09  36849183.809   191883371.410         318.751          42.000    36849171.529   148376341.506         246.650          46.000  
C33  25959284.498                       -2885.872          28.000                                                                  
C37  23014533.645   119842727.182        2766.024          44.000                                                                  
> 2025 10 27 02 45 56.1960000  0 19                     
G12  20802606.610   109318437.704        1060.560          45.000    20802595.291    85183145.455         826.750          41.000  
G15  23076283.694   121266686.493       -3217.527          37.000    23076274.568    94493484.382       -2506.793          33.000  
G18  23381283.089   122869474.103       -3695.062          39.000    23381276.976    95742415.420       -2879.490          37.000  
G23  19152387.443   100646473.841       -1909.233          45.000    19152375.349    78425749.684       -1487.693          47.000  
G24  20761235.230                2      -3298.416          29.000    20761226.719    85013750.868       -2570.559          32.000  
G32  20980361.301   110252545.164        1539.572          44.000    20980351.385    85911019.558        1199.330          42.000  
C08  34694064.004   180661094.375        -285.999          45.000    34694047.353   139698539.112        -221.002          49.000  
C13  34710951.907   180749033.165           3.650          47.000    34710942.650   139766571.821           2.795          48.000  
C16  35673042.294   185758892.160          41.183          45.000    35673032.338   143640518.772          31.663          48.000  
C25  22125013.712   115210746.963       -2438.575          37.000                                                                  
C32  21099683.357   109871591.455         951.919          49.000                                                                  
C06  35375634.141   184210211.636         221.276          45.000    35375618.635   142442956.820         171.155          47.000  
G25  20633877.484   108431765.420        2673.253          46.000    20633868.326    84492242.231        2083.013          41.000  
G10  19572252.391   102852876.280        1206.848          49.000    19572240.800    80145054.744         940.387          44.000  
G28  22173899.879   116524638.086        2673.435          40.000    22173889.874    90798399.200        2083.049          41.000  
C23  20745268.948   108026056.882         423.293          51.000                                                                  
C09  36849181.376   191883358.658         318.740          42.000    36849169.084   148376331.644         246.612          46.000  
C33  25959306.617                       -2885.890          28.000                                                                  
C37  23014512.384   119842616.539        2766.059          44.000                                                                  
> 2025 10 27 02 45 56.2360000  0 19                     
G12  20802598.544   109318395.280        1060.500          45.000    20802587.199    85183112.395         826.644          41.000  
G15  23076308.169   121266815.198       -3217.646          37.000    23076299.030    94493584.664       -2506.896          33.000  
G18  23381311.235   122869621.924       -3695.327          39.000    23381305.102    95742530.605       -2879.744          37.000  
G23  19152401.974   100646550.201       -1909.120          45.000    19152389.888    78425809.189       -1487.686          47.000  
G24  20761260.605                2      -3298.675          29.000    20761251.834    85013853.687       -2570.508          32.000  
G32  20980349.565   110252483.577        1539.596          44.000    20980339.660    85910971.558        1199.691          42.000  
C08  34694066.180   180661105.814        -286.072          45.000    34694049.518   139698547.957        -221.112          49.000  
C13  34710951.911   180749033.021           3.571          47.000    34710942.620   139766571.700           2.954          48.000  
C16  35673041.974   185758890.504          41.268          45.000    35673032.014   143640517.495          31.780          48.000  
C25  22125032.443   115210844.491       -2438.386          37.000                                                                  
C32  21099676.030   109871553.376         951.958          49.000                                                                  
C06  35375632.450   184210202.781         221.285          45.000    35375616.947   142442949.972         171.168          47.000  
G25  20633857.145   108431658.489        2673.260          46.000    20633847.980    84492158.909        2082.969          41.000  
G10  19572243.200   102852828.005        1206.824          49.000    19572231.603    80145017.128         940.302          44.000  
G28  22173879.528   116524531.148        2673.458          40.000    22173869.522    90798315.866        2083.204          41.000  
C23  20745265.682   108026039.949         423.284          51.000                                                                  
C09  36849178.921   191883345.898         318.930          42.000    36849166.633   148376321.787         246.461          46.000  
C33  25959328.964                       -2885.781          28.000                                                                  
C37  23014491.131   119842505.900        2766.003          44.000                                                                  
