     3.04           OBSERVATION DATA    M: Mixed            RINEX VERSION / TYPE
RTKCONV 2.4.3 b34                       20251027 032443 UTC PGM / RUN BY / DATE 
format: u-blox UBX                                          COMMENT             
log: D:\GPdata\10_27\fingure_110_10_rev_27_1.ubx            COMMENT             
                                                            MARKER NAME         
                                                            MARKER NUMBER       
                                                            MARKER TYPE         
                                                            OBSERVER / AGENCY   
                                                            REC # / TYPE / VERS 
                                                            ANT # / TYPE        
        0.0000        0.0000        0.0000                  APPROX POSITION XYZ 
        0.0000        0.0000        0.0000                  ANTENNA: DELTA H/E/N
G    8 C1C L1C D1C S1C C2L L2L D2L S2L                      SYS / # / OBS TYPES 
C    8 C2I L2I D2I S2I C7I L7I D7I S7I                      SYS / # / OBS TYPES 
  2025    10    27    02    47   22.3160000     GPS         TIME OF FIRST OBS   
  2025    10    27    02    47   49.5160000     GPS         TIME OF LAST OBS    
G L1C                                                       SYS / PHASE SHIFT   
G L2L  0.00000                                              SYS / PHASE SHIFT   
C L2I                                                       SYS / PHASE SHIFT   
C L7I                                                       SYS / PHASE SHIFT   
  0                                                         GLONASS SLOT / FRQ #
 C1C    0.000 C1P    0.000 C2C    0.000 C2P    0.000        GLONASS COD/PHS/BIS 
                                                            END OF HEADER       
> 2025 10 27 02 47 22.3160000  0 19                     
G12  20785679.183   109229484.4161       1004.841          45.000    20785667.703    85113831.2621        782.894          41.000  
G15  23129107.934   121544277.4731      -3229.236          36.000    23129098.295    94709788.2361      -2515.751          32.000  
G18  23441823.671   123187611.0381      -3692.717          37.000    23441817.354    95990312.9521      -2877.365          36.000  
G23  19184115.859   100813208.1871      -1963.126          45.000    19184104.246    78555672.3791      -1529.820          47.000  
G24  20815476.370                1      -3321.381          28.000    20815468.978                1      -2588.047          32.000  
G32  20955224.739   110120451.6011       1527.863          45.000    20955214.331    85808089.4511       1190.700          42.000  
C08  34698930.098   180686431.7671       -302.716          45.000    34698913.336   139718131.5151       -234.167          49.000  
C13  34711011.925   180749345.4031        -11.200          47.000    34711002.698   139766813.1821         -8.746          48.000  
C16  35672465.915   185755890.3501         28.230          46.000    35672456.085   143638197.5351         21.849          48.000  
C25  22165626.446   115422227.9371      -2473.545          37.000                                                                  
C32  21084137.495   109790640.5611        927.714          50.000                                                                  
C06  35372081.229   184191710.6971        208.025          44.000    35372065.736   142428650.6761        160.836          47.000  
G25  20590365.184   108203108.4751       2636.492          45.000    20590355.896    84314068.2001       2054.292          41.000  
G10  19552871.145   102751027.1131       1157.977          50.000    19552859.470    80065691.6971        902.167          44.000  
G28  22130311.069   116295578.2921       2646.339          40.000    22130300.319    90619911.3791       2061.931          41.000  
C23  20738673.847   107991715.2291        373.973          51.000                                                                  
C09  36844013.464   191856448.1471        306.129          41.000    36844001.306   148355522.7321        236.498          47.000  
C33  26007153.287                       -2900.348          30.000                                                                  
C37  22968965.259   119605442.2811       2741.642          43.000                                                                  
> 2025 10 27 02 47 22.3560000  0 19                     
G12  20785671.526   109229444.223        1004.796          45.000    20785660.066    85113799.946         782.919          41.000  
G15  23129132.501   121544406.648       -3229.209          36.000    23129122.851    94709888.884       -2516.003          32.000  
G18  23441851.788   123187758.773       -3693.210          37.000    23441845.448    95990428.065       -2877.677          36.000  
G23  19184130.806   100813286.717       -1963.256          45.000    19184119.205    78555733.566       -1529.763          47.000  
G24  20815501.907                       -3321.358          28.000    20815494.283                       -2588.407          32.000  
G32  20955213.117   110120390.487        1527.847          45.000    20955202.706    85808041.837        1190.432          42.000  
C08  34698932.429   180686443.875        -302.734          46.000    34698915.684   139718140.880        -234.149          49.000  
C13  34711011.986   180749345.855         -11.316          47.000    34711002.788   139766813.523          -8.630          48.000  
C16  35672465.688   185755889.221          28.202          46.000    35672455.877   143638196.666          21.747          48.000  
C25  22165645.444   115422326.865       -2473.436          37.000                                                                  
C32  21084130.390   109790603.447         927.774          50.000                                                                  
C06  35372079.605   184191702.366         208.121          44.000    35372064.121   142428644.234         160.939          47.000  
G25  20590345.108   108203003.021        2636.358          45.000    20590335.831    84313986.011        2054.521          41.000  
G10  19552862.327   102750980.795        1157.910          50.000    19552850.650    80065655.601         902.222          44.000  
G28  22130290.926   116295472.438        2646.416          40.000    22130280.184    90619828.912        2061.707          41.000  
C23  20738670.948   107991700.273         373.895          51.000                                                                  
C09  36844011.084   191856435.906         306.058          41.000    36843998.949   148355513.272         236.444          47.000  
C33  26007175.560                       -2900.420          30.000                                                                  
C37  22968944.227   119605332.608        2741.693          43.000                                                                  
> 2025 10 27 02 47 22.3960000  0 19                     
G12  20785663.871   109229404.033        1004.732          45.000    20785652.400    85113768.636         782.792          41.000  
G15  23129157.068   121544535.854       -3229.812          36.000    23129147.460    94709989.569       -2516.831          32.000  
G18  23441879.890   123187906.484       -3693.023          37.000    23441873.564    95990543.149       -2877.270          36.000  
G23  19184145.757   100813365.250       -1963.372          45.000    19184134.149    78555794.754       -1529.737          47.000  
G24  20815527.141                       -3321.225          28.000    20815519.567    85236068.3711      -2588.191          32.000  
G32  20955201.498   110120329.377        1527.764          45.000    20955191.080    85807994.227        1190.264          42.000  
C08  34698934.765   180686455.987        -302.808          46.000    34698917.983   139718150.249        -234.222          49.000  
C13  34711012.104   180749346.303         -11.322          47.000    34711002.880   139766813.865          -8.563          48.000  
C16  35672465.448   185755888.094          28.165          46.000    35672455.694   143638195.787          21.854          48.000  
C25  22165664.438   115422425.778       -2473.068          37.000                                                                  
C32  21084123.262   109790566.337         927.722          50.000                                                                  
C06  35372078.028   184191694.042         208.114          44.000    35372062.529   142428637.798         160.892          47.000  
G25  20590325.032   108202897.565        2636.305          45.000    20590315.764    84313903.836        2054.396          41.000  
G10  19552853.505   102750934.473        1157.947          50.000    19552841.824    80065619.504         902.332          44.000  
G28  22130270.801   116295366.600        2646.191          40.000    22130260.079    90619746.446        2061.571          41.000  
C23  20738668.089   107991685.315         373.885          51.000                                                                  
C09  36844008.740   191856423.676         305.795          41.000    36843996.564   148355503.803         236.609          47.000  
C33  26007197.838                       -2900.020          30.000                                                                  
C37  22968923.155   119605222.942        2741.602          43.000                                                                  
> 2025 10 27 02 47 22.4360000  0 19                     
G12  20785656.248   109229363.856        1004.463          45.000    20785644.749    85113737.313         782.961          41.000  
G15  23129181.664   121544665.038       -3229.731          36.000    23129172.030    94710090.220       -2516.708          32.000  
G18  23441908.011   123188054.237       -3693.697          37.000    23441901.678    95990658.268       -2877.702          36.000  
G23  19184160.697   100813443.775       -1963.252          45.000    19184149.074    78555855.940       -1529.669          47.000  
G24  20815552.249                       -3321.307          28.000    20815544.878    85236171.858       -2587.529          32.000  
G32  20955189.860   110120268.266        1527.760          45.000    20955179.476    85807946.619        1190.161          42.000  
C08  34698937.074   180686468.102        -302.881          46.000    34698920.293   139718159.615        -234.180          49.000  
C13  34711012.220   180749346.748         -11.200          47.000    34711003.013   139766814.209          -8.612          48.000  
C16  35672465.244   185755886.971          28.063          46.000    35672455.483   143638194.910          21.927          48.000  
C25  22165683.427   115422524.713       -2473.263          37.000                                                                  
C32  21084116.156   109790529.226         927.743          50.000                                                                  
C06  35372076.459   184191685.714         208.160          44.000    35372060.961   142428631.358         160.927          47.000  
G25  20590304.954   108202792.101        2636.425          45.000    20590295.722    84313821.666        2054.249          41.000  
G10  19552844.680   102750888.150        1157.990          50.000    19552833.036    80065583.412         902.264          44.000  
G28  22130250.677   116295260.767        2645.993          40.000    22130239.949    90619663.985        2061.493          41.000  
C23  20738665.258   107991670.355         373.941          51.000                                                                  
C09  36844006.400   191856411.439         305.823          41.000    36843994.179   148355494.339         236.596          47.000  
C33  26007220.113                       -2899.927          30.000                                                                  
C37  22968902.099   119605113.264        2741.807          43.000                                                                  
> 2025 10 27 02 47 22.4760000  0 19                     
G12  20785648.588   109229323.656        1004.755          45.000    20785637.096    85113705.988         783.087          41.000  
G15  23129206.244   121544794.173       -3228.743          36.000    23129196.650    94710190.905       -2517.035          32.000  
G18  23441936.125   123188201.961       -3693.431          37.000    23441929.821    95990773.403       -2878.217          36.000  
G23  19184175.642   100813522.302       -1963.228          45.000    19184164.001    78555917.136       -1529.856          47.000  
G24  20815577.530                       -3321.483          28.000    20815570.148    85236275.386       -2587.908          32.000  
G32  20955178.235   110120207.156        1527.735          45.000    20955167.842    85807898.983        1190.661          42.000  
C08  34698939.408   180686480.212        -302.838          46.000    34698922.592   139718168.978        -234.113          49.000  
C13  34711012.322   180749347.186         -11.035          47.000    34711003.102   139766814.557          -8.716          48.000  
C16  35672465.048   185755885.830          28.347          46.000    35672455.264   143638194.039          21.820          48.000  
C25  22165702.437   115422623.636       -2473.099          37.000                                                                  
C32  21084109.042   109790492.113         927.788          50.000                                                                  
C06  35372074.869   184191677.395         208.048          44.000    35372059.369   142428624.929         160.762          47.000  
G25  20590284.888   108202686.639        2636.463          45.000    20590275.630    84313739.495        2054.167          41.000  
G10  19552835.876   102750841.828        1158.008          50.000    19552824.238    80065547.317         902.295          44.000  
G28  22130230.537   116295154.942        2645.670          40.000    22130219.815    90619581.514        2061.670          41.000  
C23  20738662.400   107991655.401         373.838          51.000                                                                  
C09  36844004.043   191856399.199         305.900          41.000    36843991.832   148355484.869         236.702          47.000  
C33  26007242.421                       -2899.660          30.000                                                                  
C37  22968881.013   119605003.607        2741.581          43.000                                                                  
> 2025 10 27 02 47 22.5160000  0 19                     
G12  20785640.953   109229283.474        1004.585          45.000    20785629.443    85113674.673         782.919          41.000  
G15  23129230.826   121544923.369       -3229.306          36.000    23129221.225    94710291.568       -2516.813          32.000  
G18  23441964.218   123188349.648       -3692.621          37.000    23441957.909    95990888.499       -2877.792          36.000  
G23  19184190.594   100813600.837       -1963.396          45.000    19184178.955    78555978.333       -1529.974          47.000  
G24  20815602.647                       -3321.215          28.000    20815595.434    85236378.897       -2587.878          32.000  
G32  20955166.595   110120146.048        1527.691          45.000    20955156.209    85807851.364        1190.630          42.000  
C08  34698941.710   180686492.329        -302.911          46.000    34698924.890   139718178.343        -234.137          49.000  
C13  34711012.397   180749347.639         -11.243          47.000    34711003.172   139766814.909          -8.813          48.000  
C16  35672464.810   185755884.710          28.148          46.000    35672455.042   143638193.168          21.755          48.000  
C25  22165721.452   115422722.572       -2473.243          37.000                                                                  
C32  21084101.904   109790455.007         927.686          50.000                                                                  
C06  35372073.286   184191669.074         207.983          44.000    35372057.805   142428618.492         160.798          47.000  
G25  20590264.851   108202581.184        2636.358          45.000    20590255.572    84313657.325        2054.147          41.000  
G10  19552827.087   102750795.514        1157.861          50.000    19552815.441    80065511.231         902.179          44.000  
G28  22130210.384   116295049.099        2645.866          40.000    22130199.655    90619499.036        2061.856          41.000  
C23  20738659.537   107991640.449         373.755          51.000                                                                  
C09  36844001.704   191856386.961         305.886          41.000    36843989.483   148355475.410         236.550          47.000  
C33  26007264.709                       -2899.619          30.000                                                                  
C37  22968859.952   119604893.941        2741.592          43.000                                                                  
> 2025 10 27 02 47 22.5560000  0 19                     
G12  20785633.282   109229243.298        1004.407          45.000    20785621.805    85113643.377         782.489          41.000  
G15  23129255.420   121545052.546       -3229.437          36.000    23129245.800    94710392.254       -2517.101          32.000  
G18  23441992.325   123188497.371       -3692.834          37.000    23441986.020    95991003.609       -2877.849          36.000  
G23  19184205.540   100813679.372       -1963.470          45.000    19184193.902    78556039.533       -1530.065          47.000  
G24  20815627.871                       -3321.412          28.000    20815620.709    85236482.434       -2588.304          32.000  
G32  20955154.979   110120084.945        1527.563          45.000    20955144.572    85807803.741        1190.589          42.000  
C08  34698944.015   180686504.449        -303.040          45.000    34698927.204   139718187.716        -234.283          49.000  
C13  34711012.469   180749348.095         -11.414          47.000    34711003.245   139766815.266          -8.936          48.000  
C16  35672464.571   185755883.580          28.173          46.000    35672454.857   143638192.304          21.606          48.000  
C25  22165740.434   115422821.509       -2473.424          37.000                                                                  
C32  21084094.756   109790417.908         927.495          50.000                                                                  
C06  35372071.712   184191660.757         207.900          44.000    35372056.197   142428612.057         160.800          47.000  
G25  20590244.797   108202475.733        2636.217          45.000    20590235.512    84313575.155        2054.130          41.000  
G10  19552818.307   102750749.206        1157.697          50.000    19552806.631    80065475.137         902.234          44.000  
G28  22130190.254   116294943.262        2645.942          40.000    22130179.528    90619416.551        2062.059          41.000  
C23  20738656.661   107991625.497         373.740          51.000                                                                  
C09  36843999.351   191856374.730         305.774          41.000    36843987.106   148355465.954         236.413          47.000  
C33  26007287.039                       -2900.410          30.000                                                                  
C37  22968838.892   119604784.287        2741.379          43.000                                                                  
> 2025 10 27 02 47 22.5960000  0 19                     
G12  20785625.617   109229203.116        1004.446          45.000    20785614.188    85113612.073         782.414          41.000  
G15  23129279.997   121545181.738       -3229.637          36.000    23129270.374    94710492.860       -2515.565          32.000  
G18  23442020.456   123188645.121       -3693.490          37.000    23442014.131    95991118.734       -2878.039          36.000  
G23  19184220.458   100813757.912       -1963.561          45.000    19184208.833    78556100.732       -1530.039          47.000  
G24  20815653.545                       -3321.373          28.000    20815645.997    85236585.960       -2588.279          32.000  
G32  20955143.353   110120023.840        1527.546          45.000    20955132.964    85807756.137        1190.218          42.000  
C08  34698946.363   180686516.573        -303.137          45.000    34698929.552   139718197.085        -234.308          49.000  
C13  34711012.582   180749348.551         -11.462          47.000    34711003.332   139766815.615          -8.838          48.000  
C16  35672464.311   185755882.462          27.971          46.000    35672454.639   143638191.434          21.646          48.000  
C25  22165759.438   115422920.451       -2473.591          37.000                                                                  
C32  21084087.620   109790380.810         927.397          50.000                                                                  
C06  35372070.136   184191652.435         207.937          44.000    35372054.596   142428605.627         160.707          47.000  
G25  20590224.735   108202370.281        2636.231          45.000    20590215.439    84313492.986        2054.183          41.000  
G10  19552809.502   102750702.897        1157.654          50.000    19552797.851    80065439.051         902.142          44.000  
G28  22130170.105   116294837.437        2645.712          40.000    22130159.397    90619334.098        2061.540          41.000  
C23  20738653.744   107991610.549         373.678          51.000                                                                  
C09  36843996.990   191856362.500         305.720          41.000    36843984.743   148355456.495         236.384          47.000  
C33  26007309.287                       -2899.865          30.000                                                                  
C37  22968817.842   119604674.615        2741.579          43.000                                                                  
> 2025 10 27 02 47 22.6360000  0 19                     
G12  20785617.967   109229162.936        1004.449          45.000    20785606.537    85113580.758         782.636          41.000  
G15  23129304.599   121545310.939       -3229.988          36.000    23129294.929    94710593.481       -2515.147          32.000  
G18  23442048.561   123188792.846       -3693.443          37.000    23442042.238    95991233.810       -2877.257          36.000  
G23  19184235.379   100813836.447       -1963.510          45.000    19184223.767    78556161.926       -1529.957          47.000  
G24  20815678.662                       -3321.371          28.000    20815671.274    85236689.518       -2588.877          32.000  
G32  20955131.738   110119962.729        1527.699          45.000    20955121.327    85807708.525        1190.180          42.000  
C08  34698948.684   180686528.693        -303.101          45.000    34698931.916   139718206.453        -234.265          49.000  
C13  34711012.683   180749349.000         -11.340          47.000    34711003.431   139766815.955          -8.612          48.000  
C16  35672464.082   185755881.337          28.011          46.000    35672454.427   143638190.564          21.687          48.000  
C25  22165778.410   115423019.367       -2473.146          37.000                                                                  
C32  21084080.486   109790343.701         927.555          50.000                                                                  
C06  35372068.527   184191644.111         208.033          44.000    35372052.997   142428599.188         160.829          47.000  
G25  20590204.648   108202264.819        2636.402          45.000    20590195.369    84313410.806        2054.390          41.000  
G10  19552800.692   102750656.582        1157.751          50.000    19552789.057    80065402.967         902.039          44.000  
G28  22130149.955   116294731.599        2645.850          40.000    22130139.244    90619251.637        2061.367          41.000  
C23  20738650.884   107991595.597         373.739          51.000                                                                  
C09  36843994.661   191856350.268         305.695          41.000    36843982.392   148355447.035         236.429          47.000  
C33  26007331.525                       -2899.226          30.000                                                                  
C37  22968796.756   119604564.955        2741.520          43.000                                                                  
> 2025 10 27 02 47 22.6760000  0 19                     
G12  20785610.294   109229122.749        1004.592          45.000    20785598.884    85113549.442         782.778          41.000  
G15  23129329.198   121545440.102       -3229.463          36.000    23129319.527    94710694.155       -2516.019          32.000  
G18  23442076.663   123188940.541       -3692.739          37.000    23442070.378    95991348.916       -2877.417          36.000  
G23  19184250.314   100813914.983       -1963.460          45.000    19184238.737    78556223.118       -1529.852          47.000  
G24  20815704.272                       -3321.495          28.000    20815696.544    85236793.018       -2588.197          32.000  
G32  20955120.117   110119901.619        1527.737          45.000    20955109.714    85807660.908        1190.290          42.000  
C08  34698951.026   180686540.797        -302.716          45.000    34698934.270   139718215.823        -234.265          49.000  
C13  34711012.773   180749349.447         -11.206          47.000    34711003.501   139766816.301          -8.612          48.000  
C16  35672463.845   185755880.203          28.209          46.000    35672454.198   143638189.694          21.727          48.000  
C25  22165797.400   115423118.305       -2473.336          37.000                                                                  
C32  21084073.355   109790306.593         927.657          50.000                                                                  
C06  35372066.921   184191635.789         208.071          44.000    35372051.401   142428592.754         160.835          47.000  
G25  20590184.571   108202159.361        2636.434          45.000    20590175.292    84313328.621        2054.512          41.000  
G10  19552791.880   102750610.267        1157.825          50.000    19552780.230    80065366.881         902.069          44.000  
G28  22130129.800   116294625.751        2646.098          40.000    22130119.116    90619169.168        2061.475          41.000  
C23  20738647.993   107991580.649         373.708          51.000                                                                  
C09  36843992.308   191856338.027         305.885          41.000    36843980.030   148355437.569         236.574          47.000  
C33  26007353.784                       -2900.126          30.000                                                                  
C37  22968775.683   119604455.291        2741.547          43.000                                                                  
> 2025 10 27 02 47 22.7160000  0 19                     
G12  20785602.661   109229082.560        1004.674          45.000    20785591.217    85113518.134         782.689          41.000  
G15  23129353.803   121545569.272       -3229.321          36.000    23129344.141    94710794.841       -2516.816          32.000  
G18  23442104.773   123189088.252       -3692.788          37.000    23442098.491    95991464.018       -2877.446          36.000  
G23  19184265.259   100813993.512       -1963.317          45.000    19184253.664    78556284.307       -1529.772          47.000  
G24  20815729.150                       -3321.495          28.000    20815721.815    85236896.534       -2588.012          32.000  
G32  20955108.494   110119840.506        1527.798          45.000    20955098.103    85807613.289        1190.387          42.000  
C08  34698953.344   180686552.905        -302.649          45.000    34698936.587   139718225.188        -234.186          49.000  
C13  34711012.861   180749349.890         -11.072          47.000    34711003.608   139766816.643          -8.563          48.000  
C16  35672463.641   185755879.076          28.206          46.000    35672453.978   143638188.814          21.903          48.000  
C25  22165816.419   115423217.229       -2473.186          37.000                                                                  
C32  21084066.251   109790269.478         927.833          50.000                                                                  
C06  35372065.332   184191627.465         208.075          44.000    35372049.786   142428586.314         160.913          47.000  
G25  20590164.495   108202053.903        2636.457          45.000    20590155.223    84313246.447        2054.381          41.000  
G10  19552783.051   102750563.945        1158.002          50.000    19552771.401    80065330.777         902.411          44.000  
G28  22130109.670   116294519.920        2645.928          40.000    22130098.952    90619086.695        2061.669          41.000  
C23  20738645.153   107991565.691         373.843          51.000                                                                  
C09  36843989.980   191856325.790         305.940          41.000    36843977.673   148355428.104         236.604          47.000  
C33  26007376.046                       -2899.836          30.000                                                                  
C37  22968754.622   119604345.616        2741.730          43.000                                                                  
> 2025 10 27 02 47 22.7560000  0 19                     
G12  20785595.016   109229042.378        1004.625          45.000    20785583.573    85113486.824         782.703          41.000  
G15  23129378.376   121545698.453       -3229.513          36.000    23129368.720    94710895.528       -2517.244          32.000  
G18  23442132.905   123189235.955       -3692.544          37.000    23442126.610    95991579.110       -2877.322          36.000  
G23  19184280.212   100814072.041       -1963.237          45.000    19184268.621    78556345.503       -1529.860          47.000  
G24  20815754.178                       -3321.348          28.000    20815747.101    85237000.062       -2588.078          32.000  
G32  20955096.866   110119779.391        1527.847          45.000    20955086.447    85807565.659        1190.651          42.000  
C08  34698955.621   180686565.019        -302.783          45.000    34698938.911   139718234.555        -234.192          49.000  
C13  34711012.925   180749350.331         -11.005          47.000    34711003.711   139766816.994          -8.691          48.000  
C16  35672463.407   185755877.943          28.302          46.000    35672453.749   143638187.939          21.916          48.000  
C25  22165835.407   115423316.168       -2473.380          37.000                                                                  
C32  21084059.129   109790232.367         927.823          50.000                                                                  
C06  35372063.735   184191619.138         208.159          44.000    35372048.177   142428579.873         160.996          47.000  
G25  20590144.444   108201948.455        2636.287          45.000    20590135.160    84313164.278        2054.232          41.000  
G10  19552774.240   102750517.631        1157.922          50.000    19552762.601    80065294.694         902.179          44.000  
G28  22130089.533   116294414.070        2646.159          40.000    22130078.793    90619004.213        2061.969          41.000  
C23  20738642.293   107991550.735         373.879          51.000                                                                  
C09  36843987.633   191856313.553         305.907          41.000    36843975.318   148355418.640         236.603          47.000  
C33  26007398.333                       -2900.683          30.000                                                                  
C37  22968733.552   119604235.945        2741.780          43.000                                                                  
> 2025 10 27 02 47 22.7960000  0 19                     
G12  20785587.383   109229002.202        1004.444          45.000    20785575.905    85113455.511         782.735          41.000  
G15  23129402.988   121545827.655       -3229.978          36.000    23129393.305    94710996.210       -2517.258          32.000  
G18  23442161.018   123189383.684       -3692.986          37.000    23442154.709    95991694.222       -2877.661          36.000  
G23  19184295.159   100814150.586       -1963.506          45.000    19184283.580    78556406.711       -1530.134          47.000  
G24  20815779.217                       -3321.348          28.000    20815772.405    85237103.624       -2588.743          32.000  
G32  20955085.237   110119718.289        1527.630          45.000    20955074.825    85807518.043        1190.536          42.000  
C08  34698957.940   180686577.138        -302.960          46.000    34698941.238   139718243.925        -234.235          49.000  
C13  34711012.989   180749350.788         -11.304          47.000    34711003.776   139766817.342          -8.716          48.000  
C16  35672463.179   185755876.819          28.161          46.000    35672453.521   143638187.075          21.690          48.000  
C25  22165854.428   115423415.093       -2473.249          37.000                                                                  
C32  21084051.965   109790195.267         927.604          50.000                                                                  
C06  35372062.143   184191610.821         208.026          44.000    35372046.571   142428573.442         160.862          47.000  
G25  20590124.381   108201843.005        2636.204          45.000    20590115.107    84313082.108        2054.191          41.000  
G10  19552765.429   102750471.324        1157.721          50.000    19552753.780    80065258.612         902.063          44.000  
G28  22130069.400   116294308.253        2645.621          40.000    22130058.645    90618921.745        2061.829          41.000  
C23  20738639.392   107991535.790         373.696          51.000                                                                  
C09  36843985.252   191856301.309         306.039          41.000    36843972.980   148355409.179         236.520          47.000  
C33  26007420.630                       -2900.271          30.000                                                                  
C37  22968712.500   119604126.294        2741.436          43.000                                                                  
> 2025 10 27 02 47 22.8360000  0 19                     
G12  20785579.743   109228962.026        1004.384          45.000    20785568.300    85113424.210         782.548          41.000  
G15  23129427.565   121545956.827       -3229.696          36.000    23129417.870    94711096.830       -2516.140          32.000  
G18  23442189.137   123189531.408       -3693.067          37.000    23442182.825    95991809.335       -2877.886          36.000  
G23  19184310.134   100814229.134       -1963.716          45.000    19184298.528    78556467.914       -1530.194          47.000  
G24  20815804.505                       -3321.121          28.000    20815797.689    85237207.107       -2587.670          32.000  
G32  20955073.609   110119657.184        1527.528          45.000    20955063.220    85807470.429        1190.404          42.000  
C08  34698960.282   180686589.254        -302.966          46.000    34698943.553   139718253.297        -234.338          49.000  
C13  34711013.043   180749351.248         -11.511          47.000    34711003.868   139766817.696          -8.850          48.000  
C16  35672462.958   185755875.698          28.026          46.000    35672453.304   143638186.202          21.706          48.000  
C25  22165873.447   115423514.028       -2473.361          37.000                                                                  
C32  21084044.812   109790158.175         927.350          50.000                                                                  
C06  35372060.537   184191602.500         208.029          44.000    35372044.986   142428567.010         160.762          47.000  
G25  20590104.312   108201737.559        2636.096          45.000    20590095.067    84312999.959        2053.797          41.000  
G10  19552756.625   102750425.023        1157.507          50.000    19552744.987    80065222.543         901.764          44.000  
G28  22130049.253   116294202.427        2645.550          40.000    22130038.493    90618839.275        2061.753          41.000  
C23  20738636.508   107991520.850         373.532          51.000                                                                  
C09  36843982.915   191856289.079         305.829          41.000    36843970.668   148355399.728         236.307          47.000  
C33  26007442.938                       -2900.399          30.000                                                                  
C37  22968691.438   119604016.640        2741.268          43.000                                                                  
> 2025 10 27 02 47 22.8760000  0 19                     
G12  20785572.064   109228921.855        1004.252          45.000    20785560.649    85113392.898         782.647          41.000  
G15  23129452.139   121546086.000       -3229.552          36.000    23129442.449    94711197.492       -2516.232          32.000  
G18  23442217.234   123189679.146       -3693.396          37.000    23442210.932    95991924.452       -2878.062          36.000  
G23  19184325.082   100814307.673       -1963.652          45.000    19184313.463    78556529.114       -1530.111          47.000  
G24  20815829.835                       -3321.567          28.000    20815822.972    85237310.632       -2587.758          32.000  
G32  20955061.981   110119596.077        1527.566          45.000    20955051.585    85807422.830        1190.049          42.000  
C08  34698962.615   180686601.379        -303.107          46.000    34698945.874   139718262.666        -234.283          49.000  
C13  34711013.152   180749351.697         -11.371          47.000    34711003.964   139766818.044          -8.783          48.000  
C16  35672462.736   185755874.574          28.043          46.000    35672453.095   143638185.328          21.774          48.000  
C25  22165892.461   115423612.983       -2473.688          37.000                                                                  
C32  21084037.717   109790121.069         927.478          50.000                                                                  
C06  35372058.961   184191594.181         207.954          44.000    35372043.366   142428560.578         160.735          47.000  
G25  20590084.216   108201632.108        2636.168          45.000    20590075.029    84312917.779        2054.169          41.000  
G10  19552747.798   102750378.716        1157.538          50.000    19552736.171    80065186.446         902.173          44.000  
G28  22130029.105   116294096.594        2645.670          40.000    22130018.372    90618756.813        2061.618          41.000  
C23  20738633.655   107991505.904         373.543          51.000                                                                  
C09  36843980.564   191856276.843         305.844          41.000    36843968.326   148355390.270         236.322          47.000  
C33  26007465.220                       -2899.542          30.000                                                                  
C37  22968670.390   119603906.979        2741.383          43.000                                                                  
> 2025 10 27 02 47 22.9160000  0 19                     
G12  20785564.416   109228881.681        1004.283          45.000    20785553.014    85113361.601         782.468          41.000  
G15  23129476.726   121546215.181       -3229.594          36.000    23129467.021    94711298.149       -2516.226          32.000  
G18  23442245.354   123189826.861       -3693.172          37.000    23442239.044    95992039.552       -2877.839          36.000  
G23  19184340.037   100814386.217       -1963.663          45.000    19184328.418    78556590.312       -1530.023          47.000  
G24  20815854.920                       -3321.710          28.000    20815848.254    85237414.133       -2587.484          32.000  
G32  20955050.336   110119534.970        1527.587          45.000    20955039.946    85807375.215        1190.188          42.000  
C08  34698964.958   180686613.495        -303.003          46.000    34698948.201   139718272.038        -234.326          49.000  
C13  34711013.238   180749352.153         -11.407          47.000    34711004.044   139766818.393          -8.740          48.000  
C16  35672462.516   185755873.448          28.078          46.000    35672452.863   143638184.462          21.676          48.000  
C25  22165911.446   115423711.928       -2473.666          37.000                                                                  
C32  21084030.578   109790083.964         927.556          50.000                                                                  
C06  35372057.378   184191585.866         207.872          44.000    35372041.783   142428554.147         160.719          47.000  
G25  20590064.122   108201526.655        2636.254          45.000    20590054.938    84312835.608        2054.239          41.000  
G10  19552738.962   102750332.407        1157.629          50.000    19552727.352    80065150.362         902.142          44.000  
G28  22130008.959   116293990.763        2645.708          40.000    22129998.227    90618674.360        2061.376          41.000  
C23  20738630.814   107991490.959         373.552          51.000                                                                  
C09  36843978.223   191856264.614         305.712          41.000    36843965.960   148355380.809         236.424          47.000  
C33  26007487.482                       -2898.944          30.000                                                                  
C37  22968649.352   119603797.317        2741.487          43.000                                                                  
> 2025 10 27 02 47 22.9560000  0 19                     
G12  20785556.760   109228841.501        1004.408          45.000    20785545.373    85113330.294         782.551          41.000  
G15  23129501.290   121546344.388       -3230.104          36.000    23129491.591    94711398.812       -2516.349          32.000  
G18  23442273.473   123189974.578       -3693.084          37.000    23442267.153    95992154.661       -2877.830          36.000  
G23  19184354.980   100814464.755       -1963.551          45.000    19184343.360    78556651.514       -1530.024          47.000  
G24  20815880.314                       -3321.814          28.000    20815873.566    85237517.688       -2588.415          32.000  
G32  20955038.724   110119473.862        1527.653          45.000    20955028.311    85807327.587        1190.487          42.000  
C08  34698967.336   180686625.613        -302.985          46.000    34698950.542   139718281.407        -234.247          49.000  
C13  34711013.342   180749352.602         -11.292          47.000    34711004.152   139766818.745          -8.795          48.000  
C16  35672462.297   185755872.321          28.138          46.000    35672452.632   143638183.587          21.796          48.000  
C25  22165930.449   115423810.859       -2473.404          37.000                                                                  
C32  21084023.495   109790046.859         927.607          50.000                                                                  
C06  35372055.803   184191577.543         207.947          44.000    35372040.201   142428547.717         160.723          47.000  
G25  20590044.038   108201421.201        2636.317          45.000    20590034.880    84312753.434        2054.348          41.000  
G10  19552730.124   102750286.097        1157.709          50.000    19552718.550    80065114.277         902.142          44.000  
G28  22129988.817   116293884.922        2645.887          40.000    22129978.061    90618591.892        2061.553          41.000  
C23  20738627.961   107991476.014         373.579          51.000                                                                  
C09  36843975.894   191856252.381         305.791          41.000    36843963.593   148355371.350         236.450          47.000  
C33  26007509.787                       -2899.864          30.000                                                                  
C37  22968628.324   119603687.645        2741.719          43.000                                                                  
> 2025 10 27 02 47 22.9960000  0 19                     
G12  20785549.101   109228801.327        1004.373          45.000    20785537.700    85113298.985         782.585          41.000  
G15  23129525.880   121546473.533       -3229.175          36.000    23129516.166    94711499.463       -2516.226          32.000  
G18  23442301.586   123190122.300       -3693.083          37.000    23442295.253    95992269.755       -2877.519          36.000  
G23  19184369.909   100814543.291       -1963.470          45.000    19184358.295    78556712.710       -1529.936          47.000  
G24  20815905.249                       -3321.691          28.000    20815898.837    85237621.235       -2588.717          32.000  
G32  20955027.097   110119412.747        1527.814          45.000    20955016.690    85807279.972        1190.422          42.000  
C08  34698969.700   180686637.723        -302.820          46.000    34698952.880   139718290.771        -234.149          49.000  
C13  34711013.434   180749353.050         -11.237          47.000    34711004.232   139766819.092          -8.728          48.000  
C16  35672462.082   185755871.190          28.254          46.000    35672452.420   143638182.717          21.749          48.000  
C25  22165949.425   115423909.810       -2473.743          37.000                                                                  
C32  21084016.360   109790009.755         927.599          50.000                                                                  
C06  35372054.178   184191569.220         208.013          44.000    35372038.619   142428541.275         160.908          47.000  
G25  20590023.991   108201315.748        2636.335          45.000    20590014.811    84312671.256        2054.447          41.000  
G10  19552721.330   102750239.787        1157.721          50.000    19552709.712    80065078.188         902.185          44.000  
G28  22129968.689   116293779.088        2645.849          40.000    22129957.918    90618509.425        2061.602          41.000  
C23  20738625.113   107991461.067         373.626          51.000                                                                  
C09  36843973.518   191856240.151         305.753          41.000    36843961.253   148355361.884         236.626          47.000  
C33  26007532.087                       -2900.289          30.000                                                                  
C37  22968607.260   119603577.981        2741.725          43.000                                                                  
> 2025 10 27 02 47 23.0360000  0 19                     
G12  20785541.470   109228761.150        1004.414          45.000    20785530.041    85113267.670         782.734          41.000  
G15  23129550.465   121546602.705       -3229.123          36.000    23129540.757    94711600.132       -2516.558          32.000  
G18  23442329.682   123190270.004       -3692.780          37.000    23442323.367    95992384.854       -2877.393          36.000  
G23  19184384.836   100814621.834       -1963.552          45.000    19184373.257    78556773.916       -1530.080          47.000  
G24  20815930.495                       -3321.444          28.000    20815924.084    85237724.753       -2588.378          32.000  
G32  20955015.468   110119351.635        1527.830          45.000    20955005.056    85807232.340        1190.638          42.000  
C08  34698972.016   180686649.836        -302.808          46.000    34698955.188   139718300.136        -234.149          49.000  
C13  34711013.496   180749353.502         -11.279          47.000    34711004.332   139766819.433          -8.588          48.000  
C16  35672461.856   185755870.058          28.315          46.000    35672452.207   143638181.838          21.900          48.000  
C25  22165968.444   115424008.719       -2473.063          37.000                                                                  
C32  21084009.229   109789972.649         927.611          50.000                                                                  
C06  35372052.582   184191560.888         208.193          44.000    35372037.054   142428534.840         160.903          47.000  
G25  20590003.918   108201210.296        2636.273          45.000    20589994.745    84312589.085        2054.344          41.000  
G10  19552712.517   102750193.473        1157.806          50.000    19552700.906    80065042.093         902.332          44.000  
G28  22129948.549   116293673.245        2645.947          40.000    22129937.781    90618426.949        2061.769          41.000  
C23  20738622.275   107991446.116         373.714          51.000                                                                  
C09  36843971.158   191856227.923         305.665          41.000    36843958.889   148355352.421         236.630          47.000  
C33  26007554.372                       -2900.515          30.000                                                                  
C37  22968586.205   119603468.323        2741.552          43.000                                                                  
> 2025 10 27 02 47 23.0760000  0 19                     
G12  20785533.840   109228720.972        1004.418          45.000    20785522.393    85113236.354         782.827          41.000  
G15  23129575.087   121546731.908       -3229.800          36.000    23129565.327    94711700.780       -2516.343          32.000  
G18  23442357.796   123190417.708       -3692.645          37.000    23442351.474    95992499.961       -2877.561          36.000  
G23  19184399.785   100814700.376       -1963.589          45.000    19184388.210    78556835.123       -1530.161          47.000  
G24  20815955.862                       -3320.973          28.000    20815949.370    85237828.275       -2588.221          32.000  
G32  20955003.851   110119290.522        1527.820          45.000    20954993.447    85807184.730        1190.368          42.000  
C08  34698974.361   180686661.940        -302.643          46.000    34698957.500   139718309.504        -234.180          49.000  
C13  34711013.601   180749353.949         -11.230          47.000    34711004.433   139766819.778          -8.588          48.000  
C16  35672461.616   185755868.936          28.135          46.000    35672451.964   143638180.969          21.778          48.000  
C25  22165987.445   115424107.652       -2473.186          37.000                                                                  
C32  21084002.139   109789935.539         927.712          50.000                                                                  
C06  35372050.972   184191552.568         208.083          44.000    35372035.452   142428528.406         160.874          47.000  
G25  20589983.835   108201104.847        2636.236          45.000    20589974.664    84312506.926        2054.077          41.000  
G10  19552703.729   102750147.167        1157.690          50.000    19552692.079    80065006.013         902.081          44.000  
G28  22129928.421   116293567.416        2645.753          40.000    22129917.646    90618344.487        2061.574          41.000  
C23  20738619.386   107991431.171         373.654          51.000                                                                  
C09  36843968.821   191856215.689         305.767          41.000    36843956.544   148355342.960         236.566          47.000  
C33  26007576.655                       -2899.579          30.000                                                                  
C37  22968565.137   119603358.667        2741.404          43.000                                                                  
> 2025 10 27 02 47 23.1160000  0 19                     
G12  20785526.219   109228680.808        1004.178          45.000    20785514.764    85113205.069         782.335          41.000  
G15  23129599.660   121546861.125       -3230.436          36.000    23129589.910    94711801.452       -2516.624          33.000  
G18  23442385.899   123190565.429       -3692.823          37.000    23442379.584    95992615.077       -2877.925          36.000  
G23  19184414.732   100814778.926       -1963.744          45.000    19184403.142    78556896.322       -1530.048          47.000  
G24  20815981.279                       -3320.805          28.000    20815974.671    85237931.766       -2587.503          32.000  
G32  20954992.232   110119229.418        1527.651          45.000    20954981.817    85807137.112        1190.323          42.000  
C08  34698976.659   180686674.063        -302.936          46.000    34698959.813   139718318.872        -234.198          49.000  
C13  34711013.673   180749354.399         -11.243          47.000    34711004.534   139766820.131          -8.752          48.000  
C16  35672461.411   185755867.805          28.229          46.000    35672451.743   143638180.099          21.734          48.000  
C25  22166006.439   115424206.588       -2473.368          37.000                                                                  
C32  21083994.965   109789898.435         927.607          50.000                                                                  
C06  35372049.354   184191544.247         208.015          44.000    35372033.860   142428521.974         160.787          47.000  
G25  20589963.770   108200999.402        2636.105          45.000    20589954.610    84312424.769        2053.879          41.000  
G10  19552694.938   102750100.864        1157.574          50.000    19552683.283    80064969.937         901.874          44.000  
G28  22129908.267   116293461.579        2645.811          40.000    22129897.514    90618262.029        2061.400          41.000  
C23  20738616.488   107991416.234         373.466          51.000                                                                  
C09  36843966.458   191856203.449         305.891          41.000    36843954.177   148355333.502         236.490          47.000  
C33  26007598.931                       -2900.621          30.000                                                                  
C37  22968544.073   119603248.999        2741.549          43.000                                                                  
> 2025 10 27 02 47 23.1560000  0 19                     
G12  20785518.587   109228640.637        1004.223          45.000    20785507.128    85113173.779         782.205          41.000  
G15  23129624.226   121546990.305       -3230.099          36.000    23129614.503    94711902.111       -2516.565          33.000  
G18  23442413.999   123190713.157       -3693.155          37.000    23442407.708    95992730.170       -2877.560          36.000  
G23  19184429.684   100814857.468       -1963.656          45.000    19184418.094    78556957.520       -1530.005          47.000  
G24  20816006.435                       -3320.887          28.000    20815999.904    85238035.293       -2587.851          32.000  
G32  20954980.635   110119168.316        1527.537          45.000    20954970.193    85807089.491        1190.459          42.000  
C08  34698978.932   180686686.183        -303.052          46.000    34698962.123   139718328.243        -234.265          49.000  
C13  34711013.743   180749354.848         -11.255          47.000    34711004.622   139766820.482          -8.801          48.000  
C16  35672461.141   185755866.677          28.229          46.000    35672451.512   143638179.229          21.742          48.000  
C25  22166025.466   115424305.523       -2473.436          37.000                                                                  
C32  21083987.821   109789861.334         927.518          50.000                                                                  
C06  35372047.752   184191535.924         208.025          44.000    35372032.271   142428515.535         160.896          47.000  
G25  20589943.696   108200893.951        2636.154          45.000    20589934.540    84312342.609        2053.903          41.000  
G10  19552686.134   102750054.559        1157.581          50.000    19552674.465    80064933.859         901.819          44.000  
G28  22129888.130   116293355.765        2645.469          40.000    22129877.385    90618179.560        2061.520          41.000  
C23  20738613.638   107991401.293         373.459          51.000                                                                  
C09  36843964.132   191856191.206         306.054          41.000    36843951.832   148355324.038         236.534          47.000  
C33  26007621.196                       -2899.826          30.000                                                                  
C37  22968523.029   119603139.346        2741.367          43.000                                                                  
> 2025 10 27 02 47 23.1960000  0 19                     
G12  20785510.937   109228600.462        1004.309          45.000    20785499.488    85113142.469         782.551          41.000  
G15  23129648.811   121547119.439       -3228.971          36.000    23129639.074    94712002.781       -2516.628          33.000  
G18  23442442.083   123190860.856       -3692.697          37.000    23442435.807    95992845.268       -2877.541          36.000  
G23  19184444.605   100814936.006       -1963.525          45.000    19184433.049    78557018.723       -1530.049          47.000  
G24  20816032.252                       -3321.376          28.000    20816025.211    85238138.811       -2587.834          32.000  
G32  20954969.011   110119107.201        1527.717          45.000    20954958.558    85807041.880        1190.344          42.000  
C08  34698981.277   180686698.296        -302.960          46.000    34698964.454   139718337.611        -234.241          49.000  
C13  34711013.839   180749355.295         -11.212          47.000    34711004.696   139766820.826          -8.679          48.000  
C16  35672460.926   185755865.549          28.202          46.000    35672451.265   143638178.356          21.782          48.000  
C25  22166044.467   115424404.457       -2473.397          37.000                                                                  
C32  21083980.682   109789824.231         927.534          50.000                                                                  
C06  35372046.146   184191527.605         207.937          44.000    35372030.640   142428509.099         160.894          47.000  
G25  20589923.647   108200788.501        2636.180          45.000    20589914.494    84312260.425        2054.323          41.000  
G10  19552677.303   102750008.249        1157.666          50.000    19552665.662    80064897.781         901.819          44.000  
G28  22129867.995   116293249.927        2645.689          40.000    22129857.263    90618097.088        2061.702          41.000  
C23  20738610.794   107991386.344         373.629          51.000                                                                  
C09  36843961.777   191856178.973         305.906          41.000    36843949.501   148355314.571         236.648          47.000  
C33  26007643.462                       -2898.713          30.000                                                                  
C37  22968501.976   119603029.678        2741.503          43.000                                                                  
> 2025 10 27 02 47 23.2360000  0 19                     
G12  20785503.296   109228560.280        1004.462          45.000    20785491.847    85113111.158         782.729          41.000  
G15  23129673.394   121547248.594       -3228.690          36.000    23129663.657    94712103.422       -2516.173          33.000  
G18  23442470.199   123191008.572       -3692.769          37.000    23442463.946    95992960.364       -2877.465          36.000  
G23  19184459.559   100815014.547       -1963.506          45.000    19184448.036    78557079.929       -1530.167          47.000  
G24  20816057.350                       -3321.369          28.000    20816050.473    85238242.317       -2587.622          32.000  
G32  20954957.376   110119046.077        1528.006          45.000    20954946.930    85806994.254        1190.525          42.000  
C08  34698983.613   180686710.412        -302.948          46.000    34698966.789   139718346.977        -234.180          49.000  
C13  34711013.921   180749355.738         -11.115          47.000    34711004.796   139766821.171          -8.630          48.000  
C16  35672460.718   185755864.414          28.305          46.000    35672451.009   143638177.478          21.879          48.000  
C25  22166063.463   115424503.405       -2473.626          37.000                                                                  
C32  21083973.578   109789787.122         927.637          50.000                                                                  
C06  35372044.528   184191519.281         207.987          44.000    35372029.006   142428502.655         161.014          47.000  
G25  20589903.583   108200683.052        2636.188          45.000    20589894.424    84312178.243        2054.509          41.000  
G10  19552668.472   102749961.936        1157.770          50.000    19552656.842    80064861.685         902.197          44.000  
G28  22129847.850   116293144.088        2645.882          40.000    22129837.118    90618014.615        2061.826          41.000  
C23  20738607.941   107991371.396         373.692          51.000                                                                  
C09  36843959.423   191856166.726         306.108          41.000    36843947.177   148355305.111         236.559          47.000  
C33  26007665.730                       -2899.052          30.000                                                                  
C37  22968480.920   119602920.008        2741.599          43.000                                                                  
> 2025 10 27 02 47 23.2760000  0 19                     
G12  20785495.676   109228520.112        1004.269          45.000    20785484.183    85113079.841         782.936          41.000  
G15  23129697.975   121547377.781       -3229.197          36.000    23129688.262    94712204.065       -2515.981          33.000  
G18  23442498.318   123191156.304       -3693.158          37.000    23442492.060    95993075.464       -2877.429          36.000  
G23  19184474.505   100815093.090       -1963.570          45.000    19184462.996    78557141.134       -1530.185          47.000  
G24  20816082.411                       -3321.716          28.000    20816075.757    85238345.887       -2588.778          32.000  
G32  20954945.755   110118984.968        1527.836          45.000    20954935.284    85806946.624        1190.704          42.000  
C08  34698985.939   180686722.521        -302.802          46.000    34698969.176   139718356.339        -234.100          49.000  
C13  34711014.008   180749356.183         -11.096          47.000    34711004.870   139766821.509          -8.490          48.000  
C16  35672460.487   185755863.280          28.355          46.000    35672450.752   143638176.605          21.849          48.000  
C25  22166082.468   115424602.333       -2473.357          37.000                                                                  
C32  21083966.479   109789750.013         927.687          50.000                                                                  
C06  35372042.938   184191510.951         208.140          44.000    35372027.410   142428496.222         160.885          47.000  
G25  20589883.505   108200577.600        2636.219          45.000    20589874.369    84312096.078        2054.236          41.000  
G10  19552659.685   102749915.632        1157.654          50.000    19552648.035    80064825.603         902.130          44.000  
G28  22129827.730   116293038.244        2646.099          40.000    22129816.981    90617932.141        2061.842          41.000  
C23  20738605.012   107991356.455         373.599          51.000                                                                  
C09  36843957.053   191856154.499         305.803          41.000    36843944.818   148355295.649         236.533          47.000  
C33  26007688.026                       -2900.378          30.000                                                                  
C37  22968459.859   119602810.338        2741.712          43.000                                                                  
> 2025 10 27 02 47 23.3160000  0 19                     
G12  20785488.057   109228479.940        1004.258          45.000    20785476.541    85113048.534         782.877          41.000  
G15  23129722.544   121547506.996       -3230.142          36.000    23129712.835    94712304.745       -2516.567          33.000  
G18  23442526.433   123191304.006       -3692.824          37.000    23442520.169    95993190.555       -2877.289          36.000  
G23  19184489.473   100815171.632       -1963.557          45.000    19184477.929    78557202.333       -1530.079          47.000  
G24  20816107.164                       -3321.516          28.000    20816101.067    85238449.420       -2588.705          32.000  
G32  20954934.134   110118923.858        1527.771          45.000    20954923.660    85806899.003        1190.594          42.000  
C08  34698988.325   180686734.629        -302.747          46.000    34698971.520   139718365.704        -234.100          49.000  
C13  34711014.078   180749356.629         -11.127          47.000    34711004.947   139766821.856          -8.612          48.000  
C16  35672460.303   185755862.154          28.186          46.000    35672450.521   143638175.725          21.945          48.000  
C25  22166101.468   115424701.285       -2473.663          37.000                                                                  
C32  21083959.328   109789712.904         927.731          50.000                                                                  
C06  35372041.333   184191502.629         208.113          44.000    35372025.802   142428489.789         160.801          47.000  
G25  20589863.444   108200472.147        2636.286          45.000    20589854.331    84312013.914        2054.091          41.000  
G10  19552650.878   102749869.332        1157.513          50.000    19552639.221    80064789.524         901.996          44.000  
G28  22129807.583   116292932.413        2645.973          40.000    22129796.848    90617849.678        2061.629          41.000  
C23  20738602.114   107991341.513         373.528          51.000                                                                  
C09  36843954.692   191856142.254         305.949          41.000    36843942.448   148355286.190         236.458          47.000  
C33  26007710.314                       -2900.597          30.000                                                                  
C37  22968438.807   119602700.675        2741.650          43.000                                                                  
> 2025 10 27 02 47 23.3560000  0 19                     
G12  20785480.405   109228439.764        1004.332          45.000    20785468.897    85113017.250         782.336          41.000  
G15  23129747.121   121547636.169       -3229.783          36.000    23129737.414    94712405.401       -2516.556          33.000  
G18  23442554.545   123191451.707       -3692.593          37.000    23442548.289    95993305.663       -2877.459          36.000  
G23  19184504.424   100815250.176       -1963.594          45.000    19184492.849    78557263.535       -1530.073          47.000  
G24  20816132.471                       -3321.603          28.000    20816126.324    85238552.925       -2588.171          32.000  
G32  20954922.484   110118862.741        1527.843          45.000    20954912.030    85806851.380        1190.539          42.000  
C08  34698990.648   180686746.740        -302.771          46.000    34698973.853   139718375.071        -234.149          49.000  
C13  34711014.153   180749357.081         -11.279          47.000    34711005.033   139766822.203          -8.691          48.000  
C16  35672460.103   185755861.032          28.059          46.000    35672450.324   143638174.850          21.903          48.000  
C25  22166120.448   115424800.226       -2473.649          37.000                                                                  
C32  21083952.183   109789675.801         927.619          50.000                                                                  
C06  35372039.734   184191494.295         208.296          44.000    35372024.222   142428483.347         160.917          47.000  
G25  20589843.384   108200366.695        2636.304          45.000    20589834.267    84311931.743        2054.132          41.000  
G10  19552642.067   102749823.030        1157.501          50.000    19552630.426    80064753.438         902.081          44.000  
G28  22129787.452   116292826.575        2645.934          40.000    22129776.689    90617767.205        2061.742          41.000  
C23  20738599.256   107991326.565         373.620          51.000                                                                  
C09  36843952.333   191856130.007         306.106          41.000    36843940.127   148355276.721         236.628          47.000  
C33  26007732.593                       -2899.818          30.000                                                                  
C37  22968417.748   119602591.011        2741.608          43.000                                                                  
> 2025 10 27 02 47 23.3960000  0 19                     
G12  20785472.759   109228399.594        1004.261          45.000    20785461.242    85112985.953         782.307          41.000  
G15  23129771.681   121547765.326       -3229.279          36.000    23129761.971    94712506.064       -2516.559          33.000  
G18  23442582.668   123191599.426       -3692.808          37.000    23442576.389    95993420.767       -2877.488          36.000  
G23  19184519.375   100815328.723       -1963.681          45.000    19184507.792    78557324.742       -1530.186          47.000  
G24  20816157.810                       -3321.487          28.000    20816151.632    85238656.400       -2587.228          32.000  
G32  20954910.871   110118801.635        1527.693          45.000    20954900.392    85806803.773        1190.230          42.000  
C08  34698992.963   180686758.851        -302.795          46.000    34698976.126   139718384.440        -234.210          49.000  
C13  34711014.253   180749357.528         -11.279          47.000    34711005.140   139766822.547          -8.661          48.000  
C16  35672459.880   185755859.905          28.057          46.000    35672450.100   143638173.978          21.819          48.000  
C25  22166139.450   115424899.148       -2473.193          37.000                                                                  
C32  21083945.034   109789638.697         927.562          50.000                                                                  
C06  35372038.143   184191485.973         208.157          44.000    35372022.642   142428476.914         160.850          47.000  
G25  20589823.294   108200261.247        2636.202          45.000    20589814.189    84311849.570        2054.177          41.000  
G10  19552633.233   102749776.722        1157.593          50.000    19552621.589    80064717.352         902.136          44.000  
G28  22129767.313   116292720.753        2645.635          40.000    22129756.570    90617684.735        2061.672          41.000  
C23  20738596.376   107991311.626         373.502          51.000                                                                  
C09  36843949.975   191856117.769         306.004          41.000    36843937.796   148355267.257         236.596          47.000  
C33  26007754.866                       -2899.784          30.000                                                                  
C37  22968396.684   119602481.359        2741.354          43.000                                                                  
> 2025 10 27 02 47 23.4360000  0 19                     
G12  20785465.124   109228359.430        1004.127          45.000    20785453.589    85112954.652         782.356          41.000  
G15  23129796.263   121547894.510       -3229.446          36.000    23129786.573    94712606.729       -2516.625          33.000  
G18  23442610.793   123191747.140       -3692.860          37.000    23442604.514    95993535.880       -2877.745          36.000  
G23  19184534.327   100815407.275       -1963.824          45.000    19184522.742    78557385.948       -1530.216          47.000  
G24  20816182.875                       -3321.537          28.000    20816176.878    85238759.911       -2587.365          32.000  
G32  20954899.215   110118740.524        1527.709          45.000    20954888.759    85806756.165        1190.123          42.000  
C08  34698995.292   180686770.971        -302.960          46.000    34698978.454   139718393.810        -234.283          49.000  
C13  34711014.322   180749357.979         -11.322          47.000    34711005.214   139766822.897          -8.746          48.000  
C16  35672459.688   185755858.769          28.264          46.000    35672449.865   143638173.107          21.763          48.000  
C25  22166158.464   115424998.088       -2473.333          37.000                                                                  
C32  21083937.932   109789601.596         927.460          50.000                                                                  
C06  35372036.546   184191477.647         208.136          44.000    35372021.038   142428470.481         160.785          47.000  
G25  20589803.234   108200155.800        2636.133          45.000    20589794.152    84311767.406        2054.102          41.000  
G10  19552624.440   102749730.421        1157.520          50.000    19552612.787    80064681.275         901.984          44.000  
G28  22129747.158   116292614.931        2645.450          40.000    22129736.441    90617602.283        2061.363          41.000  
C23  20738593.480   107991296.696         373.291          51.000                                                                  
C09  36843947.629   191856105.534         305.865          41.000    36843935.441   148355257.798         236.475          47.000  
C33  26007777.112                       -2899.907          30.000                                                                  
C37  22968375.658   119602371.704        2741.278          43.000                                                                  
> 2025 10 27 02 47 23.4760000  0 19                     
G12  20785457.505   109228319.280        1003.801          45.000    20785445.966    85112923.365         782.178          41.000  
G15  23129820.856   121548023.684       -3229.380          36.000    23129811.130    94712707.353       -2515.909          33.000  
G18  23442638.914   123191894.876       -3693.283          37.000    23442632.621    95993650.962       -2877.302          36.000  
G23  19184549.258   100815485.832       -1963.933          45.000    19184537.683    78557447.161       -1530.321          47.000  
G24  20816208.143                       -3321.518          28.000    20816202.199    85238863.496       -2588.927          32.000  
G32  20954887.593   110118679.423        1527.571          45.000    20954877.123    85806708.546        1190.339          42.000  
C08  34698997.600   180686783.096        -303.131          46.000    34698980.767   139718403.185        -234.393          49.000  
C13  34711014.403   180749358.434         -11.395          47.000    34711005.298   139766823.250          -8.862          48.000  
C16  35672459.462   185755857.652          28.024          46.000    35672449.624   143638172.241          21.668          48.000  
C25  22166177.463   115425097.033       -2473.513          37.000                                                                  
C32  21083930.825   109789564.500         927.381          50.000                                                                  
C06  35372034.945   184191469.331         207.947          44.000    35372019.472   142428464.046         160.822          47.000  
G25  20589783.169   108200050.372        2635.764          45.000    20589774.088    84311685.243        2054.027          41.000  
G10  19552615.625   102749684.122        1157.446          50.000    19552603.991    80064645.211         901.666          44.000  
G28  22129727.032   116292509.094        2645.721          40.000    22129716.282    90617519.825        2061.297          41.000  
C23  20738590.638   107991281.762         373.252          51.000                                                                  
C09  36843945.289   191856093.321         305.389          41.000    36843933.124   148355248.337         236.464          47.000  
C33  26007799.445                       -2899.644          30.000                                                                  
C37  22968354.575   119602262.052        2741.198          43.000                                                                  
> 2025 10 27 02 47 23.5160000  0 19                     
G12  20785449.865   109228279.114        1003.939          45.000    20785438.304    85112892.060         782.437          41.000  
G15  23129845.435   121548152.892       -3230.026          36.000    23129835.702    94712808.026       -2516.402          33.000  
G18  23442667.031   123192042.589       -3693.062          37.000    23442660.734    95993766.074       -2877.598          36.000  
G23  19184564.203   100815564.386       -1963.945          45.000    19184552.616    78557508.374       -1530.381          47.000  
G24  20816233.647                       -3321.269          28.000    20816227.490    85238967.022       -2588.516          32.000  
G32  20954875.948   110118618.310        1527.710          45.000    20954865.498    85806660.923        1190.539          42.000  
C08  34698999.942   180686795.213        -303.058          46.000    34698983.073   139718412.556        -234.357          49.000  
C13  34711014.494   180749358.888         -11.407          47.000    34711005.368   139766823.601          -8.862          48.000  
C16  35672459.237   185755856.530          27.976          46.000    35672449.398   143638171.374          21.611          48.000  
C25  22166196.484   115425195.989       -2473.836          37.000                                                                  
C32  21083923.717   109789527.404         927.334          50.000                                                                  
C06  35372033.369   184191461.011         207.933          44.000    35372017.886   142428457.615         160.785          47.000  
G25  20589763.109   108199944.927        2635.879          45.000    20589754.037    84311603.086        2053.857          41.000  
G10  19552606.823   102749637.829        1157.318          50.000    19552595.182    80064609.135         901.776          44.000  
G28  22129706.901   116292403.261        2645.751          40.000    22129696.153    90617437.363        2061.443          41.000  
C23  20738587.818   107991266.825         373.320          51.000                                                                  
C09  36843942.955   191856081.097         305.344          41.000    36843930.773   148355238.876         236.465          47.000  
C33  26007821.720                       -2901.072          30.000                                                                  
C37  22968333.493   119602152.392        2741.332          43.000                                                                  
> 2025 10 27 02 47 23.5560000  0 19                     
G12  20785442.236   109228238.944        1004.094          45.000    20785430.666    85112860.760         782.473          41.000  
G15  23129870.035   121548282.064       -3229.751          36.000    23129860.271    94712908.708       -2516.829          33.000  
G18  23442695.138   123192190.285       -3692.583          37.000    23442688.857    95993881.179       -2877.633          36.000  
G23  19184579.139   100815642.939       -1963.906          45.000    19184567.563    78557569.585       -1530.362          47.000  
G24  20816259.385                       -3321.276          28.000    20816252.792    85239070.545       -2588.210          32.000  
G32  20954864.330   110118557.208        1527.606          45.000    20954853.886    85806613.304        1190.534          42.000  
C08  34699002.272   180686807.330        -302.979          46.000    34698985.427   139718421.927        -234.344          49.000  
C13  34711014.586   180749359.343         -11.401          47.000    34711005.473   139766823.949          -8.801          48.000  
C16  35672459.039   185755855.401          28.076          46.000    35672449.182   143638170.507          21.603          48.000  
C25  22166215.495   115425294.936       -2473.796          37.000                                                                  
C32  21083916.637   109789490.306         927.376          50.000                                                                  
C06  35372031.791   184191452.697         207.833          44.000    35372016.300   142428451.181         160.820          47.000  
G25  20589743.022   108199839.482        2635.992          45.000    20589733.972    84311520.929        2053.757          41.000  
G10  19552598.010   102749591.535        1157.281          50.000    19552586.393    80064573.059         901.825          44.000  
G28  22129686.776   116292297.442        2645.584          40.000    22129676.022    90617354.894        2061.617          41.000  
C23  20738584.960   107991251.895         373.224          51.000                                                                  
C09  36843940.607   191856068.858         305.695          41.000    36843928.412   148355229.420         236.377          47.000  
C33  26007843.967                       -2900.568          30.000                                                                  
C37  22968312.454   119602042.735        2741.352          43.000                                                                  
> 2025 10 27 02 47 23.5960000  0 19                     
G12  20785434.616   109228198.783        1004.022          45.000    20785423.027    85112829.471         782.274          41.000  
G15  23129894.628   121548411.267       -3230.090          36.000    23129884.838    94713009.396       -2517.207          33.000  
G18  23442723.257   123192338.012       -3692.942          37.000    23442716.974    95993996.308       -2878.099          36.000  
G23  19184594.089   100815721.502       -1964.067          45.000    19184582.541    78557630.801       -1530.442          47.000  
G24  20816284.880                       -3322.208          28.000    20816278.089    85239174.118       -2589.046          32.000  
G32  20954852.709   110118496.103        1527.601          45.000    20954842.252    85806565.693        1190.361          42.000  
C08  34699004.617   180686819.452        -303.046          46.000    34698987.768   139718431.299        -234.344          49.000  
C13  34711014.668   180749359.804         -11.542          47.000    34711005.559   139766824.306          -8.899          48.000  
C16  35672458.817   185755854.280          28.003          46.000    35672448.967   143638169.636          21.697          48.000  
C25  22166234.499   115425393.862       -2473.372          37.000                                                                  
C32  21083909.552   109789453.208         927.389          50.000                                                                  
C06  35372030.171   184191444.387         207.755          44.000    35372014.704   142428444.753         160.729          47.000  
G25  20589722.962   108199734.047        2635.869          45.000    20589713.907    84311438.769        2053.831          41.000  
G10  19552589.229   102749545.250        1157.098          50.000    19552577.573    80064536.987         901.807          44.000  
G28  22129666.634   116292191.608        2645.766          40.000    22129655.877    90617272.438        2061.453          41.000  
C23  20738582.064   107991236.966         373.150          51.000                                                                  
C09  36843938.236   191856056.616         305.958          41.000    36843926.061   148355219.960         236.423          47.000  
C33  26007866.207                       -2899.609          30.000                                                                  
C37  22968291.386   119601933.081        2741.317          43.000                                                                  
> 2025 10 27 02 47 23.6360000  0 19                     
G12  20785426.987   109228158.634        1003.791          45.000    20785415.406    85112798.205         781.761          41.000  
G15  23129919.206   121548540.468       -3230.197          36.000    23129909.418    94713110.030       -2516.478          33.000  
G18  23442751.372   123192485.751       -3693.412          37.000    23442745.079    95994111.412       -2877.837          36.000  
G23  19184609.062   100815800.069       -1964.209          45.000    19184597.501    78557692.023       -1530.572          47.000  
G24  20816309.956                       -3321.809          27.000    20816303.373                       -2588.439          32.000  
G32  20954841.091   110118435.001        1527.531          45.000    20954830.630    85806518.086        1190.173          42.000  
C08  34699006.963   180686831.581        -303.229          46.000    34698990.112   139718440.677        -234.454          49.000  
C13  34711014.766   180749360.261         -11.511          47.000    34711005.637   139766824.662          -8.954          48.000  
C16  35672458.645   185755853.161          27.963          46.000    35672448.711   143638168.770          21.670          48.000  
C25  22166253.501   115425492.812       -2473.547          37.000                                                                  
C32  21083902.407   109789416.119         927.255          50.000                                                                  
C06  35372028.565   184191436.083         207.589          44.000    35372013.073   142428438.326         160.649          47.000  
G25  20589702.917   108199628.622        2635.653          45.000    20589693.862    84311356.615        2053.783          41.000  
G10  19552580.414   102749498.964        1157.062          50.000    19552568.791    80064500.917         901.703          44.000  
G28  22129646.507   116292085.787        2645.641          40.000    22129635.741    90617189.990        2061.256          41.000  
C23  20738579.225   107991222.042         373.070          51.000                                                                  
C09  36843935.875   191856044.382         305.884          41.000    36843923.714   148355210.513         236.216          47.000  
C33  26007888.478                       -2899.115          30.000                                                                  
C37  22968270.309   119601823.434        2741.163          43.000                                                                  
> 2025 10 27 02 47 23.6760000  0 19                     
G12  20785419.339   109228118.490        1003.578          45.000    20785407.753    85112766.919         781.905          41.000  
G15  23129943.795   121548669.632       -3229.552          36.000    23129933.986    94713210.693       -2516.511          33.000  
G18  23442779.482   123192633.467       -3693.176          37.000    23442773.182    95994226.521       -2877.771          36.000  
G23  19184624.019   100815878.631       -1964.208          45.000    19184612.448    78557753.238       -1530.508          47.000  
G24  20816334.948                       -3321.452          27.000    20816328.634    85239381.161       -2588.459          32.000  
G32  20954829.477   110118373.910        1527.320          45.000    20954819.023    85806470.480        1190.063          42.000  
C08  34699009.310   180686843.714        -303.351          45.000    34698992.461   139718450.051        -234.418          49.000  
C13  34711014.831   180749360.719         -11.487          47.000    34711005.739   139766825.020          -8.997          48.000  
C16  35672458.440   185755852.048          27.815          45.000    35672448.494   143638167.910          21.547          48.000  
C25  22166272.501   115425591.794       -2474.288          37.000                                                                  
C32  21083895.274   109789379.030         927.187          50.000                                                                  
C06  35372026.953   184191427.764         207.802          44.000    35372011.475   142428431.900         160.593          47.000  
G25  20589682.859   108199523.178        2635.916          45.000    20589673.802    84311274.449        2053.996          41.000  
G10  19552571.585   102749452.673        1157.166          50.000    19552560.026    80064464.856         901.489          44.000  
G28  22129626.384   116291979.986        2645.188          40.000    22129615.602    90617107.527        2061.431          41.000  
C23  20738576.350   107991207.119         373.016          51.000                                                                  
C09  36843933.543   191856032.158         305.611          41.000    36843921.361   148355201.062         236.181          47.000  
C33  26007910.740                       -2900.559          30.000                                                                  
C37  22968249.257   119601713.775        2741.309          43.000                                                                  
> 2025 10 27 02 47 23.7160000  0 19                     
G12  20785411.699   109228078.345        1003.548          45.000    20785400.111    85112735.633         782.013          41.000  
G15  23129968.374   121548798.829       -3229.757          36.000    23129958.597    94713311.362       -2516.631          33.000  
G18  23442807.597   123192781.198       -3693.261          37.000    23442801.306    95994341.611       -2877.375          36.000  
G23  19184638.964   100815957.199       -1964.281          45.000    19184627.409    78557814.463       -1530.651          47.000  
G24  20816360.319                       -3321.891          28.000    20816353.907    85239484.677       -2588.118          32.000  
G32  20954817.862   110118312.806        1527.456          45.000    20954807.376    85806422.876        1190.059          42.000  
C08  34699011.636   180686855.841        -303.284          45.000    34698994.814   139718459.433        -234.534          49.000  
C13  34711014.919   180749361.180         -11.530          47.000    34711005.822   139766825.375          -8.948          48.000  
C16  35672458.225   185755850.933          27.814          45.000    35672448.285   143638167.057          21.360          48.000  
C25  22166291.477   115425690.759       -2474.326          37.000                                                                  
C32  21083888.128   109789341.941         927.151          50.000                                                                  
C06  35372025.349   184191419.451         207.827          44.000    35372009.872   142428425.478         160.497          47.000  
G25  20589662.793   108199417.743        2635.887          45.000    20589653.732    84311192.290        2053.951          41.000  
G10  19552562.765   102749406.385        1157.178          50.000    19552551.225    80064428.789         901.563          44.000  
G28  22129606.284   116291874.184        2645.062          40.000    22129595.484    90617025.075        2061.313          41.000  
C23  20738573.460   107991192.194         373.012          51.000                                                                  
C09  36843931.237   191856019.948         305.230          41.000    36843919.001   148355191.606         236.270          47.000  
C33  26007933.037                       -2901.959          30.000                                                                  
C37  22968228.181   119601604.128        2741.169          43.000                                                                  
> 2025 10 27 02 47 23.7560000  0 19                     
G12  20785404.049   109228038.193        1003.665          45.000    20785392.453    85112704.333         782.310          41.000  
G15  23129992.959   121548928.022       -3229.809          36.000    23129983.177    94713412.016       -2516.267          33.000  
G18  23442835.697   123192928.898       -3692.713          37.000    23442829.391    95994456.684       -2876.938          36.000  
G23  19184653.909   100816035.766       -1964.261          45.000    19184642.363    78557875.683       -1530.600          47.000  
G24  20816385.855                       -3321.884          28.000    20816379.166    85239588.215       -2588.414          32.000  
G32  20954806.230   110118251.707        1527.457          45.000    20954795.756    85806375.268        1190.113          42.000  
C08  34699013.945   180686867.970        -303.284          45.000    34698997.190   139718468.808        -234.460          49.000  
C13  34711014.987   180749361.645         -11.639          47.000    34711005.917   139766825.735          -9.009          48.000  
C16  35672458.052   185755849.818          27.798          45.000    35672448.069   143638166.188          21.522          48.000  
C25  22166310.504   115425789.705       -2473.981          37.000                                                                  
C32  21083881.006   109789304.852         927.167          50.000                                                                  
C06  35372023.743   184191411.136         207.855          44.000    35372008.272   142428419.050         160.582          47.000  
G25  20589642.733   108199312.313        2635.783          45.000    20589633.693    84311110.136        2053.852          41.000  
G10  19552553.949   102749360.099        1157.135          50.000    19552542.400    80064392.723         901.575          44.000  
G28  22129586.132   116291768.343        2645.698          40.000    22129575.369    90616942.625        2061.233          41.000  
C23  20738570.596   107991177.277         372.925          51.000                                                                  
C09  36843928.868   191856007.734         305.174          41.000    36843916.687   148355182.155         236.251          47.000  
C33  26007955.325                       -2901.088          30.000                                                                  
C37  22968207.122   119601494.484        2741.074          43.000                                                                  
> 2025 10 27 02 47 23.7960000  0 19                     
G12  20785396.410   109227998.038        1003.801          45.000    20785384.819    85112673.047         782.179          41.000  
G15  23130017.536   121549057.205       -3229.692          36.000    23130007.757    94713512.719       -2517.021          33.000  
G18  23442863.811   123193076.618       -3692.760          37.000    23442857.506    95994571.814       -2877.750          36.000  
G23  19184668.862   100816114.328       -1964.142          45.000    19184657.320    78557936.902       -1530.556          47.000  
G24  20816411.464                       -3321.515          28.000    20816404.444    85239691.762       -2588.640          32.000  
G32  20954794.615   110118190.610        1527.418          45.000    20954784.145    85806327.656        1190.231          42.000  
C08  34699016.244   180686880.094        -303.168          45.000    34698999.491   139718478.185        -234.454          49.000  
C13  34711015.087   180749362.109         -11.670          47.000    34711006.022   139766826.089          -8.911          48.000  
C16  35672457.855   185755848.697          27.945          45.000    35672447.830   143638165.324          21.563          48.000  
C25  22166329.512   115425888.662       -2473.976          37.000                                                                  
C32  21083873.914   109789267.757         927.277          50.000                                                                  
C06  35372022.130   184191402.833         207.656          44.000    35372006.679   142428412.624         160.602          47.000  
G25  20589622.660   108199206.880        2635.750          45.000    20589613.643    84311028.001        2053.471          41.000  
G10  19552545.127   102749313.811        1157.153          50.000    19552533.589    80064356.651         901.709          44.000  
G28  22129565.998   116291662.541        2645.322          40.000    22129555.216    90616860.172        2061.252          41.000  
C23  20738567.791   107991162.349         373.065          51.000                                                                  
C09  36843926.523   191855995.498         305.561          41.000    36843914.334   148355172.698         236.340          47.000  
C33  26007977.622                       -2899.635          30.000                                                                  
C37  22968186.087   119601384.838        2741.097          43.000                                                                  
> 2025 10 27 02 47 23.8360000  0 19                     
G12  20785388.794   109227957.886        1003.823          45.000    20785377.184    85112641.762         782.135          41.000  
G15  23130042.111   121549186.386       -3229.556          36.000    23130032.330    94713613.341       -2516.022          33.000  
G18  23442891.939   123193224.344       -3692.922          37.000    23442885.613    95994686.948       -2878.268          36.000  
G23  19184683.808   100816192.895       -1964.193          45.000    19184672.266    78557998.117       -1530.431          47.000  
G24  20816436.620                       -3321.585          27.000    20816429.741    85239795.309       -2588.671          32.000  
G32  20954783.017   110118129.505        1527.534          45.000    20954772.511    85806280.035        1190.469          42.000  
C08  34699018.577   180686892.214        -303.070          45.000    34699001.790   139718487.558        -234.375          49.000  
C13  34711015.170   180749362.567         -11.554          47.000    34711006.083   139766826.442          -8.856          48.000  
C16  35672457.672   185755847.579          27.977          45.000    35672447.585   143638164.458          21.606          48.000  
C25  22166348.500   115425987.591       -2473.435          37.000                                                                  
C32  21083866.845   109789230.660         927.378          50.000                                                                  
C06  35372020.537   184191394.521         207.699          44.000    35372005.076   142428406.192         160.701          47.000  
G25  20589602.589   108199101.444        2635.817          45.000    20589593.564    84310945.834        2053.819          41.000  
G10  19552536.322   102749267.523        1157.166          50.000    19552524.783    80064320.586         901.672          44.000  
G28  22129545.848   116291556.715        2645.490          40.000    22129535.081    90616777.714        2061.365          41.000  
C23  20738564.955   107991147.425         373.109          51.000                                                                  
C09  36843924.172   191855983.258         305.913          41.000    36843911.975   148355163.241         236.383          47.000  
C33  26007999.871                       -2899.689          30.000                                                                  
C37  22968165.047   119601275.185        2741.240          43.000                                                                  
> 2025 10 27 02 47 23.8760000  0 19                     
G12  20785381.169   109227917.737        1003.743          45.000    20785369.555    85112610.484         781.975          41.000  
G15  23130066.704   121549315.596       -3230.047          36.000    23130056.901    94713714.039       -2516.781          33.000  
G18  23442920.063   123193372.071       -3693.102          37.000    23442913.727    95994802.053       -2877.961          36.000  
G23  19184698.775   100816271.468       -1964.317          45.000    19184687.246    78558059.341       -1530.557          47.000  
G24  20816461.546                       -3321.624          27.000    20816454.988    85239898.834       -2588.309          32.000  
G32  20954771.389   110118068.401        1527.592          45.000    20954760.880    85806232.405        1190.768          42.000  
C08  34699020.918   180686904.339        -303.107          45.000    34699004.105   139718496.934        -234.399          49.000  
C13  34711015.243   180749363.022         -11.420          47.000    34711006.180   139766826.799          -8.899          48.000  
C16  35672457.497   185755846.460          27.987          45.000    35672447.357   143638163.593          21.624          48.000  
C25  22166367.515   115426086.542       -2473.607          37.000                                                                  
C32  21083859.701   109789193.567         927.363          50.000                                                                  
C06  35372018.930   184191386.205         207.799          44.000    35372003.525   142428399.761         160.759          47.000  
G25  20589582.535   108198996.013        2635.730          45.000    20589573.511    84310863.667        2054.093          41.000  
G10  19552527.534   102749221.243        1157.025          50.000    19552515.975    80064284.527         901.514          44.000  
G28  22129525.724   116291450.886        2645.708          40.000    22129514.941    90616695.252        2061.501          41.000  
C23  20738562.094   107991132.506         372.997          51.000                                                                  
C09  36843921.814   191855971.029         305.863          41.000    36843909.604   148355153.786         236.370          47.000  
C33  26008022.098                       -2900.472          30.000                                                                  
C37  22968143.976   119601165.538        2741.204          43.000                                                                  
> 2025 10 27 02 47 23.9160000  0 19                     
G12  20785373.542   109227877.591        1003.646          45.000    20785361.925    85112579.196         782.104          41.000  
G15  23130091.304   121549444.778       -3229.802          36.000    23130081.504    94713814.723       -2517.089          33.000  
G18  23442948.196   123193519.794       -3693.167          37.000    23442941.827    95994917.152       -2877.642          36.000  
G23  19184713.698   100816350.027       -1964.123          45.000    19184702.171    78558120.561       -1530.544          47.000  
G24  20816486.868                       -3321.637          28.000    20816480.270    85240002.360       -2588.094          32.000  
G32  20954759.753   110118007.300        1527.563          45.000    20954749.262    85806184.806        1190.303          42.000  
C08  34699023.265   180686916.473        -303.296          45.000    34699006.462   139718506.310        -234.412          49.000  
C13  34711015.279   180749363.479         -11.414          47.000    34711006.275   139766827.150          -8.826          48.000  
C16  35672457.319   185755845.340          27.990          45.000    35672447.111   143638162.730          21.571          48.000  
C25  22166386.518   115426185.510       -2474.133          37.000                                                                  
C32  21083852.554   109789156.483         927.163          50.000                                                                  
C06  35372017.350   184191377.892         207.819          44.000    35372001.944   142428393.330         160.802          47.000  
G25  20589562.497   108198890.590        2635.569          45.000    20589553.473    84310781.523        2053.826          41.000  
G10  19552518.694   102749174.961        1157.001          50.000    19552507.164    80064248.456         901.654          44.000  
G28  22129505.565   116291345.063        2645.617          40.000    22129494.786    90616612.797        2061.450          41.000  
C23  20738559.255   107991117.582         373.030          51.000                                                                  
C09  36843919.482   191855958.804         305.717          41.000    36843907.256   148355144.330         236.395          47.000  
C33  26008044.339                       -2899.779          30.000                                                                  
C37  22968122.932   119601055.891        2741.152          43.000                                                                  
> 2025 10 27 02 47 23.9560000  0 19                     
G12  20785365.904   109227837.444        1003.610          45.000    20785354.268    85112547.919         781.947          41.000  
G15  23130115.895   121549573.968       -3229.803          36.000    23130106.083    94713915.362       -2516.296          33.000  
G18  23442976.329   123193667.526       -3693.362          37.000    23442969.934    95995032.259       -2877.602          36.000  
G23  19184728.667   100816428.598       -1964.274          45.000    19184717.118    78558181.781       -1530.543          47.000  
G24  20816512.384                       -3321.619          28.000    20816505.542    85240105.879       -2587.925          32.000  
G32  20954748.124   110117946.200        1527.511          45.000    20954737.633    85806137.195        1190.229          42.000  
C08  34699025.595   180686928.595        -303.137          45.000    34699008.812   139718515.686        -234.424          49.000  
C13  34711015.311   180749363.941         -11.523          47.000    34711006.373   139766827.502          -8.795          48.000  
C16  35672457.116   185755844.219          27.996          45.000    35672446.872   143638161.868          21.517          48.000  
C25  22166405.520   115426284.477       -2474.290          37.000                                                                  
C32  21083845.441   109789119.390         927.224          50.000                                                                  
C06  35372015.771   184191369.578         207.836          44.000    35372000.380   142428386.906         160.668          47.000  
G25  20589542.428   108198785.164        2635.556          45.000    20589533.409    84310699.367        2053.798          41.000  
G10  19552509.842   102749128.675        1157.074          50.000    19552498.356    80064212.389         901.679          44.000  
G28  22129485.431   116291239.236        2645.661          40.000    22129474.624    90616530.340        2061.438          41.000  
C23  20738556.368   107991102.664         372.958          51.000                                                                  
C09  36843917.142   191855946.591         305.390          41.000    36843904.900   148355134.874         236.382          47.000  
C33  26008066.580                       -2899.583          30.000                                                                  
C37  22968101.880   119600946.238        2741.211          43.000                                                                  
> 2025 10 27 02 47 23.9960000  0 19                     
G12  20785358.270   109227797.308        1003.438          45.000    20785346.633    85112516.626         782.170          41.000  
G15  23130140.464   121549703.139       -3229.484          36.000    23130130.632    94714016.017       -2516.257          33.000  
G18  23443004.423   123193815.229       -3692.875          37.000    23442998.058    95995147.348       -2877.343          36.000  
G23  19184743.608   100816507.173       -1964.429          45.000    19184732.073    78558243.010       -1530.699          47.000  
G24  20816537.614                       -3321.209          27.000    20816530.835    85240209.380       -2587.615          32.000  
G32  20954736.484   110117885.102        1527.445          45.000    20954726.008    85806089.583        1190.253          42.000  
C08  34699027.918   180686940.718        -303.101          45.000    34699011.145   139718525.067        -234.515          49.000  
C13  34711015.380   180749364.407         -11.652          47.000    34711006.468   139766827.866          -9.045          48.000  
C16  35672456.915   185755843.111          27.752          45.000    35672446.647   143638161.005          21.540          48.000  
C25  22166424.522   115426383.431       -2474.100          37.000                                                                  
C32  21083838.317   109789082.304         927.141          50.000                                                                  
C06  35372014.166   184191361.269         207.749          44.000    35371998.800   142428380.482         160.569          47.000  
G25  20589522.337   108198679.724        2635.821          45.000    20589513.327    84310617.205        2053.971          41.000  
G10  19552501.050   102749082.396        1156.970          50.000    19552489.558    80064176.331         901.508          44.000  
G28  22129465.297   116291133.424        2645.386          40.000    22129454.487    90616447.881        2061.494          41.000  
C23  20738553.510   107991087.745         372.923          51.000                                                                  
C09  36843914.814   191855934.368         305.438          41.000    36843902.562   148355125.428         236.206          47.000  
C33  26008088.859                       -2899.860          30.000                                                                  
C37  22968080.810   119600836.597        2741.035          43.000                                                                  
> 2025 10 27 02 47 24.0360000  0 19                     
G12  20785350.637   109227757.162        1003.521          45.000    20785338.978    85112485.343         782.136          41.000  
G15  23130165.060   121549832.344       -3229.841          36.000    23130155.244    94714116.688       -2516.482          33.000  
G18  23443032.534   123193962.947       -3692.925          37.000    23443026.179    95995262.436       -2877.091          36.000  
G23  19184758.564   100816585.749       -1964.496          45.000    19184747.045    78558304.236       -1530.722          47.000  
G24  20816562.843                       -3321.564          27.000    20816556.099    85240312.934       -2588.464          32.000  
G32  20954724.866   110117824.012        1527.273          45.000    20954714.391    85806041.987        1189.957          42.000  
C08  34699030.224   180686952.849        -303.265          45.000    34699013.452   139718534.451        -234.619          49.000  
C13  34711015.437   180749364.877         -11.798          47.000    34711006.555   139766828.233          -9.204          48.000  
C16  35672456.721   185755842.000          27.706          45.000    35672446.420   143638160.145          21.488          48.000  
C25  22166443.538   115426482.390       -2474.012          37.000                                                                  
C32  21083831.181   109789045.219         927.104          50.000                                                                  
C06  35372012.547   184191352.960         207.662          44.000    35371997.217   142428374.063         160.461          47.000  
G25  20589502.269   108198574.297        2635.719          45.000    20589493.285    84310535.061        2053.736          41.000  
G10  19552492.262   102749036.123        1156.818          50.000    19552480.768    80064140.276         901.337          44.000  
G28  22129445.149   116291027.626        2644.990          40.000    22129434.343    90616365.431        2061.300          41.000  
C23  20738550.625   107991072.833         372.803          51.000                                                                  
C09  36843912.463   191855922.151         305.371          41.000    36843900.209   148355115.979         236.177          47.000  
C33  26008111.146                       -2901.086          30.000                                                                  
C37  22968059.725   119600726.956        2740.954          43.000                                                                  
> 2025 10 27 02 47 24.0760000  0 19                     
G12  20785343.000   109227717.019        1003.536          45.000    20785331.332    85112454.079         781.760          41.000  
G15  23130189.659   121549961.550       -3230.028          36.000    23130179.804    94714217.377       -2517.025          33.000  
G18  23443060.641   123194110.660       -3692.890          37.000    23443054.301    95995377.577       -2878.012          36.000  
G23  19184773.513   100816664.328       -1964.550          45.000    19184762.008    78558365.464       -1530.753          47.000  
G24  20816588.293                       -3321.800          27.000    20816581.392    85240416.525       -2589.589          32.000  
G32  20954713.233   110117762.911        1527.388          45.000    20954702.785    85805994.390        1189.897          42.000  
C08  34699032.523   180686964.982        -303.326          45.000    34699015.776   139718543.827        -234.515          49.000  
C13  34711015.543   180749365.342         -11.749          47.000    34711006.629   139766828.590          -9.070          48.000  
C16  35672456.515   185755840.884          27.769          45.000    35672446.197   143638159.287          21.417          48.000  
C25  22166462.558   115426581.338       -2473.769          37.000                                                                  
C32  21083824.045   109789008.134         927.061          50.000                                                                  
C06  35372010.951   184191344.662         207.484          44.000    35371995.605   142428367.631         160.659          47.000  
G25  20589482.219   108198468.874        2635.610          45.000    20589473.232    84310452.924        2053.487          41.000  
G10  19552483.422   102748989.844        1156.879          50.000    19552471.964    80064104.207         901.563          44.000  
G28  22129425.019   116290921.808        2645.161          40.000    22129414.226    90616282.977        2061.301          41.000  
C23  20738547.785   107991057.918         372.793          51.000                                                                  
C09  36843910.116   191855909.923         305.567          41.000    36843897.863   148355106.527         236.254          47.000  
C33  26008133.428                       -2900.658          30.000                                                                  
C37  22968038.656   119600617.312        2740.967          43.000                                                                  
> 2025 10 27 02 47 24.1160000  0 19                     
G12  20785335.383   109227676.881        1003.458          45.000    20785323.703    85112422.797         781.884          41.000  
G15  23130214.240   121550090.747       -3229.958          36.000    23130204.386    94714318.058       -2517.128          33.000  
G18  23443088.747   123194258.386       -3693.102          37.000    23443082.417    95995492.667       -2877.600          36.000  
G23  19184788.451   100816742.899       -1964.425          45.000    19184776.969    78558426.688       -1530.677          47.000  
G24  20816613.405                       -3322.032          27.000    20816606.630    85240520.018       -2588.400          32.000  
G32  20954701.614   110117701.815        1527.388          45.000    20954691.157    85805946.767        1190.341          42.000  
C08  34699034.865   180686977.106        -303.204          45.000    34699018.056   139718553.205        -234.479          49.000  
C13  34711015.644   180749365.796         -11.493          47.000    34711006.708   139766828.939          -8.813          48.000  
C16  35672456.295   185755839.766          27.846          45.000    35672445.976   143638158.416          21.622          48.000  
C25  22166481.564   115426680.295       -2473.865          37.000                                                                  
C32  21083816.931   109788971.046         927.120          50.000                                                                  
C06  35372009.338   184191336.348         207.705          44.000    35371993.985   142428361.205         160.642          47.000  
G25  20589462.167   108198363.441        2635.716          45.000    20589453.170    84310370.773        2053.604          41.000  
G10  19552474.597   102748943.558        1157.062          50.000    19552463.133    80064068.144         901.563          44.000  
G28  22129404.902   116290816.008        2645.020          40.000    22129394.078    90616200.527        2061.259          41.000  
C23  20738544.953   107991043.002         372.848          51.000                                                                  
C09  36843907.787   191855897.694         305.692          41.000    36843895.539   148355097.071         236.348          47.000  
C33  26008155.705                       -2899.967          30.000                                                                  
C37  22968017.614   119600507.653        2741.278          43.000                                                                  
> 2025 10 27 02 47 24.1560000  0 19                     
G12  20785327.743   109227636.734        1003.591          45.000    20785316.051    85112391.510         782.080          41.000  
G15  23130238.835   121550219.914       -3229.370          36.000    23130228.980    94714418.732       -2517.087          33.000  
G18  23443116.870   123194406.108       -3693.108          37.000    23443110.538    95995607.791       -2878.009          36.000  
G23  19184803.403   100816821.459       -1964.125          45.000    19184791.924    78558487.912       -1530.634          47.000  
G24  20816639.007                       -3322.128          27.000    20816631.913    85240623.519       -2587.674          32.000  
G32  20954689.988   110117640.708        1527.576          45.000    20954679.550    85805899.144        1190.566          42.000  
C08  34699037.187   180686989.233        -303.192          45.000    34699020.375   139718562.578        -234.369          49.000  
C13  34711015.723   180749366.250         -11.359          47.000    34711006.789   139766829.292          -8.765          48.000  
C16  35672456.111   185755838.644          27.963          45.000    35672445.784   143638157.547          21.739          48.000  
C25  22166500.574   115426779.256       -2473.996          37.000                                                                  
C32  21083809.883   109788933.952         927.282          50.000                                                                  
C06  35372007.719   184191328.025         207.972          44.000    35371992.368   142428354.774         160.728          47.000  
G25  20589442.129   108198258.014        2635.635          45.000    20589433.093    84310288.607        2053.944          41.000  
G10  19552465.783   102748897.273        1157.123          50.000    19552454.329    80064032.085         901.489          44.000  
G28  22129384.732   116290710.188        2645.308          40.000    22129373.942    90616118.075        2061.291          41.000  
C23  20738542.115   107991028.080         372.977          51.000                                                                  
C09  36843905.452   191855885.465         305.740          41.000    36843893.192   148355087.619         236.308          47.000  
C33  26008177.986                       -2899.614          30.000                                                                  
C37  22967996.544   119600398.010        2741.179          43.000                                                                  
> 2025 10 27 02 47 24.1960000  0 19                     
G12  20785320.098   109227596.585        1003.679          45.000    20785308.395    85112360.235         781.981          41.000  
G15  23130263.399   121550349.100       -3229.478          36.000    23130253.575    94714519.378       -2516.488          33.000  
G18  23443144.983   123194553.821       -3692.928          37.000    23443138.647    95995722.889       -2877.697          36.000  
G23  19184818.369   100816900.029       -1964.184          45.000    19184806.888    78558549.138       -1530.659          47.000  
G24  20816664.088                       -3322.238          27.000    20816657.221    85240727.103       -2588.881          32.000  
G32  20954678.375   110117579.597        1527.740          45.000    20954667.914    85805851.533        1190.400          42.000  
C08  34699039.539   180687001.361        -303.180          45.000    34699022.711   139718571.948        -234.271          49.000  
C13  34711015.802   180749366.705         -11.328          47.000    34711006.868   139766829.644          -8.777          48.000  
C16  35672455.920   185755837.515          28.149          45.000    35672445.566   143638156.677          21.780          48.000  
C25  22166519.575   115426878.214       -2474.027          37.000                                                                  
C32  21083802.762   109788896.857         927.374          50.000                                                                  
C06  35372006.107   184191319.713         207.875          44.000    35371990.753   142428348.349         160.659          47.000  
G25  20589422.047   108198152.574        2635.850          45.000    20589413.026    84310206.461        2053.767          41.000  
G10  19552457.011   102748850.992        1157.068          50.000    19552445.525    80063996.014         901.642          44.000  
G28  22129364.549   116290604.345        2645.828          40.000    22129353.797    90616035.622        2061.309          41.000  
C23  20738539.253   107991013.160         373.006          51.000                                                                  
C09  36843903.092   191855873.225         305.958          41.000    36843890.843   148355078.167         236.289          47.000  
C33  26008200.274                       -2899.551          30.000                                                                  
C37  22967975.498   119600288.360        2741.217          43.000                                                                  
> 2025 10 27 02 47 24.2360000  0 19                     
G12  20785312.451   109227556.443        1003.584          45.000    20785300.752    85112328.951         782.058          41.000  
G15  23130287.974   121550478.286       -3229.620          36.000    23130278.182    94714620.040       -2516.384          33.000  
G18  23443173.091   123194701.548       -3693.116          37.000    23443166.754    95995837.994       -2877.690          37.000  
G23  19184833.343   100816978.601       -1964.272          45.000    19184821.866    78558610.359       -1530.572          47.000  
G24  20816689.426                       -3322.084          27.000    20816682.528                       -2588.134          32.000  
G32  20954666.761   110117518.494        1527.664          45.000    20954656.289    85805803.924        1190.282          42.000  
C08  34699041.868   180687013.489        -303.192          45.000    34699025.055   139718581.327        -234.387          49.000  
C13  34711015.843   180749367.165         -11.444          47.000    34711006.963   139766830.004          -8.936          48.000  
C16  35672455.699   185755836.400          27.959          45.000    35672445.340   143638155.817          21.619          48.000  
C25  22166538.602   115426977.158       -2473.708          37.000                                                                  
C32  21083795.609   109788859.767         927.313          50.000                                                                  
C06  35372004.513   184191311.396         207.885          44.000    35371989.152   142428341.917         160.723          47.000  
G25  20589401.988   108198047.151        2635.679          45.000    20589392.930    84310124.303        2053.851          41.000  
G10  19552448.216   102748804.713        1156.989          50.000    19552436.706    80063959.951         901.563          44.000  
G28  22129344.412   116290498.538        2645.451          40.000    22129333.672    90615953.166        2061.359          41.000  
C23  20738536.357   107990998.242         372.958          51.000                                                                  
C09  36843900.750   191855861.000         305.746          41.000    36843888.502   148355068.707         236.415          47.000  
C33  26008222.600                       -2900.898          30.000                                                                  
C37  22967954.434   119600178.705        2741.330          43.000                                                                  
> 2025 10 27 02 47 24.2760000  0 19                     
G12  20785304.813   109227516.299        1003.564          45.000    20785293.105    85112297.677         781.927          41.000  
G15  23130312.563   121550607.471       -3229.640          36.000    23130302.774    94714720.702       -2516.394          33.000  
G18  23443201.193   123194849.266       -3693.061          37.000    23443194.883    95995953.090       -2877.536          37.000  
G23  19184848.285   100817057.178       -1964.440          45.000    19184836.818    78558671.585       -1530.616          47.000  
G24  20816715.018                       -3322.153          27.000    20816707.800                       -2588.299          31.000  
G32  20954655.139   110117457.393        1527.577          45.000    20954644.649    85805756.320        1190.129          42.000  
C08  34699044.217   180687025.611        -303.088          45.000    34699027.392   139718590.706        -234.491          49.000  
C13  34711015.916   180749367.625         -11.499          47.000    34711007.035   139766830.356          -8.850          48.000  
C16  35672455.486   185755835.282          27.885          45.000    35672445.153   143638154.954          21.568          48.000  
C25  22166557.599   115427076.119       -2473.928          37.000                                                                  
C32  21083788.466   109788822.677         927.261          50.000                                                                  
C06  35372002.920   184191303.080         207.896          44.000    35371987.555   142428335.488         160.715          47.000  
G25  20589381.963   108197941.726        2635.608          45.000    20589372.862    84310042.149        2053.843          41.000  
G10  19552439.446   102748758.438        1156.866          50.000    19552427.914    80063923.898         901.379          44.000  
G28  22129324.265   116290392.706        2645.688          40.000    22129313.544    90615870.715        2061.277          41.000  
C23  20738533.481   107990983.329         372.835          51.000                                                                  
C09  36843898.420   191855848.772         305.645          41.000    36843886.159   148355059.253         236.382          47.000  
C33  26008244.890                       -2900.912          30.000                                                                  
C37  22967933.382   119600069.056        2741.322          43.000                                                                  
> 2025 10 27 02 47 24.3160000  0 19                     
G12  20785297.207   109227476.164        1003.417          45.000    20785285.469    85112266.387         782.135          41.000  
G15  23130337.164   121550736.668       -3229.882          36.000    23130327.349    94714821.394       -2517.020          33.000  
G18  23443229.288   123194996.969       -3692.748          37.000    23443222.999    95996068.203       -2877.777          37.000  
G23  19184863.258   100817135.756       -1964.532          45.000    19184851.768    78558732.810       -1530.635          47.000  
G24  20816740.401                       -3321.677          27.000    20816733.076    85241037.668       -2587.941          31.000  
G32  20954643.513   110117396.297        1527.437          45.000    20954632.998    85805708.701        1190.272          42.000  
C08  34699046.545   180687037.737        -303.119          45.000    34699029.736   139718600.089        -234.595          49.000  
C13  34711015.997   180749368.084         -11.517          47.000    34711007.130   139766830.707          -8.820          48.000  
C16  35672455.264   185755834.163          27.888          45.000    35672444.938   143638154.083          21.680          48.000  
C25  22166576.614   115427175.085       -2474.088          37.000                                                                  
C32  21083781.324   109788785.593         927.107          50.000                                                                  
C06  35372001.322   184191294.773         207.723          44.000    35371985.966   142428329.062         160.656          47.000  
G25  20589361.883   108197836.294        2635.689          45.000    20589352.814    84309959.984        2054.032          41.000  
G10  19552430.625   102748712.164        1156.799          50.000    19552419.108    80063887.838         901.410          44.000  
G28  22129304.141   116290286.906        2645.213          40.000    22129293.389    90615788.257        2061.333          41.000  
C23  20738530.619   107990968.418         372.754          51.000                                                                  
C09  36843896.038   191855836.552         305.496          41.000    36843883.838   148355049.798         236.337          47.000  
C33  26008267.196                       -2900.442          30.000                                                                  
C37  22967912.302   119599959.406        2741.277          43.000                                                                  
> 2025 10 27 02 47 24.3560000  0 19                     
G12  20785289.577   109227436.029        1003.353          45.000    20785277.840    85112235.117         781.861          41.000  
G15  23130361.752   121550865.875       -3230.184          36.000    23130351.922    94714922.054       -2516.888          33.000  
G18  23443257.399   123195144.673       -3692.583          37.000    23443251.114    95996183.288       -2877.367          36.000  
G23  19184878.191   100817214.332       -1964.531          45.000    19184866.738    78558794.045       -1530.827          47.000  
G24  20816764.964                       -3321.863          27.000    20816758.368    85241141.240       -2588.794          31.000  
G32  20954631.905   110117335.201        1527.328          45.000    20954621.376    85805661.094        1190.149          42.000  
C08  34699048.877   180687049.860        -303.070          45.000    34699032.018   139718609.462        -234.436          49.000  
C13  34711016.112   180749368.541         -11.505          47.000    34711007.232   139766831.055          -8.716          48.000  
C16  35672455.061   185755833.044          27.883          45.000    35672444.712   143638153.216          21.658          48.000  
C25  22166595.605   115427274.049       -2474.162          37.000                                                                  
C32  21083774.241   109788748.501         927.200          50.000                                                                  
C06  35371999.736   184191286.464         207.676          44.000    35371984.431   142428322.631         160.715          47.000  
G25  20589341.820   108197730.866        2635.661          45.000    20589332.750    84309877.834        2053.849          41.000  
G10  19552421.814   102748665.888        1156.836          50.000    19552410.342    80063851.783         901.361          44.000  
G28  22129284.007   116290181.099        2645.123          40.000    22129273.258    90615705.797        2061.419          41.000  
C23  20738527.775   107990953.503         372.784          51.000                                                                  
C09  36843893.693   191855824.333         305.399          41.000    36843881.504   148355040.345         236.338          47.000  
C33  26008289.492                       -2899.864          30.000                                                                  
C37  22967891.244   119599849.764        2741.125          43.000                                                                  
> 2025 10 27 02 47 24.3960000  0 19                     
G12  20785281.952   109227395.882        1003.550          45.000    20785270.216    85112203.849         781.716          41.000  
G15  23130386.324   121550995.038       -3229.568          36.000    23130376.508    94715022.705       -2516.647          32.000  
G18  23443285.515   123195292.393       -3692.787          37.000    23443279.206    95996298.381       -2877.281          36.000  
G23  19184893.144   100817292.908       -1964.505          45.000    19184881.667    78558855.277       -1530.870          47.000  
G24  20816790.466                       -3321.780          27.000    20816783.672    85241244.749       -2588.110          31.000  
G32  20954620.254   110117274.094        1527.521          45.000    20954609.726    85805613.484        1190.172          42.000  
C08  34699051.182   180687061.982        -303.076          45.000    34699034.357   139718618.831        -234.271          49.000  
C13  34711016.205   180749368.994         -11.395          47.000    34711007.345   139766831.411          -8.838          48.000  
C16  35672454.869   185755831.919          28.045          45.000    35672444.521   143638152.342          21.803          48.000  
C25  22166614.618   115427373.003       -2474.031          37.000                                                                  
C32  21083767.116   109788711.411         927.212          50.000                                                                  
C06  35371998.175   184191278.138         207.985          44.000    35371982.848   142428316.195         160.833          47.000  
G25  20589321.766   108197625.433        2635.775          45.000    20589312.685    84309795.706        2053.349          41.000  
G10  19552412.991   102748619.607        1156.946          50.000    19552401.552    80063815.714         901.611          44.000  
G28  22129263.857   116290075.271        2645.461          40.000    22129253.117    90615623.343        2061.370          41.000  
C23  20738524.943   107990938.583         372.908          51.000                                                                  
C09  36843891.353   191855812.100         305.654          41.000    36843879.150   148355030.885         236.414          47.000  
C33  26008311.732                       -2899.140          30.000                                                                  
C37  22967870.190   119599740.124        2741.015          43.000                                                                  
> 2025 10 27 02 47 24.4360000  0 19                     
G12  20785274.312   109227355.738        1003.592          45.000    20785262.585    85112172.573         781.752          41.000  
G15  23130410.906   121551124.218       -3229.412          36.000    23130401.085    94715123.374       -2516.660          32.000  
G18  23443313.621   123195440.117       -3692.994          37.000    23443307.309    95996413.485       -2877.547          36.000  
G23  19184908.109   100817371.487       -1964.523          45.000    19184896.622    78558916.507       -1530.831          47.000  
G24  20816816.156                       -3321.643          28.000    20816808.968    85241348.290       -2588.235          31.000  
G32  20954608.614   110117212.993        1527.527          45.000    20954598.087    85805565.878        1190.122          42.000  
C08  34699053.499   180687074.124        -303.461          45.000    34699036.675   139718628.206        -234.332          48.000  
C13  34711016.281   180749369.462         -11.609          47.000    34711007.452   139766831.768          -8.923          48.000  
C16  35672454.691   185755830.808          27.878          45.000    35672444.343   143638151.480          21.635          48.000  
C25  22166633.611   115427471.953       -2473.832          37.000                                                                  
C32  21083759.985   109788674.328         927.097          50.000                                                                  
C06  35371996.564   184191269.834         207.726          44.000    35371981.251   142428309.765         160.775          47.000  
G25  20589301.686   108197520.012        2635.588          45.000    20589292.642    84309713.565        2053.350          41.000  
G10  19552404.227   102748573.335        1156.824          50.000    19552392.739    80063779.650         901.660          44.000  
G28  22129243.739   116289969.462        2645.317          40.000    22129232.972    90615540.903        2061.071          41.000  
C23  20738522.071   107990923.671         372.822          51.000                                                                  
C09  36843888.984   191855799.862         305.878          41.000    36843876.824   148355021.428         236.412          47.000  
C33  26008334.003                       -2899.760          30.000                                                                  
C37  22967849.146   119599630.473        2741.177          43.000                                                                  
> 2025 10 27 02 47 24.4760000  0 19                     
G12  20785266.685   109227315.618        1003.156          45.000    20785254.940    85112141.294         781.851          41.000  
G15  23130435.505   121551253.431       -3230.011          36.000    23130425.706    94715224.026       -2516.503          32.000  
G18  23443341.719   123195587.837       -3693.077          37.000    23443335.424    95996528.607       -2877.988          36.000  
G23  19184923.056   100817450.061       -1964.429          45.000    19184911.568    78558977.738       -1530.831          47.000  
G24  20816841.492                       -3321.398          28.000    20816834.250    85241451.851       -2588.667          31.000  
G32  20954596.963   110117151.892        1527.498          45.000    20954586.448    85805518.271        1190.090          42.000  
C08  34699055.865   180687086.253        -303.369          45.000    34699039.014   139718637.587        -234.479          48.000  
C13  34711016.369   180749369.922         -11.566          47.000    34711007.528   139766832.129          -9.033          48.000  
C16  35672454.495   185755829.690          27.901          45.000    35672444.137   143638150.626          21.409          48.000  
C25  22166652.613   115427570.937       -2474.381          37.000                                                                  
C32  21083752.875   109788637.239         927.138          50.000                                                                  
C06  35371994.938   184191261.528         207.603          44.000    35371979.666   142428303.341         160.645          47.000  
G25  20589281.615   108197414.600        2635.360          45.000    20589272.587    84309631.410        2053.625          41.000  
G10  19552395.424   102748527.062        1156.781          50.000    19552383.932    80063743.598         901.447          44.000  
G28  22129223.604   116289863.641        2645.473          40.000    22129212.828    90615458.446        2061.260          41.000  
C23  20738519.154   107990908.768         372.622          51.000                                                                  
C09  36843886.641   191855787.651         305.459          41.000    36843874.472   148355011.983         236.161          47.000  
C33  26008356.324                       -2899.999          30.000                                                                  
C37  22967828.083   119599520.834        2741.020          43.000                                                                  
> 2025 10 27 02 47 24.5160000  0 19                     
G12  20785259.078   109227275.491        1003.053          45.000    20785247.326    85112110.026         781.701          41.000  
G15  23130460.078   121551382.622       -3229.994          36.000    23130450.303    94715324.697       -2516.675          32.000  
G18  23443369.834   123195735.553       -3693.050          37.000    23443363.536    95996643.726       -2878.096          36.000  
G23  19184937.994   100817528.641       -1964.473          45.000    19184926.512    78559038.960       -1530.663          47.000  
G24  20816866.598                       -3321.369          28.000    20816859.537    85241555.361       -2587.988          31.000  
G32  20954585.345   110117090.797        1527.361          45.000    20954574.822    85805470.652        1190.304          42.000  
C08  34699058.156   180687098.380        -303.259          45.000    34699041.344   139718646.972        -234.631          49.000  
C13  34711016.464   180749370.383         -11.554          47.000    34711007.640   139766832.485          -8.984          48.000  
C16  35672454.292   185755828.577          27.815          45.000    35672443.915   143638149.769          21.330          48.000  
C25  22166671.614   115427669.901       -2474.278          37.000                                                                  
C32  21083745.713   109788600.155         927.088          50.000                                                                  
C06  35371993.358   184191253.218         207.642          44.000    35371978.063   142428296.922         160.475          47.000  
G25  20589261.527   108197309.164        2635.673          45.000    20589252.518    84309549.256        2053.746          41.000  
G10  19552386.608   102748480.790        1156.763          50.000    19552375.101    80063707.538         901.471          44.000  
G28  22129203.480   116289757.842        2645.098          40.000    22129192.701    90615375.998        2061.166          41.000  
C23  20738516.316   107990893.856         372.705          51.000                                                                  
C09  36843884.279   191855775.424         305.499          41.000    36843872.125   148355002.535         236.106          47.000  
C33  26008378.616                       -2901.226          30.000                                                                  
C37  22967807.032   119599411.195        2740.953          43.000                                                                  
> 2025 10 27 02 47 24.5560000  0 19                     
G12  20785251.445   109227235.352        1003.248          45.000    20785239.674    85112078.751         781.734          41.000  
G15  23130484.653   121551511.791       -3229.537          36.000    23130474.849    94715425.361       -2516.665          32.000  
G18  23443397.942   123195883.284       -3693.254          37.000    23443391.659    95996758.835       -2877.877          36.000  
G23  19184952.974   100817607.226       -1964.622          45.000    19184941.464    78559100.191       -1530.751          47.000  
G24  20816892.141                       -3321.663          28.000    20816884.849    85241658.924       -2588.722          31.000  
G32  20954573.721   110117029.698        1527.418          45.000    20954563.204    85805423.044        1190.209          42.000  
C08  34699060.479   180687110.506        -303.192          45.000    34699043.674   139718656.355        -234.644          49.000  
C13  34711016.560   180749370.840         -11.499          47.000    34711007.727   139766832.843          -8.984          48.000  
C16  35672454.105   185755827.456          27.937          45.000    35672443.712   143638148.907          21.415          48.000  
C25  22166690.642   115427768.851       -2473.934          37.000                                                                  
C32  21083738.610   109788563.063         927.231          50.000                                                                  
C06  35371991.755   184191244.905         207.759          44.000    35371976.461   142428290.498         160.510          47.000  
G25  20589241.449   108197203.745        2635.526          45.000    20589232.492    84309467.107        2053.757          41.000  
G10  19552377.798   102748434.516        1156.805          50.000    19552366.290    80063671.486         901.306          44.000  
G28  22129183.344   116289652.038        2645.045          40.000    22129172.579    90615293.546        2061.217          41.000  
C23  20738513.498   107990878.943         372.771          51.000                                                                  
C09  36843881.910   191855763.204         305.437          41.000    36843869.808   148354993.080         236.202          47.000  
C33  26008400.898                       -2901.092          30.000                                                                  
C37  22967785.991   119599301.546        2741.101          43.000                                                                  
> 2025 10 27 02 47 24.5960000  0 19                     
G12  20785243.825   109227195.211        1003.422          45.000    20785232.030    85112047.468         781.902          41.000  
G15  23130509.248   121551641.000       -3229.994          36.000    23130499.419    94715526.032       -2516.739          32.000  
G18  23443426.062   123196030.987       -3692.858          37.000    23443419.758    95996873.910       -2877.203          37.000  
G23  19184967.922   100817685.805       -1964.546          45.000    19184956.429    78559161.422       -1530.801          47.000  
G24  20816916.710                       -3321.739          28.000    20816910.080    85241762.442       -2588.239          31.000  
G32  20954562.101   110116968.588        1527.626          45.000    20954551.555    85805375.420        1190.414          42.000  
C08  34699062.866   180687122.623        -302.985          45.000    34699046.008   139718665.735        -234.589          49.000  
C13  34711016.651   180749371.298         -11.450          47.000    34711007.808   139766833.193          -8.838          48.000  
C16  35672453.896   185755826.333          28.039          45.000    35672443.498   143638148.036          21.652          48.000  
C25  22166709.632   115427867.803       -2473.812          37.000                                                                  
C32  21083731.466   109788525.978         927.177          50.000                                                                  
C06  35371990.133   184191236.581         208.014          44.000    35371974.850   142428284.066         160.685          47.000  
G25  20589221.406   108197098.312        2635.669          45.000    20589212.425    84309384.945        2053.989          41.000  
G10  19552368.999   102748388.234        1156.952          50.000    19552357.474    80063635.428         901.324          44.000  
G28  22129163.188   116289546.218        2645.295          40.000    22129152.446    90615211.084        2061.453          41.000  
C23  20738510.637   107990864.033         372.751          51.000                                                                  
C09  36843879.570   191855750.977         305.558          41.000    36843867.439   148354983.626         236.285          47.000  
C33  26008423.178                       -2900.827          30.000                                                                  
C37  22967764.952   119599191.893        2741.281          43.000                                                                  
> 2025 10 27 02 47 24.6360000  0 19                     
G12  20785236.180   109227155.080        1003.350          45.000    20785224.378    85112016.193         781.855          41.000  
G15  23130533.824   121551770.170       -3229.530          36.000    23130523.999    94715626.692       -2516.620          32.000  
G18  23443454.172   123196178.682       -3692.519          37.000    23443447.852    95996988.985       -2876.778          37.000  
G23  19184982.887   100817764.385       -1964.521          45.000    19184971.404    78559222.655       -1530.863          47.000  
G24  20816942.611                       -3322.029          28.000    20816935.364    85241865.976       -2588.181          31.000  
G32  20954550.465   110116907.486        1527.595          45.000    20954539.901    85805327.807        1190.327          42.000  
C08  34699065.206   180687134.751        -303.094          45.000    34699048.339   139718675.106        -234.363          49.000  
C13  34711016.714   180749371.759         -11.462          47.000    34711007.920   139766833.544          -8.771          48.000  
C16  35672453.700   185755825.213          28.029          45.000    35672443.291   143638147.164          21.770          48.000  
C25  22166728.615   115427966.761       -2473.883          37.000                                                                  
C32  21083724.323   109788488.892         927.131          50.000                                                                  
C06  35371988.542   184191228.269         207.914          44.000    35371973.194   142428277.631         160.820          47.000  
G25  20589201.367   108196992.893        2635.502          45.000    20589192.380    84309302.799        2053.806          41.000  
G10  19552360.196   102748341.957        1156.970          50.000    19552348.690    80063599.365         901.483          44.000  
G28  22129143.044   116289440.390        2645.643          40.000    22129132.307    90615128.641        2061.177          41.000  
C23  20738507.778   107990849.123         372.765          51.000                                                                  
C09  36843877.196   191855738.736         305.827          41.000    36843865.074   148354974.167         236.410          47.000  
C33  26008445.484                       -2899.389          30.000                                                                  
C37  22967743.898   119599082.245        2741.246          43.000                                                                  
> 2025 10 27 02 47 24.6760000  0 19                     
G12  20785228.538   109227114.945        1003.369          45.000    20785216.733    85111984.916         781.916          41.000  
G15  23130558.410   121551899.354       -3229.403          36.000    23130548.585    94715727.390       -2517.113          33.000  
G18  23443482.286   123196326.395       -3692.652          37.000    23443475.949    95997104.074       -2876.940          37.000  
G23  19184997.851   100817842.965       -1964.471          45.000    19184986.346    78559283.886       -1530.830          47.000  
G24  20816967.515                       -3321.989          28.000    20816960.676    85241969.509       -2588.172          31.000  
G32  20954538.859   110116846.383        1527.587          45.000    20954528.271    85805280.212        1189.993          42.000  
C08  34699067.548   180687146.872        -303.040          45.000    34699050.639   139718684.478        -234.302          49.000  
C13  34711016.847   180749372.211         -11.353          47.000    34711008.029   139766833.896          -8.789          48.000  
C16  35672453.494   185755824.090          28.044          45.000    35672443.069   143638146.293          21.804          48.000  
C25  22166747.640   115428065.740       -2474.369          37.000                                                                  
C32  21083717.225   109788451.801         927.202          50.000                                                                  
C06  35371986.953   184191219.959         207.798          44.000    35371971.566   142428271.200         160.835          47.000  
G25  20589181.325   108196887.465        2635.589          45.000    20589172.292    84309220.648        2053.764          41.000  
G10  19552351.419   102748295.685        1156.842          50.000    19552339.881    80063563.307         901.471          44.000  
G28  22129122.904   116289334.561        2645.859          40.000    22129112.153    90615046.182        2061.385          41.000  
C23  20738504.925   107990834.210         372.803          51.000                                                                  
C09  36843874.889   191855726.515         305.590          41.000    36843862.698   148354964.707         236.490          47.000  
C33  26008467.761                       -2899.336          30.000                                                                  
C37  22967722.817   119598972.604        2741.117          43.000                                                                  
> 2025 10 27 02 47 24.7160000  0 19                     
G12  20785220.891   109227074.807        1003.426          45.000    20785209.077    85111953.638         781.954          41.000  
G15  23130583.009   121552028.567       -3229.989          36.000    23130573.172    94715828.058       -2516.998          33.000  
G18  23443510.383   123196474.117       -3692.903          37.000    23443504.053    95997219.196       -2877.651          37.000  
G23  19185012.815   100817921.543       -1964.453          45.000    19185001.294    78559345.120       -1530.867          47.000  
G24  20816992.792                       -3321.899          28.000    20816985.970    85242073.081       -2588.884          31.000  
G32  20954527.226   110116785.277        1527.638          45.000    20954516.640    85805232.589        1190.316          42.000  
C08  34699069.862   180687159.003        -303.229          45.000    34699052.949   139718693.853        -234.338          49.000  
C13  34711016.903   180749372.672         -11.481          47.000    34711008.149   139766834.255          -8.911          48.000  
C16  35672453.247   185755822.979          27.841          45.000    35672442.855   143638145.429          21.688          48.000  
C25  22166766.644   115428164.697       -2474.154          37.000                                                                  
C32  21083710.104   109788414.707         927.298          50.000                                                                  
C06  35371985.345   184191211.638         207.896          44.000    35371969.947   142428264.770         160.797          47.000  
G25  20589161.259   108196782.032        2635.740          45.000    20589152.235    84309138.506        2053.584          41.000  
G10  19552342.640   102748249.420        1156.628          50.000    19552331.092    80063527.260         901.245          44.000  
G28  22129102.768   116289228.760        2645.319          40.000    22129092.001    90614963.731        2061.315          41.000  
C23  20738502.050   107990819.297         372.809          51.000                                                                  
C09  36843872.540   191855714.297         305.416          41.000    36843860.353   148354955.257         236.343          47.000  
C33  26008490.053                       -2899.629          30.000                                                                  
C37  22967701.742   119598862.959        2741.072          43.000                                                                  
> 2025 10 27 02 47 24.7560000  0 19                     
G12  20785213.259   109227034.675        1003.320          45.000    20785201.406    85111922.366         781.829          41.000  
G15  23130607.626   121552157.751       -3229.853          36.000    23130597.753    94715928.736       -2517.040          33.000  
G18  23443538.482   123196621.828       -3692.873          37.000    23443532.167    95997334.307       -2877.806          37.000  
G23  19185027.760   100818000.121       -1964.447          45.000    19185016.222    78559406.348       -1530.742          47.000  
G24  20817018.309                       -3321.685          28.000    20817011.263    85242176.562       -2587.667          32.000  
G32  20954515.621   110116724.173        1527.618          45.000    20954505.027    85805184.990        1190.076          42.000  
C08  34699072.145   180687171.131        -303.259          45.000    34699055.271   139718703.234        -234.509          49.000  
C13  34711016.968   180749373.126         -11.407          47.000    34711008.252   139766834.609          -8.905          48.000  
C16  35672453.059   185755821.853          27.990          45.000    35672442.636   143638144.565          21.597          48.000  
C25  22166785.651   115428263.656       -2473.990          37.000                                                                  
C32  21083702.950   109788377.622         927.194          50.000                                                                  
C06  35371983.756   184191203.327         207.797          44.000    35371968.368   142428258.341         160.736          47.000  
G25  20589141.207   108196676.613        2635.562          45.000    20589132.182    84309056.366        2053.451          41.000  
G10  19552333.833   102748203.154        1156.573          50.000    19552322.297    80063491.202         901.324          44.000  
G28  22129082.666   116289122.945        2645.353          40.000    22129071.868    90614881.280        2061.271          41.000  
C23  20738499.163   107990804.391         372.712          51.000                                                                  
C09  36843870.176   191855702.071         305.462          41.000    36843857.998   148354945.799         236.400          47.000  
C33  26008512.384                       -2900.606          30.000                                                                  
C37  22967680.710   119598753.307        2741.215          43.000                                                                  
> 2025 10 27 02 47 24.7960000  0 19                     
G12  20785205.621   109226994.542        1003.281          45.000    20785193.763    85111891.117         781.366          41.000  
G15  23130632.224   121552286.915       -3229.321          36.000    23130622.320    94716029.376       -2516.493          33.000  
G18  23443566.579   123196769.536       -3692.704          37.000    23443560.297    95997449.402       -2877.594          37.000  
G23  19185042.700   100818078.702       -1964.510          45.000    19185031.155    78559467.573       -1530.675          47.000  
G24  20817043.425                       -3321.634          28.000    20817036.567    85242280.106       -2588.199          32.000  
G32  20954503.984   110116663.074        1527.513          45.000    20954493.377    85805137.366        1190.428          42.000  
C08  34699074.442   180687183.265        -303.351          45.000    34699057.574   139718712.610        -234.485          49.000  
C13  34711017.065   180749373.593         -11.609          47.000    34711008.372   139766834.970          -9.003          48.000  
C16  35672452.844   185755820.731          28.027          45.000    35672442.425   143638143.704          21.494          48.000  
C25  22166804.650   115428362.601       -2473.681          37.000                                                                  
C32  21083695.825   109788340.536         927.148          50.000                                                                  
C06  35371982.157   184191195.017         207.754          44.000    35371966.789   142428251.919         160.552          47.000  
G25  20589121.131   108196571.194        2635.468          45.000    20589112.122    84308974.211        2053.660          41.000  
G10  19552324.997   102748156.878        1156.763          50.000    19552313.485    80063455.148         901.337          44.000  
G28  22129062.510   116289017.117        2645.571          40.000    22129051.714    90614798.830        2061.272          41.000  
C23  20738496.302   107990789.484         372.648          51.000                                                                  
C09  36843867.829   191855689.826         305.923          41.000    36843855.683   148354936.345         236.382          47.000  
C33  26008534.615                       -2900.283          30.000                                                                  
C37  22967659.636   119598643.670        2741.048          43.000                                                                  
> 2025 10 27 02 47 24.8360000  0 19                     
G12  20785197.991   109226954.417        1003.114          45.000    20785186.113    85111859.843         781.575          41.000  
G15  23130656.787   121552416.110       -3229.668          36.000    23130646.920    94716130.018       -2516.047          33.000  
G18  23443594.659   123196917.241       -3692.638          37.000    23443588.406    95997564.507       -2877.616          37.000  
G23  19185057.677   100818157.288       -1964.634          45.000    19185046.131    78559528.802       -1530.695          47.000  
G24  20817068.862                       -3321.843          28.000    20817061.857    85242383.648       -2588.539          32.000  
G32  20954492.352   110116601.972        1527.475          45.000    20954481.759    85805089.745        1190.533          42.000  
C08  34699076.792   180687195.388        -303.198          45.000    34699059.916   139718721.990        -234.534          49.000  
C13  34711017.118   180749374.054         -11.621          47.000    34711008.469   139766835.322          -8.887          48.000  
C16  35672452.666   185755819.602          28.170          45.000    35672442.219   143638142.836          21.610          48.000  
C25  22166823.643   115428461.557       -2473.854          37.000                                                                  
C32  21083688.703   109788303.448         927.137          50.000                                                                  
C06  35371980.561   184191186.697         207.860          44.000    35371965.201   142428245.483         160.742          47.000  
G25  20589101.059   108196465.758        2635.780          45.000    20589092.054    84308892.047        2054.000          41.000  
G10  19552316.171   102748110.608        1156.744          50.000    19552304.688    80063419.090         901.410          44.000  
G28  22129042.379   116288911.327        2645.004          40.000    22129031.591    90614716.386        2061.110          41.000  
C23  20738493.449   107990774.576         372.670          51.000                                                                  
C09  36843865.473   191855677.594         305.965          41.000    36843853.360   148354926.893         236.326          47.000  
C33  26008556.915                       -2900.037          30.000                                                                  
C37  22967638.581   119598534.030        2740.956          43.000                                                                  
> 2025 10 27 02 47 24.8760000  0 19                     
G12  20785190.343   109226914.283        1003.223          45.000    20785178.490    85111828.559         781.915          41.000  
G15  23130681.388   121552545.307       -3229.861          36.000    23130671.523    94716230.666       -2516.022          33.000  
G18  23443622.777   123197064.960       -3692.830          37.000    23443616.516    95997679.607       -2877.488          37.000  
G23  19185072.627   100818235.871       -1964.665          45.000    19185061.066    78559590.038       -1530.851          47.000  
G24  20817094.545                       -3321.918          28.000    20817087.147    85242487.165       -2588.331          32.000  
G32  20954480.715   110116540.867        1527.528          45.000    20954470.123    85805042.128        1190.487          42.000  
C08  34699079.140   180687207.508        -303.052          45.000    34699062.263   139718731.365        -234.448          49.000  
C13  34711017.202   180749374.507         -11.426          47.000    34711008.611   139766835.671          -8.783          48.000  
C16  35672452.430   185755818.479          28.131          45.000    35672441.999   143638141.966          21.687          48.000  
C25  22166842.641   115428560.521       -2474.085          37.000                                                                  
C32  21083681.565   109788266.358         927.188          50.000                                                                  
C06  35371978.960   184191178.377         207.937          44.000    35371963.594   142428239.051         160.771          47.000  
G25  20589080.983   108196360.349        2635.420          45.000    20589072.011    84308809.901        2053.779          41.000  
G10  19552307.383   102748064.337        1156.763          50.000    19552295.874    80063383.039         901.312          44.000  
G28  22129022.242   116288805.515        2645.081          40.000    22129011.473    90614633.932        2061.255          41.000  
C23  20738490.615   107990759.667         372.671          51.000                                                                  
C09  36843863.106   191855665.370         305.741          41.000    36843850.999   148354917.430         236.482          47.000  
C33  26008579.240                       -2899.802          30.000                                                                  
C37  22967617.512   119598424.367        2741.333          43.000                                                                  
> 2025 10 27 02 47 24.9160000  0 19                     
G12  20785182.676   109226874.147        1003.348          45.000    20785170.840    85111797.278         782.058          41.000  
G15  23130705.954   121552674.483       -3229.619          36.000    23130696.090    94716331.337       -2516.512          33.000  
G18  23443650.887   123197212.662       -3692.729          37.000    23443644.628    95997794.687       -2877.093          37.000  
G23  19185087.590   100818314.453       -1964.645          45.000    19185076.011    78559651.274       -1530.943          47.000  
G24  20817119.509                       -3322.072          28.000    20817112.434    85242590.737       -2588.966          32.000  
G32  20954469.076   110116479.754        1527.714          45.000    20954458.529    85804994.517        1190.390          42.000  
C08  34699081.485   180687219.636        -303.143          45.000    34699064.645   139718740.737        -234.332          49.000  
C13  34711017.301   180749374.961         -11.334          47.000    34711008.724   139766836.026          -8.844          48.000  
C16  35672452.225   185755817.353          28.149          45.000    35672441.802   143638141.096          21.702          48.000  
C25  22166861.647   115428659.481       -2474.152          37.000                                                                  
C32  21083674.468   109788229.269         927.194          50.000                                                                  
C06  35371977.359   184191170.056         208.042          44.000    35371962.001   142428232.619         160.769          47.000  
G25  20589060.918   108196254.913        2635.720          45.000    20589051.967    84308727.749        2053.731          41.000  
G10  19552298.576   102748018.065        1156.769          50.000    19552287.047    80063346.983         901.355          44.000  
G28  22129002.089   116288699.699        2645.194          40.000    22128991.318    90614551.462        2061.666          41.000  
C23  20738487.754   107990744.757         372.710          51.000                                                                  
C09  36843860.762   191855653.146         305.616          41.000    36843848.628   148354907.967         236.556          47.000  
C33  26008601.480                       -2899.990          30.000                                                                  
C37  22967596.428   119598314.734        2741.019          43.000                                                                  
> 2025 10 27 02 47 24.9560000  0 19                     
G12  20785175.049   109226834.017        1003.295          45.000    20785163.192    85111766.008         781.849          41.000  
G15  23130730.506   121552803.656       -3229.426          36.000    23130720.687    94716432.006       -2516.717          33.000  
G18  23443678.981   123197360.361       -3692.567          38.000    23443672.733    95997909.784       -2877.272          37.000  
G23  19185102.570   100818393.044       -1964.782          45.000    19185090.997    78559712.516       -1531.041          47.000  
G24  20817144.714                       -3322.007          28.000    20817137.727    85242694.271       -2588.729          32.000  
G32  20954457.462   110116418.649        1527.660          45.000    20954446.903    85804946.900        1190.424          42.000  
C08  34699083.800   180687231.757        -303.076          45.000    34699066.976   139718750.114        -234.381          49.000  
C13  34711017.385   180749375.426         -11.523          47.000    34711008.800   139766836.384          -8.905          48.000  
C16  35672452.032   185755816.242          27.895          45.000    35672441.587   143638140.229          21.681          48.000  
C25  22166880.663   115428758.461       -2474.569          37.000                                                                  
C32  21083667.361   109788192.179         927.201          50.000                                                                  
C06  35371975.765   184191161.744         207.893          44.000    35371960.407   142428226.185         160.808          47.000  
G25  20589040.847   108196149.490        2635.637          45.000    20589031.934    84308645.624        2053.273          41.000  
G10  19552289.766   102747971.795        1156.726          50.000    19552278.254    80063310.935         901.270          44.000  
G28  22128981.941   116288593.881        2645.338          40.000    22128971.200    90614469.001        2061.675          41.000  
C23  20738484.879   107990729.849         372.709          51.000                                                                  
C09  36843858.421   191855640.919         305.592          41.000    36843846.286   148354898.509         236.491          47.000  
C33  26008623.769                       -2900.270          30.000                                                                  
C37  22967575.368   119598205.084        2741.143          43.000                                                                  
> 2025 10 27 02 47 24.9960000  0 19                     
G12  20785167.402   109226793.887        1003.268          45.000    20785155.542    85111734.732         781.835          41.000  
G15  23130755.101   121552932.837       -3229.486          36.000    23130745.265    94716532.681       -2516.880          33.000  
G18  23443707.113   123197508.069       -3692.649          38.000    23443700.850    95998024.892       -2877.598          37.000  
G23  19185117.508   100818471.631       -1964.774          45.000    19185105.937    78559773.749       -1530.946          47.000  
G24  20817170.250                       -3322.089          28.000    20817163.014    85242797.824       -2588.812          32.000  
G32  20954445.857   110116357.553        1527.452          45.000    20954435.298    85804899.297        1190.165          42.000  
C08  34699086.089   180687243.884        -303.174          45.000    34699069.278   139718759.493        -234.454          49.000  
C13  34711017.498   180749375.880         -11.432          47.000    34711008.902   139766836.742          -8.960          48.000  
C16  35672451.824   185755815.124          27.867          45.000    35672441.382   143638139.366          21.578          48.000  
C25  22166899.649   115428857.434       -2474.557          37.000                                                                  
C32  21083660.206   109788155.093         927.156          50.000                                                                  
C06  35371974.146   184191153.435         207.762          44.000    35371958.783   142428219.753         160.786          47.000  
G25  20589020.804   108196044.072        2635.507          45.000    20589011.881    84308563.466        2053.694          41.000  
G10  19552280.953   102747925.523        1156.781          50.000    19552269.445    80063274.875         901.404          44.000  
G28  22128961.783   116288488.050        2645.673          40.000    22128951.064    90614386.555        2061.349          41.000  
C23  20738481.963   107990714.946         372.580          51.000                                                                  
C09  36843856.076   191855628.672         306.015          41.000    36843843.941   148354889.050         236.453          47.000  
C33  26008646.066                       -2900.388          30.000                                                                  
C37  22967554.299   119598095.433        2741.191          43.000                                                                  
> 2025 10 27 02 47 25.0360000  0 19                     
G12  20785159.741   109226753.748        1003.397          45.000    20785147.916    85111703.467         781.635          41.000  
G15  23130779.686   121553061.996       -3229.069          36.000    23130769.847    94716633.335       -2516.609          33.000  
G18  23443735.207   123197655.779       -3692.748          38.000    23443728.984    95998139.983       -2877.405          37.000  
G23  19185132.465   100818550.208       -1964.562          45.000    19185120.890    78559834.981       -1530.840          47.000  
G24  20817195.656                       -3321.158          28.000    20817188.280    85242901.312       -2587.753          31.000  
G32  20954434.236   110116296.449        1527.493          45.000    20954423.673    85804851.679        1190.304          42.000  
C08  34699088.408   180687256.003        -303.046          45.000    34699071.557   139718768.868        -234.424          49.000  
C13  34711017.601   180749376.335         -11.407          47.000    34711009.021   139766837.092          -8.820          48.000  
C16  35672451.612   185755814.002          27.944          45.000    35672441.165   143638138.501          21.594          48.000  
C25  22166918.644   115428956.386       -2474.062          37.000                                                                  
C32  21083653.089   109788117.999         927.286          49.000                                                                  
C06  35371972.559   184191145.117         207.852          44.000    35371957.149   142428213.327         160.682          47.000  
G25  20589000.733   108195938.641        2635.721          45.000    20588991.825    84308481.316        2053.762          41.000  
G10  19552272.158   102747879.255        1156.708          50.000    19552260.638    80063238.801         901.727          44.000  
G28  22128941.658   116288382.251        2645.203          40.000    22128930.940    90614304.098        2061.413          41.000  
C23  20738479.118   107990700.037         372.640          51.000                                                                  
C09  36843853.743   191855616.451         305.741          41.000    36843841.600   148354879.595         236.385          47.000  
C33  26008668.351                       -2900.094          30.000                                                                  
C37  22967533.272   119597985.773        2741.410          43.000                                                                  
> 2025 10 27 02 47 25.0760000  0 19                     
G12  20785152.109   109226713.620        1003.239          45.000    20785140.291    85111672.206         781.473          41.000  
G15  23130804.259   121553191.171       -3229.132          36.000    23130794.433    94716734.015       -2516.792          33.000  
G18  23443763.325   123197803.501       -3693.027          38.000    23443757.100    95998255.085       -2877.456          37.000  
G23  19185147.434   100818628.797       -1964.662          45.000    19185135.857    78559896.215       -1530.835          47.000  
G24  20817221.323                       -3320.868          28.000    20817213.600    85243004.843       -2587.927          31.000  
G32  20954422.607   110116235.349        1527.450          45.000    20954412.018    85804804.071        1190.200          42.000  
C08  34699090.708   180687268.133        -303.192          45.000    34699073.884   139718778.246        -234.467          49.000  
C13  34711017.667   180749376.794         -11.481          47.000    34711009.096   139766837.448          -8.875          48.000  
C16  35672451.397   185755812.880          28.003          45.000    35672440.944   143638137.629          21.700          48.000  
C25  22166937.664   115429055.350       -2474.039          37.000                                                                  
C32  21083645.983   109788080.911         927.238          50.000                                                                  
C06  35371970.967   184191136.796         207.949          44.000    35371955.545   142428206.901         160.605          47.000  
G25  20588980.659   108195833.216        2635.641          45.000    20588971.757    84308399.167        2053.757          41.000  
G10  19552263.385   102747833.000        1156.403          50.000    19552251.838    80063202.770         901.050          44.000  
G28  22128921.533   116288276.442        2645.124          40.000    22128910.801    90614221.651        2061.188          41.000  
C23  20738476.235   107990685.133         372.582          51.000                                                                  
C09  36843851.383   191855604.228         305.604          41.000    36843839.265   148354870.140         236.303          47.000  
C33  26008690.589                       -2899.379          30.000                                                                  
C37  22967512.192   119597876.136        2741.130          43.000                                                                  
> 2025 10 27 02 47 25.1160000  0 19                     
G12  20785144.517   109226673.496        1003.120          45.000    20785132.678    85111640.935         781.582          41.000  
G15  23130828.862   121553320.381       -3229.862          36.000    23130818.960    94716834.685       -2516.683          33.000  
G18  23443791.437   123197951.206       -3692.864          38.000    23443785.209    95998370.172       -2877.240          37.000  
G23  19185162.395   100818707.388       -1964.793          45.000    19185150.801    78559957.452       -1530.922          47.000  
G24  20817246.115                       -3321.121          28.000    20817238.890    85243108.403       -2588.653          31.000  
G32  20954410.977   110116174.241        1527.603          45.000    20954400.390    85804756.464        1190.091          42.000  
C08  34699093.019   180687280.270        -303.412          45.000    34699076.185   139718787.622        -234.454          49.000  
C13  34711017.735   180749377.258         -11.597          47.000    34711009.182   139766837.803          -8.899          48.000  
C16  35672451.165   185755811.761          27.982          45.000    35672440.739   143638136.760          21.730          48.000  
C25  22166956.662   115429154.284       -2473.455          37.000                                                                  
C32  21083638.822   109788043.833         927.001          50.000                                                                  
C06  35371969.334   184191128.490         207.736          44.000    35371953.959   142428200.477         160.571          47.000  
G25  20588960.610   108195727.810        2635.305          45.000    20588951.695    84308317.037        2053.444          41.000  
G10  19552254.580   102747786.744        1156.311          50.000    19552243.030    80063166.730         900.916          44.000  
G28  22128901.388   116288170.623        2645.344          40.000    22128890.676    90614139.216        2060.917          41.000  
C23  20738473.343   107990670.234         372.473          51.000                                                                  
C09  36843849.021   191855591.997         305.700          41.000    36843836.933   148354860.689         236.217          47.000  
C33  26008712.890                       -2899.798          30.000                                                                  
C37  22967491.136   119597766.504        2740.849          43.000                                                                  
> 2025 10 27 02 47 25.1560000  0 19                     
G12  20785136.852   109226633.373        1003.072          45.000    20785125.047    85111609.688         781.298          41.000  
G15  23130853.452   121553449.584       -3230.214          36.000    23130843.547    94716935.334       -2516.321          33.000  
G18  23443819.548   123198098.910       -3692.655          38.000    23443813.320    95998485.277       -2877.440          37.000  
G23  19185177.362   100818785.985       -1964.935          45.000    19185165.769    78560018.691       -1530.972          47.000  
G24  20817271.893                       -3321.968          28.000    20817264.192    85243211.966       -2589.082          31.000  
G32  20954399.338   110116113.132        1527.717          45.000    20954388.746    85804708.835        1190.483          42.000  
C08  34699095.361   180687292.387        -303.125          45.000    34699078.532   139718796.997        -234.393          49.000  
C13  34711017.843   180749377.718         -11.578          47.000    34711009.278   139766838.156          -8.838          48.000  
C16  35672450.940   185755810.639          28.049          45.000    35672440.515   143638135.895          21.676          48.000  
C25  22166975.658   115429253.266       -2474.114          37.000                                                                  
C32  21083631.701   109788006.746         927.077          50.000                                                                  
C06  35371967.735   184191120.176         207.773          44.000    35371952.381   142428194.044         160.720          47.000  
G25  20588940.539   108195622.379        2635.573          45.000    20588931.653    84308234.882        2053.726          41.000  
G10  19552245.748   102747740.478        1156.476          50.000    19552234.234    80063130.679         901.086          44.000  
G28  22128881.266   116288064.815        2645.288          40.000    22128870.540    90614056.759        2061.199          41.000  
C23  20738470.486   107990655.330         372.515          51.000                                                                  
C09  36843846.662   191855579.757         305.868          41.000    36843834.571   148354851.232         236.327          47.000  
C33  26008735.150                       -2899.936          30.000                                                                  
C37  22967470.080   119597656.856        2741.006          43.000                                                                  
> 2025 10 27 02 47 25.1960000  0 19                     
G12  20785129.222   109226593.249        1003.070          45.000    20785117.404    85111578.408         781.752          41.000  
G15  23130878.047   121553578.779       -3230.240          36.000    23130868.115    94717035.995       -2516.402          33.000  
G18  23443847.670   123198246.623       -3692.772          38.000    23443841.434    95998600.382       -2877.638          37.000  
G23  19185192.331   100818864.573       -1964.828          45.000    19185180.742    78560079.935       -1531.089          47.000  
G24  20817297.473                       -3322.110          28.000    20817289.480                       -2587.667          31.000  
G32  20954387.713   110116052.030        1527.629          45.000    20954377.110    85804661.226        1190.329          42.000  
C08  34699097.697   180687304.508        -303.040          45.000    34699080.865   139718806.369        -234.338          49.000  
C13  34711017.933   180749378.171         -11.395          47.000    34711009.359   139766838.508          -8.838          48.000  
C16  35672450.740   185755809.516          28.085          45.000    35672440.280   143638135.026          21.674          48.000  
C25  22166994.662   115429352.241       -2474.431          37.000                                                                  
C32  21083624.598   109787969.653         927.244          50.000                                                                  
C06  35371966.158   184191111.846         208.064          44.000    35371950.791   142428187.608         160.848          47.000  
G25  20588920.478   108195516.965        2635.422          45.000    20588911.606    84308152.735        2053.721          41.000  
G10  19552236.939   102747694.208        1156.683          50.000    19552225.432    80063094.620         901.349          44.000  
G28  22128861.106   116287958.979        2645.697          40.000    22128850.413    90613974.299        2061.442          41.000  
C23  20738467.646   107990640.424         372.588          51.000                                                                  
C09  36843844.305   191855567.526         305.855          41.000    36843832.221   148354841.771         236.458          47.000  
C33  26008757.444                       -2900.204          30.000                                                                  
C37  22967449.048   119597547.203        2741.220          43.000                                                                  
> 2025 10 27 02 47 25.2360000  0 19                     
G12  20785121.602   109226553.121        1003.108          45.000    20785109.768    85111547.123         782.081          41.000  
G15  23130902.598   121553707.948       -3229.758          36.000    23130892.705    94717136.654       -2516.458          33.000  
G18  23443875.771   123198394.329       -3692.749          38.000    23443869.537    95998715.456       -2877.185          37.000  
G23  19185207.281   100818943.153       -1964.603          45.000    19185195.675    78560141.166       -1530.908          47.000  
G24  20817322.792                       -3322.194          28.000    20817314.766    85243418.960       -2587.458          32.000  
G32  20954376.055   110115990.915        1527.803          45.000    20954365.508    85804613.611        1190.354          42.000  
C08  34699100.032   180687316.632        -303.052          45.000    34699083.205   139718815.744        -234.381          49.000  
C13  34711018.004   180749378.622         -11.285          47.000    34711009.418   139766838.856          -8.771          48.000  
C16  35672450.554   185755808.383          28.266          45.000    35672440.081   143638134.156          21.713          48.000  
C25  22167013.676   115429451.199       -2474.209          37.000                                                                  
C32  21083617.466   109787932.557         927.362          49.000                                                                  
C06  35371964.543   184191103.522         208.143          44.000    35371949.176   142428181.172         160.902          47.000  
G25  20588900.423   108195411.543        2635.485          45.000    20588891.538    84308070.581        2053.808          41.000  
G10  19552228.136   102747647.935        1156.812          50.000    19552216.632    80063058.563         901.465          44.000  
G28  22128840.969   116287853.177        2645.296          40.000    22128830.252    90613891.837        2061.577          41.000  
C23  20738464.825   107990625.518         372.625          51.000                                                                  
C09  36843841.938   191855555.298         305.792          41.000    36843829.839   148354832.303         236.645          47.000  
C33  26008779.765                       -2900.208          30.000                                                                  
C37  22967427.965   119597437.560        2741.135          43.000                                                                  
> 2025 10 27 02 47 25.2760000  0 19                     
G12  20785113.976   109226512.992        1003.167          45.000    20785102.116    85111515.865         781.749          41.000  
G15  23130927.157   121553837.136       -3229.747          36.000    23130917.299    94717237.314       -2516.539          33.000  
G18  23443903.882   123198542.031       -3692.632          38.000    23443897.664    95998830.554       -2877.349          37.000  
G23  19185222.249   100819021.740       -1964.623          45.000    19185210.640    78560202.404       -1530.940          47.000  
G24  20817348.032                       -3322.209          28.000    20817340.063                       -2588.825          32.000  
G32  20954364.428   110115929.805        1527.780          45.000    20954353.880    85804565.995        1190.340          42.000  
C08  34699102.372   180687328.755        -303.033          45.000    34699085.553   139718825.119        -234.375          49.000  
C13  34711018.069   180749379.080         -11.365          47.000    34711009.515   139766839.205          -8.752          48.000  
C16  35672450.312   185755807.261          28.127          45.000    35672439.884   143638133.290          21.647          48.000  
C25  22167032.688   115429550.148       -2473.841          37.000                                                                  
C32  21083610.335   109787895.469         927.269          49.000                                                                  
C06  35371962.949   184191095.204         208.046          44.000    35371947.592   142428174.740         160.858          47.000  
G25  20588880.369   108195306.120        2635.513          45.000    20588871.463    84307988.456        2053.286          41.000  
G10  19552219.336   102747601.661        1156.873          50.000    19552207.819    80063022.505         901.483          44.000  
G28  22128820.806   116287747.360        2645.341          40.000    22128810.106    90613809.386        2061.394          41.000  
C23  20738461.926   107990610.614         372.598          51.000                                                                  
C09  36843839.560   191855543.063         305.829          41.000    36843827.494   148354822.838         236.660          47.000  
C33  26008802.067                       -2900.236          30.000                                                                  
C37  22967406.930   119597327.907        2741.253          43.000                                                                  
> 2025 10 27 02 47 25.3160000  0 19                     
G12  20785106.317   109226472.862        1003.229          45.000    20785094.462    85111484.598         781.717          41.000  
G15  23130951.736   121553966.316       -3229.674          36.000    23130941.866    94717337.965       -2516.371          33.000  
G18  23443931.987   123198689.714       -3692.242          38.000    23443925.771    95998945.655       -2877.599          37.000  
G23  19185237.217   100819100.334       -1964.805          45.000    19185225.599    78560263.645       -1531.027          47.000  
G24  20817372.974                       -3322.046          28.000    20817365.361                       -2588.782          32.000  
G32  20954352.810   110115868.706        1527.592          45.000    20954342.256    85804518.383        1190.323          42.000  
C08  34699104.657   180687340.884        -303.180          45.000    34699087.874   139718834.495        -234.412          49.000  
C13  34711018.155   180749379.540         -11.493          47.000    34711009.587   139766839.565          -8.917          48.000  
C16  35672450.093   185755806.143          27.978          46.000    35672439.690   143638132.419          21.701          48.000  
C25  22167051.690   115429649.138       -2474.517          37.000                                                                  
C32  21083603.183   109787858.382         927.206          49.000                                                                  
C06  35371961.361   184191086.898         207.717          44.000    35371946.011   142428168.314         160.699          47.000  
G25  20588860.312   108195200.697        2635.589          45.000    20588851.404    84307906.310        2053.400          41.000  
G10  19552210.530   102747555.402        1156.573          50.000    19552199.032    80062986.462         901.202          44.000  
G28  22128800.680   116287641.547        2645.311          40.000    22128789.968    90613726.936        2061.295          41.000  
C23  20738459.041   107990595.714         372.514          51.000                                                                  
C09  36843837.185   191855530.850         305.425          41.000    36843825.148   148354813.383         236.483          47.000  
C33  26008824.333                       -2900.201          29.000                                                                  
C37  22967385.858   119597218.271        2741.002          43.000                                                                  
> 2025 10 27 02 47 25.3560000  0 19                     
G12  20785098.706   109226432.744        1003.021          45.000    20785086.845    85111453.345         781.421          41.000  
G15  23130976.316   121554095.495       -3229.519          36.000    23130966.438    94717438.623       -2516.364          33.000  
G18  23443960.097   123198837.414       -3692.331          38.000    23443953.875    95999060.760       -2877.711          37.000  
G23  19185252.163   100819178.926       -1964.885          45.000    19185240.559    78560324.888       -1531.114          47.000  
G24  20817398.333                       -3322.203          28.000    20817390.634                       -2588.208          31.000  
G32  20954341.197   110115807.604        1527.510          45.000    20954330.640    85804470.764        1190.386          42.000  
C08  34699106.947   180687353.017        -303.326          45.000    34699090.205   139718843.873        -234.473          49.000  
C13  34711018.276   180749380.003         -11.615          47.000    34711009.706   139766839.918          -8.917          48.000  
C16  35672449.880   185755805.027          27.877          46.000    35672439.443   143638131.553          21.649          48.000  
C25  22167070.701   115429748.090       -2474.159          37.000                                                                  
C32  21083596.029   109787821.303         927.027          49.000                                                                  
C06  35371959.777   184191078.585         207.705          44.000    35371944.443   142428161.881         160.756          47.000  
G25  20588840.254   108195095.275        2635.572          45.000    20588831.334    84307824.153        2053.706          41.000  
G10  19552201.738   102747509.142        1156.464          50.000    19552190.231    80062950.410         901.227          44.000  
G28  22128780.555   116287535.760        2644.857          40.000    22128769.827    90613644.484        2061.252          41.000  
C23  20738456.138   107990580.814         372.451          51.000                                                                  
C09  36843834.849   191855518.608         305.743          41.000    36843822.821   148354803.934         236.258          47.000  
C33  26008846.607                       -2900.164          29.000                                                                  
C37  22967364.810   119597108.628        2740.990          43.000                                                                  
> 2025 10 27 02 47 25.3960000  0 19                     
G12  20785091.082   109226392.622        1002.979          45.000    20785079.191    85111422.081         781.499          41.000  
G15  23131000.902   121554224.686       -3229.655          36.000    23130991.018    94717539.291       -2516.591          33.000  
G18  23443988.211   123198985.134       -3692.793          38.000    23443981.976    95999175.846       -2877.403          37.000  
G23  19185267.106   100819257.513       -1964.822          45.000    19185255.511    78560386.129       -1531.119          47.000  
G24  20817423.534                       -3321.854          28.000    20817415.928                       -2588.935          31.000  
G32  20954329.583   110115746.502        1527.480          45.000    20954319.024    85804423.141        1190.501          42.000  
C08  34699109.262   180687365.138        -303.162          45.000    34699092.525   139718853.246        -234.399          49.000  
C13  34711018.357   180749380.469         -11.694          47.000    34711009.790   139766840.279          -9.039          48.000  
C16  35672449.681   185755803.911          27.828          46.000    35672439.237   143638130.690          21.566          48.000  
C25  22167089.691   115429847.045       -2473.922          37.000                                                                  
C32  21083588.895   109787784.217         927.077          49.000                                                                  
C06  35371958.184   184191070.273         207.699          44.000    35371942.864   142428155.451         160.757          47.000  
G25  20588820.196   108194989.867        2635.339          45.000    20588811.265    84307742.011        2053.623          41.000  
G10  19552192.946   102747462.884        1156.384          50.000    19552181.422    80062914.368         901.056          44.000  
G28  22128760.434   116287429.933        2645.333          40.000    22128749.692    90613562.045        2060.978          41.000  
C23  20738453.287   107990565.917         372.402          51.000                                                                  
C09  36843832.484   191855506.372         305.849          41.000    36843820.475   148354794.487         236.104          47.000  
C33  26008868.843                       -2899.617          29.000                                                                  
C37  22967343.748   119596998.990        2740.926          43.000                                                                  
> 2025 10 27 02 47 25.4360000  0 19                     
G12  20785083.440   109226352.502        1002.971          45.000    20785071.562    85111390.820         781.522          41.000  
G15  23131025.493   121554353.871       -3229.634          36.000    23131015.604    94717639.987       -2517.124          33.000  
G18  23444016.318   123199132.858       -3693.061          38.000    23444010.088    95999290.947       -2877.476          37.000  
G23  19185282.069   100819336.115       -1965.033          45.000    19185270.453    78560447.371       -1531.113          47.000  
G24  20817448.696                       -3322.153          28.000    20817441.195                       -2588.466          31.000  
G32  20954317.953   110115685.401        1527.470          45.000    20954307.419    85804375.539        1190.200          42.000  
C08  34699111.614   180687377.261        -303.101          45.000    34699094.837   139718862.628        -234.552          49.000  
C13  34711018.470   180749380.924         -11.505          47.000    34711009.868   139766840.637          -9.015          48.000  
C16  35672449.431   185755802.782          28.055          46.000    35672439.049   143638129.826          21.548          48.000  
C25  22167108.737   115429946.015       -2474.072          37.000                                                                  
C32  21083581.761   109787747.133         927.071          49.000                                                                  
C06  35371956.608   184191061.949         207.948          44.000    35371941.276   142428149.022         160.717          47.000  
G25  20588800.120   108194884.447        2635.401          45.000    20588791.202    84307659.869        2053.559          41.000  
G10  19552184.135   102747416.624        1156.396          50.000    19552172.615    80062878.323         901.068          44.000  
G28  22128740.314   116287324.136        2645.039          40.000    22128729.549    90613479.591        2061.193          41.000  
C23  20738450.459   107990551.019         372.399          51.000                                                                  
C09  36843830.120   191855494.137         305.866          41.000    36843818.141   148354785.027         236.308          47.000  
C33  26008891.160                       -2899.738          29.000                                                                  
C37  22967322.716   119596889.334        2741.181          43.000                                                                  
> 2025 10 27 02 47 25.4760000  0 19                     
G12  20785075.823   109226312.390        1002.831          45.000    20785063.928    85111359.552         781.604          41.000  
G15  23131050.079   121554483.087       -3230.258          36.000    23131040.186    94717740.636       -2516.610          33.000  
G18  23444044.429   123199280.576       -3693.102          38.000    23444038.180    95999406.045       -2877.470          37.000  
G23  19185297.032   100819414.716       -1965.086          45.000    19185285.408    78560508.616       -1531.155          47.000  
G24  20817473.809                       -3321.751          28.000    20817466.495                       -2588.796          31.000  
G32  20954306.334   110115624.301        1527.465          45.000    20954295.798    85804327.926        1190.213          42.000  
C08  34699114.008   180687389.389        -303.156          45.000    34699097.194   139718872.003        -234.460          49.000  
C13  34711018.577   180749381.378         -11.383          47.000    34711009.960   139766840.988          -8.868          48.000  
C16  35672449.187   185755801.664          28.028          46.000    35672438.854   143638128.958          21.614          48.000  
C25  22167127.752   115430044.992       -2474.403          37.000                                                                  
C32  21083574.670   109787710.048         927.064          49.000                                                                  
C06  35371955.016   184191053.633         207.922          44.000    35371939.679   142428142.592         160.698          47.000  
G25  20588780.042   108194779.034        2635.337          45.000    20588771.137    84307577.731        2053.426          41.000  
G10  19552175.340   102747370.364        1156.433          50.000    19552163.809    80062842.278         901.068          44.000  
G28  22128720.162   116287218.313        2645.402          40.000    22128709.412    90613397.143        2061.225          41.000  
C23  20738447.595   107990536.122         372.394          51.000                                                                  
C09  36843827.774   191855481.917         305.576          41.000    36843815.793   148354775.565         236.490          47.000  
C33  26008913.433                       -2899.955          29.000                                                                  
C37  22967301.684   119596779.684        2741.265          43.000                                                                  
> 2025 10 27 02 47 25.5160000  0 19                     
G12  20785068.183   109226272.266        1002.957          45.000    20785056.288    85111328.288         781.616          41.000  
G15  23131074.650   121554612.234       -3229.299          36.000    23131064.760    94717841.282       -2516.434          33.000  
G18  23444072.543   123199428.287       -3692.958          38.000    23444066.275    95999521.126       -2877.199          37.000  
G23  19185312.004   100819493.303       -1964.811          45.000    19185300.346    78560569.856       -1531.087          47.000  
G24  20817498.795                       -3321.641          28.000    20817491.788                       -2589.054          31.000  
G32  20954294.699   110115563.189        1527.686          45.000    20954284.181    85804280.318        1190.184          42.000  
C08  34699116.369   180687401.514        -303.125          45.000    34699099.534   139718881.376        -234.375          49.000  
C13  34711018.648   180749381.832         -11.346          47.000    34711010.029   139766841.338          -8.777          48.000  
C16  35672448.948   185755800.539          28.084          46.000    35672438.650   143638128.083          21.786          48.000  
C25  22167146.745   115430143.961       -2474.370          37.000                                                                  
C32  21083567.546   109787672.963         927.084          49.000                                                                  
C06  35371953.435   184191045.317         207.931          44.000    35371938.052   142428136.161         160.725          47.000  
G25  20588760.000   108194673.613        2635.473          45.000    20588751.077    84307495.575        2053.662          41.000  
G10  19552166.538   102747324.100        1156.525          50.000    19552155.013    80062806.237         901.001          44.000  
G28  22128699.999   116287112.490        2645.574          40.000    22128689.249    90613314.694        2061.237          41.000  
C23  20738444.737   107990521.222         372.440          51.000                                                                  
C09  36843825.409   191855469.683         305.717          41.000    36843813.448   148354766.110         236.450          47.000  
C33  26008935.706                       -2900.133          29.000                                                                  
C37  22967280.612   119596670.042        2741.131          43.000                                                                  
> 2025 10 27 02 47 25.5560000  0 19                     
G12  20785060.560   109226232.139        1003.107          45.000    20785048.651    85111297.022         781.607          41.000  
G15  23131099.254   121554741.429       -3229.590          36.000    23131089.365    94717941.925       -2516.188          33.000  
G18  23444100.631   123199575.958       -3692.086          38.000    23444094.395    95999636.221       -2877.324          37.000  
G23  19185326.947   100819571.896       -1964.787          45.000    19185315.292    78560631.090       -1530.925          47.000  
G24  20817524.496                       -3321.656          28.000    20817517.062                       -2588.506          31.000  
G32  20954283.058   110115502.072        1527.855          45.000    20954272.539    85804232.688        1190.560          42.000  
C08  34699118.723   180687413.636        -303.064          45.000    34699101.864   139718890.748        -234.320          49.000  
C13  34711018.734   180749382.288         -11.359          47.000    34711010.134   139766841.691          -8.771          48.000  
C16  35672448.702   185755799.414          28.121          46.000    35672438.464   143638127.213          21.787          48.000  
C25  22167165.740   115430242.912       -2473.951          37.000                                                                  
C32  21083560.448   109787635.865         927.335          49.000                                                                  
C06  35371951.809   184191036.997         207.987          44.000    35371936.435   142428129.722         160.897          47.000  
G25  20588739.921   108194568.182        2635.697          45.000    20588730.994    84307413.426        2053.756          41.000  
G10  19552157.712   102747277.836        1156.592          50.000    19552146.227    80062770.180         901.257          44.000  
G28  22128679.868   116287006.691        2645.154          40.000    22128669.122    90613232.238        2061.342          41.000  
C23  20738441.839   107990506.322         372.492          51.000                                                                  
C09  36843823.033   191855457.448         305.857          41.000    36843811.073   148354756.647         236.544          47.000  
C33  26008957.978                       -2900.215          29.000                                                                  
C37  22967259.564   119596560.409        2740.901          43.000                                                                  
> 2025 10 27 02 47 25.5960000  0 19                     
G12  20785052.933   109226192.019        1003.072          45.000    20785041.014    85111265.758         781.581          41.000  
G15  23131123.828   121554870.598       -3229.321          36.000    23131113.988    94718042.586       -2516.317          33.000  
G18  23444128.735   123199723.654       -3692.134          38.000    23444122.488    95999751.283       -2876.832          37.000  
G23  19185341.907   100819650.482       -1964.664          45.000    19185330.243    78560692.335       -1531.057          47.000  
G24  20817549.540                       -3321.510          28.000    20817542.362                       -2587.917          32.000  
G32  20954271.456   110115440.971        1527.668          45.000    20954260.921    85804185.072        1190.535          42.000  
C08  34699121.042   180687425.756        -303.015          45.000    34699104.207   139718900.123        -234.344          49.000  
C13  34711018.832   180749382.742         -11.328          47.000    34711010.214   139766842.046          -8.862          48.000  
C16  35672448.469   185755798.285          28.211          46.000    35672438.240   143638126.345          21.732          48.000  
C25  22167184.746   115430341.882       -2474.065          37.000                                                                  
C32  21083553.304   109787598.781         927.215          49.000                                                                  
C06  35371950.195   184191028.678         207.991          44.000    35371934.814   142428123.290         160.845          47.000  
G25  20588719.892   108194462.770        2635.460          45.000    20588710.947    84307331.291        2053.490          41.000  
G10  19552148.919   102747231.574        1156.567          50.000    19552137.392    80062734.121         901.434          44.000  
G28  22128659.719   116286900.865        2645.410          40.000    22128648.977    90613149.786        2061.259          41.000  
C23  20738438.952   107990491.423         372.484          51.000                                                                  
C09  36843820.666   191855445.218         305.798          41.000    36843808.736   148354747.185         236.574          47.000  
C33  26008980.277                       -2900.065          29.000                                                                  
C37  22967238.525   119596450.761        2741.047          43.000                                                                  
> 2025 10 27 02 47 25.6360000  0 19                     
G12  20785045.306   109226151.891        1003.113          45.000    20785033.382    85111234.491         781.641          41.000  
G15  23131148.403   121554999.783       -3229.390          36.000    23131138.569    94718143.246       -2516.433          33.000  
G18  23444156.848   123199871.339       -3691.995          38.000    23444150.609    95999866.375       -2877.014          37.000  
G23  19185356.877   100819729.076       -1964.809          45.000    19185345.202    78560753.578       -1531.094          47.000  
G24  20817574.900                       -3321.310          28.000    20817567.626                       -2587.558          32.000  
G32  20954259.808   110115379.862        1527.661          45.000    20954249.286    85804137.449        1190.582          42.000  
C08  34699123.367   180687437.882        -303.125          45.000    34699106.532   139718909.498        -234.363          49.000  
C13  34711018.890   180749383.195         -11.310          47.000    34711010.287   139766842.396          -8.801          48.000  
C16  35672448.255   185755797.159          28.202          46.000    35672438.037   143638125.470          21.829          48.000  
C25  22167203.721   115430440.849       -2474.121          37.000                                                                  
C32  21083546.194   109787561.692         927.220          49.000                                                                  
C06  35371948.610   184191020.354         208.040          44.000    35371933.201   142428116.854         160.862          47.000  
G25  20588699.848   108194357.350        2635.484          45.000    20588690.861    84307249.141        2053.594          41.000  
G10  19552140.110   102747185.309        1156.592          50.000    19552128.605    80062698.073         901.294          44.000  
G28  22128639.580   116286795.061        2645.142          40.000    22128628.833    90613067.335        2061.253          41.000  
C23  20738436.128   107990476.520         372.548          51.000                                                                  
C09  36843818.300   191855432.976         305.979          41.000    36843806.375   148354737.725         236.542          47.000  
C33  26009002.586                       -2900.233          29.000                                                                  
C37  22967217.489   119596341.113        2741.155          43.000                                                                  
> 2025 10 27 02 47 25.6760000  0 19                     
G12  20785037.664   109226111.782        1002.799          45.000    20785025.743    85111203.247         781.245          41.000  
G15  23131172.973   121555128.971       -3229.695          36.000    23131163.174    94718243.964       -2517.656          33.000  
G18  23444184.972   123200019.051       -3692.435          38.000    23444178.707    95999981.489       -2877.653          37.000  
G23  19185371.860   100819807.674       -1964.940          45.000    19185360.140    78560814.825       -1531.180          47.000  
G24  20817600.567                       -3321.491          28.000    20817592.918                       -2589.771          32.000  
G32  20954248.168   110115318.750        1527.741          45.000    20954237.674    85804089.842        1190.295          42.000  
C08  34699125.691   180687450.011        -303.247          45.000    34699108.833   139718918.876        -234.448          49.000  
C13  34711018.976   180749383.656         -11.469          47.000    34711010.380   139766842.752          -8.899          48.000  
C16  35672447.997   185755796.038          28.088          46.000    35672437.844   143638124.606          21.657          48.000  
C25  22167222.716   115430539.812       -2474.110          37.000                                                                  
C32  21083539.064   109787524.608         927.103          49.000                                                                  
C06  35371947.010   184191012.034         208.003          44.000    35371931.578   142428110.427         160.724          47.000  
G25  20588679.806   108194251.933        2635.410          45.000    20588670.805    84307167.004        2053.481          41.000  
G10  19552131.315   102747139.055        1156.390          50.000    19552119.816    80062662.033         901.068          44.000  
G28  22128619.450   116286689.260        2645.032          40.000    22128608.710    90612984.903        2060.898          41.000  
C23  20738433.261   107990461.625         372.403          51.000                                                                  
C09  36843815.934   191855420.739         305.970          41.000    36843804.003   148354728.267         236.453          47.000  
C33  26009024.836                       -2900.142          29.000                                                                  
C37  22967196.423   119596231.466        2741.177          43.000                                                                  
> 2025 10 27 02 47 25.7160000  0 19                     
G12  20785030.046   109226071.682        1002.469          45.000    20785018.118    85111171.997         781.164          41.000  
G15  23131197.561   121555258.151       -3229.690          36.000    23131187.735    94718344.599       -2516.689          33.000  
G18  23444213.076   123200166.767       -3692.803          38.000    23444206.820    96000096.598       -2877.813          37.000  
G23  19185386.830   100819886.276       -1965.075          45.000    19185375.110    78560876.073       -1531.223          47.000  
G24  20817626.396                       -3321.613          28.000    20817618.232                       -2588.379          32.000  
G32  20954236.554   110115257.648        1527.597          45.000    20954226.049    85804042.228        1190.265          42.000  
C08  34699127.971   180687462.140        -303.314          46.000    34699111.132   139718928.254        -234.479          49.000  
C13  34711019.077   180749384.118         -11.560          47.000    34711010.477   139766843.107          -8.911          48.000  
C16  35672447.763   185755794.916          28.023          46.000    35672437.652   143638123.734          21.704          48.000  
C25  22167241.721   115430638.777       -2474.128          37.000                                                                  
C32  21083531.972   109787487.523         927.073          49.000                                                                  
C06  35371945.426   184191003.723         207.804          44.000    35371930.022   142428104.002         160.615          47.000  
G25  20588659.756   108194146.527        2635.185          45.000    20588650.752    84307084.860        2053.551          41.000  
G10  19552122.523   102747092.803        1156.268          50.000    19552111.034    80062626.000         900.806          44.000  
G28  22128599.311   116286583.442        2645.226          40.000    22128588.582    90612902.449        2061.144          41.000  
C23  20738430.369   107990446.736         372.244          51.000                                                                  
C09  36843813.555   191855408.519         305.566          41.000    36843801.662   148354718.819         236.240          47.000  
C33  26009047.112                       -2900.052          29.000                                                                  
C37  22967175.370   119596121.824        2741.060          43.000                                                                  
> 2025 10 27 02 47 25.7560000  0 19                     
G12  20785022.422   109226031.560        1002.786          45.000    20785010.473    85111140.738         781.326          41.000  
G15  23131222.133   121555387.347       -3229.944          36.000    23131212.320    94718445.285       -2517.166          33.000  
G18  23444241.200   123200314.473       -3692.820          38.000    23444234.909    96000211.711       -2877.964          37.000  
G23  19185401.764   100819964.879       -1965.141          45.000    19185390.061    78560937.316       -1531.147          47.000  
G24  20817652.026                       -3321.656          28.000    20817643.520                       -2588.170          32.000  
G32  20954224.919   110115196.540        1527.631          45.000    20954214.431    85803994.625        1190.075          42.000  
C08  34699130.300   180687474.262        -303.180          46.000    34699113.453   139718937.631        -234.467          49.000  
C13  34711019.123   180749384.574         -11.505          47.000    34711010.571   139766843.465          -8.972          48.000  
C16  35672447.538   185755793.797          27.969          46.000    35672437.446   143638122.879          21.430          48.000  
C25  22167260.766   115430737.747       -2474.260          37.000                                                                  
C32  21083524.831   109787450.441         926.998          49.000                                                                  
C06  35371943.853   184190995.410         207.794          44.000    35371928.445   142428097.574         160.605          47.000  
G25  20588639.703   108194041.119        2635.133          45.000    20588630.710    84307002.720        2053.483          41.000  
G10  19552113.700   102747046.549        1156.281          50.000    19552102.235    80062589.956         900.922          44.000  
G28  22128579.176   116286477.633        2645.181          40.000    22128568.455    90612819.993        2061.299          41.000  
C23  20738427.529   107990431.844         372.203          51.000                                                                  
C09  36843811.209   191855396.285         305.657          41.000    36843799.297   148354709.361         236.306          47.000  
C33  26009069.372                       -2900.451          29.000                                                                  
C37  22967154.312   119596012.184        2741.003          43.000                                                                  
> 2025 10 27 02 47 25.7960000  0 19                     
G12  20785014.787   109225991.448        1002.801          45.000    20785002.834    85111109.470         781.565          41.000  
G15  23131246.730   121555516.542       -3229.974          36.000    23131236.895    94718545.926       -2516.620          33.000  
G18  23444269.304   123200462.191       -3693.017          38.000    23444263.020    96000326.805       -2877.596          37.000  
G23  19185416.713   100820043.478       -1965.072          45.000    19185405.021    78560998.563       -1531.185          47.000  
G24  20817677.395                       -3321.952          28.000    20817668.797                       -2588.219          32.000  
G32  20954213.285   110115135.441        1527.490          45.000    20954202.821    85803947.005        1190.274          42.000  
C08  34699132.605   180687486.395        -303.278          46.000    34699115.781   139718947.011        -234.521          49.000  
C13  34711019.185   180749385.036         -11.584          47.000    34711010.676   139766843.816          -8.887          48.000  
C16  35672447.305   185755792.678          27.940          46.000    35672437.264   143638122.008          21.589          48.000  
C25  22167279.791   115430836.727       -2474.463          37.000                                                                  
C32  21083517.735   109787413.359         926.982          50.000                                                                  
C06  35371942.267   184190987.098         207.744          44.000    35371926.835   142428091.147         160.590          47.000  
G25  20588619.636   108193935.698        2635.361          45.000    20588610.649    84306920.570        2053.677          41.000  
G10  19552104.882   102747000.289        1156.396          50.000    19552093.455    80062553.917         900.916          44.000  
G28  22128559.048   116286371.835        2644.926          40.000    22128548.334    90612737.554        2061.068          41.000  
C23  20738424.676   107990416.952         372.207          51.000                                                                  
C09  36843808.867   191855384.052         305.697          41.000    36843796.951   148354699.898         236.476          47.000  
C33  26009091.692                       -2900.312          29.000                                                                  
C37  22967133.237   119595902.548        2740.901          43.000                                                                  
> 2025 10 27 02 47 25.8360000  0 19                     
G12  20785007.160   109225951.337        1002.780          45.000    20784995.229    85111078.222         781.389          41.000  
G15  23131271.333   121555645.748       -3230.134          36.000    23131261.477    94718646.570       -2516.327          33.000  
G18  23444297.408   123200609.878       -3692.545          38.000    23444291.108    96000441.872       -2876.949          37.000  
G23  19185431.683   100820122.085       -1965.164          45.000    19185419.954    78561059.809       -1531.178          47.000  
G24  20817702.822                       -3322.007          28.000    20817694.064                       -2588.661          32.000  
G32  20954201.649   110115074.335        1527.564          45.000    20954191.177    85803899.390        1190.339          42.000  
C08  34699134.957   180687498.517        -303.143          46.000    34699118.123   139718956.389        -234.503          49.000  
C13  34711019.285   180749385.490         -11.438          47.000    34711010.800   139766844.171          -8.850          48.000  
C16  35672447.103   185755791.556          28.028          46.000    35672437.069   143638121.139          21.668          48.000  
C25  22167298.813   115430935.716       -2474.715          37.000                                                                  
C32  21083510.633   109787376.278         926.971          50.000                                                                  
C06  35371940.669   184190978.778         207.908          44.000    35371925.234   142428084.713         160.729          47.000  
G25  20588599.585   108193830.285        2635.352          45.000    20588590.602    84306838.436        2053.478          41.000  
G10  19552096.071   102746954.036        1156.335          50.000    19552084.659    80062517.867         901.117          44.000  
G28  22128538.893   116286266.011        2645.333          40.000    22128528.199    90612655.102        2061.168          41.000  
C23  20738421.855   107990402.060         372.235          51.000                                                                  
C09  36843806.533   191855371.836         305.491          41.000    36843794.609   148354690.445         236.374          47.000  
C33  26009113.941                       -2900.174          29.000                                                                  
C37  22967112.185   119595792.908        2740.912          43.000                                                                  
> 2025 10 27 02 47 25.8760000  0 19                     
G12  20784999.540   109225911.238        1002.549          45.000    20784987.587    85111046.961         781.472          41.000  
G15  23131295.918   121555774.915       -3229.569          36.000    23131286.074    94718747.251       -2516.758          32.000  
G18  23444325.532   123200757.573       -3692.414          38.000    23444319.233    96000556.957       -2876.927          37.000  
G23  19185446.636   100820200.690       -1965.182          45.000    19185434.898    78561121.055       -1531.165          47.000  
G24  20817728.030                       -3321.992          28.000    20817719.304                       -2588.517          32.000  
G32  20954190.029   110115013.240        1527.404          45.000    20954179.539    85803851.783        1190.242          42.000  
C08  34699137.255   180687510.647        -303.217          46.000    34699120.478   139718965.768        -234.497          49.000  
C13  34711019.366   180749385.954         -11.554          47.000    34711010.906   139766844.526          -8.868          48.000  
C16  35672446.858   185755790.442          27.896          46.000    35672436.861   143638120.275          21.627          48.000  
C25  22167317.806   115431034.680       -2474.333          37.000                                                                  
C32  21083503.548   109787339.195         927.018          50.000                                                                  
C06  35371939.059   184190970.466         207.797          44.000    35371923.641   142428078.287         160.698          47.000  
G25  20588579.545   108193724.872        2635.338          45.000    20588570.556    84306756.313        2053.145          41.000  
G10  19552087.283   102746907.788        1156.207          50.000    19552075.848    80062481.823         901.111          44.000  
G28  22128518.738   116286160.198        2645.325          40.000    22128508.076    90612572.658        2061.081          41.000  
C23  20738419.008   107990387.173         372.165          51.000                                                                  
C09  36843804.193   191855359.605         305.619          41.000    36843792.257   148354680.997         236.211          47.000  
C33  26009136.222                       -2899.961          29.000                                                                  
C37  22967091.105   119595683.266        2740.966          43.000                                                                  
> 2025 10 27 02 47 25.9160000  0 19                     
G12  20784991.889   109225871.120        1002.772          45.000    20784979.953    85111015.702         781.483          41.000  
G15  23131320.495   121555904.078       -3229.132          36.000    23131310.649    94718847.941       -2517.164          32.000  
G18  23444353.637   123200905.278       -3692.566          38.000    23444347.320    96000672.034       -2876.870          37.000  
G23  19185461.578   100820279.287       -1964.995          45.000    19185449.853    78561182.304       -1531.215          47.000  
G24  20817753.591                       -3321.945          28.000    20817744.583                       -2588.146          32.000  
G32  20954178.411   110114952.139        1527.453          45.000    20954167.917    85803804.156        1190.505          42.000  
C08  34699139.605   180687522.771        -303.137          46.000    34699122.794   139718975.145        -234.454          49.000  
C13  34711019.460   180749386.414         -11.572          47.000    34711010.974   139766844.875          -8.777          48.000  
C16  35672446.627   185755789.320          27.949          46.000    35672436.657   143638119.404          21.733          48.000  
C25  22167336.788   115431133.638       -2474.048          37.000                                                                  
C32  21083496.460   109787302.109         927.120          50.000                                                                  
C06  35371937.439   184190962.146         207.938          44.000    35371922.038   142428071.848         160.896          47.000  
G25  20588559.495   108193619.461        2635.291          45.000    20588550.508    84306674.162        2053.509          41.000  
G10  19552078.453   102746861.529        1156.360          50.000    19552067.057    80062445.786         901.007          44.000  
G28  22128498.613   116286054.401        2645.007          40.000    22128487.920    90612490.207        2061.124          41.000  
C23  20738416.209   107990372.282         372.205          51.000                                                                  
C09  36843801.842   191855347.375         305.714          41.000    36843789.902   148354671.536         236.396          47.000  
C33  26009158.492                       -2899.853          29.000                                                                  
C37  22967070.017   119595573.627        2740.961          43.000                                                                  
> 2025 10 27 02 47 25.9560000  0 19                     
G12  20784984.231   109225831.002        1002.878          45.000    20784972.312    85110984.437         781.536          41.000  
G15  23131345.071   121556033.271       -3229.513          36.000    23131335.236    94718948.578       -2516.411          32.000  
G18  23444381.750   123201052.982       -3692.603          38.000    23444375.421    96000787.120       -2877.042          37.000  
G23  19185476.554   100820357.895       -1965.139          45.000    19185464.809    78561243.551       -1531.209          47.000  
G24  20817778.737                       -3321.761          28.000    20817769.837                       -2588.634          32.000  
G32  20954166.768   110114891.034        1527.531          45.000    20954156.289    85803756.541        1190.409          42.000  
C08  34699141.907   180687534.899        -303.186          46.000    34699125.106   139718984.522        -234.448          49.000  
C13  34711019.565   180749386.869         -11.450          47.000    34711011.073   139766845.228          -8.801          48.000  
C16  35672446.398   185755788.190          28.138          46.000    35672436.439   143638118.532          21.796          48.000  
C25  22167355.770   115431232.590       -2473.821          37.000                                                                  
C32  21083489.310   109787265.023         927.117          50.000                                                                  
C06  35371935.846   184190953.829         207.943          44.000    35371920.421   142428065.411         160.977          47.000  
G25  20588539.440   108193514.057        2635.129          45.000    20588530.448    84306592.017        2053.644          41.000  
G10  19552069.667   102746815.276        1156.348          50.000    19552058.258    80062409.746         901.007          44.000  
G28  22128478.481   116285948.594        2645.014          40.000    22128467.801    90612407.754        2061.236          41.000  
C23  20738413.346   107990357.388         372.270          51.000                                                                  
C09  36843799.510   191855335.147         305.706          41.000    36843787.546   148354662.070         236.589          47.000  
C33  26009180.776                       -2899.779          29.000                                                                  
C37  22967048.935   119595463.989        2740.920          43.000                                                                  
> 2025 10 27 02 47 25.9960000  0 19                     
G12  20784976.618   109225790.899        1002.654          45.000    20784964.697    85110953.201         781.077          41.000  
G15  23131369.638   121556162.445       -3229.373          36.000    23131359.830    94719049.247       -2516.492          32.000  
G18  23444409.860   123201200.684       -3692.616          38.000    23444403.521    96000902.221       -2877.371          37.000  
G23  19185491.487   100820436.495       -1965.057          45.000    19185479.768    78561304.804       -1531.314          47.000  
G24  20817804.459                       -3321.763          28.000    20817795.109                       -2588.707          32.000  
G32  20954155.099   110114829.925        1527.659          45.000    20954144.683    85803708.936        1190.202          42.000  
C08  34699144.226   180687547.022        -303.149          46.000    34699127.405   139718993.895        -234.363          49.000  
C13  34711019.662   180749387.328         -11.475          47.000    34711011.170   139766845.586          -8.917          48.000  
C16  35672446.149   185755787.066          28.154          46.000    35672436.226   143638117.667          21.681          48.000  
C25  22167374.802   115431331.577       -2474.385          37.000                                                                  
C32  21083482.160   109787227.941         927.064          50.000                                                                  
C06  35371934.243   184190945.512         207.939          44.000    35371918.809   142428058.988         160.719          47.000  
G25  20588519.393   108193408.634        2635.414          45.000    20588510.405    84306509.878        2053.588          41.000  
G10  19552060.887   102746769.021        1156.335          50.000    19552049.431    80062373.699         901.117          44.000  
G28  22128458.354   116285842.802        2644.773          40.000    22128447.682    90612325.318        2060.981          41.000  
C23  20738410.472   107990342.502         372.179          51.000                                                                  
C09  36843797.153   191855322.917         305.743          41.000    36843785.159   148354652.613         236.479          47.000  
C33  26009203.071                       -2899.714          29.000                                                                  
C37  22967027.902   119595354.346        2740.987          43.000                                                                  
> 2025 10 27 02 47 26.0360000  0 19                     
G12  20784968.983   109225750.795        1002.547          45.000    20784957.052    85110921.952         781.040          41.000  
G15  23131394.223   121556291.619       -3229.347          36.000    23131384.402    94719149.920       -2516.752          32.000  
G18  23444437.981   123201348.381       -3692.504          38.000    23444431.643    96001017.320       -2877.499          37.000  
G23  19185506.447   100820515.093       -1964.996          45.000    19185494.742    78561366.059       -1531.395          47.000  
G24  20817830.283                       -3321.897          28.000    20817820.442                       -2589.077          32.000  
G32  20954143.488   110114768.817        1527.689          45.000    20954133.088    85803661.328        1190.129          42.000  
C08  34699146.568   180687559.147        -303.156          46.000    34699129.696   139719003.278        -234.528          49.000  
C13  34711019.750   180749387.785         -11.426          47.000    34711011.248   139766845.940          -8.893          48.000  
C16  35672445.892   185755785.952          27.957          46.000    35672436.020   143638116.804          21.583          48.000  
C25  22167393.782   115431430.557       -2474.569          37.000                                                                  
C32  21083475.005   109787190.864         926.937          50.000                                                                  
C06  35371932.639   184190937.195         207.904          44.000    35371917.189   142428052.554         160.789          47.000  
G25  20588499.334   108193303.230        2635.180          45.000    20588490.354    84306427.739        2053.534          41.000  
G10  19552052.105   102746722.775        1156.177          50.000    19552040.617    80062337.658         901.074          44.000  
G28  22128438.190   116285736.983        2645.237          40.000    22128427.534    90612242.865        2061.125          41.000  
C23  20738407.629   107990327.610         372.219          51.000                                                                  
C09  36843794.803   191855310.689         305.705          41.000    36843782.824   148354643.158         236.391          47.000  
C33  26009225.378                       -2899.722          29.000                                                                  
C37  22967006.833   119595244.703        2741.019          43.000                                                                  
> 2025 10 27 02 47 26.0760000  0 19                     
G12  20784961.357   109225710.679        1002.713          45.000    20784949.420    85110890.705         781.059          41.000  
G15  23131418.808   121556420.807       -3229.630          36.000    23131408.967    94719250.551       -2516.082          32.000  
G18  23444466.100   123201496.077       -3692.449          38.000    23444459.756    96001132.415       -2877.451          37.000  
G23  19185521.417   100820593.695       -1965.040          45.000    19185509.707    78561427.307       -1531.287          47.000  
G24  20817855.450                       -3321.929          28.000    20817845.718                       -2588.442          32.000  
G32  20954131.865   110114707.709        1527.698          45.000    20954121.471    85803613.716        1190.177          42.000  
C08  34699148.896   180687571.269        -303.088          46.000    34699132.027   139719012.656        -234.497          49.000  
C13  34711019.876   180749388.241         -11.407          47.000    34711011.343   139766846.299          -8.966          48.000  
C16  35672445.665   185755784.830          27.984          46.000    35672435.810   143638115.940          21.535          48.000  
C25  22167412.770   115431529.534       -2474.560          37.000                                                                  
C32  21083467.914   109787153.778         927.035          50.000                                                                  
C06  35371931.011   184190928.880         207.894          44.000    35371915.582   142428046.129         160.651          47.000  
G25  20588479.264   108193197.814        2635.252          45.000    20588470.303    84306345.601        2053.446          41.000  
G10  19552043.286   102746676.525        1156.183          50.000    19552031.818    80062301.623         900.916          44.000  
G28  22128418.057   116285631.167        2645.454          40.000    22128407.399    90612160.414        2061.244          41.000  
C23  20738404.763   107990312.720         372.239          51.000                                                                  
C09  36843792.450   191855298.455         305.755          41.000    36843780.483   148354633.705         236.298          47.000  
C33  26009247.664                       -2899.949          29.000                                                                  
C37  22966985.746   119595135.068        2740.897          43.000                                                                  
> 2025 10 27 02 47 26.1160000  0 19                     
G12  20784953.708   109225670.566        1002.784          45.000    20784941.784    85110859.444         781.384          41.000  
G15  23131443.394   121556549.986       -3229.567          36.000    23131433.541    94719351.247       -2516.970          32.000  
G18  23444494.197   123201643.775       -3692.430          38.000    23444487.870    96001247.487       -2877.047          37.000  
G23  19185536.386   100820672.303       -1965.165          45.000    19185524.657    78561488.556       -1531.244          47.000  
G24  20817880.531                       -3321.902          28.000    20817870.989                       -2587.876          32.000  
G32  20954120.239   110114646.599        1527.708          45.000    20954109.822    85803566.082        1190.623          42.000  
C08  34699151.207   180687583.404        -303.314          46.000    34699134.370   139719022.029        -234.375          49.000  
C13  34711019.952   180749388.693         -11.328          47.000    34711011.444   139766846.649          -8.807          48.000  
C16  35672445.435   185755783.701          28.115          46.000    35672435.567   143638115.069          21.675          48.000  
C25  22167431.789   115431628.509       -2474.471          37.000                                                                  
C32  21083460.784   109787116.690         927.151          50.000                                                                  
C06  35371929.415   184190920.553         208.080          44.000    35371913.951   142428039.696         160.747          47.000  
G25  20588459.206   108193092.408        2635.143          45.000    20588450.246    84306263.466        2053.378          41.000  
G10  19552034.470   102746630.273        1156.219          50.000    19552023.021    80062265.576         901.062          44.000  
G28  22128397.917   116285525.342        2645.624          40.000    22128387.263    90612077.970        2061.156          41.000  
C23  20738401.883   107990297.829         372.244          51.000                                                                  
C09  36843790.086   191855286.220         305.830          41.000    36843778.121   148354624.246         236.355          47.000  
C33  26009269.915                       -2900.044          29.000                                                                  
C37  22966964.727   119595025.416        2741.119          43.000                                                                  
> 2025 10 27 02 47 26.1560000  0 19                     
G12  20784946.078   109225630.461        1002.678          45.000    20784934.173    85110828.187         781.481          41.000  
G15  23131467.976   121556679.178       -3229.792          36.000    23131458.116    94719451.911       -2516.980          32.000  
G18  23444522.317   123201791.480       -3692.547          38.000    23444515.953    96001362.557       -2876.725          37.000  
G23  19185551.335   100820750.905       -1965.114          45.000    19185539.605    78561549.807       -1531.269          47.000  
G24  20817905.823                       -3321.959          28.000    20817896.263                       -2588.124          32.000  
G32  20954108.627   110114585.497        1527.572          45.000    20954098.197    85803518.472        1190.396          42.000  
C08  34699153.555   180687595.527        -303.168          46.000    34699136.708   139719031.401        -234.283          49.000  
C13  34711020.032   180749389.156         -11.487          47.000    34711011.544   139766846.999          -8.734          48.000  
C16  35672445.195   185755782.584          27.975          46.000    35672435.361   143638114.199          21.730          48.000  
C25  22167450.805   115431727.471       -2474.166          37.000                                                                  
C32  21083453.628   109787079.607         927.112          50.000                                                                  
C06  35371927.799   184190912.240         207.942          44.000    35371912.382   142428033.273         160.635          47.000  
G25  20588439.141   108192986.991        2635.310          45.000    20588430.194    84306181.326        2053.452          41.000  
G10  19552025.668   102746584.021        1156.256          50.000    19552014.213    80062229.528         901.178          44.000  
G28  22128377.777   116285419.559        2644.893          40.000    22128367.110    90611995.510        2061.431          41.000  
C23  20738398.983   107990282.945         372.108          51.000                                                                  
C09  36843787.761   191855273.986         305.847          41.000    36843775.778   148354614.787         236.399          47.000  
C33  26009292.209                       -2900.081          29.000                                                                  
C37  22966943.688   119594915.771        2741.134          43.000                                                                  
> 2025 10 27 02 47 26.1960000  0 19                     
G12  20784938.414   109225590.343        1002.821          45.000    20784926.523    85110796.915         781.678          41.000  
G15  23131492.561   121556808.370       -3229.890          36.000    23131482.679    94719552.548       -2516.388          32.000  
G18  23444550.411   123201939.170       -3692.351          38.000    23444544.067    96001477.648       -2876.937          37.000  
G23  19185566.308   100820829.509       -1965.139          45.000    19185554.554    78561611.057       -1531.263          47.000  
G24  20817931.297                       -3321.673          28.000    20817921.558                       -2589.028          32.000  
G32  20954096.978   110114524.386        1527.677          45.000    20954086.554    85803470.852        1190.419          42.000  
C08  34699155.898   180687607.650        -303.101          46.000    34699139.041   139719040.775        -234.308          49.000  
C13  34711020.123   180749389.615         -11.548          47.000    34711011.639   139766847.352          -8.789          48.000  
C16  35672444.941   185755781.459          28.083          46.000    35672435.144   143638113.323          21.845          48.000  
C25  22167469.821   115431826.421       -2473.750          37.000                                                                  
C32  21083446.503   109787042.525         927.059          50.000                                                                  
C06  35371926.220   184190903.922         207.928          44.000    35371910.781   142428026.828         160.903          47.000  
G25  20588419.081   108192881.581        2635.221          45.000    20588410.111    84306099.182        2053.550          41.000  
G10  19552016.848   102746537.764        1156.378          50.000    19552005.410    80062193.486         901.099          44.000  
G28  22128357.637   116285313.753        2644.984          40.000    22128346.958    90611913.082        2060.917          41.000  
C23  20738396.135   107990268.058         372.111          51.000                                                                  
C09  36843785.407   191855261.767         305.576          41.000    36843773.442   148354605.323         236.512          47.000  
C33  26009314.505                       -2900.265          29.000                                                                  
C37  22966922.615   119594806.132        2741.018          43.000                                                                  
> 2025 10 27 02 47 26.2360000  0 19                     
G12  20784930.799   109225550.247        1002.522          45.000    20784918.900    85110765.671         781.338          41.000  
G15  23131517.137   121556937.563       -3229.906          36.000    23131507.263    94719653.212       -2516.598          32.000  
G18  23444578.523   123202086.878       -3692.536          38.000    23444572.181    96001592.742       -2877.189          37.000  
G23  19185581.265   100820908.123       -1965.313          45.000    19185569.520    78561672.308       -1531.301          47.000  
G24  20817956.444                       -3322.016          28.000    20817946.842                       -2589.372          32.000  
G32  20954085.344   110114463.280        1527.645          45.000    20954074.939    85803423.237        1190.396          42.000  
C08  34699158.243   180687619.777        -303.131          46.000    34699141.393   139719050.155        -234.442          49.000  
C13  34711020.220   180749390.077         -11.584          47.000    34711011.723   139766847.705          -8.826          48.000  
C16  35672444.706   185755780.332          28.167          46.000    35672434.966   143638112.458          21.719          48.000  
C25  22167488.824   115431925.407       -2474.321          37.000                                                                  
C32  21083439.383   109787005.443         927.034          50.000                                                                  
C06  35371924.642   184190895.613         207.737          44.000    35371909.215   142428020.390         160.978          47.000  
G25  20588399.025   108192776.169        2635.257          45.000    20588390.049    84306017.050        2053.329          41.000  
G10  19552008.043   102746491.510        1156.360          50.000    19551996.600    80062157.458         900.763          44.000  
G28  22128337.521   116285207.942        2645.078          40.000    22128326.825    90611830.625        2061.212          41.000  
C23  20738393.292   107990253.172         372.100          51.000                                                                  
C09  36843783.063   191855249.540         305.586          41.000    36843771.099   148354595.867         236.416          47.000  
C33  26009336.775                       -2900.122          29.000                                                                  
C37  22966901.573   119594696.486        2741.082          43.000                                                                  
> 2025 10 27 02 47 26.2760000  0 19                     
G12  20784923.171   109225510.142        1002.541          45.000    20784911.278    85110734.443         780.837          41.000  
G15  23131541.709   121557066.700       -3228.909          36.000    23131531.851    94719753.850       -2516.116          32.000  
G18  23444606.627   123202234.585       -3692.699          38.000    23444600.280    96001707.842       -2877.483          37.000  
G23  19185596.227   100820986.732       -1965.298          45.000    19185584.483    78561733.561       -1531.325          47.000  
G24  20817981.584                       -3321.406          28.000    20817972.131                       -2588.815          32.000  
G32  20954073.724   110114402.185        1527.446          45.000    20954063.322    85803375.610        1190.597          42.000  
C08  34699160.564   180687631.906        -303.186          45.000    34699143.721   139719059.537        -234.570          49.000  
C13  34711020.349   180749390.532         -11.469          47.000    34711011.824   139766848.067          -9.021          48.000  
C16  35672444.457   185755779.216          27.995          46.000    35672434.745   143638111.595          21.573          48.000  
C25  22167507.852   115432024.391       -2474.594          37.000                                                                  
C32  21083432.230   109786968.362         926.997          50.000                                                                  
C06  35371923.037   184190887.300         207.744          44.000    35371907.635   142428013.961         160.822          47.000  
G25  20588378.965   108192670.752        2635.354          45.000    20588370.021    84305934.923        2053.137          41.000  
G10  19551999.246   102746445.263        1156.226          50.000    19551987.802    80062121.421         900.793          44.000  
G28  22128317.415   116285102.159        2644.674          40.000    22128306.703    90611748.179        2061.181          41.000  
C23  20738390.422   107990238.288         372.076          51.000                                                                  
C09  36843780.693   191855237.304         305.808          41.000    36843768.728   148354586.407         236.442          47.000  
C33  26009359.046                       -2900.328          29.000                                                                  
C37  22966880.490   119594586.866        2740.684          43.000                                                                  
> 2025 10 27 02 47 26.3160000  0 19                     
G12  20784915.516   109225470.037        1002.564          45.000    20784903.652    85110703.183         781.171          41.000  
G15  23131566.301   121557195.897       -3229.487          36.000    23131556.499    94719854.584       -2517.456          32.000  
G18  23444634.725   123202382.266       -3692.297          38.000    23444628.383    96001822.950       -2877.690          37.000  
G23  19185611.163   100821065.344       -1965.348          45.000    19185599.440    78561794.815       -1531.362          47.000  
G24  20818006.967                       -3321.738          28.000    20817997.336                       -2587.975          32.000  
G32  20954062.085   110114341.075        1527.597          45.000    20954051.702    85803328.013        1190.161          42.000  
C08  34699162.882   180687644.034        -303.223          46.000    34699146.045   139719068.915        -234.540          49.000  
C13  34711020.451   180749390.987         -11.395          47.000    34711011.908   139766848.421          -8.936          48.000  
C16  35672444.242   185755778.093          28.017          46.000    35672434.519   143638110.724          21.663          48.000  
C25  22167526.840   115432123.362       -2474.498          37.000                                                                  
C32  21083425.113   109786931.279         927.029          50.000                                                                  
C06  35371921.452   184190878.991         207.661          44.000    35371906.056   142428007.530         160.763          47.000  
G25  20588358.941   108192565.347        2635.194          45.000    20588349.971    84305852.784        2053.323          41.000  
G10  19551990.468   102746399.019        1156.085          50.000    19551979.000    80062085.390         900.708          44.000  
G28  22128297.288   116284996.336        2645.149          40.000    22128286.537    90611665.726        2061.287          41.000  
C23  20738387.552   107990223.401         372.101          51.000                                                                  
C09  36843778.340   191855225.069         305.854          41.000    36843766.375   148354576.955         236.310          47.000  
C33  26009381.289                       -2900.106          29.000                                                                  
C37  22966859.444   119594477.219        2740.905          43.000                                                                  
> 2025 10 27 02 47 26.3560000  0 19                     
G12  20784907.881   109225429.938        1002.475          45.000    20784896.021    85110671.935         781.152          41.000  
G15  23131590.886   121557325.084       -3229.580          36.000    23131581.093    94719955.231       -2516.740          32.000  
G18  23444662.831   123202529.976       -3692.555          38.000    23444656.506    96001938.052       -2877.609          37.000  
G23  19185626.117   100821143.953       -1965.291          45.000    19185614.410    78561856.076       -1531.511          47.000  
G24  20818031.927                       -3322.029          28.000    20818022.629                       -2587.729          32.000  
G32  20954050.463   110114279.969        1527.609          45.000    20954040.078    85803280.402        1190.153          42.000  
C08  34699165.186   180687656.160        -303.198          45.000    34699148.351   139719078.292        -234.497          49.000  
C13  34711020.537   180749391.447         -11.475          47.000    34711012.008   139766848.783          -9.039          48.000  
C16  35672444.014   185755776.979          27.887          46.000    35672434.292   143638109.859          21.630          48.000  
C25  22167545.833   115432222.347       -2474.564          37.000                                                                  
C32  21083417.961   109786894.200         926.986          50.000                                                                  
C06  35371919.858   184190870.662         207.986          44.000    35371904.459   142428001.110         160.527          47.000  
G25  20588338.894   108192459.947        2635.035          45.000    20588329.897    84305770.643        2053.474          41.000  
G10  19551981.665   102746352.776        1156.000          50.000    19551970.185    80062049.359         900.732          44.000  
G28  22128277.125   116284890.535        2645.016          40.000    22128266.418    90611583.286        2061.074          41.000  
C23  20738384.703   107990208.519         372.051          51.000                                                                  
C09  36843776.016   191855212.831         305.903          41.000    36843764.047   148354567.491         236.443          47.000  
C33  26009403.561                       -2900.403          29.000                                                                  
C37  22966838.399   119594367.565        2741.180          43.000                                                                  
> 2025 10 27 02 47 26.3960000  0 19                     
G12  20784900.269   109225389.852        1002.158          45.000    20784888.398    85110640.697         781.006          41.000  
G15  23131615.483   121557454.299       -3230.149          36.000    23131605.711    94720055.901       -2516.718          32.000  
G18  23444690.920   123202677.672       -3692.427          38.000    23444684.617    96002053.151       -2877.549          37.000  
G23  19185641.083   100821222.571       -1965.447          45.000    19185629.370    78561917.329       -1531.422          47.000  
G24  20818056.806                       -3322.268          28.000    20818047.915                       -2588.264          32.000  
G32  20954038.852   110114218.856        1527.712          45.000    20954028.467    85803232.777        1190.442          42.000  
C08  34699167.517   180687668.292        -303.308          45.000    34699150.663   139719087.675        -234.546          49.000  
C13  34711020.639   180749391.916         -11.694          47.000    34711012.101   139766849.141          -9.021          48.000  
C16  35672443.803   185755775.864          27.831          46.000    35672434.092   143638108.997          21.548          48.000  
C25  22167564.849   115432321.340       -2474.824          37.000                                                                  
C32  21083410.856   109786857.125         926.883          50.000                                                                  
C06  35371918.253   184190862.344         207.996          44.000    35371902.861   142427994.687         160.505          47.000  
G25  20588318.839   108192354.542        2635.061          45.000    20588309.834    84305688.510        2053.391          41.000  
G10  19551972.871   102746306.534        1155.981          50.000    19551961.365    80062013.313         901.038          44.000  
G28  22128256.995   116284784.736        2644.847          40.000    22128246.267    90611500.851        2060.907          41.000  
C23  20738381.840   107990193.646         371.851          51.000                                                                  
C09  36843773.681   191855200.615         305.570          41.000    36843761.702   148354558.047         236.198          47.000  
C33  26009425.843                       -2900.284          29.000                                                                  
C37  22966817.316   119594257.937        2740.862          43.000                                                                  
> 2025 10 27 02 47 26.4360000  0 19                     
G12  20784892.617   109225349.757        1002.201          45.000    20784880.771    85110609.447         781.118          41.000  
G15  23131640.080   121557583.496       -3230.074          36.000    23131630.332    94720156.528       -2515.916          32.000  
G18  23444719.028   123202825.375       -3692.485          38.000    23444712.703    96002168.227       -2877.134          37.000  
G23  19185656.031   100821301.183       -1965.414          45.000    19185644.326    78561978.589       -1531.478          47.000  
G24  20818082.350                       -3322.347          28.000    20818073.195                       -2589.108          32.000  
G32  20954027.218   110114157.757        1527.548          45.000    20954016.843    85803185.161        1190.431          42.000  
C08  34699169.861   180687680.433        -303.497          45.000    34699153.013   139719097.063        -234.717          49.000  
C13  34711020.747   180749392.376         -11.621          47.000    34711012.191   139766849.501          -9.045          48.000  
C16  35672443.579   185755774.747          27.856          46.000    35672433.848   143638108.132          21.577          48.000  
C25  22167583.843   115432420.304       -2474.368          37.000                                                                  
C32  21083403.678   109786820.051         926.802          50.000                                                                  
C06  35371916.624   184190854.031         207.892          44.000    35371901.261   142427988.261         160.549          47.000  
G25  20588298.779   108192249.140        2635.018          45.000    20588289.805    84305606.390        2053.063          41.000  
G10  19551964.061   102746260.298        1155.890          50.000    19551952.557    80061977.283         900.867          44.000  
G28  22128236.849   116284678.929        2644.967          40.000    22128226.148    90611418.407        2060.965          41.000  
C23  20738378.970   107990178.771         371.785          51.000                                                                  
C09  36843771.323   191855188.387         305.598          41.000    36843759.363   148354548.600         236.119          47.000  
C33  26009448.118                       -2900.077          29.000                                                                  
C37  22966796.258   119594148.311        2740.641          43.000                                                                  
> 2025 10 27 02 47 26.4760000  0 19                     
G12  20784884.984   109225309.659        1002.314          45.000    20784873.151    85110578.191         781.292          41.000  
G15  23131664.651   121557712.690       -3229.933          36.000    23131654.927    94720257.177       -2516.021          32.000  
G18  23444747.139   123202973.069       -3692.356          38.000    23444740.792    96002283.305       -2876.941          37.000  
G23  19185670.991   100821379.804       -1965.538          45.000    19185659.270    78562039.854       -1531.627          47.000  
G24  20818107.333                       -3322.185          28.000    20818098.496                       -2589.102          32.000  
G32  20954015.606   110114096.662        1527.389          45.000    20954005.204    85803137.556        1190.176          42.000  
C08  34699172.208   180687692.568        -303.448          45.000    34699155.339   139719106.446        -234.674          49.000  
C13  34711020.846   180749392.849         -11.798          47.000    34711012.280   139766849.860          -9.058          48.000  
C16  35672443.364   185755773.633          27.791          46.000    35672433.610   143638107.267          21.563          48.000  
C25  22167602.829   115432519.301       -2474.724          37.000                                                                  
C32  21083396.561   109786782.979         926.748          50.000                                                                  
C06  35371915.021   184190845.741         207.426          44.000    35371899.646   142427981.834         160.625          47.000  
G25  20588278.716   108192143.739        2634.975          45.000    20588269.751    84305524.260        2053.090          41.000  
G10  19551955.249   102746214.064        1155.811          50.000    19551943.736    80061941.263         900.555          44.000  
G28  22128216.737   116284573.129        2644.949          40.000    22128205.998    90611335.968        2060.890          41.000  
C23  20738376.124   107990163.895         371.791          51.000                                                                  
C09  36843768.984   191855176.155         305.745          41.000    36843757.038   148354539.150         236.172          47.000  
C33  26009470.418                       -2900.529          29.000                                                                  
C37  22966775.173   119594038.689        2740.492          43.000                                                                  
> 2025 10 27 02 47 26.5160000  0 19                     
G12  20784877.362   109225269.560        1002.385          45.000    20784865.514    85110546.946         781.185          41.000  
G15  23131689.218   121557841.881       -3229.764          36.000    23131679.501    94720357.838       -2516.431          32.000  
G18  23444775.250   123203120.774       -3692.539          38.000    23444768.915    96002398.377       -2876.729          37.000  
G23  19185685.939   100821458.420       -1965.480          45.000    19185674.241    78562101.122       -1531.744          47.000  
G24  20818132.512                       -3321.970          28.000    20818123.794                       -2589.262          32.000  
G32  20954003.993   110114035.565        1527.356          45.000    20953993.570    85803089.958        1189.961          42.000  
C08  34699174.561   180687704.702        -303.387          45.000    34699157.703   139719115.824        -234.521          49.000  
C13  34711020.960   180749393.313         -11.725          47.000    34711012.370   139766850.215          -8.942          48.000  
C16  35672443.143   185755772.514          27.863          46.000    35672433.394   143638106.411          21.434          48.000  
C25  22167621.853   115432618.278       -2474.554          37.000                                                                  
C32  21083389.455   109786745.902         926.821          50.000                                                                  
C06  35371913.452   184190837.432         207.518          44.000    35371898.028   142427975.407         160.645          47.000  
G25  20588258.681   108192038.347        2634.800          45.000    20588249.690    84305442.120        2053.274          41.000  
G10  19551946.456   102746167.827        1155.847          50.000    19551934.964    80061905.238         900.525          44.000  
G28  22128196.592   116284467.324        2645.005          40.000    22128185.847    90611253.523        2061.003          40.000  
C23  20738373.265   107990149.025         371.709          51.000                                                                  
C09  36843766.619   191855163.928         305.739          41.000    36843754.674   148354529.695         236.279          47.000  
C33  26009492.692                       -2900.175          29.000                                                                  
C37  22966754.135   119593929.057        2740.574          43.000                                                                  
> 2025 10 27 02 47 26.5560000  0 19                     
G12  20784869.761   109225229.465        1002.372          45.000    20784857.908    85110515.723         780.700          41.000  
G15  23131713.810   121557971.057       -3229.419          36.000    23131704.133    94720458.519       -2516.880          32.000  
G18  23444803.358   123203268.475       -3692.562          38.000    23444797.031    96002513.457       -2876.799          37.000  
G23  19185700.909   100821537.040       -1965.524          45.000    19185689.202    78562162.383       -1531.667          47.000  
G24  20818157.827                       -3321.844          28.000    20818149.049                       -2588.286          32.000  
G32  20953992.368   110113974.469        1527.348          45.000    20953981.926    85803042.352        1189.996          42.000  
C08  34699176.887   180687716.827        -303.223          45.000    34699160.044   139719125.203        -234.467          49.000  
C13  34711021.086   180749393.777         -11.658          47.000    34711012.466   139766850.576          -8.978          48.000  
C16  35672442.939   185755771.387          28.039          46.000    35672433.175   143638105.546          21.517          48.000  
C25  22167640.881   115432717.292       -2475.083          37.000                                                                  
C32  21083382.341   109786708.822         926.936          50.000                                                                  
C06  35371911.852   184190829.108         207.811          44.000    35371896.427   142427968.970         160.847          47.000  
G25  20588238.614   108191932.947        2634.872          45.000    20588229.607    84305359.986        2053.312          41.000  
G10  19551937.662   102746121.586        1155.957          50.000    19551926.164    80061869.208         900.623          44.000  
G28  22128176.460   116284361.537        2644.675          40.000    22128165.718    90611171.074        2061.210          39.000  
C23  20738370.418   107990134.145         371.868          51.000                                                                  
C09  36843764.257   191855151.707         305.606          41.000    36843752.317   148354520.235         236.448          47.000  
C33  26009514.939                       -2900.169          29.000                                                                  
C37  22966733.075   119593819.416        2740.824          43.000                                                                  
> 2025 10 27 02 47 26.5960000  0 19                     
G12  20784862.119   109225189.358        1002.606          45.000    20784850.273    85110484.471         781.016          41.000  
G15  23131738.386   121558100.211       -3228.887          36.000    23131728.711    94720559.195       -2516.976          32.000  
G18  23444831.479   123203416.191       -3692.820          38.000    23444825.156    96002628.564       -2877.421          37.000  
G23  19185715.843   100821615.652       -1965.412          45.000    19185704.171    78562223.635       -1531.431          47.000  
G24  20818182.882                       -3321.155          28.000    20818174.357                       -2588.188          32.000  
G32  20953980.745   110113913.360        1527.608          45.000    20953970.293    85802994.724        1190.437          42.000  
C08  34699179.194   180687728.954        -303.174          45.000    34699162.345   139719134.580        -234.424          49.000  
C13  34711021.173   180749394.232         -11.462          47.000    34711012.553   139766850.927          -8.826          48.000  
C16  35672442.724   185755770.262          28.106          46.000    35672432.926   143638104.679          21.600          48.000  
C25  22167659.885   115432816.251       -2474.389          37.000                                                                  
C32  21083375.245   109786671.741         927.005          50.000                                                                  
C06  35371910.277   184190820.780         208.109          44.000    35371894.818   142427962.527         161.051          47.000  
G25  20588218.531   108191827.541        2635.009          45.000    20588209.530    84305277.860        2053.203          41.000  
G10  19551928.839   102746075.342        1156.061          50.000    19551917.345    80061833.174         900.781          44.000  
G28  22128156.311   116284255.722        2645.120          40.000    22128145.594    90611088.643        2060.934          39.000  
C23  20738367.563   107990119.262         372.029          51.000                                                                  
C09  36843761.913   191855139.471         305.802          41.000    36843749.964   148354510.778         236.484          47.000  
C33  26009537.181                       -2900.407          29.000                                                                  
C37  22966712.037   119593709.765        2741.130          43.000                                                                  
> 2025 10 27 02 47 26.6360000  0 19                     
G12  20784854.467   109225149.265        1002.479          45.000    20784842.651    85110453.228         781.069          41.000  
G15  23131762.983   121558229.404       -3229.417          36.000    23131753.305    94720659.858       -2516.801          32.000  
G18  23444859.561   123203563.869       -3692.250          38.000    23444853.262    96002743.673       -2877.725          38.000  
G23  19185730.800   100821694.266       -1965.387          45.000    19185719.125    78562284.889       -1531.351          47.000  
G24  20818208.166                       -3321.669          28.000    20818199.649                       -2588.551          32.000  
G32  20953969.122   110113852.242        1527.868          45.000    20953958.633    85802947.099        1190.597          42.000  
C08  34699181.496   180687741.081        -303.168          45.000    34699164.646   139719143.958        -234.442          49.000  
C13  34711021.257   180749394.686         -11.346          47.000    34711012.629   139766851.283          -8.868          48.000  
C16  35672442.539   185755769.142          28.050          46.000    35672432.689   143638103.803          21.828          48.000  
C25  22167678.892   115432915.201       -2473.826          37.000                                                                  
C32  21083368.133   109786634.657         927.053          50.000                                                                  
C06  35371908.666   184190812.450         208.276          44.000    35371893.220   142427956.099         160.870          47.000  
G25  20588198.441   108191722.118        2635.412          45.000    20588189.488    84305195.727        2053.269          41.000  
G10  19551920.063   102746029.099        1156.067          50.000    19551908.563    80061797.140         900.812          44.000  
G28  22128136.152   116284149.916        2645.156          40.000    22128125.475    90611006.205        2060.955          39.000  
C23  20738364.729   107990104.377         372.101          51.000                                                                  
C09  36843759.597   191855127.234         305.906          41.000    36843747.596   148354501.322         236.457          47.000  
C33  26009559.455                       -2899.986          29.000                                                                  
C37  22966690.973   119593600.127        2741.089          43.000                                                                  
> 2025 10 27 02 47 26.6760000  0 19                     
G12  20784846.839   109225109.165        1002.476          45.000    20784835.022    85110421.984         781.099          41.000  
G15  23131787.593   121558358.607       -3229.924          36.000    23131777.867    94720760.510       -2516.542          32.000  
G18  23444887.650   123203711.553       -3692.078          38.000    23444881.375    96002858.754       -2877.400          38.000  
G23  19185745.748   100821772.879       -1965.331          45.000    19185734.098    78562346.149       -1531.453          47.000  
G24  20818234.158                       -3322.075          28.000    20818224.953                       -2588.476          32.000  
G32  20953957.496   110113791.135        1527.774          45.000    20953947.019    85802899.492        1190.310          42.000  
C08  34699183.845   180687753.207        -303.149          46.000    34699166.952   139719153.335        -234.454          49.000  
C13  34711021.339   180749395.150         -11.517          47.000    34711012.691   139766851.639          -8.887          48.000  
C16  35672442.322   185755768.029          27.886          46.000    35672432.453   143638102.940          21.684          48.000  
C25  22167697.892   115433014.190       -2474.393          37.000                                                                  
C32  21083360.973   109786597.579         926.993          50.000                                                                  
C06  35371907.070   184190804.152         207.766          44.000    35371891.643   142427949.682         160.560          47.000  
G25  20588178.390   108191616.719        2635.172          45.000    20588169.432    84305113.600        2053.233          41.000  
G10  19551911.273   102745982.862        1155.963          50.000    19551899.769    80061761.107         900.812          44.000  
G28  22128116.007   116284044.129        2644.863          40.000    22128105.356    90610923.762        2061.016          39.000  
C23  20738361.849   107990089.498         372.032          51.000                                                                  
C09  36843757.249   191855115.014         305.608          41.000    36843745.245   148354491.867         236.361          47.000  
C33  26009581.673                       -2900.299          29.000                                                                  
C37  22966669.908   119593490.492        2740.941          43.000                                                                  
> 2025 10 27 02 47 26.7160000  0 19                     
G12  20784839.218   109225069.085        1002.113          45.000    20784827.386    85110390.740         781.089          41.000  
G15  23131812.183   121558487.808       -3230.198          36.000    23131802.440    94720861.205       -2517.218          32.000  
G18  23444915.768   123203859.252       -3692.279          38.000    23444909.505    96002973.847       -2877.261          38.000  
G23  19185760.711   100821851.505       -1965.569          45.000    19185749.061    78562407.416       -1531.646          47.000  
G24  20818259.060                       -3322.224          28.000    20818250.258    85247249.942       -2588.951          32.000  
G32  20953945.876   110113730.037        1527.511          45.000    20953935.392    85802851.891        1189.991          42.000  
C08  34699186.136   180687765.344        -303.375          46.000    34699169.276   139719162.712        -234.448          49.000  
C13  34711021.396   180749395.611         -11.578          47.000    34711012.768   139766851.999          -8.978          48.000  
C16  35672442.106   185755766.907          27.949          46.000    35672432.239   143638102.074          21.629          48.000  
C25  22167716.884   115433113.159       -2474.293          37.000                                                                  
C32  21083353.856   109786560.503         926.930          50.000                                                                  
C06  35371905.500   184190795.844         207.610          44.000    35371890.043   142427943.263         160.409          47.000  
G25  20588158.340   108191511.322        2634.975          45.000    20588149.375    84305031.460        2053.450          41.000  
G10  19551902.471   102745936.624        1155.920          50.000    19551890.975    80061725.082         900.623          44.000  
G28  22128095.856   116283938.326        2644.951          40.000    22128085.225    90610841.311        2061.235          39.000  
C23  20738358.973   107990074.630         371.779          51.000                                                                  
C09  36843754.916   191855102.783         305.627          41.000    36843742.882   148354482.405         236.469          47.000  
C33  26009603.943                       -2900.125          29.000                                                                  
C37  22966648.836   119593380.861        2740.802          43.000                                                                  
> 2025 10 27 02 47 26.7560000  0 19                     
G12  20784831.593   109225028.993        1002.126          45.000    20784819.779    85110359.507         780.888          41.000  
G15  23131836.764   121558616.986       -3229.823          36.000    23131827.017    94720961.850       -2516.685          32.000  
G18  23444943.872   123204006.949       -3692.341          38.000    23444937.606    96003088.924       -2876.944          38.000  
G23  19185775.688   100821930.133       -1965.736          45.000    19185764.034    78562468.688       -1531.818          47.000  
G24  20818284.476                       -3321.923          28.000    20818275.539                       -2588.557          32.000  
G32  20953934.230   110113668.948        1527.266          45.000    20953923.775    85802804.276        1190.130          42.000  
C08  34699188.465   180687777.478        -303.400          46.000    34699171.613   139719172.099        -234.625          49.000  
C13  34711021.468   180749396.079         -11.682          47.000    34711012.861   139766852.358          -8.997          48.000  
C16  35672441.877   185755765.790          27.903          46.000    35672432.009   143638101.208          21.598          48.000  
C25  22167735.919   115433212.154       -2474.798          37.000                                                                  
C32  21083346.767   109786523.427         926.867          50.000                                                                  
C06  35371903.900   184190787.537         207.570          44.000    35371888.468   142427936.833         160.549          47.000  
G25  20588138.264   108191405.923        2634.923          45.000    20588129.308    84304949.328        2053.364          41.000  
G10  19551893.674   102745890.388        1155.896          50.000    19551882.168    80061689.051         900.708          44.000  
G28  22128075.731   116283832.533        2644.827          40.000    22128065.081    90610758.864        2061.232          39.000  
C23  20738356.106   107990059.760         371.688          51.000                                                                  
C09  36843752.570   191855090.558         305.566          41.000    36843740.525   148354472.943         236.530          47.000  
C33  26009626.232                       -2899.676          29.000                                                                  
C37  22966627.811   119593271.232        2740.679          43.000                                                                  
> 2025 10 27 02 47 26.7960000  0 19                     
G12  20784823.940   109224988.900        1002.201          45.000    20784812.147    85110328.270         780.841          41.000  
G15  23131861.364   121558746.180       -3229.839          36.000    23131851.606    94721062.515       -2516.740          32.000  
G18  23444971.971   123204154.658       -3692.587          38.000    23444965.706    96003204.013       -2877.146          38.000  
G23  19185790.627   100822008.753       -1965.652          45.000    19185779.002    78562529.944       -1531.561          47.000  
G24  20818310.204                       -3322.215          28.000    20818300.807                       -2587.730          32.000  
G32  20953922.607   110113607.846        1527.371          45.000    20953912.151    85802756.655        1190.352          42.000  
C08  34699190.836   180687789.608        -303.320          46.000    34699173.972   139719181.479        -234.589          49.000  
C13  34711021.575   180749396.542         -11.646          47.000    34711012.943   139766852.712          -8.911          48.000  
C16  35672441.662   185755764.666          28.016          46.000    35672431.772   143638100.341          21.646          48.000  
C25  22167754.925   115433311.176       -2475.459          37.000                                                                  
C32  21083339.645   109786486.357         926.740          50.000                                                                  
C06  35371902.297   184190779.214         207.874          44.000    35371886.881   142427930.399         160.750          47.000  
G25  20588118.209   108191300.534        2634.737          45.000    20588109.268    84304867.206        2053.142          41.000  
G10  19551884.869   102745844.154        1155.853          50.000    19551873.376    80061653.022         900.690          44.000  
G28  22128055.587   116283726.720        2645.202          40.000    22128044.955    90610676.417        2061.226          39.000  
C23  20738353.279   107990044.891         371.641          51.000                                                                  
C09  36843750.242   191855078.338         305.436          41.000    36843738.199   148354463.491         236.340          47.000  
C33  26009648.472                       -2899.657          29.000                                                                  
C37  22966606.743   119593161.611        2740.508          43.000                                                                  
> 2025 10 27 02 47 26.8360000  0 19                     
G12  20784816.306   109224948.806        1002.255          45.000    20784804.517    85110297.028         780.976          41.000  
G15  23131885.945   121558875.356       -3229.598          36.000    23131876.200    94721163.184       -2516.722          32.000  
G18  23445000.098   123204302.358       -3692.568          38.000    23444993.813    96003319.069       -2876.618          38.000  
G23  19185805.592   100822087.374       -1965.596          45.000    19185793.941    78562591.208       -1531.593          47.000  
G24  20818335.555                       -3321.929          28.000    20818326.097    85247560.519       -2588.255          32.000  
G32  20953910.974   110113546.737        1527.600          45.000    20953900.514    85802709.041        1190.329          42.000  
C08  34699193.177   180687801.743        -303.412          46.000    34699176.335   139719190.858        -234.540          49.000  
C13  34711021.670   180749397.001         -11.554          47.000    34711013.012   139766853.066          -8.868          48.000  
C16  35672441.469   185755763.541          28.093          46.000    35672431.525   143638099.479          21.582          48.000  
C25  22167773.928   115433410.129       -2474.462          37.000                                                                  
C32  21083332.519   109786449.283         926.769          50.000                                                                  
C06  35371900.684   184190770.895         207.941          44.000    35371885.310   142427923.962         160.890          47.000  
G25  20588098.153   108191195.136        2634.796          45.000    20588089.201    84304785.086        2052.982          41.000  
G10  19551876.055   102745797.915        1155.902          50.000    19551864.568    80061616.994         900.677          44.000  
G28  22128035.459   116283620.917        2645.162          40.000    22128024.802    90610593.984        2060.907          39.000  
C23  20738350.453   107990030.018         371.722          51.000                                                                  
C09  36843747.921   191855066.106         305.665          41.000    36843735.862   148354454.035         236.310          47.000  
C33  26009670.728                       -2900.017          29.000                                                                  
C37  22966585.706   119593051.974        2740.741          43.000                                                                  
> 2025 10 27 02 47 26.8760000  0 19                     
G12  20784808.683   109224908.720        1002.178          45.000    20784796.895    85110265.783         781.064          41.000  
G15  23131910.533   121559004.520       -3229.187          36.000    23131900.778    94721263.864       -2516.991          32.000  
G18  23445028.194   123204450.047       -3692.380          38.000    23445021.922    96003434.176       -2877.332          38.000  
G23  19185820.559   100822165.998       -1965.602          45.000    19185808.928    78562652.471       -1531.600          47.000  
G24  20818360.699                       -3322.056          28.000    20818351.431    85247664.084       -2588.942          32.000  
G32  20953899.338   110113485.625        1527.771          45.000    20953888.899    85802661.435        1190.181          42.000  
C08  34699195.511   180687813.878        -303.412          46.000    34699178.665   139719200.237        -234.503          49.000  
C13  34711021.725   180749397.459         -11.469          47.000    34711013.082   139766853.426          -8.966          48.000  
C16  35672441.275   185755762.430          27.854          46.000    35672431.292   143638098.616          21.523          48.000  
C25  22167792.948   115433509.108       -2474.314          37.000                                                                  
C32  21083325.441   109786412.204         926.899          50.000                                                                  
C06  35371899.078   184190762.588         207.758          44.000    35371883.712   142427917.529         160.884          47.000  
G25  20588078.092   108191089.718        2635.223          45.000    20588069.153    84304702.960        2053.077          41.000  
G10  19551867.271   102745751.683        1155.792          50.000    19551855.758    80061580.970         900.604          44.000  
G28  22128015.325   116283515.130        2644.857          40.000    22128004.658    90610511.570        2060.417          40.000  
C23  20738347.580   107990015.139         371.851          51.000                                                                  
C09  36843745.588   191855053.876         305.765          41.000    36843733.499   148354444.586         236.231          47.000  
C33  26009693.004                       -2900.150          29.000                                                                  
C37  22966564.680   119592942.331        2740.979          43.000                                                                  
> 2025 10 27 02 47 26.9160000  0 19                     
G12  20784801.051   109224868.632        1002.140          45.000    20784789.257    85110234.539         781.148          41.000  
G15  23131935.117   121559133.703       -3229.332          36.000    23131925.394    94721364.597       -2518.033          32.000  
G18  23445056.313   123204597.752       -3692.553          38.000    23445050.039    96003549.294       -2877.798          38.000  
G23  19185835.519   100822244.626       -1965.701          45.000    19185823.887    78562713.737       -1531.674          47.000  
G24  20818385.843                       -3322.119          28.000    20818376.713    85247767.625       -2588.856          32.000  
G32  20953887.710   110113424.521        1527.728          45.000    20953877.291    85802613.831        1190.101          42.000  
C08  34699197.816   180687826.015        -303.473          46.000    34699180.980   139719209.621        -234.589          49.000  
C13  34711021.848   180749397.923         -11.566          47.000    34711013.183   139766853.786          -9.027          48.000  
C16  35672441.068   185755761.314          27.853          46.000    35672431.036   143638097.756          21.451          48.000  
C25  22167811.927   115433608.083       -2474.275          37.000                                                                  
C32  21083318.282   109786375.130         926.852          50.000                                                                  
C06  35371897.481   184190754.287         207.538          44.000    35371882.097   142427911.109         160.615          47.000  
G25  20588058.032   108190984.330        2634.902          45.000    20588049.095    84304620.826        2053.226          41.000  
G10  19551858.488   102745705.453        1155.713          50.000    19551846.949    80061544.941         900.647          44.000  
G28  22127995.184   116283409.317        2645.131          41.000    22127984.515    90610429.141        2060.497          40.000  
C23  20738344.724   107990000.266         371.817          51.000                                                                  
C09  36843743.263   191855041.643         305.846          41.000    36843731.151   148354435.133         236.270          47.000  
C33  26009715.253                       -2900.436          29.000                                                                  
C37  22966543.623   119592832.692        2740.987          43.000                                                                  
