     3.04           OBSERVATION DATA    M: Mixed            RINEX VERSION / TYPE
RTKCONV 2.4.3 b34                       20251027 032543 UTC PGM / RUN BY / DATE 
format: u-blox UBX                                          COMMENT             
log: D:\GPdata\10_27\fingure_190_10_27_1.ubx                COMMENT             
                                                            MARKER NAME         
                                                            MARKER NUMBER       
                                                            MARKER TYPE         
                                                            OBSERVER / AGENCY   
                                                            REC # / TYPE / VERS 
                                                            ANT # / TYPE        
        0.0000        0.0000        0.0000                  APPROX POSITION XYZ 
        0.0000        0.0000        0.0000                  ANTENNA: DELTA H/E/N
G    8 C1C L1C D1C S1C C2L L2L D2L S2L                      SYS / # / OBS TYPES 
C    8 C2I L2I D2I S2I C7I L7I D7I S7I                      SYS / # / OBS TYPES 
  2025    10    27    02    52   59.1960000     GPS         TIME OF FIRST OBS   
  2025    10    27    02    53   22.7160000     GPS         TIME OF LAST OBS    
G L1C                                                       SYS / PHASE SHIFT   
G L2L  0.00000                                              SYS / PHASE SHIFT   
C L2I                                                       SYS / PHASE SHIFT   
C L7I                                                       SYS / PHASE SHIFT   
  0                                                         GLONASS SLOT / FRQ #
 C1C    0.000 C1P    0.000 C2C    0.000 C2P    0.000        GLONASS COD/PHS/BIS 
                                                            END OF HEADER       
> 2025 10 27 02 52 59.1960000  0 19                     
G12  20728206.676   108927460.5731        788.043          45.000    20728194.815    84878495.0481        614.015          43.000  
G15  23337438.418                2      -3269.059          33.000    23337436.222    95562882.9131      -2547.747          32.000  
G18  23677909.182   124428247.9771      -3669.399          34.000    23677907.855    96957067.4871      -2859.435          38.000  
G23  19316486.627   101508814.9641      -2164.777          47.000    19316474.876    79097702.8551      -1686.872          47.000  
G24  21030891.325                1      -3396.513          28.000    21030887.769    86117958.7661      -2647.121          32.000  
G32  20858599.844   109612677.7851       1487.597          45.000    20858590.197    85412441.2691       1159.163          42.000  
C08  34720496.978   180798735.4261       -363.074          45.000    34720480.122   139804971.5031       -280.841          49.000  
C13  34713450.785   180762044.2061        -63.391          46.000    34713441.914   139776632.3921        -49.207          48.000  
C16  35672072.844   185753855.0001        -14.772          47.000    35672062.697   143636615.1131        -11.454          48.000  
C25  22329727.146   116276754.8181      -2597.758          33.000                                                                  
C32  21027065.143   109493449.0651        836.803          49.000                                                                  
C06  35360081.178   184129233.9241        164.087          43.000    35360065.753   142380333.8701        126.816          46.000  
G25  20425964.852   107339180.0281       2491.207          44.000    20425955.927    83640877.6151       1940.895          43.000  
G10  19484702.971   102392803.6611        968.378          50.000    19484691.173    79786554.0041        754.541          44.000  
G28  21963974.225   115421455.7511       2543.787          40.000    21963963.225    89938769.7461       1982.173          43.000  
C23  20720538.229   107897278.7601        187.726          49.000                                                                  
C09  36825643.224   191760790.2341        263.658          41.000    36825631.743   148281559.2411        203.417          48.000  
C33  26196317.810                3      -2945.678          26.000                                                                  
C37  22794581.714   118697383.6991       2649.233          45.000                                                                  
> 2025 10 27 02 52 59.2360000  0 19                     
G12  20728200.689   108927429.060         787.844          45.000    20728188.827    84878470.482         614.110          43.000  
G15  23337463.535                2      -3268.551          33.000    23337460.642    95562984.752       -2546.730          32.000  
G18  23677936.860   124428394.731       -3668.976          34.000    23677935.906    96957181.851       -2859.245          38.000  
G23  19316503.104   101508901.556       -2164.808          47.000    19316491.362    79097770.330       -1686.903          47.000  
G24  21030917.270                       -3396.557          28.000    21030913.642    86118064.630       -2646.902          32.000  
G32  20858588.520   109612618.276        1487.733          45.000    20858578.885    85412394.910        1159.063          42.000  
C08  34720499.781   180798749.964        -363.385          45.000    34720482.929   139804982.739        -280.896          49.000  
C13  34713451.254   180762046.754         -63.635          46.000    34713442.403   139776634.358         -49.182          48.000  
C16  35672072.973   185753855.604         -15.038          47.000    35672062.841   143636615.573         -11.518          48.000  
C25  22329747.100   116276858.710       -2597.467          33.000                                                                  
C32  21027058.698   109493415.601         836.649          49.000                                                                  
C06  35360079.936   184129227.370         163.939          43.000    35360064.511   142380328.798         126.781          46.000  
G25  20425945.897   107339080.383        2491.091          44.000    20425936.975    83640799.964        1941.061          43.000  
G10  19484695.602   102392764.931         968.279          50.000    19484683.822    79786523.828         754.430          44.000  
G28  21963954.921   115421354.003        2543.743          40.000    21963943.887    89938690.459        1982.197          43.000  
C23  20720536.770   107897271.253         187.656          49.000                                                                  
C09  36825641.177   191760779.711         263.368          41.000    36825629.720   148281551.103         203.417          48.000  
C33  26196340.484                3      -2945.532          26.000                                                                  
C37  22794561.369   118697277.743        2648.987          45.000                                                                  
> 2025 10 27 02 52 59.2760000  0 19                     
G12  20728194.701   108927397.558         787.545          45.000    20728182.836    84878445.918         614.085          43.000  
G15  23337487.830                2      -3268.608          33.000    23337485.912                       -2546.867          32.000  
G18  23677965.123   124428541.496       -3668.933          34.000    23677963.810    96957296.231       -2859.443          38.000  
G23  19316519.570   101508988.157       -2164.980          47.000    19316507.834    79097837.806       -1686.940          47.000  
G24  21030943.133                       -3396.770          28.000    21030939.485                       -2647.375          32.000  
G32  20858577.184   109612558.791        1487.311          45.000    20858567.553    85412348.552        1158.964          42.000  
C08  34720502.577   180798764.503        -363.525          45.000    34720485.729   139804993.981        -281.055          49.000  
C13  34713451.765   180762049.298         -63.678          46.000    34713442.874   139776636.327         -49.243          48.000  
C16  35672073.096   185753856.203         -15.062          47.000    35672062.982   143636616.036         -11.562          48.000  
C25  22329767.068   116276962.623       -2597.707          33.000                                                                  
C32  21027052.233   109493382.143         836.440          49.000                                                                  
C06  35360078.685   184129220.811         163.938          43.000    35360063.228   142380323.723         126.823          46.000  
G25  20425926.934   107338980.730        2491.207          44.000    20425917.974    83640722.305        1941.316          43.000  
G10  19484688.262   102392726.208         968.100          50.000    19484676.459    79786493.654         754.325          44.000  
G28  21963935.656   115421252.257        2543.624          40.000    21963924.527    89938611.178        1982.072          43.000  
C23  20720535.333   107897263.756         187.437          49.000                                                                  
C09  36825639.159   191760769.202         262.909          41.000    36825627.701   148281542.968         203.360          48.000  
C33  26196362.991                3      -2946.956          26.000                                                                  
C37  22794541.023   118697171.786        2648.906          45.000                                                                  
> 2025 10 27 02 52 59.3160000  0 19                     
G12  20728188.697   108927366.038         787.763          45.000    20728176.850    84878421.365         613.877          42.000  
G15  23337512.667                2      -3268.804          33.000    23337510.557                       -2547.030          32.000  
G18  23677993.068   124428688.295       -3669.637          34.000    23677991.641    96957410.599       -2859.308          38.000  
G23  19316536.056   101509074.756       -2165.004          47.000    19316524.335    79097905.285       -1687.026          47.000  
G24  21030969.460                       -3397.273          28.000    21030965.338                       -2646.740          31.000  
G32  20858565.876   109612499.303        1487.162          45.000    20858556.232    85412302.189        1159.026          42.000  
C08  34720505.343   180798779.048        -363.727          45.000    34720488.521   139805005.223        -281.116          49.000  
C13  34713452.248   180762051.863         -64.056          46.000    34713443.349   139776638.300         -49.310          48.000  
C16  35672073.210   185753856.811         -15.248          47.000    35672063.131   143636616.497         -11.567          48.000  
C25  22329787.006   116277066.525       -2597.595          33.000                                                                  
C32  21027045.770   109493348.692         836.233          49.000                                                                  
C06  35360077.439   184129214.250         163.947          43.000    35360061.966   142380318.657         126.683          46.000  
G25  20425907.978   107338881.088        2491.097          44.000    20425899.007    83640644.645        1941.511          43.000  
G10  19484680.884   102392687.491         967.898          50.000    19484669.120    79786463.488         754.147          44.000  
G28  21963916.271   115421150.518        2543.495          40.000    21963905.149    89938531.901        1981.917          43.000  
C23  20720533.905   107897256.270         187.120          49.000                                                                  
C09  36825637.126   191760758.713         262.310          41.000    36825625.697   148281534.841         203.191          48.000  
C33  26196385.475                3      -2948.211          26.000                                                                  
C37  22794520.701   118697065.829        2648.823          45.000                                                                  
> 2025 10 27 02 52 59.3560000  0 19                     
G12  20728182.692   108927334.519         787.893          45.000    20728170.846    84878396.813         613.744          42.000  
G15  23337537.301                2      -3268.511          33.000    23337535.328                       -2546.479          32.000  
G18  23678020.965   124428835.076       -3669.656          34.000    23678019.426    96957524.964       -2859.223          38.000  
G23  19316552.534   101509161.352       -2164.967          47.000    19316540.833    79097972.766       -1687.081          47.000  
G24  21030995.229                       -3396.909          28.000    21030991.180                       -2646.566          31.000  
G32  20858554.526   109612439.799        1487.375          45.000    20858544.907    85412255.822        1159.115          42.000  
C08  34720508.151   180798793.582        -363.525          45.000    34720491.276   139805016.461        -281.036          49.000  
C13  34713452.737   180762054.417         -64.020          46.000    34713443.824   139776640.268         -49.255          48.000  
C16  35672073.325   185753857.418         -15.304          47.000    35672063.265   143636616.969         -11.753          48.000  
C25  22329806.930   116277170.445       -2597.860          33.000                                                                  
C32  21027039.363   109493315.239         836.196          49.000                                                                  
C06  35360076.191   184129207.704         163.718          43.000    35360060.690   142380313.586         126.699          46.000  
G25  20425888.994   107338781.441        2491.084          44.000    20425880.061    83640567.002        1941.261          43.000  
G10  19484673.523   102392648.777         967.788          50.000    19484661.749    79786433.323         754.050          44.000  
G28  21963896.901   115421048.778        2543.422          40.000    21963885.800    89938452.621        1981.918          43.000  
C23  20720532.479   107897248.781         187.074          49.000                                                                  
C09  36825635.105   191760748.203         262.491          41.000    36825623.674   148281526.715         203.125          48.000  
C33  26196408.117                3      -2945.911          26.000                                                                  
C37  22794500.354   118696959.892        2648.429          45.000                                                                  
> 2025 10 27 02 52 59.3960000  0 19                     
G12  20728176.703   108927302.998         787.974          45.000    20728164.834    84878372.251         613.879          42.000  
G15  23337561.714                2      -3269.342          33.000    23337559.835                       -2547.173          32.000  
G18  23678048.938   124428981.846       -3669.357          34.000    23678047.400    96957639.298       -2858.604          38.000  
G23  19316569.003   101509247.948       -2164.917          47.000    19316557.320    79098040.241       -1686.969          47.000  
G24  21031021.136                       -3396.488          28.000    21031017.050                       -2646.744          31.000  
G32  20858543.203   109612380.300        1487.420          45.000    20858533.566    85412209.467        1158.924          42.000  
C08  34720510.958   180798808.112        -363.324          46.000    34720494.073   139805027.695        -280.927          49.000  
C13  34713453.222   180762056.954         -63.623          47.000    34713444.354   139776642.232         -49.152          48.000  
C16  35672073.427   185753858.011         -15.024          47.000    35672063.408   143636617.420         -11.462          48.000  
C25  22329826.902   116277274.359       -2597.871          33.000                                                                  
C32  21027032.957   109493281.769         836.535          51.000                                                                  
C06  35360074.926   184129201.143         163.849          44.000    35360059.427   142380308.512         126.775          46.000  
G25  20425870.032   107338681.796        2491.074          44.000    20425861.115    83640489.360        1941.099          43.000  
G10  19484666.144   102392610.049         968.017          50.000    19484654.371    79786403.145         754.272          44.000  
G28  21963877.449   115420947.031        2543.566          40.000    21963866.446    89938373.342        1981.906          43.000  
C23  20720531.033   107897241.274         187.411          50.000                                                                  
C09  36825633.095   191760737.683         262.809          41.000    36825621.632   148281518.572         203.422          48.000  
C33  26196431.096                3      -2946.482          26.000                                                                  
C37  22794480.006   118696853.925        2648.840          45.000                                                                  
> 2025 10 27 02 52 59.4360000  0 19                     
G12  20728170.744   108927271.484         787.913          45.000    20728158.854    84878347.695         613.882          42.000  
G15  23337586.327                2      -3269.152          33.000    23337585.291    95563494.189       -2547.133          32.000  
G18  23678076.840   124429128.607       -3669.054          34.000    23678075.234    96957753.677       -2859.061          38.000  
G23  19316585.500   101509334.545       -2164.942          47.000    19316573.816    79098107.724       -1687.043          47.000  
G24  21031047.139                       -3397.006          28.000    21031042.923                       -2647.729          31.000  
G32  20858531.900   109612320.806        1487.381          45.000    20858522.233    85412163.100        1159.064          42.000  
C08  34720513.776   180798822.637        -363.141          46.000    34720496.863   139805038.933        -280.969          48.000  
C13  34713453.702   180762059.489         -63.403          48.000    34713444.868   139776644.199         -49.146          48.000  
C16  35672073.526   185753858.583         -14.514          48.000    35672063.517   143636617.873         -11.349          48.000  
C25  22329846.858   116277378.234       -2597.206          33.000                                                                  
C32  21027026.519   109493248.297         836.762          51.000                                                                  
C06  35360073.654   184129194.572         164.097          44.000    35360058.145   142380303.440         126.780          46.000  
G25  20425851.055   107338582.143        2491.227          44.000    20425842.174    83640411.719        1941.000          43.000  
G10  19484658.765   102392571.321         968.134          50.000    19484647.005    79786372.961         754.537          44.000  
G28  21963858.326   115420845.283        2543.627          40.000    21963847.087    89938294.049        1982.168          43.000  
C23  20720529.593   107897233.765         187.633          51.000                                                                  
C09  36825631.082   191760727.139         263.422          42.000    36825619.632   148281510.434         203.476          48.000  
C33  26196453.933                3      -2947.232          26.000                                                                  
C37  22794459.662   118696747.959        2649.022          46.000                                                                  
> 2025 10 27 02 52 59.4760000  0 19                     
G12  20728164.754   108927239.972         787.815          45.000    20728152.862    84878323.149         613.702          42.000  
G15  23337611.674                2      -3267.574          33.000    23337609.497    95563596.071       -2547.213          32.000  
G18  23678104.797   124429275.411       -3669.709          34.000    23678103.114    96957868.052       -2859.302          38.000  
G23  19316601.983   101509421.146       -2165.010          47.000    19316590.281    79098175.203       -1687.043          47.000  
G24  21031072.933                       -3397.053          28.000    21031068.749                       -2647.690          31.000  
G32  20858520.561   109612261.300        1487.541          44.000    20858510.911    85412116.746        1158.902          42.000  
C08  34720516.576   180798837.160        -363.068          45.000    34720499.680   139805050.163        -280.823          48.000  
C13  34713454.198   180762062.017         -63.196          47.000    34713445.365   139776646.167         -49.194          48.000  
C16  35672073.629   185753859.163         -14.383          48.000    35672063.682   143636618.343         -11.595          48.000  
C25  22329866.821   116277482.130       -2597.307          33.000                                                                  
C32  21027020.105   109493214.820         836.916          50.000                                                                  
C06  35360072.371   184129187.999         164.316          44.000    35360056.891   142380298.366         126.812          46.000  
G25  20425832.094   107338482.496        2491.220          44.000    20425823.205    83640334.082        1940.929          43.000  
G10  19484651.421   102392532.600         968.041          50.000    19484639.615    79786342.785         754.506          44.000  
G28  21963839.158   115420743.515        2544.050          40.000    21963827.751    89938214.759        1982.228          43.000  
C23  20720528.181   107897226.249         187.858          50.000                                                                  
C09  36825629.065   191760716.599         263.640          41.000    36825617.593   148281502.301         203.367          48.000  
C33  26196476.821                3      -2947.893          26.000                                                                  
C37  22794439.329   118696641.987        2649.263          45.000                                                                  
> 2025 10 27 02 52 59.5160000  0 19                     
G12  20728158.758   108927208.461         787.753          45.000    20728146.841    84878298.577         614.068          42.000  
G15  23337636.787                2      -3269.065          33.000    23337634.048    95563697.957       -2547.281          32.000  
G18  23678132.758   124429422.146       -3668.855          34.000    23678131.002    96957982.434       -2859.551          38.000  
G23  19316618.480   101509507.752       -2165.102          47.000    19316606.755    79098242.685       -1687.093          47.000  
G24  21031098.687                       -3397.153          28.000    21031094.609                       -2646.922          31.000  
G32  20858509.238   109612201.799        1487.565          44.000    20858499.575    85412070.365        1159.323          42.000  
C08  34720519.370   180798851.687        -363.147          44.000    34720502.476   139805061.404        -280.951          48.000  
C13  34713454.676   180762064.561         -63.483          46.000    34713445.888   139776648.138         -49.255          48.000  
C16  35672073.741   185753859.770         -14.900          46.000    35672063.849   143636618.801         -11.554          48.000  
C25  22329886.816   116277586.012       -2597.130          33.000                                                                  
C32  21027013.691   109493181.358         836.697          49.000                                                                  
C06  35360071.095   184129181.435         164.249          43.000    35360055.592   142380293.294         126.798          46.000  
G25  20425813.141   107338382.849        2491.198          44.000    20425804.233    83640256.421        1941.305          43.000  
G10  19484644.029   102392493.874         968.103          50.000    19484632.243    79786312.616         754.326          44.000  
G28  21963819.853   115420641.774        2543.755          40.000    21963808.397    89938135.488        1981.960          43.000  
C23  20720526.726   107897218.751         187.610          49.000                                                                  
C09  36825627.063   191760706.081         263.243          41.000    36825615.545   148281494.172         203.255          48.000  
C33  26196499.368                3      -2944.727          26.000                                                                  
C37  22794418.993   118696536.036        2648.955          43.000                                                                  
> 2025 10 27 02 52 59.5560000  0 19                     
G12  20728152.766   108927176.944         787.853          45.000    20728140.866    84878274.026         613.907          42.000  
G15  23337661.767                2      -3268.152          33.000    23337658.804    95563799.879       -2547.792          32.000  
G18  23678160.638   124429568.926       -3669.272          34.000    23678158.961    96958096.790       -2859.216          38.000  
G23  19316634.940   101509594.344       -2164.910          47.000    19316623.211    79098310.163       -1687.031          47.000  
G24  21031124.805                       -3396.861          28.000    21031120.483                       -2647.220          31.000  
G32  20858497.913   109612142.298        1487.543          44.000    20858488.250    85412024.008        1159.069          42.000  
C08  34720522.148   180798866.225        -363.373          45.000    34720505.233   139805072.636        -280.841          48.000  
C13  34713455.164   180762067.117         -63.806          47.000    34713446.374   139776650.096         -49.030          48.000  
C16  35672073.832   185753860.374         -15.101          47.000    35672063.995   143636619.267         -11.651          48.000  
C25  22329906.751   116277689.947       -2597.931          33.000                                                                  
C32  21027007.269   109493147.903         836.435          50.000                                                                  
C06  35360069.838   184129174.884         163.977          43.000    35360054.294   142380288.214         126.949          46.000  
G25  20425794.165   107338283.203        2491.177          44.000    20425785.260    83640178.772        1941.305          43.000  
G10  19484636.634   102392455.148         968.134          50.000    19484624.858    79786282.444         754.246          44.000  
G28  21963800.482   115420540.028        2543.681          40.000    21963789.054    89938056.201        1982.105          43.000  
C23  20720525.300   107897211.265         187.256          50.000                                                                  
C09  36825625.052   191760695.574         262.823          41.000    36825613.519   148281486.039         203.275          48.000  
C33  26196521.764                3      -2945.570          26.000                                                                  
C37  22794398.651   118696430.082        2648.845          44.000                                                                  
> 2025 10 27 02 52 59.5960000  0 19                     
G12  20728146.781   108927145.430         787.847          45.000    20728134.854    84878249.470         613.909          42.000  
G15  23337686.533                2      -3268.766          33.000    23337683.703    95563901.767       -2547.543          32.000  
G18  23678188.684   124429715.695       -3669.221          34.000    23678186.719    96958211.149       -2859.043          38.000  
G23  19316651.413   101509680.939       -2164.874          47.000    19316639.689    79098377.635       -1686.877          47.000  
G24  21031150.923                       -3396.849          28.000    21031146.325                       -2646.239          31.000  
G32  20858486.605   109612082.801        1487.479          44.000    20858476.958    85411977.647        1159.046          42.000  
C08  34720524.929   180798880.750        -363.232          46.000    34720508.010   139805083.866        -280.756          48.000  
C13  34713455.666   180762069.666         -63.837          47.000    34713446.863   139776652.061         -49.066          48.000  
C16  35672073.925   185753860.976         -15.156          48.000    35672064.136   143636619.724         -11.551          48.000  
C25  22329926.701   116277793.876       -2598.398          33.000                                                                  
C32  21027000.895   109493114.436         836.542          51.000                                                                  
C06  35360068.592   184129168.323         164.003          44.000    35360053.013   142380283.134         126.975          46.000  
G25  20425775.205   107338183.553        2491.189          44.000    20425766.292    83640101.121        1941.343          43.000  
G10  19484629.255   102392416.420         968.170          50.000    19484617.529    79786252.271         754.265          44.000  
G28  21963781.173   115420438.289        2543.482          40.000    21963769.694    89937976.918        1982.130          43.000  
C23  20720523.848   107897203.769         187.272          50.000                                                                  
C09  36825623.036   191760685.065         262.665          41.000    36825611.517   148281477.900         203.382          48.000  
C33  26196544.622                3      -2945.754          26.000                                                                  
C37  22794378.295   118696324.126        2648.846          45.000                                                                  
> 2025 10 27 02 52 59.6360000  0 19                     
G12  20728140.787   108927113.916         787.846          45.000    20728128.844    84878224.913         613.892          42.000  
G15  23337711.463                2      -3268.429          33.000    23337708.670    95564003.603       -2546.440          32.000  
G18  23678216.601   124429862.455       -3669.128          34.000    23678214.499    96958325.517       -2859.091          38.000  
G23  19316667.900   101509767.534       -2164.868          47.000    19316656.164    79098445.117       -1687.013          47.000  
G24  21031176.550                       -3396.737          28.000    21031172.177                       -2646.013          31.000  
G32  20858475.262   109612023.289        1487.704          44.000    20858465.634    85411931.285        1159.000          42.000  
C08  34720527.713   180798895.285        -363.348          45.000    34720510.767   139805095.100        -280.811          48.000  
C13  34713456.182   180762072.210         -63.708          47.000    34713447.347   139776654.022         -49.030          48.000  
C16  35672074.057   185753861.566         -14.915          48.000    35672064.250   143636620.179         -11.435          48.000  
C25  22329946.650   116277897.746       -2597.359          33.000                                                                  
C32  21026994.486   109493080.972         836.557          50.000                                                                  
C06  35360067.333   184129161.759         164.070          44.000    35360051.730   142380278.054         127.004          46.000  
G25  20425756.257   107338083.911        2491.085          44.000    20425747.324    83640023.489        1940.985          43.000  
G10  19484621.908   102392377.700         968.028          50.000    19484610.181    79786222.093         754.339          44.000  
G28  21963761.778   115420336.545        2543.458          40.000    21963750.317    89937897.628        1982.254          43.000  
C23  20720522.438   107897196.266         187.418          50.000                                                                  
C09  36825621.043   191760674.528         263.133          41.000    36825609.516   148281469.754         203.588          48.000  
C33  26196567.206                3      -2946.849          26.000                                                                  
C37  22794357.973   118696218.160        2649.023          45.000                                                                  
> 2025 10 27 02 52 59.6760000  0 19                     
G12  20728134.783   108927082.403         787.847          45.000    20728122.861    84878200.356         613.881          42.000  
G15  23337735.775                2      -3268.384          33.000    23337733.721    95564105.484       -2546.697          32.000  
G18  23678244.525   124430009.216       -3668.995          34.000    23678242.492    96958439.869       -2858.802          38.000  
G23  19316684.390   101509854.136       -2165.010          47.000    19316672.662    79098512.603       -1687.161          47.000  
G24  21031202.515                       -3396.549          28.000    21031198.031                       -2647.611          31.000  
G32  20858463.922   109611963.778        1487.783          44.000    20858454.322    85411884.904        1159.332          42.000  
C08  34720530.491   180798909.818        -363.379          45.000    34720513.583   139805106.340        -280.963          48.000  
C13  34713456.677   180762074.749         -63.562          47.000    34713447.816   139776655.988         -49.115          48.000  
C16  35672074.168   185753862.154         -14.761          47.000    35672064.385   143636620.631         -11.320          48.000  
C25  22329966.595   116278001.667       -2597.724          33.000                                                                  
C32  21026988.086   109493047.508         836.590          50.000                                                                  
C06  35360066.081   184129155.199         164.072          44.000    35360050.471   142380272.986         126.820          46.000  
G25  20425737.280   107337984.262        2491.146          44.000    20425728.355    83639945.836        1941.160          43.000  
G10  19484614.552   102392338.982         967.905          50.000    19484602.818    79786191.908         754.580          44.000  
G28  21963742.390   115420234.800        2543.528          40.000    21963730.958    89937818.342        1982.190          43.000  
C23  20720521.016   107897188.769         187.425          49.000                                                                  
C09  36825619.042   191760664.010         263.037          41.000    36825607.507   148281461.617         203.497          48.000  
C33  26196590.026                3      -2947.244          26.000                                                                  
C37  22794337.618   118696112.193        2649.123          44.000                                                                  
> 2025 10 27 02 52 59.7160000  0 19                     
G12  20728128.790   108927050.900         787.647          45.000    20728116.867    84878175.822         613.467          42.000  
G15  23337760.217                2      -3269.940          33.000    23337758.772    95564207.356       -2546.676          32.000  
G18  23678272.616   124430155.999       -3669.400          34.000    23678270.416    96958554.254       -2859.244          38.000  
G23  19316700.886   101509940.748       -2165.293          47.000    19316689.163    79098580.084       -1687.098          47.000  
G24  21031228.070                       -3396.615          28.000    21031223.909                       -2647.807          31.000  
G32  20858452.605   109611904.282        1487.519          44.000    20858442.992    85411838.542        1159.124          42.000  
C08  34720533.284   180798924.352        -363.385          45.000    34720516.352   139805117.584        -281.110          48.000  
C13  34713457.137   180762077.292         -63.556          47.000    34713448.317   139776657.962         -49.316          48.000  
C16  35672074.288   185753862.753         -14.904          47.000    35672064.490   143636621.098         -11.552          48.000  
C25  22329986.511   116278105.561       -2597.478          33.000                                                                  
C32  21026981.673   109493014.050         836.474          50.000                                                                  
C06  35360064.854   184129148.642         163.948          44.000    35360049.212   142380267.917         126.704          46.000  
G25  20425718.322   107337884.626        2490.972          44.000    20425709.385    83639868.184        1941.287          43.000  
G10  19484607.169   102392300.266         967.869          50.000    19484595.443    79786161.740         754.351          44.000  
G28  21963723.064   115420133.062        2543.391          40.000    21963711.594    89937739.065        1982.003          43.000  
C23  20720519.577   107897181.271         187.431          50.000                                                                  
C09  36825617.024   191760653.498         262.873          41.000    36825605.502   148281453.486         203.326          48.000  
C33  26196612.989                3      -2946.443          26.000                                                                  
C37  22794317.264   118696006.251        2648.719          44.000                                                                  
> 2025 10 27 02 52 59.7560000  0 19                     
G12  20728122.798   108927019.407         787.379          45.000    20728110.877    84878151.279         613.439          42.000  
G15  23337785.721                2      -3269.962          33.000    23337783.671    95564309.238       -2546.896          32.000  
G18  23678300.476   124430302.800       -3669.920          34.000    23678298.261    96958668.625       -2859.300          38.000  
G23  19316717.387   101510027.360       -2165.378          47.000    19316705.652    79098647.579       -1687.320          47.000  
G24  21031253.703                       -3396.490          28.000    21031249.754                       -2648.091          31.000  
G32  20858441.301   109611844.797        1487.159          44.000    20858431.670    85411792.202        1158.627          42.000  
C08  34720536.092   180798938.884        -363.355          45.000    34720519.150   139805128.829        -281.165          48.000  
C13  34713457.618   180762079.838         -63.660          47.000    34713448.805   139776659.939         -49.457          48.000  
C16  35672074.397   185753863.345         -14.802          47.000    35672064.609   143636621.569         -11.765          48.000  
C25  22330006.497   116278209.458       -2597.274          33.000                                                                  
C32  21026975.214   109492980.589         836.489          49.000                                                                  
C06  35360063.618   184129142.083         163.882          43.000    35360048.002   142380262.846         126.696          46.000  
G25  20425699.358   107337784.993        2490.855          44.000    20425690.414    83639790.551        1940.996          43.000  
G10  19484599.800   102392261.555         967.728          50.000    19484588.077    79786131.585         753.963          44.000  
G28  21963703.640   115420031.324        2543.354          40.000    21963692.240    89937659.800        1981.700          43.000  
C23  20720518.111   107897173.780         187.316          49.000                                                                  
C09  36825615.026   191760642.964         263.150          41.000    36825603.472   148281445.361         203.121          48.000  
C33  26196635.800                3      -2947.226          26.000                                                                  
C37  22794296.918   118695900.303        2648.630          44.000                                                                  
> 2025 10 27 02 52 59.7960000  0 19                     
G12  20728116.776   108926987.906         787.381          45.000    20728104.860    84878126.728         613.580          42.000  
G15  23337810.337                2      -3268.745          33.000    23337808.151    95564411.138       -2547.296          32.000  
G18  23678328.456   124430449.571       -3669.663          34.000    23678326.231    96958782.979       -2859.024          38.000  
G23  19316733.854   101510113.972       -2165.414          47.000    19316722.138    79098715.069       -1687.325          47.000  
G24  21031279.310                       -3397.033          28.000    21031275.592                       -2647.230          31.000  
G32  20858429.987   109611785.325        1486.795          44.000    20858420.353    85411745.857        1158.464          41.000  
C08  34720538.885   180798953.425        -363.501          45.000    34720521.971   139805140.071        -281.134          48.000  
C13  34713458.101   180762082.385         -63.721          47.000    34713449.284   139776661.917         -49.536          48.000  
C16  35672074.482   185753863.950         -14.979          47.000    35672064.744   143636622.031         -11.678          48.000  
C25  22330026.516   116278313.380       -2597.844          33.000                                                                  
C32  21026968.844   109492947.130         836.497          49.000                                                                  
C06  35360062.391   184129135.541         163.618          44.000    35360046.758   142380257.774         126.725          46.000  
G25  20425680.362   107337685.360        2490.774          44.000    20425671.464    83639712.916        1940.849          43.000  
G10  19484592.411   102392222.843         967.716          50.000    19484580.705    79786101.426         753.891          44.000  
G28  21963684.353   115419929.581        2543.462          40.000    21963672.885    89937580.526        1981.734          43.000  
C23  20720516.690   107897166.289         187.294          49.000                                                                  
C09  36825613.014   191760632.455         262.891          41.000    36825601.467   148281437.226         203.218          48.000  
C33  26196658.471                3      -2948.064          26.000                                                                  
C37  22794276.595   118695794.344        2648.807          44.000                                                                  
> 2025 10 27 02 52 59.8360000  0 19                     
G12  20728110.791   108926956.405         787.453          45.000    20728098.862    84878102.188         613.511          42.000  
G15  23337835.509                2      -3269.924          33.000    23337833.166                       -2548.981          32.000  
G18  23678356.489   124430596.347       -3669.520          34.000    23678354.245    96958897.366       -2859.543          38.000  
G23  19316750.329   101510200.579       -2165.271          46.000    19316738.594    79098782.556       -1687.257          47.000  
G24  21031305.223                       -3397.496          27.000    21031301.455                       -2646.357          31.000  
G32  20858418.647   109611725.839        1486.915          44.000    20858409.034    85411699.490        1158.871          41.000  
C08  34720541.654   180798967.956        -363.403          46.000    34720524.752   139805151.303        -280.902          48.000  
C13  34713458.592   180762084.951         -64.081          47.000    34713449.736   139776663.889         -49.402          48.000  
C16  35672074.597   185753864.554         -15.102          48.000    35672064.862   143636622.497         -11.655          48.000  
C25  22330046.483   116278417.326       -2598.538          33.000                                                                  
C32  21026962.409   109492913.679         836.338          50.000                                                                  
C06  35360061.145   184129128.977         163.865          45.000    35360045.495   142380252.709         126.621          46.000  
G25  20425661.402   107337585.711        2491.052          44.000    20425652.507    83639635.276        1940.881          43.000  
G10  19484585.025   102392184.127         967.797          50.000    19484573.339    79786071.259         754.033          44.000  
G28  21963664.868   115419827.832        2543.643          40.000    21963653.513    89937501.244        1981.916          43.000  
C23  20720515.257   107897158.800         187.250          50.000                                                                  
C09  36825611.001   191760621.954         262.553          41.000    36825599.448   148281429.094         203.245          48.000  
C33  26196681.867                3      -2945.286          26.000                                                                  
C37  22794256.239   118695688.396        2648.719          45.000                                                                  
> 2025 10 27 02 52 59.8760000  0 19                     
G12  20728104.778   108926924.904         787.493          45.000    20728092.873    84878077.640         613.631          42.000  
G15  23337860.237                2      -3267.982          33.000    23337858.011                       -2547.354          32.000  
G18  23678384.615   124430743.124       -3669.428          34.000    23678382.016    96959011.738       -2859.493          38.000  
G23  19316766.814   101510287.189       -2165.284          46.000    19316755.055    79098850.041       -1687.189          47.000  
G24  21031331.493                       -3397.353          27.000    21031327.298                       -2645.880          31.000  
G32  20858407.311   109611666.326        1487.496          44.000    20858397.703    85411653.117        1159.164          42.000  
C08  34720544.425   180798982.491        -363.385          46.000    34720527.545   139805162.543        -280.963          48.000  
C13  34713459.077   180762087.496         -63.861          47.000    34713450.203   139776665.855         -49.243          48.000  
C16  35672074.707   185753865.157         -15.130          48.000    35672064.997   143636622.960         -11.616          48.000  
C25  22330066.459   116278521.213       -2597.809          33.000                                                                  
C32  21026955.996   109492880.226         836.303          50.000                                                                  
C06  35360059.883   184129122.415         163.954          44.000    35360044.252   142380247.641         126.639          46.000  
G25  20425642.445   107337486.069        2491.075          44.000    20425633.572    83639557.645        1940.767          43.000  
G10  19484577.652   102392145.409         967.896          50.000    19484565.979    79786041.089         754.157          44.000  
G28  21963645.477   115419726.091        2543.617          40.000    21963634.161    89937421.974        1981.797          43.000  
C23  20720513.832   107897151.322         187.020          50.000                                                                  
C09  36825608.985   191760611.422         262.997          41.000    36825597.402   148281420.960         203.334          48.000  
C33  26196704.133                3      -2945.967          26.000                                                                  
C37  22794235.874   118695582.438        2648.834          45.000                                                                  
> 2025 10 27 02 52 59.9160000  0 19                     
G12  20728098.795   108926893.393         787.733          45.000    20728086.858    84878053.080         613.892          42.000  
G15  23337884.775                2      -3268.413          32.000    23337883.497                       -2546.854          32.000  
G18  23678412.623   124430889.891       -3669.320          34.000    23678409.929    96959126.105       -2859.267          38.000  
G23  19316783.291   101510373.796       -2165.253          46.000    19316771.505    79098917.528       -1687.183          47.000  
G24  21031357.426                       -3396.903          27.000    21031353.146                       -2646.765          31.000  
G32  20858395.977   109611606.810        1487.881          44.000    20858386.359    85411606.754        1159.109          41.000  
C08  34720547.180   180798997.023        -363.348          46.000    34720530.299   139805173.778        -280.914          48.000  
C13  34713459.565   180762090.045         -63.782          47.000    34713450.691   139776667.819         -49.121          48.000  
C16  35672074.829   185753865.752         -15.012          48.000    35672065.118   143636623.415         -11.441          48.000  
C25  22330086.421   116278625.136       -2598.019          33.000                                                                  
C32  21026949.600   109492846.762         836.470          50.000                                                                  
C06  35360058.628   184129115.855         163.949          44.000    35360043.012   142380242.565         126.807          46.000  
G25  20425623.482   107337386.436        2490.903          44.000    20425614.611    83639479.999        1940.994          43.000  
G10  19484570.286   102392106.697         967.834          50.000    19484558.644    79786010.923         754.156          44.000  
G28  21963626.163   115419624.358        2543.429          40.000    21963614.784    89937342.691        1981.939          43.000  
C23  20720512.405   107897143.833         187.082          50.000                                                                  
C09  36825606.976   191760600.900         263.059          41.000    36825595.378   148281412.824         203.389          48.000  
C33  26196726.850                3      -2947.384          26.000                                                                  
C37  22794215.524   118695476.473        2649.053          45.000                                                                  
> 2025 10 27 02 52 59.9560000  0 19                     
G12  20728092.783   108926861.878         787.867          45.000    20728080.889    84878028.531         613.794          42.000  
G15  23337909.981                2      -3268.002          32.000    23337908.079                       -2546.389          32.000  
G18  23678440.527   124431036.660       -3669.202          34.000    23678437.856    96959240.470       -2859.125          38.000  
G23  19316799.768   101510460.398       -2165.149          46.000    19316788.002    79098985.011       -1687.109          47.000  
G24  21031383.881                       -3396.688          27.000    21031379.025                       -2647.289          31.000  
G32  20858384.660   109611547.317        1487.601          44.000    20858375.050    85411560.390        1159.078          41.000  
C08  34720549.966   180799011.553        -363.269          45.000    34720533.117   139805185.019        -280.994          48.000  
C13  34713460.082   180762092.578         -63.409          46.000    34713451.180   139776669.782         -49.048          48.000  
C16  35672074.953   185753866.342         -14.850          48.000    35672065.227   143636623.872         -11.393          48.000  
C25  22330106.359   116278729.024       -2597.457          33.000                                                                  
C32  21026943.177   109492813.294         836.635          50.000                                                                  
C06  35360057.362   184129109.293         163.986          44.000    35360041.751   142380237.484         126.978          46.000  
G25  20425604.517   107337286.791        2491.063          44.000    20425595.623    83639402.353        1941.104          43.000  
G10  19484562.909   102392067.986         967.766          50.000    19484551.294    79785980.748         754.348          44.000  
G28  21963606.778   115419522.621        2543.386          40.000    21963595.416    89937263.399        1982.150          43.000  
C23  20720511.025   107897136.335         187.316          50.000                                                                  
C09  36825604.954   191760590.389         262.881          41.000    36825593.386   148281404.684         203.469          48.000  
C33  26196749.518                3      -2946.688          26.000                                                                  
C37  22794195.160   118695370.518        2648.977          45.000                                                                  
> 2025 10 27 02 52 59.9960000  0 19                     
G12  20728086.798   108926830.393         787.376          45.000    20728074.895    84878003.982         613.735          43.000  
G15  23337934.539                2      -3269.199          32.000    23337932.926                       -2546.867          32.000  
G18  23678468.371   124431183.394       -3668.543          34.000    23678465.776    96959354.825       -2858.895          38.000  
G23  19316816.258   101510547.008       -2165.242          46.000    19316804.495    79099052.503       -1687.276          47.000  
G24  21031409.860                       -3396.503          27.000    21031404.871                       -2647.358          31.000  
G32  20858373.331   109611487.826        1487.346          44.000    20858363.732    85411514.026        1159.092          42.000  
C08  34720552.760   180799026.082        -363.220          44.000    34720535.930   139805196.259        -281.024          48.000  
C13  34713460.561   180762095.111         -63.287          46.000    34713451.675   139776671.753         -49.219          48.000  
C16  35672075.043   185753866.925         -14.660          46.000    35672065.340   143636624.336         -11.516          48.000  
C25  22330126.341   116278832.947       -2597.754          33.000                                                                  
C32  21026936.757   109492779.822         836.783          49.000                                                                  
C06  35360056.090   184129102.721         164.181          43.000    35360040.468   142380232.414         126.833          46.000  
G25  20425585.586   107337187.155        2490.991          44.000    20425576.661    83639324.712        1941.093          43.000  
G10  19484555.532   102392029.273         967.760          50.000    19484543.930    79785950.590         754.106          44.000  
G28  21963587.498   115419420.879        2543.513          40.000    21963576.066    89937184.123        1981.999          43.000  
C23  20720509.611   107897128.837         187.395          49.000                                                                  
C09  36825602.934   191760579.868         262.951          40.000    36825591.407   148281396.553         203.335          48.000  
C33  26196772.144                3      -2945.084          26.000                                                                  
C37  22794174.811   118695264.567        2648.819          44.000                                                                  
> 2025 10 27 02 53 00.0360000  0 19                     
G12  20728080.823   108926798.898         787.265          45.000    20728068.911    84877979.440         613.650          43.000  
G15  23337959.357                2      -3269.834          32.000    23337957.288                       -2547.843          32.000  
G18  23678496.338   124431330.145       -3668.586          34.000    23678493.667    96959469.172       -2858.714          38.000  
G23  19316832.743   101510633.626       -2165.445          46.000    19316820.979    79099119.991       -1687.232          47.000  
G24  21031435.684                       -3396.236          27.000    21031430.712                       -2647.491          31.000  
G32  20858362.043   109611428.343        1487.090          44.000    20858352.392    85411467.669        1158.970          42.000  
C08  34720555.571   180799040.622        -363.409          45.000    34720538.734   139805207.500        -281.049          48.000  
C13  34713461.066   180762097.664         -63.660          47.000    34713452.158   139776673.727         -49.329          48.000  
C16  35672075.141   185753867.531         -14.967          47.000    35672065.457   143636624.807         -11.731          48.000  
C25  22330146.317   116278936.841       -2597.471          33.000                                                                  
C32  21026930.338   109492746.370         836.478          49.000                                                                  
C06  35360054.823   184129096.168         163.916          43.000    35360039.178   142380227.344         126.774          46.000  
G25  20425566.636   107337087.517        2490.920          44.000    20425557.690    83639247.067        1941.114          43.000  
G10  19484548.158   102391990.564         967.686          50.000    19484536.551    79785920.419         754.174          44.000  
G28  21963568.160   115419319.132        2543.649          40.000    21963556.705    89937104.845        1981.938          43.000  
C23  20720508.190   107897121.351         187.223          49.000                                                                  
C09  36825600.914   191760569.346         263.078          41.000    36825589.386   148281388.429         203.129          48.000  
C33  26196794.853                3      -2945.922          26.000                                                                  
C37  22794154.469   118695158.616        2648.758          44.000                                                                  
> 2025 10 27 02 53 00.0760000  0 19                     
G12  20728074.834   108926767.402         787.281          45.000    20728062.915    84877954.888         613.727          43.000  
G15  23337984.153                2      -3268.878          32.000    23337981.781                       -2547.979          32.000  
G18  23678524.241   124431476.952       -3669.723          34.000    23678521.485    96959583.545       -2859.068          38.000  
G23  19316849.210   101510720.245       -2165.567          46.000    19316837.458    79099187.480       -1687.220          47.000  
G24  21031461.577                       -3396.673          27.000    21031456.562                       -2647.219          31.000  
G32  20858350.725   109611368.850        1487.159          44.000    20858341.090    85411421.311        1158.913          42.000  
C08  34720558.365   180799055.160        -363.470          46.000    34720541.532   139805218.735        -280.951          48.000  
C13  34713461.562   180762100.219         -63.910          48.000    34713452.635   139776675.696         -49.304          48.000  
C16  35672075.265   185753868.138         -15.200          48.000    35672065.600   143636625.273         -11.739          48.000  
C25  22330166.277   116279040.764       -2597.947          33.000                                                                  
C32  21026923.901   109492712.933         836.006          51.000                                                                  
C06  35360053.582   184129089.624         163.662          45.000    35360037.903   142380222.285         126.527          46.000  
G25  20425547.695   107336987.890        2490.681          44.000    20425538.729    83639169.433        1940.964          43.000  
G10  19484540.784   102391951.852         967.723          50.000    19484529.174    79785890.253         754.149          44.000  
G28  21963548.772   115419217.399        2543.360          40.000    21963537.331    89937025.570        1981.876          43.000  
C23  20720506.727   107897113.875         186.960          51.000                                                                  
C09  36825598.925   191760558.837         262.811          42.000    36825587.363   148281380.294         203.238          48.000  
C33  26196817.661                3      -2947.473          26.000                                                                  
C37  22794134.100   118695052.677        2648.523          45.000                                                                  
> 2025 10 27 02 53 00.1160000  0 19                     
G12  20728068.826   108926735.903         787.394          45.000    20728056.934    84877930.358         613.370          43.000  
G15  23338009.488                2      -3268.348          32.000    23338006.858                       -2547.035          32.000  
G18  23678552.184   124431623.755       -3670.251          34.000    23678549.511    96959697.911       -2859.155          38.000  
G23  19316865.669   101510806.864       -2165.573          46.000    19316853.950    79099254.979       -1687.435          47.000  
G24  21031487.286                       -3397.120          27.000    21031482.427                       -2647.502          31.000  
G32  20858339.404   109611309.346        1487.448          44.000    20858329.774    85411374.944        1159.080          42.000  
C08  34720561.148   180799069.704        -363.586          45.000    34720544.325   139805229.981        -281.091          48.000  
C13  34713462.051   180762102.772         -63.904          47.000    34713453.075   139776677.668         -49.335          48.000  
C16  35672075.348   185753868.740         -15.164          47.000    35672065.746   143636625.740         -11.727          48.000  
C25  22330186.216   116279144.686       -2598.212          33.000                                                                  
C32  21026917.496   109492679.483         836.063          51.000                                                                  
C06  35360052.331   184129083.073         163.660          45.000    35360036.628   142380217.217         126.589          46.000  
G25  20425528.765   107336888.264        2490.570          44.000    20425519.772    83639091.805        1940.696          43.000  
G10  19484533.436   102391913.149         967.563          49.000    19484521.827    79785860.096         753.940          44.000  
G28  21963529.360   115419115.658        2543.385          40.000    21963517.981    89936946.299        1981.739          43.000  
C23  20720505.332   107897106.390         187.001          51.000                                                                  
C09  36825596.919   191760548.327         262.706          41.000    36825585.353   148281372.163         203.251          48.000  
C33  26196840.474                3      -2946.230          26.000                                                                  
C37  22794113.766   118694946.732        2648.507          45.000                                                                  
> 2025 10 27 02 53 00.1560000  0 19                     
G12  20728062.843   108926704.422         787.110          45.000    20728050.950    84877905.834         613.051          43.000  
G15  23338034.130                2      -3269.126          32.000    23338031.706                       -2547.185          32.000  
G18  23678580.103   124431770.551       -3670.245          34.000    23678577.495    96959812.291       -2859.410          38.000  
G23  19316882.133   101510893.484       -2165.565          46.000    19316870.438    79099322.477       -1687.527          47.000  
G24  21031513.145                       -3397.180          27.000    21031508.298                       -2647.147          31.000  
G32  20858328.077   109611249.851        1487.415          44.000    20858318.457    85411328.598        1158.813          42.000  
C08  34720563.937   180799084.253        -363.727          45.000    34720547.099   139805241.232        -281.287          48.000  
C13  34713462.547   180762105.340         -64.172          46.000    34713453.543   139776679.643         -49.402          48.000  
C16  35672075.466   185753869.360         -15.493          47.000    35672065.872   143636626.205         -11.687          48.000  
C25  22330206.179   116279248.633       -2598.708          32.000                                                                  
C32  21026911.078   109492646.035         836.074          49.000                                                                  
C06  35360051.065   184129076.526         163.612          44.000    35360035.375   142380212.153         126.543          46.000  
G25  20425509.817   107336788.638        2490.561          44.000    20425500.814    83639014.182        1940.552          43.000  
G10  19484526.089   102391874.450         967.422          49.000    19484514.474    79785829.950         753.664          44.000  
G28  21963509.927   115419013.933        2543.087          40.000    21963498.635    89936867.022        1981.790          43.000  
C23  20720503.888   107897098.924         186.680          49.000                                                                  
C09  36825594.916   191760537.821         262.640          41.000    36825583.332   148281364.031         203.264          48.000  
C33  26196863.087                3      -2947.028          26.000                                                                  
C37  22794093.405   118694840.791        2648.425          44.000                                                                  
> 2025 10 27 02 53 00.1960000  0 19                     
G12  20728056.866   108926672.943         786.949          45.000    20728044.971    84877881.306         612.991          43.000  
G15  23338059.111                2      -3269.120          32.000    23338056.523                       -2547.545          32.000  
G18  23678608.037   124431917.294       -3669.314          34.000    23678605.510    96959926.652       -2859.170          38.000  
G23  19316898.605   101510980.099       -2165.436          46.000    19316886.923    79099389.979       -1687.625          47.000  
G24  21031539.167                       -3397.203          27.000    21031534.147                       -2646.544          31.000  
G32  20858316.774   109611190.373        1487.065          44.000    20858307.133    85411282.248        1158.707          42.000  
C08  34720566.707   180799098.802        -363.776          45.000    34720549.923   139805252.480        -281.293          48.000  
C13  34713463.059   180762107.898         -64.105          46.000    34713453.996   139776681.616         -49.420          48.000  
C16  35672075.594   185753869.975         -15.528          46.000    35672066.006   143636626.676         -11.786          48.000  
C25  22330226.132   116279352.522       -2597.937          32.000                                                                  
C32  21026904.669   109492612.590         836.079          49.000                                                                  
C06  35360049.800   184129069.977         163.644          43.000    35360034.101   142380207.084         126.617          46.000  
G25  20425490.847   107336688.995        2490.837          44.000    20425481.836    83638936.548        1940.657          43.000  
G10  19484518.728   102391835.754         967.349          50.000    19484507.099    79785799.795         753.733          44.000  
G28  21963490.601   115418912.210        2542.935          40.000    21963479.293    89936787.765        1981.454          43.000  
C23  20720502.432   107897091.454         186.618          49.000                                                                  
C09  36825592.869   191760527.296         262.976          41.000    36825581.322   148281355.906         203.138          47.000  
C33  26196885.805                3      -2948.353          26.000                                                                  
C37  22794073.038   118694734.859        2648.280          44.000                                                                  
> 2025 10 27 02 53 00.2360000  0 19                     
G12  20728050.869   108926641.452         787.104          45.000    20728038.984    84877856.763         613.250          43.000  
G15  23338084.135                2      -3269.181          32.000    23338081.425                       -2547.627          32.000  
G18  23678635.946   124432064.051       -3668.995          34.000    23678633.388    96960041.025       -2859.201          38.000  
G23  19316915.078   101511066.719       -2165.479          46.000    19316903.411    79099457.475       -1687.526          47.000  
G24  21031565.521                       -3397.018          27.000    21031559.992                       -2646.645          31.000  
G32  20858305.452   109611130.892        1486.929          44.000    20858295.812    85411235.902        1158.596          42.000  
C08  34720569.523   180799113.333        -363.373          45.000    34720552.769   139805263.722        -281.171          48.000  
C13  34713463.552   180762110.429         -63.477          46.000    34713454.486   139776683.596         -49.536          48.000  
C16  35672075.718   185753870.564         -15.009          46.000    35672066.136   143636627.144         -11.770          48.000  
C25  22330246.090   116279456.401       -2597.104          32.000                                                                  
C32  21026898.249   109492579.121         836.554          49.000                                                                  
C06  35360048.539   184129063.416         163.876          43.000    35360032.841   142380202.016         126.615          46.000  
G25  20425471.868   107336589.367        2490.769          44.000    20425462.867    83638858.918        1940.713          43.000  
G10  19484511.350   102391797.056         967.388          50.000    19484499.738    79785769.639         753.820          44.000  
G28  21963471.231   115418810.478        2543.081          40.000    21963459.933    89936708.496        1981.544          43.000  
C23  20720501.025   107897083.966         186.981          49.000                                                                  
C09  36825590.878   191760516.784         262.930          41.000    36825579.297   148281347.783         203.039          47.000  
C33  26196908.139                3      -2948.138          26.000                                                                  
C37  22794052.703   118694628.902        2648.663          44.000                                                                  
> 2025 10 27 02 53 00.2760000  0 19                     
G12  20728044.897   108926609.961         787.195          45.000    20728032.992    84877832.223         613.366          43.000  
G15  23338109.302                2      -3269.042          32.000    23338106.303                       -2547.107          32.000  
G18  23678663.939   124432210.812       -3668.994          34.000    23678661.353    96960155.407       -2859.404          38.000  
G23  19316931.590   101511153.352       -2165.750          46.000    19316919.887    79099524.971       -1687.482          47.000  
G24  21031591.486                       -3397.243          27.000    21031585.869                       -2647.937          31.000  
G32  20858294.113   109611071.400        1487.097          44.000    20858284.493    85411189.549        1158.699          42.000  
C08  34720572.324   180799127.880        -363.568          44.000    34720555.586   139805274.965        -281.122          48.000  
C13  34713464.041   180762112.990         -63.800          46.000    34713454.969   139776685.574         -49.518          48.000  
C16  35672075.825   185753871.161         -14.928          46.000    35672066.241   143636627.615         -11.807          48.000  
C25  22330266.070                       -2598.281          32.000                                                                  
C32  21026891.833   109492545.670         836.370          49.000                                                                  
C06  35360047.278   184129056.859         163.857          42.000    35360031.600   142380196.950         126.619          46.000  
G25  20425452.895   107336489.741        2490.662          44.000    20425443.918    83638781.275        1940.934          43.000  
G10  19484503.992   102391758.360         967.370          50.000    19484492.383    79785739.480         753.931          44.000  
G28  21963451.881   115418708.744        2543.199          40.000    21963440.563    89936629.222        1981.695          43.000  
C23  20720499.608   107897076.482         187.012          49.000                                                                  
C09  36825588.877   191760506.280         262.670          41.000    36825577.268   148281339.651         203.180          47.000  
C33  26196930.464                3      -2947.002          26.000                                                                  
C37  22794032.344   118694522.930        2649.082          44.000                                                                  
> 2025 10 27 02 53 00.3160000  0 19                     
G12  20728038.912   108926578.478         787.069          45.000    20728026.989    84877807.679         613.526          43.000  
G15  23338134.166                2      -3268.539          32.000    23338131.365                       -2548.571          32.000  
G18  23678691.848   124432357.611       -3669.547          34.000    23678689.306    96960269.792       -2859.688          38.000  
G23  19316948.060   101511239.984       -2165.860          46.000    19316936.387    79099592.468       -1687.476          47.000  
G24  21031617.336                       -3397.548          27.000    21031611.728                       -2647.838          31.000  
G32  20858282.775   109611011.908        1487.235          44.000    20858273.163    85411143.203        1158.661          42.000  
C08  34720575.111   180799142.437        -363.898          44.000    34720558.387   139805286.211        -281.152          48.000  
C13  34713464.532   180762115.557         -64.148          46.000    34713455.451   139776687.554         -49.536          48.000  
C16  35672075.952   185753871.786         -15.379          46.000    35672066.388   143636628.075         -11.615          48.000  
C25  22330286.044   116279664.311       -2599.222          32.000                                                                  
C32  21026885.401   109492512.247         835.781          49.000                                                                  
C06  35360046.018   184129050.327         163.464          43.000    35360030.298   142380191.891         126.472          46.000  
G25  20425433.954   107336390.122        2490.497          44.000    20425424.966    83638703.652        1940.714          43.000  
G10  19484496.601   102391719.659         967.481          50.000    19484485.019    79785709.330         753.789          44.000  
G28  21963432.540   115418607.010        2543.312          40.000    21963421.228    89936549.953        1981.733          43.000  
C23  20720498.161   107897069.022         186.657          49.000                                                                  
C09  36825586.888   191760495.778         262.508          41.000    36825575.244   148281331.527         203.135          47.000  
C33  26196953.189                3      -2945.927          26.000                                                                  
C37  22794012.002   118694417.018        2648.228          44.000                                                                  
> 2025 10 27 02 53 00.3560000  0 19                     
G12  20728032.917   108926546.992         787.106          45.000    20728020.982    84877783.147         613.346          43.000  
G15  23338159.341                2      -3269.202          32.000    23338156.262                       -2546.598          32.000  
G18  23678719.831   124432504.396       -3669.712          34.000    23678717.199    96960384.160       -2859.504          38.000  
G23  19316964.536   101511326.609       -2165.779          46.000    19316952.875    79099659.975       -1687.624          47.000  
G24  21031643.162                       -3397.545          27.000    21031637.577                       -2647.105          31.000  
G32  20858271.463   109610952.420        1487.214          44.000    20858261.858    85411096.838        1158.947          42.000  
C08  34720577.892   180799156.983        -363.782          45.000    34720561.155   139805297.457        -281.158          48.000  
C13  34713465.003   180762118.120         -64.160          47.000    34713455.928   139776689.523         -49.323          48.000  
C16  35672076.087   185753872.395         -15.352          47.000    35672066.497   143636628.545         -11.669          48.000  
C25  22330306.009   116279768.247       -2598.951          32.000                                                                  
C32  21026878.991   109492478.810         835.786          49.000                                                                  
C06  35360044.761   184129043.785         163.472          43.000    35360029.028   142380186.820         126.636          46.000  
G25  20425415.022   107336290.513        2490.236          45.000    20425405.990    83638626.012        1940.870          43.000  
G10  19484489.218   102391680.959         967.493          50.000    19484477.648    79785679.174         753.820          44.000  
G28  21963413.158   115418505.284        2543.237          40.000    21963401.868    89936470.676        1981.868          43.000  
C23  20720496.691   107897061.558         186.548          50.000                                                                  
C09  36825584.856   191760485.279         262.437          41.000    36825573.214   148281323.397         203.192          47.000  
C33  26196975.717                3      -2946.428          26.000                                                                  
C37  22793991.673   118694311.086        2648.155          45.000                                                                  
> 2025 10 27 02 53 00.3960000  0 19                     
G12  20728026.941   108926515.504         787.158          45.000    20728014.977    84877758.622         613.134          43.000  
G15  23338184.188                2      -3269.518          32.000    23338181.547                       -2546.797          32.000  
G18  23678747.773   124432651.179       -3669.666          34.000    23678745.128    96960498.522       -2859.240          38.000  
G23  19316980.996   101511413.227       -2165.569          46.000    19316969.368    79099727.471       -1687.469          47.000  
G24  21031668.939                       -3397.649          27.000    21031663.412                       -2646.280          31.000  
G32  20858260.140   109610892.935        1487.161          44.000    20858250.530    85411050.464        1159.338          42.000  
C08  34720580.685   180799171.515        -363.452          45.000    34720563.929   139805308.700        -281.091          48.000  
C13  34713465.488   180762120.669         -63.904          47.000    34713456.394   139776691.499         -49.377          48.000  
C16  35672076.208   185753872.994         -15.118          47.000    35672066.631   143636629.015         -11.723          48.000  
C25  22330325.928                       -2597.550          32.000                                                                  
C32  21026872.606   109492445.348         836.246          49.000                                                                  
C06  35360043.518   184129037.227         163.782          43.000    35360027.801   142380181.753         126.675          46.000  
G25  20425396.073   107336190.888        2490.423          45.000    20425387.041    83638548.393        1940.567          43.000  
G10  19484481.868   102391642.261         967.437          50.000    19484470.292    79785649.020         753.789          44.000  
G28  21963393.846   115418403.555        2543.231          40.000    21963382.503    89936391.409        1981.724          43.000  
C23  20720495.248   107897054.072         186.909          50.000                                                                  
C09  36825582.820   191760474.762         262.749          41.000    36825571.203   148281315.266         203.247          47.000  
C33  26196998.401                3      -2947.766          26.000                                                                  
C37  22793971.333   118694205.133        2648.542          45.000                                                                  
> 2025 10 27 02 53 00.4360000  0 19                     
G12  20728020.966   108926484.026         786.989          45.000    20728008.962    84877734.090         613.138          43.000  
G15  23338209.485                2      -3269.655          32.000    23338206.952                       -2547.736          32.000  
G18  23678775.703   124432797.927       -3669.060          34.000    23678773.194    96960612.901       -2859.445          38.000  
G23  19316997.471   101511499.859       -2165.718          46.000    19316985.855    79099794.977       -1687.593          47.000  
G24  21031694.696                       -3397.061          27.000    21031689.288                       -2647.319          31.000  
G32  20858248.815   109610833.439        1487.296          44.000    20858239.215    85411004.125        1158.841          42.000  
C08  34720583.470   180799186.056        -363.458          45.000    34720566.728   139805319.947        -281.134          48.000  
C13  34713465.980   180762123.221         -63.794          47.000    34713456.896   139776693.477         -49.426          48.000  
C16  35672076.309   185753873.591         -14.972          47.000    35672066.738   143636629.482         -11.711          48.000  
C25  22330345.875                       -2597.892          32.000                                                                  
C32  21026866.202   109492411.891         836.407          49.000                                                                  
C06  35360042.268   184129030.666         163.993          43.000    35360026.545   142380176.689         126.619          46.000  
G25  20425377.126   107336091.253        2490.731          44.000    20425368.077    83638470.764        1940.621          43.000  
G10  19484474.516   102391603.574         967.215          50.000    19484462.907    79785618.871         753.721          44.000  
G28  21963374.517   115418301.827        2543.174          40.000    21963363.149    89936312.142        1981.656          43.000  
C23  20720493.839   107897046.594         186.977          50.000                                                                  
C09  36825580.790   191760464.235         263.130          41.000    36825569.215   148281307.136         203.234          47.000  
C33  26197020.829                3      -2947.736          26.000                                                                  
C37  22793951.009   118694099.188        2648.609          45.000                                                                  
> 2025 10 27 02 53 00.4760000  0 19                     
G12  20728014.995   108926452.555         786.812          45.000    20728002.941    84877709.565         613.085          43.000  
G15  23338233.567                2      -3269.152          32.000    23338232.051                       -2548.113          32.000  
G18  23678803.703   124432944.700       -3669.171          34.000    23678801.158    96960727.271       -2859.385          38.000  
G23  19317013.951   101511586.491       -2165.797          46.000    19317002.333    79099862.483       -1687.679          47.000  
G24  21031720.541                       -3396.593          27.000    21031715.169                       -2647.656          31.000  
G32  20858237.495   109610773.959        1487.113          44.000    20858227.889    85410957.778        1158.628          42.000  
C08  34720586.289   180799200.562        -362.872          46.000    34720569.531   139805331.195        -281.201          48.000  
C13  34713466.467   180762125.739         -63.159          48.000    34713457.394   139776695.454         -49.451          48.000  
C16  35672076.445   185753874.164         -14.463          48.000    35672066.858   143636629.956         -11.827          48.000  
C25  22330365.823                       -2597.851          32.000                                                                  
C32  21026859.847   109492378.413         836.861          50.000                                                                  
C06  35360041.054   184129024.077         164.602          44.000    35360025.285   142380171.629         126.520          46.000  
G25  20425358.150   107335991.628        2490.676          44.000    20425349.107    83638393.151        1940.384          43.000  
G10  19484467.143   102391564.879         967.253          50.000    19484455.518    79785588.720         753.734          44.000  
G28  21963355.131   115418200.101        2543.131          40.000    21963343.774    89936232.881        1981.520          43.000  
C23  20720492.435   107897039.088         187.495          50.000                                                                  
C09  36825578.773   191760453.689         263.632          41.000    36825567.170   148281299.013         203.107          47.000  
C33  26197043.735                3      -2946.782          26.000                                                                  
C37  22793930.690   118693993.207        2649.312          45.000                                                                  
> 2025 10 27 02 53 00.5160000  0 19                     
G12  20728008.978   108926421.068         787.005          45.000    20727996.957    84877685.052         612.852          43.000  
G15  23338258.675                2      -3268.625          32.000    23338256.729                       -2547.302          32.000  
G18  23678831.634   124433091.502       -3669.822          34.000    23678829.056    96960841.645       -2859.492          38.000  
G23  19317030.411   101511673.120       -2165.785          46.000    19317018.831    79099929.994       -1687.795          47.000  
G24  21031746.365                       -3396.805          27.000    21031741.046                       -2646.544          31.000  
G32  20858226.186   109610714.487        1486.872          44.000    20858216.569    85410911.420        1158.777          42.000  
C08  34720589.125   180799215.102        -363.220          47.000    34720572.307   139805342.450        -281.390          48.000  
C13  34713466.976   180762128.288         -63.489          48.000    34713457.896   139776697.433         -49.481          48.000  
C16  35672076.595   185753874.760         -14.643          49.000    35672067.010   143636630.431         -11.903          48.000  
C25  22330385.760   116280183.866       -2597.531          32.000                                                                  
C32  21026853.472   109492344.959         836.578          51.000                                                                  
C06  35360039.789   184129017.524         164.215          46.000    35360024.037   142380166.572         126.411          46.000  
G25  20425339.183   107335891.996        2490.743          44.000    20425330.153    83638315.517        1940.619          43.000  
G10  19484459.767   102391526.190         967.161          50.000    19484448.172    79785558.578         753.556          44.000  
G28  21963335.807   115418098.388        2542.858          40.000    21963324.418    89936153.615        1981.597          43.000  
C23  20720491.031   107897031.608         187.247          51.000                                                                  
C09  36825576.781   191760443.168         263.328          42.000    36825565.158   148281290.894         202.958          47.000  
C33  26197066.799                3      -2946.649          26.000                                                                  
C37  22793910.333   118693887.255        2649.096          46.000                                                                  
> 2025 10 27 02 53 00.5560000  0 19                     
G12  20728003.007   108926389.603         786.747          45.000    20727990.957    84877660.522         613.079          43.000  
G15  23338283.193                2      -3269.020          32.000    23338281.477                       -2547.947          32.000  
G18  23678859.604   124433238.283       -3669.685          34.000    23678857.045    96960956.006       -2859.176          38.000  
G23  19317046.915   101511759.750       -2165.778          46.000    19317035.302    79099997.498       -1687.708          47.000  
G24  21031772.456                       -3397.425          27.000    21031766.923                       -2647.252          31.000  
G32  20858214.868   109610655.010        1486.853          44.000    20858205.234    85410865.066        1158.777          42.000  
C08  34720591.966   180799229.650        -363.586          47.000    34720575.128   139805353.704        -281.396          48.000  
C13  34713467.514   180762130.860         -64.087          48.000    34713458.400   139776699.417         -49.597          48.000  
C16  35672076.754   185753875.377         -15.184          49.000    35672067.150   143636630.901         -11.854          48.000  
C25  22330405.738   116280287.778       -2597.725          32.000                                                                  
C32  21026847.092   109492311.527         835.988          51.000                                                                  
C06  35360038.544   184129010.981         163.771          46.000    35360022.757   142380161.514         126.390          46.000  
G25  20425320.242   107335792.381        2490.426          44.000    20425311.182    83638237.888        1940.660          43.000  
G10  19484452.423   102391487.504         967.093          50.000    19484440.812    79785528.428         753.674          44.000  
G28  21963316.424   115417996.665        2542.884          40.000    21963305.062    89936074.356        1981.472          43.000  
C23  20720489.637   107897024.152         186.650          51.000                                                                  
C09  36825574.787   191760432.676         262.577          42.000    36825563.128   148281282.775         202.892          47.000  
C33  26197089.724                2      -2946.701          26.000                                                                  
C37  22793890.011   118693781.323        2648.532          46.000                                                                  
> 2025 10 27 02 53 00.5960000  0 19                     
G12  20727997.004   108926358.133         786.674          45.000    20727984.983    84877635.982         613.354          43.000  
G15  23338307.683                2      -3269.478          32.000    23338306.539                       -2547.198          32.000  
G18  23678887.500   124433385.081       -3669.908          34.000    23678885.005    96961070.398       -2859.522          38.000  
G23  19317063.415   101511846.384       -2165.852          46.000    19317051.793    79100065.007       -1687.764          47.000  
G24  21031798.290                       -3397.473          27.000    21031792.761                       -2647.260          31.000  
G32  20858203.552   109610595.520        1487.110          44.000    20858193.937    85410818.714        1158.758          42.000  
C08  34720594.734   180799244.207        -363.934          47.000    34720577.916   139805364.950        -281.262          48.000  
C13  34713468.006   180762133.428         -64.331          48.000    34713458.903   139776701.401         -49.640          48.000  
C16  35672076.929   185753876.008         -15.708          49.000    35672067.280   143636631.378         -11.925          48.000  
C25  22330425.770   116280391.744       -2598.908          33.000                                                                  
C32  21026840.712   109492278.102         835.589          51.000                                                                  
C06  35360037.312   184129004.454         163.262          45.000    35360021.511   142380156.452         126.453          46.000  
G25  20425301.312   107335692.786        2489.958          44.000    20425292.216    83638160.264        1940.607          43.000  
G10  19484445.062   102391448.815         967.144          50.000    19484433.448    79785498.287         753.575          44.000  
G28  21963297.068   115417894.955        2542.718          40.000    21963285.670    89935995.093        1981.517          43.000  
C23  20720488.257   107897016.702         186.216          51.000                                                                  
C09  36825572.792   191760422.182         262.271          42.000    36825561.124   148281274.651         202.988          47.000  
C33  26197112.319                2      -2947.379          26.000                                                                  
C37  22793869.723   118693675.411        2647.897          46.000                                                                  
> 2025 10 27 02 53 00.6360000  0 19                     
G12  20727991.026   108926326.661         786.670          45.000    20727979.003    84877611.449         613.332          43.000  
G15  23338332.297                2      -3270.392          32.000    23338331.197                       -2547.148          32.000  
G18  23678915.415   124433531.814       -3668.872          34.000    23678912.909    96961184.765       -2859.343          38.000  
G23  19317079.924   101511933.027       -2166.043          46.000    19317068.262    79100132.516       -1687.764          47.000  
G24  21031823.863                       -3397.501          27.000    21031818.632                       -2646.978          31.000  
G32  20858192.215   109610536.025        1487.325          44.000    20858182.607    85410772.371        1158.585          42.000  
C08  34720597.550   180799258.762        -364.014          47.000    34720580.676   139805376.201        -281.268          48.000  
C13  34713468.536   180762136.002         -64.471          48.000    34713459.375   139776703.381         -49.579          48.000  
C16  35672077.098   185753876.634         -15.858          49.000    35672067.386   143636631.848         -11.843          48.000  
C25  22330445.736   116280495.656       -2598.336          33.000                                                                  
C32  21026834.361   109492244.665         835.667          51.000                                                                  
C06  35360036.082   184128997.923         163.092          45.000    35360020.211   142380151.388         126.519          46.000  
G25  20425282.350   107335593.185        2489.885          44.000    20425273.271    83638082.657        1940.254          43.000  
G10  19484437.693   102391410.122         967.273          50.000    19484426.081    79785468.140         753.619          44.000  
G28  21963277.709   115417793.224        2543.056          40.000    21963266.316    89935915.817        1981.728          43.000  
C23  20720486.878   107897009.250         186.130          51.000                                                                  
C09  36825570.811   191760411.686         262.224          42.000    36825559.102   148281266.523         203.139          47.000  
C33  26197134.933                2      -2947.869          26.000                                                                  
C37  22793849.400   118693569.482        2647.926          46.000                                                                  
> 2025 10 27 02 53 00.6760000  0 19                     
G12  20727985.030   108926295.187         786.757          45.000    20727973.017    84877586.934         613.000          43.000  
G15  23338356.930                2      -3270.287          32.000    23338356.239                       -2547.305          32.000  
G18  23678943.379   124433678.613       -3669.415          34.000    23678940.792    96961299.132       -2859.285          38.000  
G23  19317096.407   101512019.669       -2166.128          46.000    19317084.730    79100200.024       -1687.757          47.000  
G24  21031849.509                       -3397.310          27.000    21031844.465                       -2646.573          31.000  
G32  20858180.887   109610476.537        1487.258          44.000    20858171.307    85410726.030        1158.452          41.000  
C08  34720600.380   180799273.322        -364.087          47.000    34720583.451   139805387.448        -281.226          48.000  
C13  34713469.089   180762138.565         -64.294          48.000    34713459.853   139776705.354         -49.414          48.000  
C16  35672077.245   185753877.246         -15.601          49.000    35672067.512   143636632.316         -11.746          48.000  
C25  22330465.727   116280599.595       -2598.570          33.000                                                                  
C32  21026827.999   109492211.219         835.924          51.000                                                                  
C06  35360034.835   184128991.373         163.405          45.000    35360018.927   142380146.323         126.616          46.000  
G25  20425263.385   107335493.567        2490.162          44.000    20425254.300    83638005.026        1940.531          43.000  
G10  19484430.335   102391371.433         967.248          50.000    19484418.715    79785437.984         753.822          44.000  
G28  21963258.340   115417691.501        2543.137          40.000    21963246.966    89935836.555        1981.614          43.000  
C23  20720485.527   107897001.782         186.387          51.000                                                                  
C09  36825568.813   191760401.189         262.253          42.000    36825557.069   148281258.403         203.031          47.000  
C33  26197157.772                2      -2947.339          26.000                                                                  
C37  22793829.087   118693463.540        2648.243          46.000                                                                  
> 2025 10 27 02 53 00.7160000  0 19                     
G12  20727979.042   108926263.719         786.666          45.000    20727967.024    84877562.418         612.816          43.000  
G15  23338382.016                1      -3269.353          32.000    23338381.509                       -2547.571          32.000  
G18  23678971.281   124433825.402       -3669.596          34.000    23678968.673    96961413.493       -2859.174          38.000  
G23  19317112.890   101512106.309       -2166.122          46.000    19317101.210    79100267.535       -1687.794          47.000  
G24  21031875.220                       -3397.467          27.000    21031870.324                       -2647.177          31.000  
G32  20858169.571   109610417.054        1487.126          44.000    20858159.973    85410679.680        1158.650          41.000  
C08  34720603.196   180799287.908        -364.587          46.000    34720586.227   139805398.700        -281.299          48.000  
C13  34713469.540   180762141.160         -64.764          48.000    34713460.321   139776707.338         -49.512          48.000  
C16  35672077.389   185753877.885         -15.930          49.000    35672067.649   143636632.790         -11.828          48.000  
C25  22330485.751                       -2600.022          33.000                                                                  
C32  21026821.546   109492177.812         835.353          51.000                                                                  
C06  35360033.601   184128984.859         162.924          45.000    35360017.690   142380141.269         126.434          46.000  
G25  20425244.418   107335393.952        2490.293          44.000    20425235.349    83637927.414        1940.362          43.000  
G10  19484422.985   102391332.755         967.014          50.000    19484411.360    79785407.845         753.581          44.000  
G28  21963238.984   115417589.779        2543.123          40.000    21963227.609    89935757.304        1981.316          43.000  
C23  20720484.083   107896994.351         185.911          51.000                                                                  
C09  36825566.783   191760390.711         261.936          42.000    36825555.057   148281250.280         203.012          47.000  
C33  26197180.700                2      -2947.969          26.000                                                                  
C37  22793808.773   118693357.641        2647.664          46.000                                                                  
> 2025 10 27 02 53 00.7560000  0 19                     
G12  20727973.040   108926232.248         786.681          45.000    20727961.047    84877537.914         612.567          43.000  
G15  23338406.766                       -3267.869          32.000    23338406.912                       -2547.864          32.000  
G18  23678999.201   124433972.194       -3669.889          34.000    23678996.557    96961527.868       -2859.374          38.000  
G23  19317129.373   101512192.948       -2166.053          46.000    19317117.706    79100335.041       -1687.720          47.000  
G24  21031901.308                       -3398.069          27.000    21031896.209                       -2648.309          31.000  
G32  20858158.275   109610357.581        1486.876          44.000    20858148.631    85410633.313        1159.050          41.000  
C08  34720606.005   180799302.470        -364.313          45.000    34720589.024   139805409.954        -281.366          48.000  
C13  34713470.028   180762143.736         -64.600          47.000    34713460.846   139776709.325         -49.652          48.000  
C16  35672077.529   185753878.516         -15.918          48.000    35672067.777   143636633.266         -11.898          48.000  
C25  22330505.715                       -2599.457          33.000                                                                  
C32  21026815.128   109492144.395         835.288          50.000                                                                  
C06  35360032.356   184128978.336         162.902          44.000    35360016.431   142380136.209         126.443          46.000  
G25  20425225.444   107335294.331        2490.494          44.000    20425216.400    83637849.792        1940.416          43.000  
G10  19484415.647   102391294.081         966.817          50.000    19484404.001    79785377.703         753.520          44.000  
G28  21963219.611   115417488.065        2542.923          40.000    21963208.286    89935678.039        1981.442          43.000  
C23  20720482.655   107896986.913         185.821          50.000                                                                  
C09  36825564.735   191760380.225         261.979          41.000    36825553.029   148281242.161         202.962          47.000  
C33  26197203.468                2      -2947.844          26.000                                                                  
C37  22793788.444   118693251.734        2647.546          45.000                                                                  
> 2025 10 27 02 53 00.7960000  0 19                     
G12  20727967.044   108926200.780         786.675          45.000    20727955.043    84877513.388         612.896          43.000  
G15  23338431.794                       -3268.080          32.000    23338432.038                       -2547.849          32.000  
G18  23679027.109   124434118.953       -3669.495          34.000    23679024.524    96961642.261       -2859.802          38.000  
G23  19317145.835   101512279.585       -2165.973          46.000    19317134.184    79100402.554       -1687.794          47.000  
G24  21031926.871                       -3397.618          27.000    21031922.090                       -2647.760          31.000  
G32  20858146.966   109610298.108        1486.752          44.000    20858137.325    85410586.965        1158.905          42.000  
C08  34720608.801   180799317.011        -363.702          45.000    34720591.842   139805421.209        -281.403          48.000  
C13  34713470.526   180762146.292         -64.081          46.000    34713461.350   139776711.309         -49.658          48.000  
C16  35672077.650   185753879.115         -15.285          47.000    35672067.903   143636633.742         -11.915          48.000  
C25  22330525.691                       -2597.710          33.000                                                                  
C32  21026808.691   109492110.949         835.847          49.000                                                                  
C06  35360031.114   184128971.785         163.427          44.000    35360015.158   142380131.146         126.520          46.000  
G25  20425206.464   107335194.714        2490.500          44.000    20425197.463    83637772.178        1940.353          43.000  
G10  19484408.247   102391255.396         966.954          50.000    19484396.636    79785347.563         753.471          44.000  
G28  21963200.251   115417386.346        2542.930          40.000    21963188.926    89935598.772        1981.586          43.000  
C23  20720481.211   107896979.450         186.295          49.000                                                                  
C09  36825562.758   191760369.724         262.353          41.000    36825551.009   148281234.044         202.894          47.000  
C33  26197226.486                2      -2947.756          26.000                                                                  
C37  22793768.067   118693145.795        2648.124          44.000                                                                  
> 2025 10 27 02 53 00.8360000  0 19                     
G12  20727961.068   108926169.306         786.768          45.000    20727949.075    84877488.851         613.230          43.000  
G15  23338456.819                       -3268.370          32.000    23338456.716                       -2547.419          32.000  
G18  23679055.059   124434265.708       -3669.098          34.000    23679052.423    96961756.635       -2859.630          38.000  
G23  19317162.332   101512366.222       -2165.942          46.000    19317150.657    79100470.065       -1687.812          47.000  
G24  21031952.212                       -3397.315          27.000    21031947.930                       -2646.960          31.000  
G32  20858135.657   109610238.629        1486.824          44.000    20858126.034    85410540.622        1158.675          41.000  
C08  34720611.572   180799331.540        -363.226          44.000    34720594.675   139805432.452        -281.171          48.000  
C13  34713471.025   180762148.833         -63.611          46.000    34713461.858   139776713.288         -49.536          48.000  
C16  35672077.804   185753879.704         -14.784          46.000    35672068.028   143636634.219         -11.946          48.000  
C25  22330545.668                       -2597.574          33.000                                                                  
C32  21026802.271   109492077.489         836.378          49.000                                                                  
C06  35360029.877   184128965.220         163.984          43.000    35360013.897   142380126.081         126.597          46.000  
G25  20425187.481   107335095.086        2490.664          44.000    20425178.514    83637694.546        1940.663          43.000  
G10  19484400.881   102391216.713         967.035          50.000    19484389.271    79785317.419         753.509          44.000  
G28  21963180.885   115417284.618        2543.136          40.000    21963169.582    89935519.511        1981.548          43.000  
C23  20720479.775   107896971.962         186.960          49.000                                                                  
C09  36825560.736   191760359.201         262.895          41.000    36825548.995   148281225.908         203.209          47.000  
C33  26197248.599                2      -2947.436          26.000                                                                  
C37  22793747.708   118693039.825        2648.954          43.000                                                                  
> 2025 10 27 02 53 00.8760000  0 19                     
G12  20727955.049   108926137.827         786.908          45.000    20727943.082    84877464.335         613.074          43.000  
G15  23338481.975                       -3269.772          32.000    23338481.747                       -2547.308          32.000  
G18  23679082.948   124434412.492       -3669.429          34.000    23679080.315    96961871.002       -2859.358          38.000  
G23  19317178.829   101512452.859       -2165.924          46.000    19317167.128    79100537.573       -1687.750          47.000  
G24  21031978.254                       -3396.369          27.000    21031973.775                       -2647.148          31.000  
G32  20858124.333   109610179.135        1487.177          44.000    20858114.706    85410494.270        1158.667          41.000  
C08  34720614.374   180799346.088        -363.446          44.000    34720597.445   139805443.695        -281.116          48.000  
C13  34713471.501   180762151.390         -63.702          46.000    34713462.343   139776715.268         -49.524          48.000  
C16  35672077.958   185753880.319         -15.065          46.000    35672068.152   143636634.685         -11.784          48.000  
C25  22330565.661                       -2598.608          32.000                                                                  
C32  21026795.812   109492044.045         836.311          49.000                                                                  
C06  35360028.644   184128958.666         164.055          43.000    35360012.635   142380121.023         126.509          46.000  
G25  20425168.527   107334995.482        2490.276          44.000    20425159.545    83637616.925        1940.605          43.000  
G10  19484393.525   102391178.025         967.146          50.000    19484381.912    79785287.280         753.478          44.000  
G28  21963161.507   115417182.889        2543.240          40.000    21963150.239    89935440.244        1981.585          43.000  
C23  20720478.324   107896964.501         186.794          49.000                                                                  
C09  36825558.699   191760348.685         263.046          41.000    36825546.968   148281217.779         203.257          47.000  
C33  26197271.481                2      -2947.223          26.000                                                                  
C37  22793727.342   118692933.890        2648.735          43.000                                                                  
> 2025 10 27 02 53 00.9160000  0 19                     
G12  20727949.061   108926106.366         786.673          45.000    20727937.095    84877439.813         613.054          43.000  
G15  23338507.078                       -3270.362          32.000    23338507.025                       -2547.258          32.000  
G18  23679110.858   124434559.270       -3669.502          34.000    23679108.214    96961985.360       -2859.077          38.000  
G23  19317195.322   101512539.496       -2165.931          46.000    19317183.650    79100605.092       -1687.917          47.000  
G24  21032004.199                       -3396.804          27.000    21031999.631                       -2647.040          31.000  
G32  20858112.993   109610119.640        1487.372          44.000    20858103.374    85410447.923        1158.639          41.000  
C08  34720617.176   180799360.641        -363.727          45.000    34720600.199   139805454.949        -281.268          48.000  
C13  34713471.982   180762153.949         -63.855          47.000    34713462.864   139776717.249         -49.542          48.000  
C16  35672078.142   185753880.921         -15.041          47.000    35672068.286   143636635.153         -11.748          48.000  
C25  22330585.658                       -2598.064          33.000                                                                  
C32  21026789.364   109492010.604         836.131          50.000                                                                  
C06  35360027.393   184128952.117         163.885          43.000    35360011.342   142380115.963         126.468          46.000  
G25  20425149.550   107334895.879        2490.082          44.000    20425140.576    83637539.296        1940.733          43.000  
G10  19484386.166   102391139.341         967.133          50.000    19484374.547    79785257.136         753.552          44.000  
G28  21963142.158   115417081.178        2542.928          40.000    21963130.872    89935360.977        1981.647          43.000  
C23  20720476.867   107896957.034         186.714          50.000                                                                  
C09  36825556.685   191760338.181         262.813          41.000    36825544.970   148281209.663         203.010          47.000  
C33  26197293.674                2      -2946.810          26.000                                                                  
C37  22793706.978   118692827.947        2648.680          45.000                                                                  
> 2025 10 27 02 53 00.9560000  0 19                     
G12  20727943.071   108926074.906         786.534          45.000    20727931.116    84877415.298         612.897          43.000  
G15  23338532.322                       -3270.038          32.000    23338531.974                       -2547.793          32.000  
G18  23679138.787   124434706.062       -3669.760          34.000    23679136.103    96962099.751       -2859.521          38.000  
G23  19317211.851   101512626.146       -2166.202          46.000    19317200.124    79100672.605       -1687.892          47.000  
G24  21032030.329                       -3397.152          27.000    21032025.511                       -2647.640          31.000  
G32  20858101.689   109610060.155        1487.259          44.000    20858092.053    85410401.576        1158.602          41.000  
C08  34720619.969   180799375.198        -363.940          45.000    34720602.975   139805466.198        -281.268          48.000  
C13  34713472.487   180762156.514         -64.075          47.000    34713463.359   139776719.230         -49.542          48.000  
C16  35672078.286   185753881.541         -15.336          48.000    35672068.414   143636635.635         -11.973          48.000  
C25  22330605.637                       -2598.724          33.000                                                                  
C32  21026782.924   109491977.177         835.786          50.000                                                                  
C06  35360026.184   184128945.585         163.486          45.000    35360010.123   142380110.907         126.398          46.000  
G25  20425130.590   107334796.271        2490.049          44.000    20425121.618    83637461.687        1940.407          43.000  
G10  19484378.811   102391100.665         966.929          50.000    19484367.171    79785226.997         753.478          44.000  
G28  21963122.800   115416979.459        2542.841          40.000    21963111.502    89935281.719        1981.510          43.000  
C23  20720475.450   107896949.585         186.397          50.000                                                                  
C09  36825554.658   191760327.678         262.615          41.000    36825542.939   148281201.551         202.830          47.000  
C33  26197316.676                2      -2946.669          26.000                                                                  
C37  22793686.614   118692722.032        2648.137          45.000                                                                  
> 2025 10 27 02 53 00.9960000  0 19                     
G12  20727937.090   108926043.447         786.428          45.000    20727925.119    84877390.781         612.882          43.000  
G15  23338557.389                       -3269.314          32.000    23338556.892                       -2547.238          32.000  
G18  23679166.704   124434852.842       -3669.622          34.000    23679164.022    96962214.125       -2859.470          38.000  
G23  19317228.329   101512712.793       -2166.250          46.000    19317216.622    79100740.122       -1687.941          47.000  
G24  21032056.266                       -3397.648          27.000    21032051.379                       -2648.060          31.000  
G32  20858090.390   109610000.680        1486.991          44.000    20858080.741    85410355.235        1158.488          41.000  
C08  34720622.781   180799389.750        -363.892          46.000    34720605.766   139805477.456        -281.439          48.000  
C13  34713472.986   180762159.082         -64.227          47.000    34713463.848   139776721.217         -49.658          48.000  
C16  35672078.448   185753882.160         -15.487          48.000    35672068.495   143636636.106         -11.917          48.000  
C25  22330625.620                       -2598.309          33.000                                                                  
C32  21026776.504   109491943.739         835.850          50.000                                                                  
C06  35360024.918   184128939.043         163.485          45.000    35360008.886   142380105.857         126.243          46.000  
G25  20425111.647   107334696.666        2490.009          44.000    20425102.682    83637384.067        1940.419          43.000  
G10  19484371.443   102391061.992         966.800          50.000    19484359.818    79785196.860         753.410          44.000  
G28  21963103.455   115416877.744        2542.831          40.000    21963092.174    89935202.461        1981.442          43.000  
C23  20720474.017   107896942.135         186.237          51.000                                                                  
C09  36825552.653   191760317.171         262.592          41.000    36825540.908   148281193.429         202.965          47.000  
C33  26197339.437                2      -2946.233          26.000                                                                  
C37  22793666.292   118692616.106        2648.031          45.000                                                                  
> 2025 10 27 02 53 01.0360000  0 19                     
G12  20727931.095   108926011.985         786.466          45.000    20727919.126    84877366.263         612.877          43.000  
G15  23338582.739                       -3268.971          32.000    23338581.871                       -2547.924          32.000  
G18  23679194.635   124434999.605       -3669.166          34.000    23679191.965    96962328.469       -2858.903          38.000  
G23  19317244.808   101512799.443       -2166.286          46.000    19317233.112    79100807.633       -1687.855          47.000  
G24  21032081.843                       -3397.732          27.000    21032077.256    86122829.390       -2648.073          31.000  
G32  20858079.062   109609941.202        1486.900          44.000    20858069.424    85410308.874        1158.857          41.000  
C08  34720625.616   180799404.265        -363.135          46.000    34720608.597   139805488.709        -281.421          48.000  
C13  34713473.519   180762161.630         -63.873          48.000    34713464.342   139776723.199         -49.628          48.000  
C16  35672078.622   185753882.745         -14.925          49.000    35672068.609   143636636.576         -11.810          48.000  
C25  22330645.583                       -2597.842          33.000                                                                  
C32  21026770.109   109491910.276         836.379          51.000                                                                  
C06  35360023.693   184128932.480         163.909          45.000    35360007.661   142380100.794         126.407          46.000  
G25  20425092.670   107334597.058        2490.101          44.000    20425083.716    83637306.458        1940.205          43.000  
G10  19484364.062   102391023.314         966.863          50.000    19484352.454    79785166.728         753.306          44.000  
G28  21963084.126   115416776.036        2542.771          40.000    21963072.841    89935123.201        1981.469          43.000  
C23  20720472.632   107896934.659         186.684          51.000                                                                  
C09  36825550.671   191760306.647         262.998          42.000    36825538.904   148281185.304         203.052          47.000  
C33  26197361.956                2      -2946.091          26.000                                                                  
C37  22793645.966   118692510.150        2648.563          45.000                                                                  
> 2025 10 27 02 53 01.0760000  0 19                     
G12  20727925.097   108925980.511         786.700          45.000    20727913.132    84877341.740         613.029          43.000  
G15  23338607.291                       -3269.116          32.000    23338606.868    95567671.720       -2547.474          32.000  
G18  23679222.595   124435146.358       -3668.687          34.000    23679219.871    96962442.807       -2858.484          38.000  
G23  19317261.255   101512886.086       -2166.169          46.000    19317249.597    79100875.142       -1687.781          47.000  
G24  21032107.848                       -3397.584          27.000    21032103.084                       -2646.646          31.000  
G32  20858067.726   109609881.727        1486.868          44.000    20858058.078    85410262.515        1158.986          41.000  
C08  34720628.425   180799418.801        -363.190          47.000    34720611.401   139805499.963        -281.396          48.000  
C13  34713474.063   180762164.184         -63.818          48.000    34713464.818   139776725.182         -49.603          48.000  
C16  35672078.779   185753883.341         -14.839          49.000    35672068.709   143636637.050         -11.824          48.000  
C25  22330665.556   116281638.915       -2597.597          33.000                                                                  
C32  21026763.765   109491876.813         836.619          51.000                                                                  
C06  35360022.461   184128925.913         164.153          45.000    35360006.392   142380095.725         126.603          46.000  
G25  20425073.723   107334497.435        2490.442          44.000    20425064.758    83637228.833        1940.442          43.000  
G10  19484356.673   102390984.630         967.011          50.000    19484345.080    79785136.576         753.639          44.000  
G28  21963064.767   115416674.307        2543.102          40.000    21963053.490    89935043.949        1981.287          43.000  
C23  20720471.245   107896927.174         187.037          51.000                                                                  
C09  36825548.662   191760296.141         262.817          42.000    36825536.920   148281177.179         203.108          47.000  
C33  26197384.353                2      -2946.267          27.000                                                                  
C37  22793625.666   118692404.200        2648.743          45.000                                                                  
> 2025 10 27 02 53 01.1160000  0 19                     
G12  20727919.114   108925949.047         786.651          45.000    20727907.155    84877317.216         613.112          43.000  
G15  23338632.339                       -3268.740          32.000    23338631.542    95567773.603       -2547.284          32.000  
G18  23679250.512   124435293.150       -3669.298          34.000    23679247.825    96962557.172       -2858.748          38.000  
G23  19317277.732   101512972.726       -2166.064          46.000    19317266.082    79100942.654       -1687.787          47.000  
G24  21032133.980                       -3397.519          27.000    21032128.924                       -2646.719          31.000  
G32  20858056.372   109609822.238        1487.084          44.000    20858046.769    85410216.158        1158.978          41.000  
C08  34720631.258   180799433.347        -363.495          46.000    34720614.175   139805511.210        -281.256          48.000  
C13  34713474.588   180762166.736         -63.763          47.000    34713465.320   139776727.158         -49.457          48.000  
C16  35672078.937   185753883.944         -14.986          48.000    35672068.817   143636637.524         -11.892          48.000  
C25  22330685.547                       -2598.228          32.000                                                                  
C32  21026757.410   109491843.374         836.237          50.000                                                                  
C06  35360021.222   184128919.355         164.086          44.000    35360005.124   142380090.659         126.641          46.000  
G25  20425054.764   107334397.818        2490.465          44.000    20425045.803    83637151.213        1940.466          43.000  
G10  19484349.317   102390945.949         967.023          50.000    19484337.721    79785106.434         753.583          44.000  
G28  21963045.374   115416572.583        2543.117          40.000    21963034.116    89934964.687        1981.419          43.000  
C23  20720469.867   107896919.710         186.792          50.000                                                                  
C09  36825546.668   191760285.630         262.812          41.000    36825534.897   148281169.055         203.120          47.000  
C33  26197406.572                2      -2946.901          26.000                                                                  
C37  22793605.327   118692298.254        2648.708          45.000                                                                  
> 2025 10 27 02 53 01.1560000  0 19                     
G12  20727913.105   108925917.578         786.687          44.000    20727901.160    84877292.691         613.159          43.000  
G15  23338656.943                       -3268.480          32.000    23338656.383    95567875.499       -2547.240          32.000  
G18  23679278.473   124435439.954       -3669.834          34.000    23679275.769    96962671.571       -2859.607          38.000  
G23  19317294.219   101513059.368       -2166.052          46.000    19317282.579    79101010.176       -1688.003          47.000  
G24  21032159.645                       -3397.350          27.000    21032154.807                       -2647.405          31.000  
G32  20858045.056   109609762.753        1487.131          44.000    20858035.453    85410169.817        1158.699          41.000  
C08  34720634.060   180799447.912        -363.983          45.000    34720616.941   139805522.460        -281.226          48.000  
C13  34713475.120   180762169.300         -64.014          47.000    34713465.829   139776729.138         -49.438          48.000  
C16  35672079.123   185753884.563         -15.366          48.000    35672068.923   143636637.996         -11.885          48.000  
C25  22330705.506                       -2598.796          32.000                                                                  
C32  21026751.019   109491809.947         835.783          50.000                                                                  
C06  35360020.000   184128912.821         163.600          44.000    35360003.834   142380085.590         126.737          46.000  
G25  20425035.809   107334298.206        2490.373          44.000    20425026.824    83637073.602        1940.342          43.000  
G10  19484341.962   102390907.273         966.905          49.000    19484330.370    79785076.294         753.471          44.000  
G28  21963026.021   115416470.861        2543.066          40.000    21963014.745    89934885.430        1981.426          43.000  
C23  20720468.454   107896912.261         186.350          50.000                                                                  
C09  36825544.667   191760275.112         262.912          41.000    36825532.875   148281160.935         203.056          47.000  
C33  26197429.546                2      -2946.840          26.000                                                                  
C37  22793584.979   118692192.327        2648.331          45.000                                                                  
> 2025 10 27 02 53 01.1960000  0 19                     
G12  20727907.162   108925886.116         786.603          44.000    20727895.185    84877268.184         612.888          43.000  
G15  23338681.930                       -3269.764          32.000    23338681.059    95567977.355       -2546.667          32.000  
G18  23679306.407   124435586.721       -3669.511          33.000    23679303.702    96962785.969       -2859.991          38.000  
G23  19317310.703   101513146.014       -2166.139          46.000    19317299.071    79101077.696       -1688.064          47.000  
G24  21032185.453                       -3397.689          27.000    21032180.682                       -2646.908          31.000  
G32  20858033.737   109609703.264        1487.199          44.000    20858024.142    85410123.467        1158.681          41.000  
C08  34720636.894   180799462.471        -364.105          45.000    34720619.703   139805533.713        -281.299          48.000  
C13  34713475.629   180762171.869         -64.264          47.000    34713466.335   139776731.124         -49.585          48.000  
C16  35672079.304   185753885.182         -15.538          47.000    35672069.035   143636638.470         -11.889          48.000  
C25  22330725.510   116281950.771       -2599.433          32.000                                                                  
C32  21026744.658   109491776.522         835.556          50.000                                                                  
C06  35360018.794   184128906.288         163.286          44.000    35360002.563   142380080.543         126.364          46.000  
G25  20425016.871   107334198.606        2490.181          44.000    20425007.865    83636995.974        1940.573          43.000  
G10  19484334.609   102390868.602         966.770          49.000    19484323.011    79785046.164         753.268          44.000  
G28  21963006.665   115416369.149        2542.885          39.000    21962995.382    89934806.169        1981.469          43.000  
C23  20720467.066   107896904.824         185.960          50.000                                                                  
C09  36825542.659   191760264.625         262.388          41.000    36825530.853   148281152.816         202.974          47.000  
C33  26197452.349                2      -2946.665          26.000                                                                  
C37  22793564.668   118692086.402        2648.092          45.000                                                                  
> 2025 10 27 02 53 01.2360000  0 19                     
G12  20727901.183   108925854.663         786.372          44.000    20727889.216    84877243.683         612.601          43.000  
G15  23338706.854                       -3269.338          32.000    23338705.884    95568079.230       -2546.657          32.000  
G18  23679334.313   124435733.485       -3669.222          33.000    23679331.632    96962900.339       -2859.582          38.000  
G23  19317327.210   101513232.661       -2166.188          46.000    19317315.548    79101145.214       -1688.026          47.000  
G24  21032211.525                       -3397.323          27.000    21032206.551                       -2647.181          31.000  
G32  20858022.414   109609643.783        1487.128          44.000    20858012.838    85410077.120        1158.632          41.000  
C08  34720639.676   180799477.040        -364.355          45.000    34720622.482   139805544.966        -281.317          48.000  
C13  34713476.164   180762174.450         -64.606          46.000    34713466.830   139776733.105         -49.573          48.000  
C16  35672079.475   185753885.805         -15.693          47.000    35672069.158   143636638.943         -11.870          48.000  
C25  22330745.527   116282054.700       -2598.793          33.000                                                                  
C32  21026738.256   109491743.098         835.411          49.000                                                                  
C06  35360017.549   184128899.754         163.140          44.000    35360001.305   142380075.485         126.366          46.000  
G25  20424997.915   107334099.006        2490.029          44.000    20424988.923    83636918.371        1940.277          43.000  
G10  19484327.238   102390829.926         966.814          49.000    19484315.659    79785016.029         753.281          44.000  
G28  21962987.293   115416267.426        2542.980          39.000    21962976.005    89934726.897        1981.705          43.000  
C23  20720465.666   107896897.383         185.817          49.000                                                                  
C09  36825540.658   191760254.138         262.039          41.000    36825528.850   148281144.689         203.088          47.000  
C33  26197474.815                2      -2947.762          26.000                                                                  
C37  22793544.333   118691980.491        2647.719          45.000                                                                  
> 2025 10 27 02 53 01.2760000  0 19                     
G12  20727895.186   108925823.206         786.318          45.000    20727883.237    84877219.169         612.707          43.000  
G15  23338731.710                       -3269.233          32.000    23338730.579    95568181.169       -2547.996          32.000  
G18  23679362.280   124435880.260       -3669.283          34.000    23679359.550    96963014.695       -2859.098          38.000  
G23  19317343.702   101513319.314       -2166.348          46.000    19317332.039    79101212.736       -1688.063          47.000  
G24  21032237.229                       -3397.745          27.000    21032232.411                       -2647.508          31.000  
G32  20858011.086   109609584.298        1487.133          44.000    20858001.514    85410030.779        1158.487          41.000  
C08  34720642.515   180799491.608        -364.301          45.000    34720625.308   139805556.219        -281.372          48.000  
C13  34713476.673   180762177.034         -64.716          46.000    34713467.323   139776735.096         -49.744          48.000  
C16  35672079.659   185753886.441         -15.899          47.000    35672069.270   143636639.416         -11.878          48.000  
C25  22330765.525   116282158.666       -2598.982          33.000                                                                  
C32  21026731.839   109491709.684         835.275          49.000                                                                  
C06  35360016.286   184128893.241         162.809          43.000    35360000.026   142380070.427         126.404          46.000  
G25  20424978.970   107333999.401        2490.055          44.000    20424969.967    83636840.752        1940.358          43.000  
G10  19484319.857   102390791.250         966.845          50.000    19484308.330    79784985.901         753.147          44.000  
G28  21962967.949   115416165.722        2542.694          40.000    21962956.648    89934647.634        1981.635          43.000  
C23  20720464.250   107896889.955         185.633          49.000                                                                  
C09  36825538.636   191760243.653         261.986          40.000    36825526.828   148281136.564         203.094          47.000  
C33  26197497.029                2      -2948.204          26.000                                                                  
C37  22793524.012   118691874.582        2647.585          44.000                                                                  
> 2025 10 27 02 53 01.3160000  0 19                     
G12  20727889.207   108925791.746         786.354          45.000    20727877.250    84877194.652         612.803          43.000  
G15  23338756.780                       -3269.449          32.000    23338755.232    95568283.083       -2548.317          32.000  
G18  23679390.184   124436027.040       -3669.388          33.000    23679387.465    96963129.051       -2858.918          38.000  
G23  19317360.183   101513405.967       -2166.378          46.000    19317348.524    79101280.258       -1688.093          47.000  
G24  21032263.503                       -3397.436          27.000    21032258.301                       -2648.654          31.000  
G32  20857999.769   109609524.819        1487.023          44.000    20857990.193    85409984.428        1158.607          41.000  
C08  34720645.310   180799506.149        -363.745          45.000    34720628.134   139805567.473        -281.396          48.000  
C13  34713477.184   180762179.595         -64.288          46.000    34713467.789   139776737.082         -49.738          48.000  
C16  35672079.827   185753887.042         -15.373          47.000    35672069.399   143636639.884         -11.802          48.000  
C25  22330785.499   116282262.617       -2598.865          33.000                                                                  
C32  21026725.471   109491676.240         835.776          50.000                                                                  
C06  35360015.051   184128886.691         163.315          43.000    35359998.776   142380065.366         126.464          46.000  
G25  20424960.012   107333899.790        2490.166          44.000    20424951.017    83636763.129        1940.495          43.000  
G10  19484312.511   102390752.577         966.826          50.000    19484300.975    79784955.766         753.240          44.000  
G28  21962948.579   115416064.012        2542.652          40.000    21962937.290    89934568.370        1981.603          43.000  
C23  20720462.825   107896882.498         186.082          49.000                                                                  
C09  36825536.631   191760233.134         262.651          40.000    36825524.764   148281128.439         203.079          47.000  
C33  26197519.655                2      -2947.668          26.000                                                                  
C37  22793503.684   118691768.650        2647.982          44.000                                                                  
> 2025 10 27 02 53 01.3560000  0 19                     
G12  20727883.243   108925760.287         786.383          45.000    20727871.288    84877170.145         612.699          43.000  
G15  23338781.562                       -3269.540          32.000    23338780.266    95568385.008       -2548.449          32.000  
G18  23679418.100   124436173.813       -3669.384          33.000    23679415.397    96963243.421       -2859.074          38.000  
G23  19317376.669   101513492.617       -2166.322          46.000    19317365.009    79101347.775       -1688.001          47.000  
G24  21032289.224                       -3396.990          27.000    21032284.122                       -2647.901          31.000  
G32  20857988.455   109609465.338        1487.000          44.000    20857978.860    85409938.060        1159.021          41.000  
C08  34720648.108   180799520.692        -363.531          46.000    34720630.947   139805578.726        -281.390          48.000  
C13  34713477.684   180762182.152         -63.977          46.000    34713468.278   139776739.068         -49.719          48.000  
C16  35672079.987   185753887.649         -15.192          47.000    35672069.523   143636640.363         -11.946          48.000  
C25  22330805.482   116282366.530       -2598.120          33.000                                                                  
C32  21026719.092   109491642.796         836.038          50.000                                                                  
C06  35360013.806   184128880.128         163.844          44.000    35359997.525   142380060.310         126.381          46.000  
G25  20424941.076   107333800.185        2490.112          44.000    20424932.069    83636685.515        1940.386          43.000  
G10  19484305.135   102390713.902         966.833          50.000    19484293.609    79784925.630         753.301          44.000  
G28  21962929.202   115415962.284        2543.002          40.000    21962917.933    89934489.117        1981.366          43.000  
C23  20720461.381   107896875.036         186.386          50.000                                                                  
C09  36825534.590   191760222.627         262.714          40.000    36825522.759   148281120.322         202.928          47.000  
C33  26197542.527                2      -2947.753          26.000                                                                  
C37  22793483.364   118691662.702        2648.440          45.000                                                                  
> 2025 10 27 02 53 01.3960000  0 19                     
G12  20727877.238   108925728.833         786.332          45.000    20727865.310    84877145.630         612.764          43.000  
G15  23338806.316                       -3268.955          32.000    23338804.956                       -2547.041          32.000  
G18  23679446.017   124436320.562       -3668.899          33.000    23679443.336    96963357.793       -2859.218          38.000  
G23  19317393.173   101513579.269       -2166.315          46.000    19317381.512    79101415.294       -1687.976          47.000  
G24  21032314.874                       -3397.213          27.000    21032309.944                       -2646.288          31.000  
G32  20857977.123   109609405.862        1486.931          44.000    20857967.538    85409891.715        1158.841          41.000  
C08  34720650.905   180799535.246        -363.684          45.000    34720633.770   139805589.979        -281.348          48.000  
C13  34713478.184   180762184.717         -64.001          46.000    34713468.751   139776741.039         -49.402          48.000  
C16  35672080.112   185753888.278         -15.486          47.000    35672069.660   143636640.841         -12.007          48.000  
C25  22330825.442   116282470.482       -2598.412          32.000                                                                  
C32  21026712.642   109491609.368         835.857          49.000                                                                  
C06  35360012.546   184128873.587         163.728          43.000    35359996.264   142380055.253         126.392          46.000  
G25  20424922.122   107333700.577        2490.124          44.000    20424913.124    83636607.897        1940.449          43.000  
G10  19484297.796   102390675.230         966.796          50.000    19484286.245    79784895.493         753.369          44.000  
G28  21962909.856   115415860.570        2542.932          40.000    21962898.572    89934409.872        1981.138          43.000  
C23  20720459.944   107896867.601         186.088          48.000                                                                  
C09  36825532.592   191760212.134         262.459          40.000    36825520.759   148281112.198         202.993          47.000  
C33  26197565.372                2      -2947.120          26.000                                                                  
C37  22793463.012   118691556.774        2648.403          44.000                                                                  
> 2025 10 27 02 53 01.4360000  0 19                     
G12  20727871.267   108925697.375         786.372          45.000    20727859.332    84877121.109         612.905          43.000  
G15  23338830.938                       -3269.697          32.000    23338829.760    95568588.722       -2546.559          32.000  
G18  23679473.959   124436467.317       -3668.808          33.000    23679471.249    96963472.153       -2859.099          38.000  
G23  19317409.661   101513665.920       -2166.291          46.000    19317397.997    79101482.806       -1687.866          47.000  
G24  21032341.195                       -3397.196          27.000    21032335.756                       -2646.813          31.000  
G32  20857965.787   109609346.375        1487.102          44.000    20857956.227    85409845.368        1158.667          41.000  
C08  34720653.706   180799549.796        -363.708          45.000    34720636.560   139805601.229        -281.268          48.000  
C13  34713478.712   180762187.275         -63.910          46.000    34713469.202   139776743.016         -49.365          48.000  
C16  35672080.279   185753888.882         -15.230          46.000    35672069.773   143636641.311         -11.907          48.000  
C25  22330845.412   116282574.406       -2598.198          33.000                                                                  
C32  21026706.259   109491575.921         836.081          49.000                                                                  
C06  35360011.317   184128867.036         163.849          43.000    35359995.014   142380050.180         126.674          46.000  
G25  20424903.160   107333600.967        2490.176          44.000    20424894.199    83636530.284        1940.334          43.000  
G10  19484290.451   102390636.558         966.778          50.000    19484278.877    79784865.354         753.405          44.000  
G28  21962890.500   115415758.850        2542.938          40.000    21962879.218    89934330.608        1981.383          43.000  
C23  20720458.526   107896860.147         186.225          48.000                                                                  
C09  36825530.601   191760201.621         262.680          40.000    36825518.722   148281104.069         203.138          47.000  
C33  26197588.366                2      -2946.964          26.000                                                                  
C37  22793442.686   118691450.853        2648.222          44.000                                                                  
> 2025 10 27 02 53 01.4760000  0 19                     
G12  20727865.284   108925665.915         786.457          45.000    20727853.352    84877096.596         612.892          43.000  
G15  23338855.849                       -3269.187          32.000    23338854.499    95568690.597       -2546.555          32.000  
G18  23679501.880   124436614.099       -3669.302          33.000    23679499.169    96963586.499       -2858.748          38.000  
G23  19317426.141   101513752.568       -2166.198          46.000    19317414.491    79101550.331       -1688.014          47.000  
G24  21032367.394                       -3397.164          27.000    21032361.638                       -2647.590          31.000  
G32  20857954.466   109609286.890        1487.125          44.000    20857944.930    85409799.014        1158.721          41.000  
C08  34720656.492   180799564.366        -364.136          45.000    34720639.343   139805612.474        -281.146          48.000  
C13  34713479.206   180762189.854         -64.270          46.000    34713469.723   139776744.998         -49.481          48.000  
C16  35672080.402   185753889.498         -15.327          46.000    35672069.929   143636641.785         -11.880          48.000  
C25  22330865.394   116282678.334       -2598.025          32.000                                                                  
C32  21026699.821   109491542.500         835.686          49.000                                                                  
C06  35360010.061   184128860.518         163.269          43.000    35359993.731   142380045.109         126.771          46.000  
G25  20424884.243   107333501.366        2490.053          44.000    20424875.250    83636452.674        1940.231          43.000  
G10  19484283.107   102390597.878         966.907          50.000    19484271.524    79784835.217         753.455          44.000  
G28  21962871.130   115415657.125        2543.087          40.000    21962859.857    89934251.336        1981.694          43.000  
C23  20720457.065   107896852.709         186.023          48.000                                                                  
C09  36825528.608   191760191.148         262.050          40.000    36825516.708   148281095.952         202.993          47.000  
C33  26197611.258                2      -2946.913          26.000                                                                  
C37  22793422.338   118691344.936        2647.982          44.000                                                                  
> 2025 10 27 02 53 01.5160000  0 19                     
G12  20727859.311   108925634.466         786.281          45.000    20727847.365    84877072.103         612.462          43.000  
G15  23338880.899                       -3268.470          32.000    23338879.022    95568792.472       -2546.703          32.000  
G18  23679529.804   124436760.873       -3669.412          34.000    23679527.093    96963700.881       -2859.183          38.000  
G23  19317442.641   101513839.215       -2166.155          46.000    19317430.988    79101617.851       -1688.069          47.000  
G24  21032393.163                       -3397.248          27.000    21032387.489                       -2648.057          31.000  
G32  20857943.148   109609227.402        1487.167          44.000    20857933.630    85409752.660        1158.800          41.000  
C08  34720659.297   180799578.922        -364.087          44.000    34720642.141   139805623.728        -281.262          48.000  
C13  34713479.684   180762192.433         -64.465          45.000    34713470.220   139776746.977         -49.506          48.000  
C16  35672080.485   185753890.116         -15.420          46.000    35672070.030   143636642.257         -11.855          48.000  
C25  22330885.355   116282782.263       -2598.169          32.000                                                                  
C32  21026693.388   109491509.074         835.614          48.000                                                                  
C06  35360008.795   184128853.976         163.385          43.000    35359992.493   142380040.052         126.572          46.000  
G25  20424865.287   107333401.765        2489.990          44.000    20424856.310    83636375.059        1940.247          43.000  
G10  19484275.754   102390559.207         966.820          50.000    19484264.168    79784805.086         753.325          44.000  
G28  21962851.781   115415555.420        2542.775          40.000    21962840.495    89934172.073        1981.654          44.000  
C23  20720455.615   107896845.264         186.053          48.000                                                                  
C09  36825526.590   191760180.642         262.390          40.000    36825514.699   148281087.835         202.906          47.000  
C33  26197633.645                2      -2946.926          26.000                                                                  
C37  22793401.979   118691239.016        2647.936          43.000                                                                  
> 2025 10 27 02 53 01.5560000  0 19                     
G12  20727853.343   108925603.014         786.259          45.000    20727841.378    84877047.605         612.335          43.000  
G15  23338906.115                       -3268.534          32.000    23338904.018    95568894.420       -2548.171          32.000  
G18  23679557.785   124436907.705       -3670.446          34.000    23679555.030    96963815.252       -2859.278          38.000  
G23  19317459.146   101513925.865       -2166.205          46.000    19317447.458    79101685.371       -1688.050          47.000  
G24  21032419.029                       -3396.965          27.000    21032413.329                       -2647.936          31.000  
G32  20857931.829   109609167.916        1487.184          44.000    20857922.318    85409706.311        1158.749          41.000  
C08  34720662.111   180799593.468        -363.861          44.000    34720644.971   139805634.972        -281.152          48.000  
C13  34713480.176   180762194.990         -64.148          45.000    34713470.718   139776748.966         -49.689          48.000  
C16  35672080.624   185753890.721         -15.228          46.000    35672070.136   143636642.728         -11.796          48.000  
C25  22330905.333   116282886.225       -2598.934          32.000                                                                  
C32  21026686.994   109491475.634         835.815          48.000                                                                  
C06  35360007.537   184128847.419         163.760          42.000    35359991.233   142380034.986         126.595          46.000  
G25  20424846.311   107333302.161        2490.019          44.000    20424837.364    83636297.447        1940.231          43.000  
G10  19484268.414   102390520.540         966.679          50.000    19484256.784    79784774.946         753.399          44.000  
G28  21962832.426   115415453.706        2542.776          40.000    21962821.154    89934092.813        1981.547          44.000  
C23  20720454.165   107896837.809         186.269          48.000                                                                  
C09  36825524.563   191760170.117         262.942          40.000    36825512.674   148281079.714         202.932          47.000  
C33  26197656.147                2      -2947.403          25.000                                                                  
C37  22793381.623   118691133.066        2648.468          43.000                                                                  
> 2025 10 27 02 53 01.5960000  0 19                     
G12  20727847.371   108925571.574         786.055          45.000    20727835.384    84877023.103         612.404          43.000  
G15  23338930.993                       -3268.566          32.000    23338929.126    95568996.339       -2548.347          32.000  
G18  23679585.684   124437054.442       -3669.219          34.000    23679582.959    96963929.610       -2859.093          38.000  
G23  19317475.662   101514012.527       -2166.489          46.000    19317463.953    79101752.894       -1688.093          47.000  
G24  21032444.994                       -3397.394          27.000    21032439.184                       -2647.205          31.000  
G32  20857920.504   109609108.439        1487.009          44.000    20857910.986    85409659.949        1158.949          41.000  
C08  34720664.928   180799608.010        -363.678          44.000    34720647.775   139805646.224        -281.274          48.000  
C13  34713480.676   180762197.540         -63.879          45.000    34713471.203   139776750.952         -49.719          48.000  
C16  35672080.769   185753891.331         -15.254          46.000    35672070.273   143636643.204         -11.877          48.000  
C25  22330925.321   116282990.174       -2599.000          32.000                                                                  
C32  21026680.592   109491442.187         836.036          48.000                                                                  
C06  35360006.282   184128840.863         163.922          42.000    35359990.003   142380029.929         126.464          46.000  
G25  20424827.350   107333202.548        2490.181          44.000    20424818.417    83636219.828        1940.341          43.000  
G10  19484261.078   102390481.880         966.482          50.000    19484249.438    79784744.816         753.282          44.000  
G28  21962813.083   115415352.004        2542.552          40.000    21962801.801    89934013.566        1981.230          44.000  
C23  20720452.751   107896830.346         186.529          49.000                                                                  
C09  36825522.553   191760159.602         263.030          40.000    36825510.634   148281071.591         203.015          47.000  
C33  26197679.152                2      -2946.761          25.000                                                                  
C37  22793361.271   118691027.123        2648.619          43.000                                                                  
> 2025 10 27 02 53 01.6360000  0 19                     
G12  20727841.384   108925540.135         785.951          45.000    20727829.402    84876998.582         612.786          43.000  
G15  23338955.667                       -3268.829          32.000    23338953.717    95569098.291       -2549.123          32.000  
G18  23679613.613   124437201.180       -3668.557          34.000    23679610.912    96964044.000       -2859.579          38.000  
G23  19317492.178   101514099.190       -2166.648          46.000    19317480.442    79101820.426       -1688.266          47.000  
G24  21032470.748                       -3397.343          27.000    21032465.062                       -2648.185          31.000  
G32  20857909.192   109609048.973        1486.722          44.000    20857899.681    85409613.619        1158.460          41.000  
C08  34720667.747   180799622.553        -363.623          44.000    34720650.592   139805657.486        -281.500          48.000  
C13  34713481.179   180762200.097         -63.916          46.000    34713471.680   139776752.943         -49.829          48.000  
C16  35672080.888   185753891.942         -15.274          46.000    35672070.367   143636643.682         -11.954          48.000  
C25  22330945.315   116283094.112       -2598.813          32.000                                                                  
C32  21026674.150   109491408.750         835.994          49.000                                                                  
C06  35360005.043   184128834.318         163.793          43.000    35359988.756   142380024.869         126.492          46.000  
G25  20424808.391   107333102.949        2490.022          44.000    20424799.495    83636142.230        1940.042          43.000  
G10  19484253.697   102390443.219         966.428          50.000    19484242.067    79784714.690         753.116          44.000  
G28  21962793.739   115415250.293        2542.592          40.000    21962782.456    89933934.310        1981.283          44.000  
C23  20720451.339   107896822.896         186.404          49.000                                                                  
C09  36825520.526   191760149.099         262.793          40.000    36825508.588   148281063.460         203.196          47.000  
C33  26197701.785                2      -2947.012          25.000                                                                  
C37  22793340.944   118690921.196        2648.410          44.000                                                                  
> 2025 10 27 02 53 01.6760000  0 19                     
G12  20727835.402   108925508.693         785.950          45.000    20727823.411    84876974.064         612.929          43.000  
G15  23338980.243                       -3269.273          32.000    23338978.883                       -2548.263          32.000  
G18  23679641.538   124437348.043       -3670.515          34.000    23679638.820    96964158.360       -2859.329          38.000  
G23  19317508.666   101514185.856       -2166.758          46.000    19317496.919    79101887.946       -1688.148          47.000  
G24  21032496.457                       -3397.838          27.000    21032490.942                       -2647.598          31.000  
G32  20857897.862   109608989.504        1486.611          44.000    20857888.371    85409567.276        1158.462          41.000  
C08  34720670.529   180799637.131        -364.264          44.000    34720653.398   139805668.751        -281.665          48.000  
C13  34713481.686   180762202.682         -64.465          46.000    34713472.201   139776754.933         -49.847          48.000  
C16  35672081.024   185753892.573         -15.653          46.000    35672070.512   143636644.160         -11.998          48.000  
C25  22330965.281   116283198.062       -2598.874          32.000                                                                  
C32  21026667.717   109491375.334         835.551          49.000                                                                  
C06  35360003.816   184128827.799         163.210          43.000    35359987.495   142380019.817         126.370          46.000  
G25  20424789.442   107333003.359        2489.789          44.000    20424780.555    83636064.627        1939.990          43.000  
G10  19484246.312   102390404.559         966.404          50.000    19484234.723    79784684.568         753.012          44.000  
G28  21962774.357   115415148.585        2542.668          40.000    21962763.095    89933855.061        1981.184          44.000  
C23  20720449.921   107896815.479         185.711          49.000                                                                  
C09  36825518.541   191760138.616         262.272          40.000    36825506.544   148281055.336         203.143          48.000  
C33  26197724.307                2      -2946.763          25.000                                                                  
C37  22793320.592   118690815.291        2647.841          44.000                                                                  
> 2025 10 27 02 53 01.7160000  0 19                     
G12  20727829.407   108925477.239         786.193          46.000    20727817.424    84876949.554         612.843          43.000  
G15  23339004.975                       -3270.056          32.000    23339003.848                       -2546.983          32.000  
G18  23679669.442   124437494.788       -3669.431          34.000    23679666.749    96964272.731       -2859.294          38.000  
G23  19317525.144   101514272.524       -2166.806          46.000    19317513.441    79101955.475       -1688.228          47.000  
G24  21032522.276                       -3398.022          27.000    21032516.762                       -2646.674          31.000  
G32  20857886.558   109608930.028        1486.708          44.000    20857877.050    85409520.922        1158.702          41.000  
C08  34720673.338   180799651.706        -364.539          44.000    34720656.166   139805680.005        -281.506          48.000  
C13  34713482.156   180762205.259         -64.557          45.000    34713472.709   139776756.921         -49.762          48.000  
C16  35672081.150   185753893.206         -15.842          45.000    35672070.615   143636644.637         -11.997          48.000  
C25  22330985.266   116283302.031       -2599.087          33.000                                                                  
C32  21026661.271   109491341.919         835.348          48.000                                                                  
C06  35360002.544   184128821.264         163.204          43.000    35359986.226   142380014.770         126.208          46.000  
G25  20424770.484   107332903.768        2489.707          44.000    20424761.599    83635987.017        1940.100          43.000  
G10  19484238.959   102390365.896         966.479          50.000    19484227.366    79784654.445         752.951          44.000  
G28  21962754.978   115415046.878        2542.675          40.000    21962743.709    89933775.804        1981.310          44.000  
C23  20720448.507   107896808.052         185.525          48.000                                                                  
C09  36825516.532   191760128.140         261.907          41.000    36825504.522   148281047.218         202.985          48.000  
C33  26197747.162                3      -2945.863          25.000                                                                  
C37  22793300.240   118690709.382        2647.646          42.000                                                                  
> 2025 10 27 02 53 01.7560000  0 19                     
G12  20727823.403   108925445.772         786.564          46.000    20727811.429    84876925.039         612.874          44.000  
G15  23339029.728                       -3270.083          31.000    23339028.781                       -2547.195          32.000  
G18  23679697.404   124437641.529       -3668.706          34.000    23679694.677    96964387.099       -2859.247          38.000  
G23  19317541.619   101514359.184       -2166.645          46.000    19317529.925    79102023.009       -1688.370          47.000  
G24  21032548.323                       -3397.911          27.000    21032542.595                       -2645.568          31.000  
G32  20857875.239   109608870.538        1487.047          44.000    20857865.744    85409474.586        1158.534          41.000  
C08  34720676.115   180799666.248        -363.953          44.000    34720658.945   139805691.257        -281.360          48.000  
C13  34713482.677   180762207.820         -64.264          45.000    34713473.201   139776758.903         -49.615          48.000  
C16  35672081.261   185753893.813         -15.460          46.000    35672070.739   143636645.113         -11.961          48.000  
C25  22331005.257   116283405.964       -2598.643          33.000                                                                  
C32  21026654.832   109491308.490         835.523          48.000                                                                  
C06  35360001.308   184128814.724         163.376          43.000    35359984.953   142380009.708         126.372          46.000  
G25  20424751.518   107332804.170        2489.832          44.000    20424742.637    83635909.406        1940.212          43.000  
G10  19484231.568   102390327.232         966.547          50.000    19484219.990    79784624.321         752.995          44.000  
G28  21962735.624   115414945.161        2542.843          40.000    21962724.360    89933696.552        1981.310          44.000  
C23  20720447.126   107896800.605         185.894          48.000                                                                  
C09  36825514.518   191760117.626         262.480          41.000    36825502.501   148281039.109         202.735          48.000  
C33  26197769.911                3      -2945.465          26.000                                                                  
C37  22793279.901   118690603.463        2647.765          43.000                                                                  
> 2025 10 27 02 53 01.7960000  0 19                     
G12  20727817.415   108925414.310         786.624          46.000    20727805.453    84876900.533         612.739          44.000  
G15  23339054.263                       -3271.560          31.000    23339053.723    95569505.816       -2547.106          32.000  
G18  23679725.299   124437788.310       -3669.191          34.000    23679722.606    96964501.478       -2859.425          38.000  
G23  19317558.095   101514445.836       -2166.405          46.000    19317546.384    79102090.537       -1688.326          47.000  
G24  21032574.598                       -3397.884          27.000    21032568.469                       -2647.390          31.000  
G32  20857863.890   109608811.049        1487.208          44.000    20857854.421    85409428.245        1158.495          41.000  
C08  34720678.929   180799680.798        -363.776          45.000    34720661.750   139805702.506        -281.250          48.000  
C13  34713483.185   180762210.377         -64.008          47.000    34713473.683   139776760.888         -49.603          48.000  
C16  35672081.381   185753894.408         -15.028          47.000    35672070.842   143636645.589         -11.900          48.000  
C25  22331025.241   116283509.938       -2599.081          33.000                                                                  
C32  21026648.433   109491275.052         835.779          49.000                                                                  
C06  35360000.030   184128808.177         163.593          43.000    35359983.674   142380004.646         126.525          46.000  
G25  20424732.552   107332704.571        2489.912          44.000    20424723.685    83635831.806        1940.044          43.000  
G10  19484224.207   102390288.571         966.515          50.000    19484212.628    79784594.200         753.014          44.000  
G28  21962716.273   115414843.451        2542.767          40.000    21962705.010    89933617.299        1981.316          44.000  
C23  20720445.709   107896793.155         186.125          50.000                                                                  
C09  36825512.527   191760107.114         262.689          41.000    36825500.493   148281030.994         202.758          48.000  
C33  26197792.974                3      -2944.210          26.000                                                                  
C37  22793259.558   118690497.520        2648.282          44.000                                                                  
> 2025 10 27 02 53 01.8360000  0 19                     
G12  20727811.452   108925382.864         786.358          45.000    20727799.470    84876876.040         612.396          42.000  
G15  23339078.755                       -3269.900          31.000    23339078.717                       -2546.396          32.000  
G18  23679753.214   124437935.058       -3668.862          34.000    23679750.542    96964615.835       -2859.142          38.000  
G23  19317574.574   101514532.491       -2166.356          46.000    19317562.865    79102158.069       -1688.356          47.000  
G24  21032600.666                       -3397.592          27.000    21032594.329                       -2647.804          31.000  
G32  20857852.561   109608751.562        1487.226          44.000    20857843.117    85409381.899        1158.594          41.000  
C08  34720681.735   180799695.305        -362.903          45.000    34720664.560   139805713.761        -281.342          48.000  
C13  34713483.709   180762212.902         -63.318          47.000    34713474.197   139776762.865         -49.445          48.000  
C16  35672081.519   185753894.985         -14.474          47.000    35672070.934   143636646.057         -11.766          48.000  
C25  22331045.228   116283613.807       -2597.436          33.000                                                                  
C32  21026642.026   109491241.586         836.447          50.000                                                                  
C06  35359998.750   184128801.600         164.266          44.000    35359982.408   142379999.590         126.460          46.000  
G25  20424713.586   107332604.976        2489.896          44.000    20424704.735    83635754.197        1940.141          43.000  
G10  19484216.858   102390249.909         966.534          50.000    19484205.267    79784564.075         753.082          44.000  
G28  21962696.912   115414741.754        2542.524          40.000    21962685.640    89933538.046        1981.323          44.000  
C23  20720444.310   107896785.675         186.824          50.000                                                                  
C09  36825510.501   191760096.576         263.295          41.000    36825498.471   148281022.868         203.012          48.000  
C33  26197815.462                3      -2946.545          26.000                                                                  
C37  22793239.222   118690391.551        2649.054          45.000                                                                  
> 2025 10 27 02 53 01.8760000  0 19                     
G12  20727805.466   108925351.415         786.209          45.000    20727793.475    84876851.548         612.197          42.000  
G15  23339103.420                       -3269.238          31.000    23339103.278    95569709.523       -2546.245          32.000  
G18  23679781.144   124438081.826       -3669.032          34.000    23679778.478    96964730.185       -2858.840          38.000  
G23  19317591.073   101514619.153       -2166.493          46.000    19317579.350    79102225.596       -1688.270          47.000  
G24  21032626.742                       -3397.525          27.000    21032620.218                       -2648.223          31.000  
G32  20857841.233   109608692.082        1487.066          44.000    20857831.797    85409335.529        1159.078          41.000  
C08  34720684.567   180799709.846        -363.202          45.000    34720667.368   139805725.011        -281.287          48.000  
C13  34713484.212   180762215.458         -63.623          47.000    34713474.667   139776764.837         -49.298          48.000  
C16  35672081.657   185753895.591         -14.799          47.000    35672071.043   143636646.530         -11.762          48.000  
C25  22331065.230                       -2597.952          33.000                                                                  
C32  21026635.646   109491208.139         836.387          50.000                                                                  
C06  35359997.468   184128795.040         164.248          44.000    35359981.151   142379994.533         126.423          46.000  
G25  20424694.619   107332505.382        2489.851          44.000    20424685.786    83635676.591        1940.120          43.000  
G10  19484209.474   102390211.245         966.571          50.000    19484197.882    79784533.950         753.082          44.000  
G28  21962677.536   115414640.039        2542.706          40.000    21962666.300    89933458.784        1981.510          44.000  
C23  20720442.909   107896778.220         186.669          50.000                                                                  
C09  36825508.477   191760086.054         263.294          41.000    36825496.501   148281014.740         203.173          48.000  
C33  26197838.568                3      -2945.977          26.000                                                                  
C37  22793218.894   118690285.616        2648.759          45.000                                                                  
> 2025 10 27 02 53 01.9160000  0 19                     
G12  20727799.478   108925319.983         785.818          45.000    20727787.501    84876827.050         612.272          42.000  
G15  23339128.231                       -3267.914          31.000    23339128.264    95569811.425       -2547.043          32.000  
G18  23679809.098   124438228.620       -3669.605          34.000    23679806.406    96964844.543       -2858.894          38.000  
G23  19317607.574   101514705.816       -2166.604          46.000    19317595.843    79102293.122       -1688.196          47.000  
G24  21032652.558                       -3397.356          27.000    21032646.082                       -2648.361          31.000  
G32  20857829.929   109608632.604        1486.950          44.000    20857820.473    85409289.174        1159.034          41.000  
C08  34720687.381   180799724.409        -363.843          46.000    34720670.159   139805736.272        -281.488          48.000  
C13  34713484.723   180762218.042         -64.362          47.000    34713475.152   139776766.825         -49.548          48.000  
C16  35672081.800   185753896.210         -15.273          48.000    35672071.172   143636646.999         -11.734          48.000  
C25  22331085.199                       -2598.428          33.000                                                                  
C32  21026629.250   109491174.716         835.854          50.000                                                                  
C06  35359996.218   184128788.497         163.844          44.000    35359979.908   142379989.484         126.250          46.000  
G25  20424675.650   107332405.787        2489.844          44.000    20424666.832    83635598.968        1940.413          43.000  
G10  19484202.128   102390172.586         966.490          50.000    19484190.533    79784503.831         753.008          44.000  
G28  21962658.188   115414538.335        2542.599          40.000    21962646.940    89933379.529        1981.458          43.000  
C23  20720441.530   107896770.793         185.988          50.000                                                                  
C09  36825506.473   191760075.557         262.741          42.000    36825494.492   148281006.610         203.245          48.000  
C33  26197861.477                3      -2948.303          26.000                                                                  
C37  22793198.584   118690179.689        2648.367          45.000                                                                  
> 2025 10 27 02 53 01.9560000  0 19                     
G12  20727793.499   108925288.552         785.622          44.000    20727781.529    84876802.569         612.051          41.000  
G15  23339152.776                       -3268.840          31.000    23339153.191    95569913.349       -2547.897          32.000  
G18  23679837.003   124438375.422       -3669.999          34.000    23679834.346    96964958.948       -2859.821          38.000  
G23  19317624.085   101514792.493       -2166.899          46.000    19317612.358    79102360.655       -1688.320          47.000  
G24  21032678.597                       -3397.534          27.000    21032671.934                       -2647.700          31.000  
G32  20857818.595   109608573.137        1486.682          44.000    20857809.166    85409242.841        1158.589          41.000  
C08  34720690.178   180799738.983        -364.374          46.000    34720672.946   139805747.541        -281.714          48.000  
C13  34713485.238   180762220.637         -64.923          47.000    34713475.659   139776768.819         -49.847          48.000  
C16  35672081.969   185753896.847         -15.824          48.000    35672071.298   143636647.477         -11.894          48.000  
C25  22331105.197                       -2599.019          33.000                                                                  
C32  21026622.905   109491141.303         835.365          50.000                                                                  
C06  35359994.989   184128781.986         163.051          44.000    35359978.646   142379984.432         126.210          46.000  
G25  20424656.724   107332306.207        2489.606          44.000    20424647.866    83635521.347        1940.544          43.000  
G10  19484194.786   102390133.934         966.281          50.000    19484183.185    79784473.710         752.990          44.000  
G28  21962638.838   115414436.628        2542.619          40.000    21962627.588    89933300.296        1980.972          43.000  
C23  20720440.114   107896763.379         185.404          50.000                                                                  
C09  36825504.488   191760065.075         262.147          42.000    36825492.492   148280998.494         203.017          48.000  
C33  26197884.217                3      -2947.938          26.000                                                                  
C37  22793178.260   118690073.798        2647.523          46.000                                                                  
> 2025 10 27 02 53 01.9960000  0 19                     
G12  20727787.529   108925257.127         785.472          44.000    20727775.531    84876778.081         612.018          41.000  
G15  23339177.568                       -3268.804          31.000    23339177.943    95570015.232       -2547.568          32.000  
G18  23679864.924   124438522.181       -3669.406          34.000    23679862.271    96965073.331       -2859.911          38.000  
G23  19317640.581   101514879.175       -2167.113          46.000    19317628.863    79102428.197       -1688.529          47.000  
G24  21032704.620                       -3397.817          27.000    21032697.767                       -2646.875          31.000  
G32  20857807.284   109608513.670        1486.595          44.000    20857797.865    85409196.510        1158.312          41.000  
C08  34720692.985   180799753.561        -364.697          45.000    34720675.726   139805758.809        -281.799          48.000  
C13  34713485.753   180762223.228         -65.082          47.000    34713476.182   139776770.820         -50.073          48.000  
C16  35672082.108   185753897.484         -16.084          48.000    35672071.390   143636647.969         -12.230          48.000  
C25  22331125.172                       -2599.183          33.000                                                                  
C32  21026616.502   109491107.895         835.071          51.000                                                                  
C06  35359993.760   184128775.465         162.817          44.000    35359977.360   142379979.378         126.261          46.000  
G25  20424637.771   107332206.604        2489.900          44.000    20424628.907    83635443.747        1940.223          43.000  
G10  19484187.469   102390095.292         966.029          50.000    19484175.827    79784443.590         752.996          44.000  
G28  21962619.490   115414334.935        2542.351          40.000    21962608.236    89933221.060        1980.788          43.000  
C23  20720438.727   107896755.965         185.171          50.000                                                                  
C09  36825502.477   191760054.604         261.633          42.000    36825490.507   148280990.400         202.471          47.000  
C33  26197907.485                3      -2947.485          26.000                                                                  
C37  22793157.945   118689967.898        2647.281          46.000                                                                  
> 2025 10 27 02 53 02.0360000  0 19                     
G12  20727781.553   108925225.721         785.116          44.000    20727769.534    84876753.598         611.930          41.000  
G15  23339202.558                       -3269.961          31.000    23339202.842    95570117.153       -2547.849          32.000  
G18  23679892.854   124438668.963       -3669.476          34.000    23679890.186    96965187.680       -2859.250          38.000  
G23  19317657.064   101514965.853       -2167.105          46.000    19317645.356    79102495.743       -1688.700          47.000  
G24  21032730.510                       -3397.651          27.000    21032723.625                       -2647.624          31.000  
G32  20857795.961   109608454.201        1486.608          44.000    20857786.544    85409150.165        1158.422          41.000  
C08  34720695.804   180799768.161        -365.131          44.000    34720678.511   139805770.072        -281.696          48.000  
C13  34713486.260   180762225.831         -65.247          47.000    34713476.690   139776772.811         -49.969          48.000  
C16  35672082.229   185753898.142         -16.486          47.000    35672071.499   143636648.458         -12.351          48.000  
C25  22331145.142   116284133.623       -2600.049          32.000                                                                  
C32  21026610.070   109491074.518         834.439          50.000                                                                  
C06  35359992.507   184128768.981         162.189          44.000    35359976.124   142379974.321         126.320          46.000  
G25  20424618.827   107332107.012        2489.851          44.000    20424609.984    83635366.173        1939.548          43.000  
G10  19484180.133   102390056.644         966.049          50.000    19484168.492    79784413.475         752.929          44.000  
G28  21962600.140   115414233.233        2542.384          40.000    21962588.889    89933141.808        1981.041          43.000  
C23  20720437.291   107896748.581         184.610          50.000                                                                  
C09  36825500.470   191760044.167         260.846          41.000    36825488.500   148280982.293         202.472          47.000  
C33  26197929.908                3      -2950.477          26.000                                                                  
C37  22793137.619   118689862.027        2646.734          45.000                                                                  
> 2025 10 27 02 53 02.0760000  0 19                     
G12  20727775.558   108925194.304         785.176          44.000    20727763.556    84876729.107         612.120          41.000  
G15  23339227.259                       -3270.093          31.000    23339227.664                       -2549.165          28.000  
G18  23679920.779   124438815.745       -3669.615          34.000    23679918.123    96965302.041       -2859.068          38.000  
G23  19317673.569   101515052.521       -2166.864          46.000    19317661.864    79102563.283       -1688.637          47.000  
G24  21032755.995                       -3397.457          27.000    21032749.487                       -2647.577          31.000  
G32  20857784.625   109608394.727        1486.715          44.000    20857775.217    85409103.811        1158.699          41.000  
C08  34720698.616   180799782.745        -364.954          44.000    34720681.299   139805781.328        -281.494          48.000  
C13  34713486.755   180762228.406         -64.722          46.000    34713477.210   139776774.810         -50.000          48.000  
C16  35672082.373   185753898.778         -16.250          46.000    35672071.611   143636648.947         -12.340          48.000  
C25  22331165.115   116284237.574       -2599.373          32.000                                                                  
C32  21026603.656   109491041.105         834.843          49.000                                                                  
C06  35359991.276   184128762.460         162.568          43.000    35359974.892   142379969.260         126.459          46.000  
G25  20424599.872   107332007.426        2489.735          44.000    20424591.051    83635288.591        1939.365          43.000  
G10  19484172.756   102390017.997         966.087          50.000    19484161.146    79784383.358         752.892          44.000  
G28  21962580.767   115414131.530        2542.454          40.000    21962569.509    89933062.556        1981.202          43.000  
C23  20720435.865   107896741.156         185.130          49.000                                                                  
C09  36825498.459   191760033.685         261.409          41.000    36825486.493   148280974.185         202.539          47.000  
C33  26197952.625                3      -2945.857          26.000                                                                  
C37  22793117.316   118689756.128        2647.037          44.000                                                                  
> 2025 10 27 02 53 02.1160000  0 19                     
G12  20727769.575   108925162.883         785.332          44.000    20727757.584    84876704.617         612.196          41.000  
G15  23339252.121                       -3270.565          31.000    23339252.564                       -2547.715          28.000  
G18  23679948.728   124438962.526       -3669.582          34.000    23679946.064    96965416.406       -2859.076          38.000  
G23  19317690.050   101515139.196       -2166.870          46.000    19317678.375    79102630.819       -1688.483          47.000  
G24  21032781.987                       -3397.018          27.000    21032775.320                       -2647.112          31.000  
G32  20857773.294   109608335.251        1486.818          44.000    20857763.916    85409057.474        1158.527          41.000  
C08  34720701.444   180799797.303        -364.282          44.000    34720684.093   139805792.587        -281.439          48.000  
C13  34713487.211   180762230.969         -64.178          46.000    34713477.698   139776776.801         -49.878          48.000  
C16  35672082.522   185753899.385         -15.517          46.000    35672071.692   143636649.431         -12.231          48.000  
C25  22331185.059                       -2597.482          32.000                                                                  
C32  21026597.219   109491007.671         835.527          48.000                                                                  
C06  35359990.035   184128755.906         163.405          43.000    35359973.629   142379964.212         126.276          46.000  
G25  20424580.925   107331907.856        2489.328          44.000    20424572.106    83635210.999        1939.504          43.000  
G10  19484165.397   102389979.349         966.106          50.000    19484153.798    79784353.248         752.756          44.000  
G28  21962561.417   115414029.823        2542.635          40.000    21962550.163    89932983.310        1981.157          43.000  
C23  20720434.426   107896733.703         185.979          48.000                                                                  
C09  36825496.449   191760023.170         262.450          40.000    36825484.433   148280966.067         202.779          47.000  
C33  26197975.149                3      -2944.809          26.000                                                                  
C37  22793097.016   118689650.198        2647.807          44.000                                                                  
> 2025 10 27 02 53 02.1560000  0 19                     
G12  20727763.576   108925131.451         785.658          44.000    20727751.597    84876680.123         612.289          41.000  
G15  23339276.969                       -3270.918          26.000    23339277.378                       -2548.318          27.000  
G18  23679976.659   124439109.284       -3669.163          34.000    23679973.987    96965530.778       -2859.195          38.000  
G23  19317706.547   101515225.876       -2166.988          46.000    19317694.857    79102698.352       -1688.372          47.000  
G24  21032807.859                       -3396.606          27.000    21032801.197                       -2647.684          31.000  
G32  20857761.979   109608275.772        1486.952          45.000    20857752.603    85409011.130        1158.594          41.000  
C08  34720704.230   180799811.856        -363.879          43.000    34720686.868   139805803.847        -281.470          48.000  
C13  34713487.683   180762233.528         -63.910          46.000    34713478.200   139776778.782         -49.603          48.000  
C16  35672082.653   185753899.997         -15.275          46.000    35672071.806   143636649.903         -11.929          48.000  
C25  22331205.042                       -2598.210          32.000                                                                  
C32  21026590.790   109490974.232         835.938          48.000                                                                  
C06  35359988.802   184128749.361         163.673          43.000    35359972.407   142379959.166         126.149          46.000  
G25  20424561.956   107331808.288        2489.105          44.000    20424553.161    83635133.392        1939.902          43.000  
G10  19484158.035   102389940.703         966.131          50.000    19484146.444    79784323.124         752.923          44.000  
G28  21962542.054   115413928.119        2542.653          40.000    21962530.812    89932904.061        1981.214          43.000  
C23  20720432.961   107896726.256         186.265          48.000                                                                  
C09  36825494.425   191760012.654         262.955          39.000    36825482.404   148280957.948         202.954          47.000  
C33  26197997.583                3      -2947.825          25.000                                                                  
C37  22793076.663   118689544.255        2648.452          44.000                                                                  
> 2025 10 27 02 53 02.1960000  0 19                     
G12  20727757.607   108925100.010         785.933          43.000    20727745.612    84876655.624         612.408          41.000  
G15  23339301.899                3      -3272.411          26.000    23339302.344                       -2549.583          27.000  
G18  23680004.569   124439256.035       -3668.813          34.000    23680001.930    96965645.169       -2859.618          38.000  
G23  19317723.044   101515312.548       -2166.876          46.000    19317711.339    79102765.888       -1688.391          47.000  
G24  21032833.729                       -3396.573          27.000    21032827.070                       -2647.671          31.000  
G32  20857750.663   109608216.295        1486.953          45.000    20857741.268    85408964.796        1158.399          41.000  
C08  34720707.003   180799826.402        -363.580          44.000    34720689.701   139805815.102        -281.390          48.000  
C13  34713488.173   180762236.098         -64.056          46.000    34713478.667   139776780.766         -49.567          48.000  
C16  35672082.768   185753900.613         -15.278          46.000    35672071.896   143636650.376         -11.786          48.000  
C25  22331225.045                       -2599.165          32.000                                                                  
C32  21026584.325   109490940.804         835.892          49.000                                                                  
C06  35359987.550   184128742.811         163.837          43.000    35359971.145   142379954.114         126.207          46.000  
G25  20424543.025   107331708.722        2489.013          44.000    20424534.191    83635055.791        1940.001          43.000  
G10  19484150.669   102389902.048         966.316          50.000    19484139.064    79784293.000         753.021          44.000  
G28  21962522.690   115413826.436        2542.279          40.000    21962511.477    89932824.818        1981.139          43.000  
C23  20720431.540   107896718.820         186.149          49.000                                                                  
C09  36825492.389   191760002.147         262.929          39.000    36825480.432   148280949.827         203.058          47.000  
C33  26198020.395                3      -2945.792          25.000                                                                  
C37  22793056.280   118689438.339        2648.245          44.000                                                                  
> 2025 10 27 02 53 02.2360000  0 19                     
G12  20727751.633   108925068.586         785.776          43.000    20727739.637    84876631.154         611.954          41.000  
G15  23339326.765                3      -3272.286          26.000    23339327.501                       -2550.352          27.000  
G18  23680032.508   124439402.822       -3669.359          34.000    23680029.859    96965759.540       -2859.421          38.000  
G23  19317739.503   101515399.221       -2166.840          46.000    19317727.835    79102833.429       -1688.509          47.000  
G24  21032859.623                       -3397.094          27.000    21032852.939                       -2647.436          31.000  
G32  20857739.361   109608156.832        1486.673          45.000    20857729.948    85408918.451        1158.525          41.000  
C08  34720709.763   180799840.955        -363.654          44.000    34720692.460   139805826.360        -281.421          48.000  
C13  34713488.652   180762238.659         -64.032          46.000    34713479.165   139776782.753         -49.603          48.000  
C16  35672082.887   185753901.210         -14.982          46.000    35672071.991   143636650.857         -11.906          48.000  
C25  22331245.000                       -2598.486          32.000                                                                  
C32  21026577.881   109490907.372         835.884          49.000                                                                  
C06  35359986.290   184128736.256         163.949          43.000    35359969.864   142379949.067         126.149          46.000  
G25  20424524.072   107331609.133        2489.415          44.000    20424515.222    83634978.178        1940.276          44.000  
G10  19484143.316   102389863.397         966.290          50.000    19484131.721    79784262.885         752.904          44.000  
G28  21962503.324   115413724.750        2542.095          40.000    21962492.146    89932745.574        1981.121          43.000  
C23  20720430.085   107896711.380         186.089          49.000                                                                  
C09  36825490.384   191759991.653         262.506          39.000    36825478.396   148280941.712         202.967          47.000  
C33  26198042.972                3      -2948.426          25.000                                                                  
C37  22793035.944   118689332.405        2648.420          44.000                                                                  
> 2025 10 27 02 53 02.2760000  0 19                     
G12  20727745.658   108925037.164         785.619          43.000    20727733.650    84876606.665         612.091          41.000  
G15  23339352.402                3      -3270.600          26.000    23339352.307                       -2550.073          27.000  
G18  23680060.466   124439549.604       -3669.564          34.000    23680057.773    96965873.904       -2859.185          38.000  
G23  19317756.014   101515485.899       -2166.932          46.000    19317744.308    79102900.964       -1688.422          47.000  
G24  21032885.654                       -3397.848          27.000    21032878.803                       -2647.648          31.000  
G32  20857728.065   109608097.370        1486.496          44.000    20857718.612    85408872.091        1158.840          41.000  
C08  34720712.539   180799855.519        -363.983          44.000    34720695.252   139805837.626        -281.610          49.000  
C13  34713489.130   180762241.232         -64.264          46.000    34713479.647   139776784.743         -49.725          48.000  
C16  35672083.006   185753901.834         -15.361          46.000    35672072.065   143636651.336         -11.947          48.000  
C25  22331265.012                       -2599.121          32.000                                                                  
C32  21026571.477   109490873.956         835.554          49.000                                                                  
C06  35359985.024   184128729.720         163.619          43.000    35359968.603   142379944.014         126.238          46.000  
G25  20424505.126   107331509.528        2489.960          44.000    20424496.274    83634900.569        1940.290          44.000  
G10  19484135.959   102389824.742         966.364          50.000    19484124.366    79784232.758         753.108          44.000  
G28  21962483.957   115413623.041        2542.515          40.000    21962472.772    89932666.324        1981.201          43.000  
C23  20720428.674   107896703.961         185.660          49.000                                                                  
C09  36825488.378   191759981.167         262.110          39.000    36825476.371   148280933.586         203.091          47.000  
C33  26198065.545                3      -2950.105          25.000                                                                  
C37  22793015.597   118689226.497        2647.971          43.000                                                                  
> 2025 10 27 02 53 02.3160000  0 19                     
G12  20727739.698   108925005.746         785.458          42.000    20727727.670    84876582.173         612.243          41.000  
G15  23339376.368                3      -3268.500          26.000    23339376.997                       -2548.413          27.000  
G18  23680088.382   124439696.362       -3669.286          34.000    23680085.701    96965988.252       -2858.781          38.000  
G23  19317772.502   101515572.566       -2166.729          46.000    19317760.806    79102968.503       -1688.472          47.000  
G24  21032911.574                       -3398.365          27.000    21032904.673                       -2646.381          31.000  
G32  20857716.753   109608037.900        1486.602          44.000    20857707.281    85408825.753        1158.655          42.000  
C08  34720715.319   180799870.105        -364.563          45.000    34720698.035   139805848.890        -281.622          49.000  
C13  34713489.634   180762243.826         -64.740          47.000    34713480.165   139776786.737         -49.841          48.000  
C16  35672083.156   185753902.483         -16.038          47.000    35672072.172   143636651.820         -12.064          48.000  
C25  22331285.008                       -2600.143          32.000                                                                  
C32  21026565.013   109490840.552         835.160          50.000                                                                  
C06  35359983.783   184128723.214         162.886          43.000    35359967.329   142379938.958         126.376          45.000  
G25  20424486.162   107331409.929        2490.122          44.000    20424477.326    83634822.971        1940.102          44.000  
G10  19484128.608   102389786.092         966.302          50.000    19484117.018    79784202.646         752.885          44.000  
G28  21962464.595   115413521.330        2542.775          40.000    21962453.413    89932587.065        1981.413          43.000  
C23  20720427.266   107896696.554         185.214          50.000                                                                  
C09  36825486.365   191759970.693         261.816          41.000    36825474.349   148280925.472         202.951          47.000  
C33  26198088.179                3      -2950.875          25.000                                                                  
C37  22792995.252   118689120.600        2647.504          44.000                                                                  
> 2025 10 27 02 53 02.3560000  0 19                     
G12  20727733.721   108924974.318         785.539          42.000    20727721.701    84876557.677         612.382          41.000  
G15  23339401.779                3      -3269.492          26.000    23339401.826                       -2546.949          27.000  
G18  23680116.291   124439843.105       -3668.714          34.000    23680113.619    96966102.615       -2858.857          38.000  
G23  19317788.983   101515659.238       -2166.772          46.000    19317777.316    79103036.046       -1688.564          47.000  
G24  21032937.532                       -3398.729          27.000    21032930.522                       -2646.980          31.000  
G32  20857705.424   109607978.432        1486.655          44.000    20857695.970    85408779.417        1158.487          41.000  
C08  34720718.156   180799884.686        -364.679          45.000    34720700.805   139805860.147        -281.531          49.000  
C13  34713490.101   180762246.402         -64.618          47.000    34713480.670   139776788.727         -49.823          48.000  
C16  35672083.280   185753903.119         -16.151          46.000    35672072.284   143636652.298         -12.015          48.000  
C25  22331305.027                       -2600.230          32.000                                                                  
C32  21026558.599   109490807.143         835.074          49.000                                                                  
C06  35359982.524   184128716.695         162.776          43.000    35359966.047   142379933.898         126.477          45.000  
G25  20424467.196   107331310.324        2490.203          44.000    20424458.379    83634745.367        1940.060          44.000  
G10  19484121.284   102389747.448         966.142          50.000    19484109.687    79784172.541         752.639          44.000  
G28  21962445.246   115413419.612        2543.040          40.000    21962434.036    89932507.812        1981.405          43.000  
C23  20720425.814   107896689.135         185.249          49.000                                                                  
C09  36825484.353   191759960.205         261.948          41.000    36825472.324   148280917.348         203.001          47.000  
C33  26198110.917                3      -2948.526          25.000                                                                  
C37  22792974.935   118689014.689        2647.544          44.000                                                                  
> 2025 10 27 02 53 02.3960000  0 19                     
G12  20727727.746   108924942.893         785.553          42.000    20727715.711    84876533.183         612.376          41.000  
G15  23339426.986                3      -3268.294          26.000    23339426.628                       -2546.807          27.000  
G18  23680144.214   124439989.926       -3669.967          34.000    23680141.553    96966216.976       -2858.965          38.000  
G23  19317805.504   101515745.921       -2167.001          47.000    19317793.805    79103103.591       -1688.662          47.000  
G24  21032963.427                       -3398.771          27.000    21032956.418                       -2649.205          31.000  
G32  20857694.102   109607918.954        1486.855          44.000    20857684.659    85408733.086        1158.269          42.000  
C08  34720720.978   180799899.241        -364.203          44.000    34720703.626   139805871.411        -281.592          49.000  
C13  34713490.596   180762248.970         -64.355          46.000    34713481.140   139776790.719         -49.823          48.000  
C16  35672083.398   185753903.740         -15.875          45.000    35672072.367   143636652.778         -12.029          48.000  
C25  22331325.017                       -2599.658          32.000                                                                  
C32  21026552.202   109490773.721         835.311          49.000                                                                  
C06  35359981.248   184128710.147         163.302          42.000    35359964.760   142379928.850         126.305          45.000  
G25  20424448.275   107331210.726        2490.107          44.000    20424439.428    83634667.771        1939.900          44.000  
G10  19484113.944   102389708.804         966.068          50.000    19484102.319    79784142.427         752.702          44.000  
G28  21962425.892   115413317.910        2542.837          40.000    21962414.695    89932428.567        1981.217          43.000  
C23  20720424.388   107896681.712         185.386          48.000                                                                  
C09  36825482.320   191759949.680         262.736          41.000    36825470.308   148280909.233         202.881          47.000  
C33  26198133.356                3      -2946.443          25.000                                                                  
C37  22792954.588   118688908.776        2647.583          43.000                                                                  
> 2025 10 27 02 53 02.4360000  0 19                     
G12  20727721.758   108924911.455         785.800          42.000    20727709.733    84876508.694         612.330          41.000  
G15  23339451.921                3      -3269.507          26.000    23339451.423                       -2547.339          28.000  
G18  23680172.162   124440136.744       -3670.416          34.000    23680169.479    96966331.339       -2859.004          38.000  
G23  19317821.981   101515832.602       -2167.080          47.000    19317810.321    79103171.133       -1688.630          47.000  
G24  21032989.296                       -3398.846          27.000    21032982.309                       -2649.784          31.000  
G32  20857682.778   109607859.474        1486.993          44.000    20857673.348    85408686.745        1158.351          42.000  
C08  34720723.768   180799913.791        -363.806          44.000    34720706.441   139805882.670        -281.537          49.000  
C13  34713491.085   180762251.535         -64.172          45.000    34713481.641   139776792.707         -49.768          48.000  
C16  35672083.534   185753904.353         -15.492          45.000    35672072.473   143636653.259         -12.061          48.000  
C25  22331344.964                       -2599.007          32.000                                                                  
C32  21026545.773   109490740.296         835.523          48.000                                                                  
C06  35359979.988   184128703.599         163.569          42.000    35359963.500   142379923.795         126.355          45.000  
G25  20424429.339   107331111.151        2489.608          44.000    20424420.503    83634590.173        1939.851          44.000  
G10  19484106.596   102389670.161         966.013          49.000    19484094.968    79784112.308         752.832          44.000  
G28  21962406.525   115413216.211        2542.561          40.000    21962395.358    89932349.317        1981.249          43.000  
C23  20720422.973   107896674.285         185.556          48.000                                                                  
C09  36825480.311   191759939.172         262.881          39.000    36825468.274   148280901.123         202.751          47.000  
C33  26198155.667                3      -2946.443          25.000                                                                  
C37  22792934.243   118688802.852        2647.860          43.000                                                                  
> 2025 10 27 02 53 02.4760000  0 19                     
G12  20727715.785   108924880.025         785.794          42.000    20727703.750    84876484.217         611.984          41.000  
G15  23339477.864                2      -3269.439          26.000    23339476.335                       -2547.274          28.000  
G18  23680200.100   124440283.511       -3669.785          34.000    23680197.415    96966445.718       -2859.363          38.000  
G23  19317838.487   101515919.286       -2167.129          46.000    19317826.803    79103238.672       -1688.563          47.000  
G24  21033014.864                       -3398.450          27.000    21033008.164                       -2648.471          31.000  
G32  20857671.455   109607800.000        1486.930          44.000    20857662.036    85408640.408        1158.381          42.000  
C08  34720726.546   180799928.347        -363.776          44.000    34720709.218   139805893.932        -281.573          49.000  
C13  34713491.560   180762254.109         -64.288          45.000    34713482.159   139776794.692         -49.664          48.000  
C16  35672083.661   185753904.962         -15.245          45.000    35672072.572   143636653.740         -12.019          48.000  
C25  22331364.942                       -2599.094          32.000                                                                  
C32  21026539.370   109490706.870         835.654          48.000                                                                  
C06  35359978.732   184128697.066         163.434          42.000    35359962.228   142379918.748         126.194          46.000  
G25  20424410.404   107331011.585        2489.189          44.000    20424401.548    83634512.584        1939.673          43.000  
G10  19484099.223   102389631.513         966.106          49.000    19484087.615    79784082.205         752.634          44.000  
G28  21962387.192   115413114.515        2542.363          40.000    21962376.012    89932270.072        1981.118          43.000  
C23  20720421.570   107896666.856         185.696          48.000                                                                  
C09  36825478.309   191759928.675         262.655          39.000    36825466.240   148280893.015         202.634          47.000  
C33  26198178.076                3      -2946.443          25.000                                                                  
C37  22792913.921   118688696.938        2647.852          43.000                                                                  
> 2025 10 27 02 53 02.5160000  0 19                     
G12  20727709.812   108924848.592         785.816          41.000    20727697.759    84876459.734         611.924          41.000  
G15  23339503.415                3      -3269.014          26.000    23339501.244                       -2547.205          28.000  
G18  23680228.058   124440430.238       -3668.806          34.000    23680225.347    96966560.095       -2859.484          38.000  
G23  19317854.980   101516005.966       -2167.060          46.000    19317843.287    79103306.222       -1688.754          47.000  
G24  21033040.783                       -3397.500          27.000    21033034.007                       -2646.577          31.000  
G32  20857660.136   109607740.529        1486.829          43.000    20857650.714    85408594.063        1158.544          42.000  
C08  34720729.330   180799942.898        -363.696          44.000    34720711.988   139805905.202        -281.708          49.000  
C13  34713492.044   180762256.682         -64.331          46.000    34713482.648   139776796.685         -49.792          48.000  
C16  35672083.809   185753905.581         -15.281          46.000    35672072.689   143636654.228         -12.171          48.000  
C25  22331384.923                       -2597.899          32.000                                                                  
C32  21026532.979   109490673.444         835.693          49.000                                                                  
C06  35359977.507   184128690.539         163.276          42.000    35359960.962   142379913.701         126.133          46.000  
G25  20424391.441   107330912.012        2489.120          44.000    20424382.586    83634434.996        1939.609          43.000  
G10  19484091.865   102389592.871         966.008          49.000    19484080.265    79784052.106         752.419          44.000  
G28  21962367.871   115413012.847        2541.756          40.000    21962356.660    89932190.839        1980.826          43.000  
C23  20720420.168   107896659.428         185.743          49.000                                                                  
C09  36825476.311   191759918.177         262.495          39.000    36825464.219   148280884.904         202.623          47.000  
C33  26198200.763                3      -2946.443          25.000                                                                  
C37  22792893.592   118688591.030        2647.781          44.000                                                                  
> 2025 10 27 02 53 02.5560000  0 19                     
G12  20727703.878   108924817.165         785.724          41.000    20727691.785    84876435.244         612.058          41.000  
G15  23339528.140                2      -3267.818          26.000    23339526.124                       -2545.963          27.000  
G18  23680255.974   124440576.986       -3668.545          34.000    23680253.275    96966674.482       -2859.691          38.000  
G23  19317871.467   101516092.648       -2167.066          46.000    19317859.807    79103373.775       -1688.895          47.000  
G24  21033066.657                       -3397.185          27.000    21033059.845                       -2646.126          31.000  
G32  20857648.805   109607681.054        1486.851          43.000    20857639.379    85408547.716        1158.663          42.000  
C08  34720732.116   180799957.469        -364.111          44.000    34720714.787   139805916.467        -281.708          49.000  
C13  34713492.536   180762259.264         -64.575          46.000    34713483.165   139776798.686         -50.000          48.000  
C16  35672083.942   185753906.206         -15.498          46.000    35672072.782   143636654.720         -12.325          48.000  
C25  22331404.895                       -2597.739          32.000                                                                  
C32  21026526.559   109490640.020         835.632          49.000                                                                  
C06  35359976.268   184128683.988         163.595          43.000    35359959.698   142379908.661         125.964          46.000  
G25  20424372.484   107330812.456        2488.846          43.000    20424363.613    83634357.410        1939.550          43.000  
G10  19484084.528   102389554.241         965.768          49.000    19484072.909    79784022.002         752.433          44.000  
G28  21962348.514   115412911.162        2541.824          40.000    21962337.322    89932111.617        1980.518          43.000  
C23  20720418.723   107896652.009         185.557          49.000                                                                  
C09  36825474.287   191759907.693         262.112          41.000    36825462.222   148280876.797         202.601          47.000  
C33  26198223.466                3      -2941.010          24.000                                                                  
C37  22792873.275   118688485.112        2647.836          44.000                                                                  
> 2025 10 27 02 53 02.5960000  0 19                     
G12  20727697.912   108924785.722         785.952          41.000    20727685.800    84876410.761         612.000          41.000  
G15  23339552.635                2      -3266.419          26.000    23339550.823                       -2545.979          27.000  
G18  23680283.916   124440723.789       -3669.491          34.000    23680281.203    96966788.858       -2859.603          38.000  
G23  19317887.966   101516179.334       -2167.165          46.000    19317876.324    79103441.326       -1688.857          47.000  
G24  21033092.435                       -3396.977          27.000    21033085.709                       -2646.342          31.000  
G32  20857637.460   109607621.579        1486.857          43.000    20857628.061    85408501.383        1158.438          42.000  
C08  34720734.915   180799972.059        -364.661          44.000    34720717.581   139805927.730        -281.641          49.000  
C13  34713493.029   180762261.857         -64.856          46.000    34713483.692   139776800.683         -50.018          48.000  
C16  35672084.066   185753906.842         -15.800          46.000    35672072.893   143636655.211         -12.372          48.000  
C25  22331424.841                       -2599.606          32.000                                                                  
C32  21026520.108   109490606.622         835.133          49.000                                                                  
C06  35359975.003   184128677.471         163.218          43.000    35359958.432   142379903.611         126.111          46.000  
G25  20424353.535   107330712.885        2488.962          43.000    20424344.664    83634279.810        1939.783          43.000  
G10  19484077.179   102389515.608         965.726          49.000    19484065.540    79783991.893         752.581          44.000  
G28  21962329.166   115412809.467        2542.120          40.000    21962317.984    89932032.388        1980.542          43.000  
C23  20720417.274   107896644.620         184.900          49.000                                                                  
C09  36825472.285   191759897.233         261.494          41.000    36825460.212   148280868.696         202.508          47.000  
C33  26198246.297                3      -2941.010          24.000                                                                  
C37  22792852.943   118688379.197        2647.922          44.000                                                                  
> 2025 10 27 02 53 02.6360000  0 19                     
G12  20727691.927   108924754.299         785.695          42.000    20727679.817    84876386.274         612.040          41.000  
G15  23339578.208                2      -3267.417          26.000    23339575.849                       -2545.607          27.000  
G18  23680311.845   124440870.580       -3669.925          34.000    23680309.134    96966903.226       -2859.328          38.000  
G23  19317904.466   101516266.025       -2167.300          46.000    19317892.811    79103508.870       -1688.715          47.000  
G24  21033118.347                       -3397.096          27.000    21033111.579                       -2647.629          31.000  
G32  20857626.143   109607562.109        1486.779          43.000    20857616.750    85408455.037        1158.537          41.000  
C08  34720737.768   180799986.633        -364.600          44.000    34720720.376   139805938.995        -281.671          48.000  
C13  34713493.547   180762264.437         -64.697          46.000    34713484.212   139776802.676         -49.933          48.000  
C16  35672084.192   185753907.483         -16.041          46.000    35672073.013   143636655.692         -12.225          48.000  
C25  22331444.876                       -2599.741          32.000                                                                  
C32  21026513.676   109490573.224         834.892          49.000                                                                  
C06  35359973.774   184128670.956         162.919          43.000    35359957.206   142379898.555         126.262          46.000  
G25  20424334.608   107330613.312        2489.137          43.000    20424325.722    83634202.225        1939.630          43.000  
G10  19484069.841   102389476.976         965.684          49.000    19484058.189    79783961.782         752.692          44.000  
G28  21962309.804   115412707.758        2542.599          40.000    21962298.623    89931953.139        1980.979          43.000  
C23  20720415.871   107896637.223         184.769          49.000                                                                  
C09  36825470.254   191759886.744         261.793          41.000    36825458.168   148280860.592         202.516          47.000  
C33  26198268.617                3      -2941.010          24.000                                                                  
C37  22792832.571   118688273.300        2647.575          43.000                                                                  
> 2025 10 27 02 53 02.6760000  0 19                     
G12  20727685.967   108924722.894         785.224          43.000    20727673.807    84876361.789         612.081          41.000  
G15  23339603.781                2      -3267.421          26.000    23339600.746                       -2546.998          28.000  
G18  23680339.769   124441017.373       -3670.164          34.000    23680337.043    96967017.588       -2859.108          38.000  
G23  19317920.986   101516352.725       -2167.484          46.000    19317909.306    79103576.419       -1688.715          47.000  
G24  21033144.074                       -3397.798          27.000    21033137.463                       -2647.958          31.000  
G32  20857614.828   109607502.655        1486.418          43.000    20857605.429    85408408.696        1158.510          41.000  
C08  34720740.569   180800001.190        -364.191          44.000    34720723.220   139805950.270        -281.854          48.000  
C13  34713494.064   180762267.006         -64.331          46.000    34713484.732   139776804.674         -49.963          48.000  
C16  35672084.352   185753908.100         -15.737          46.000    35672073.109   143636656.176         -12.151          48.000  
C25  22331464.834                       -2599.565          32.000                                                                  
C32  21026507.300   109490539.814         835.042          49.000                                                                  
C06  35359972.542   184128664.431         162.961          43.000    35359955.943   142379893.513         126.135          46.000  
G25  20424315.674   107330513.737        2489.302          43.000    20424306.784    83634124.654        1939.313          43.000  
G10  19484062.483   102389438.354         965.512          49.000    19484050.833    79783931.678         752.617          44.000  
G28  21962290.447   115412606.064        2542.489          40.000    21962279.258    89931873.900        1981.027          43.000  
C23  20720414.453   107896629.807         185.083          49.000                                                                  
C09  36825468.260   191759876.244         262.192          41.000    36825456.172   148280852.478         202.705          47.000  
C33  26198291.390                3      -2943.069          24.000                                                                  
C37  22792812.244   118688167.401        2647.432          43.000                                                                  
> 2025 10 27 02 53 02.7160000  0 19                     
G12  20727680.020   108924691.497         784.870          44.000    20727667.821    84876337.313         611.928          41.000  
G15  23339629.016                2      -3268.598          27.000    23339625.552                       -2548.737          32.000  
G18  23680367.722   124441164.162       -3670.120          34.000    23680364.967    96967131.977       -2859.495          38.000  
G23  19317937.458   101516439.417       -2167.415          46.000    19317925.809    79103643.977       -1688.875          47.000  
G24  21033170.298                       -3398.650          27.000    21033163.360                       -2648.600          31.000  
G32  20857603.515   109607443.211        1486.111          43.000    20857594.102    85408362.372        1158.235          41.000  
C08  34720743.393   180800015.766        -364.288          44.000    34720726.040   139805961.539        -281.818          48.000  
C13  34713494.547   180762269.594         -64.569          46.000    34713485.225   139776806.673         -49.982          48.000  
C16  35672084.495   185753908.723         -15.615          46.000    35672073.242   143636656.656         -12.036          48.000  
C25  22331484.793                       -2598.843          32.000                                                                  
C32  21026500.923   109490506.406         835.090          49.000                                                                  
C06  35359971.316   184128657.908         162.954          43.000    35359954.730   142379888.456         126.320          46.000  
G25  20424296.734   107330414.170        2489.246          43.000    20424287.862    83634047.083        1939.209          43.000  
G10  19484055.139   102389399.727         965.550          49.000    19484043.484    79783901.578         752.507          44.000  
G28  21962271.077   115412504.386        2542.089          40.000    21962259.916    89931794.661        1981.026          43.000  
C23  20720413.016   107896622.399         185.109          49.000                                                                  
C09  36825466.250   191759865.751         262.328          41.000    36825454.152   148280844.360         202.905          47.000  
C33  26198313.818                3      -2943.069          24.000                                                                  
C37  22792791.902   118688061.512        2647.188          43.000                                                                  
> 2025 10 27 02 53 02.7560000  0 19                     
G12  20727674.047   108924660.099         784.742          44.000    20727661.860    84876312.848         611.679          41.000  
G15  23339653.237                2      -3270.427          27.000    23339650.466                       -2549.747          32.000  
G18  23680395.660   124441310.929       -3669.564          34.000    23680392.902    96967246.347       -2859.385          38.000  
G23  19317953.942   101516526.104       -2167.291          46.000    19317942.305    79103711.530       -1688.850          47.000  
G24  21033196.102                       -3398.335          27.000    21033189.251                       -2648.230          31.000  
G32  20857592.190   109607383.752        1486.240          44.000    20857582.763    85408316.038        1158.261          41.000  
C08  34720746.168   180800030.340        -364.355          44.000    34720728.866   139805972.806        -281.726          48.000  
C13  34713495.069   180762272.168         -64.429          46.000    34713485.730   139776808.666         -49.908          48.000  
C16  35672084.644   185753909.360         -15.854          46.000    35672073.335   143636657.141         -12.066          48.000  
C25  22331504.753                       -2598.696          32.000                                                                  
C32  21026494.537   109490472.989         835.309          49.000                                                                  
C06  35359970.099   184128651.382         163.002          43.000    35359953.491   142379883.409         126.238          46.000  
G25  20424277.781   107330314.595        2489.335          43.000    20424268.919    83633969.487        1939.641          43.000  
G10  19484047.793   102389361.095         965.711          49.000    19484036.150    79783871.485         752.310          44.000  
G28  21962251.727   115412402.701        2542.035          40.000    21962240.561    89931715.417        1981.099          43.000  
C23  20720411.599   107896614.993         185.109          49.000                                                                  
C09  36825464.233   191759855.254         262.438          41.000    36825452.137   148280836.250         202.853          47.000  
C33  26198336.422                3      -2943.069          24.000                                                                  
C37  22792771.572   118687955.616        2647.215          43.000                                                                  
> 2025 10 27 02 53 02.7960000  0 19                     
G12  20727668.059   108924628.689         784.962          45.000    20727655.894    84876288.354         612.087          41.000  
G15  23339678.528                2      -3270.671          27.000    23339675.324                       -2548.967          32.000  
G18  23680423.584   124441457.669       -3668.769          34.000    23680420.842    96967360.736       -2859.631          38.000  
G23  19317970.446   101516612.789       -2167.175          46.000    19317958.782    79103779.077       -1688.745          47.000  
G24  21033222.185                       -3397.722          27.000    21033215.116                       -2648.567          30.000  
G32  20857580.868   109607324.282        1486.522          44.000    20857571.443    85408269.685        1158.644          41.000  
C08  34720748.947   180800044.912        -364.331          44.000    34720731.626   139805984.068        -281.604          48.000  
C13  34713495.557   180762274.753         -64.569          46.000    34713486.222   139776810.665         -49.976          48.000  
C16  35672084.766   185753909.990         -15.807          47.000    35672073.437   143636657.621         -12.036          48.000  
C25  22331524.710                       -2598.462          32.000                                                                  
C32  21026488.133   109490439.576         835.384          49.000                                                                  
C06  35359968.873   184128644.845         163.274          43.000    35359952.251   142379878.362         126.176          46.000  
G25  20424258.845   107330215.028        2489.250          43.000    20424249.949    83633891.888        1939.938          43.000  
G10  19484040.418   102389322.454         965.957          49.000    19484028.797    79783841.385         752.373          44.000  
G28  21962232.378   115412301.008        2542.167          40.000    21962221.201    89931636.172        1981.129          43.000  
C23  20720410.190   107896607.583         185.200          49.000                                                                  
C09  36825462.195   191759844.781         261.989          40.000    36825450.087   148280828.134         202.894          47.000  
C33  26198359.104                3      -2943.069          24.000                                                                  
C37  22792751.232   118687849.704        2647.571          43.000                                                                  
> 2025 10 27 02 53 02.8360000  0 19                     
G12  20727662.094   108924597.283         785.022          45.000    20727649.933    84876263.886         611.817          42.000  
G15  23339704.353                2      -3270.129          27.000    23339700.178                       -2547.787          32.000  
G18  23680451.514   124441604.471       -3669.390          34.000    23680448.755    96967475.109       -2859.427          38.000  
G23  19317986.946   101516699.481       -2167.286          46.000    19317975.268    79103846.629       -1688.801          47.000  
G24  21033247.868                       -3397.619          27.000    21033240.959                       -2647.459          30.000  
G32  20857569.555   109607264.805        1486.862          44.000    20857560.155    85408223.346        1158.586          41.000  
C08  34720751.775   180800059.474        -364.148          45.000    34720734.400   139805995.340        -281.726          48.000  
C13  34713496.069   180762277.330         -64.490          47.000    34713486.724   139776812.658         -49.890          48.000  
C16  35672084.884   185753910.611         -15.596          47.000    35672073.522   143636658.107         -12.129          48.000  
C25  22331544.681                       -2598.680          32.000                                                                  
C32  21026481.733   109490406.149         835.649          49.000                                                                  
C06  35359967.623   184128638.316         163.303          43.000    35359951.005   142379873.324         125.980          46.000  
G25  20424239.909   107330115.462        2489.143          43.000    20424230.977    83633814.293        1940.012          43.000  
G10  19484033.073   102389283.817         965.980          49.000    19484021.421    79783811.271         752.731          44.000  
G28  21962213.027   115412199.322        2542.149          40.000    21962201.869    89931556.939        1980.891          43.000  
C23  20720408.819   107896600.168         185.335          49.000                                                                  
C09  36825460.183   191759834.287         262.142          40.000    36825448.054   148280820.032         202.655          47.000  
C33  26198382.147                3      -2943.069          24.000                                                                  
C37  22792730.917   118687743.801        2647.609          44.000                                                                  
> 2025 10 27 02 53 02.8760000  0 19                     
G12  20727656.112   108924565.888         784.914          45.000    20727643.941    84876239.404         611.895          42.000  
G15  23339729.130                2      -3269.272          27.000    23339725.128                       -2547.166          32.000  
G18  23680479.394   124441751.242       -3669.314          34.000    23680476.659    96967589.460       -2858.954          38.000  
G23  19318003.481   101516786.176       -2167.404          46.000    19317991.774    79103914.185       -1688.887          46.000  
G24  21033273.901                       -3397.689          27.000    21033266.829                       -2647.624          30.000  
G32  20857558.237   109607205.320        1487.151          43.000    20857548.843    85408177.014        1158.382          42.000  
C08  34720754.586   180800074.047        -364.252          45.000    34720737.213   139806006.601        -281.586          48.000  
C13  34713496.535   180762279.910         -64.508          47.000    34713487.214   139776814.654         -49.884          48.000  
C16  35672085.007   185753911.233         -15.510          47.000    35672073.625   143636658.597         -12.259          48.000  
C25  22331564.642                       -2599.777          32.000                                                                  
C32  21026475.332   109490372.741         835.378          49.000                                                                  
C06  35359966.353   184128631.791         163.170          43.000    35359949.755   142379868.280         126.007          46.000  
G25  20424220.950   107330015.895        2489.120          43.000    20424212.009    83633736.702        1939.924          43.000  
G10  19484025.759   102389245.181         965.937          49.000    19484014.077    79783781.168         752.637          44.000  
G28  21962193.657   115412097.635        2542.118          40.000    21962182.540    89931477.712        1980.662          43.000  
C23  20720407.395   107896592.763         185.208          49.000                                                                  
C09  36825458.157   191759823.803         261.995          41.000    36825446.057   148280811.920         202.713          47.000  
C33  26198404.813                3      -2943.069          24.000                                                                  
C37  22792710.598   118687637.888        2647.761          45.000                                                                  
> 2025 10 27 02 53 02.9160000  0 18                     
G12  20727650.120   108924534.491         784.892          45.000    20727637.977    84876214.945         611.547          42.000  
G15  23339755.678                2      -3268.726          27.000    23339749.912                       -2546.268          32.000  
G18  23680507.310   124441898.023       -3669.404          34.000    23680504.587    96967703.815       -2858.784          38.000  
G23  19318019.987   101516872.883       -2167.680          46.000    19318008.261    79103981.739       -1688.918          46.000  
G24  21033299.311                       -3397.993          27.000    21033292.691                       -2646.809          31.000  
G32  20857546.896   109607145.838        1487.175          43.000    20857537.518    85408130.668        1158.492          41.000  
C08  34720757.412   180800088.626        -364.435          45.000    34720740.015   139806017.854        -281.378          48.000  
C13  34713497.042   180762282.495         -64.587          47.000    34713487.707   139776816.646         -49.835          48.000  
C16  35672085.132   185753911.862         -15.641          47.000    35672073.714   143636659.090         -12.351          48.000  
C25  22331584.591                       -2599.916          32.000                                                                  
C32  21026468.903   109490339.343         835.039          50.000                                                                  
C06  35359965.094   184128625.254         163.337          43.000    35359948.509   142379863.232         126.089          46.000  
G25  20424201.989   107329916.321        2489.279          44.000    20424193.078    83633659.113        1939.797          43.000  
G10  19484018.409   102389206.550         965.844          50.000    19484006.739    79783751.075         752.421          44.000  
G28  21962174.330   115411995.951        2542.081          40.000    21962163.192    89931398.479        1980.709          43.000  
C23  20720405.960   107896585.361         185.045          49.000                                                                  
C09  36825456.149   191759813.317         261.979          40.000    36825444.033   148280803.807         202.770          47.000  
C37  22792690.230   118687531.991        2647.555          45.000                                                                  
> 2025 10 27 02 53 02.9560000  0 18                     
G12  20727644.143   108924503.093         784.853          45.000    20727631.987    84876190.478         611.522          43.000  
G15  23339780.516                2      -3269.037          27.000    23339774.482                       -2547.607          32.000  
G18  23680535.215   124442044.806       -3669.418          34.000    23680532.511    96967818.197       -2859.220          38.000  
G23  19318036.502   101516959.584       -2167.679          46.000    19318024.759    79104049.296       -1688.948          46.000  
G24  21033325.079                       -3398.274          27.000    21033318.543                       -2646.783          30.000  
G32  20857535.576   109607086.372        1486.837          43.000    20857526.204    85408084.344        1158.202          41.000  
C08  34720760.248   180800103.176        -363.965          45.000    34720742.819   139806029.123        -281.610          48.000  
C13  34713497.586   180762285.060         -64.264          47.000    34713488.191   139776818.633         -49.725          48.000  
C16  35672085.274   185753912.459         -15.137          47.000    35672073.826   143636659.575         -12.249          48.000  
C25  22331604.584                       -2598.921          32.000                                                                  
C32  21026462.524   109490305.911         835.533          50.000                                                                  
C06  35359963.830   184128618.701         163.721          43.000    35359947.264   142379858.178         126.252          46.000  
G25  20424183.044   107329816.752        2489.237          44.000    20424174.138    83633581.541        1939.390          43.000  
G10  19484011.073   102389167.928         965.585          50.000    19483999.390    79783720.982         752.267          44.000  
G28  21962154.978   115411894.273        2541.926          40.000    21962143.848    89931319.243        1980.828          43.000  
C23  20720404.573   107896577.920         185.715          49.000                                                                  
C09  36825454.151   191759802.801         262.603          41.000    36825442.004   148280795.694         202.789          47.000  
C37  22792669.892   118687426.058        2648.091          45.000                                                                  
> 2025 10 27 02 53 02.9960000  0 18                     
G12  20727638.143   108924471.692         784.940          45.000    20727625.987    84876166.009         611.567          43.000  
G15  23339803.874                2      -3270.391          28.000    23339799.243                       -2547.358          32.000  
G18  23680563.138   124442191.618       -3669.990          33.000    23680560.460    96967932.573       -2859.445          38.000  
G23  19318052.977   101517046.279       -2167.518          46.000    19318041.228    79104116.848       -1688.855          46.000  
G24  21033351.073                       -3397.698          27.000    21033344.418                       -2647.955          31.000  
G32  20857524.271   109607026.911        1486.560          43.000    20857514.879    85408038.010        1158.215          41.000  
C08  34720763.044   180800117.734        -363.916          45.000    34720745.658   139806040.401        -281.909          48.000  
C13  34713498.175   180762287.635         -64.325          47.000    34713488.657   139776820.627         -49.799          48.000  
C16  35672085.420   185753913.078         -15.289          48.000    35672073.935   143636660.057         -12.138          48.000  
C25  22331624.531                       -2598.825          32.000                                                                  
C32  21026456.139   109490272.486         835.616          50.000                                                                  
C06  35359962.585   184128612.166         163.555          43.000    35359945.990   142379853.125         126.321          46.000  
G25  20424164.098   107329717.170        2489.445          44.000    20424155.193    83633503.940        1939.748          43.000  
G10  19484003.731   102389129.305         965.500          49.000    19483992.028    79783690.889         752.238          44.000  
G28  21962135.614   115411792.594        2541.877          40.000    21962124.472    89931240.001        1980.990          44.000  
C23  20720403.191   107896570.483         185.933          50.000                                                                  
C09  36825452.161   191759792.293         262.767          41.000    36825439.982   148280787.588         202.675          47.000  
C37  22792649.556   118687320.138        2648.090          45.000                                                                  
> 2025 10 27 02 53 03.0360000  0 18                     
G12  20727632.178   108924440.288         785.064          44.000    20727620.025    84876141.547         611.484          43.000  
G15  23339827.350                2      -3270.200          32.000    23339824.042                       -2547.919          32.000  
G18  23680591.064   124442338.411       -3670.119          33.000    23680588.390    96968046.935       -2859.260          38.000  
G23  19318069.465   101517132.974       -2167.438          46.000    19318057.740    79104184.410       -1689.022          46.000  
G24  21033376.835                       -3398.046          28.000    21033370.274                       -2648.480          31.000  
G32  20857512.967   109606967.467        1486.123          43.000    20857503.550    85407991.675        1158.249          41.000  
C08  34720765.855   180800132.313        -364.301          46.000    34720748.452   139806051.684        -282.141          48.000  
C13  34713498.687   180762290.215         -64.447          47.000    34713489.140   139776822.631         -50.043          48.000  
C16  35672085.566   185753913.716         -15.750          48.000    35672074.044   143636660.537         -12.055          48.000  
C25  22331644.505                       -2598.199          32.000                                                                  
C32  21026449.729   109490239.072         835.431          50.000                                                                  
C06  35359961.331   184128605.652         163.086          44.000    35359944.725   142379848.072         126.349          46.000  
G25  20424145.172   107329617.612        2489.114          44.000    20424136.269    83633426.347        1939.803          42.000  
G10  19483996.397   102389090.689         965.334          49.000    19483984.676    79783660.786         752.423          44.000  
G28  21962116.266   115411690.905        2542.072          40.000    21962105.119    89931160.768        1980.889          44.000  
C23  20720401.787   107896563.084         185.319          50.000                                                                  
C09  36825450.141   191759781.808         262.386          41.000    36825437.971   148280779.483         202.601          47.000  
C37  22792629.262   118687214.234        2647.796          45.000                                                                  
> 2025 10 27 02 53 03.0760000  0 18                     
G12  20727626.190   108924408.887         785.081          44.000    20727614.047    84876117.074         611.678          43.000  
G15  23339852.509                2      -3269.734          32.000    23339849.096                       -2548.113          32.000  
G18  23680619.007   124442485.156       -3669.291          33.000    23680616.327    96968161.294       -2859.124          38.000  
G23  19318085.948   101517219.669       -2167.407          46.000    19318074.247    79104251.972       -1689.083          46.000  
G24  21033402.575                       -3397.542          28.000    21033396.149                       -2648.737          31.000  
G32  20857501.650   109606908.018        1486.021          43.000    20857492.240    85407945.346        1158.173          41.000  
C08  34720768.676   180800146.899        -364.642          46.000    34720751.243   139806062.958        -282.056          48.000  
C13  34713499.166   180762292.804         -64.691          47.000    34713489.657   139776824.630         -50.073          48.000  
C16  35672085.702   185753914.360         -16.141          48.000    35672074.143   143636661.026         -12.149          48.000  
C25  22331664.488                       -2598.922          32.000                                                                  
C32  21026443.333   109490205.679         834.959          50.000                                                                  
C06  35359960.077   184128599.139         162.808          44.000    35359943.440   142379843.035         126.061          46.000  
G25  20424126.251   107329518.042        2489.172          44.000    20424117.337    83633348.758        1939.755          43.000  
G10  19483989.020   102389052.067         965.391          50.000    19483977.340    79783630.676         752.657          44.000  
G28  21962096.898   115411589.208        2542.301          40.000    21962085.755    89931081.537        1980.758          44.000  
C23  20720400.387   107896555.697         184.756          50.000                                                                  
C09  36825448.111   191759771.326         262.130          42.000    36825435.936   148280771.375         202.621          47.000  
C37  22792608.949   118687108.347        2647.336          45.000                                                                  
> 2025 10 27 02 53 03.1160000  0 18                     
G12  20727620.214   108924377.488         785.008          44.000    20727608.062    84876092.613         611.573          43.000  
G15  23339876.671                3      -3270.264          32.000    23339873.948                       -2548.253          31.000  
G18  23680646.985   124442631.932       -3669.337          33.000    23680644.273    96968275.658       -2859.127          38.000  
G23  19318102.449   101517306.378       -2167.673          46.000    19318090.741    79104319.540       -1689.230          46.000  
G24  21033428.749                       -3397.456          28.000    21033421.993                       -2647.733          31.000  
G32  20857490.357   109606848.561        1486.167          44.000    20857480.926    85407899.015        1158.155          41.000  
C08  34720771.504   180800161.484        -364.746          46.000    34720754.028   139806074.228        -281.891          48.000  
C13  34713499.683   180762295.398         -64.886          47.000    34713490.150   139776826.634         -50.134          48.000  
C16  35672085.828   185753914.997         -16.150          48.000    35672074.251   143636661.519         -12.286          48.000  
C25  22331684.503                       -2600.055          32.000                                                                  
C32  21026436.935   109490172.284         834.777          50.000                                                                  
C06  35359958.850   184128592.627         162.684          44.000    35359942.184   142379837.999         125.854          46.000  
G25  20424107.288   107329418.486        2488.924          44.000    20424098.375    83633271.184        1939.449          43.000  
G10  19483981.662   102389013.445         965.465          50.000    19483970.015    79783600.580         752.514          44.000  
G28  21962077.532   115411487.526        2542.111          40.000    21962066.399    89931002.300        1980.814          44.000  
C23  20720398.968   107896548.312         184.463          50.000                                                                  
C09  36825446.113   191759760.854         261.813          42.000    36825433.904   148280763.276         202.490          47.000  
C37  22792588.647   118687002.449        2647.295          45.000                                                                  
> 2025 10 27 02 53 03.1560000  0 18                     
G12  20727614.239   108924346.095         784.879          44.000    20727602.110    84876068.150         611.568          44.000  
G15  23339901.437                2      -3270.623          32.000    23339898.796                       -2549.586          31.000  
G18  23680674.922   124442778.740       -3669.729          33.000    23680672.194    96968390.026       -2859.138          38.000  
G23  19318118.961   101517393.082       -2167.666          46.000    19318107.249    79104387.105       -1689.223          46.000  
G24  21033454.611                       -3397.899          28.000    21033447.826                       -2647.061          31.000  
G32  20857479.034   109606789.093        1486.447          43.000    20857469.593    85407852.678        1158.279          41.000  
C08  34720774.353   180800176.064        -364.667          46.000    34720756.832   139806085.496        -281.775          48.000  
C13  34713500.231   180762297.982         -64.771          47.000    34713490.634   139776828.638         -50.165          48.000  
C16  35672085.991   185753915.637         -16.160          48.000    35672074.345   143636662.014         -12.406          48.000  
C25  22331704.491                       -2599.970          32.000                                                                  
C32  21026430.567   109490138.886         834.786          50.000                                                                  
C06  35359957.599   184128586.102         162.881          44.000    35359940.928   142379832.956         125.953          46.000  
G25  20424088.324   107329318.929        2488.826          44.000    20424079.447    83633193.606        1939.387          43.000  
G10  19483974.325   102388974.829         965.392          50.000    19483962.656    79783570.487         752.323          44.000  
G28  21962058.187   115411385.855        2541.730          40.000    21962047.052    89930923.063        1980.903          44.000  
C23  20720397.616   107896540.916         184.603          49.000                                                                  
C09  36825444.120   191759750.381         261.745          42.000    36825431.877   148280755.166         202.611          47.000  
C37  22792568.358   118686896.570        2646.979          45.000                                                                  
> 2025 10 27 02 53 03.1960000  0 18                     
G12  20727608.243   108924314.690         785.045          44.000    20727596.132    84876043.684         611.608          44.000  
G15  23339926.295                2      -3269.666          32.000    23339923.687                       -2549.152          31.000  
G18  23680702.843   124442925.533       -3669.830          33.000    23680700.134    96968504.426       -2859.806          38.000  
G23  19318135.489   101517479.800       -2167.930          46.000    19318123.740    79104454.673       -1689.260          46.000  
G24  21033480.306                       -3398.345          27.000    21033473.678                       -2648.022          31.000  
G32  20857467.711   109606729.623        1486.684          43.000    20857458.273    85407806.343        1158.345          41.000  
C08  34720777.138   180800190.647        -364.642          45.000    34720759.623   139806096.764        -281.708          48.000  
C13  34713500.744   180762300.570         -64.783          47.000    34713491.131   139776830.640         -50.146          48.000  
C16  35672086.144   185753916.264         -15.885          47.000    35672074.439   143636662.507         -12.430          48.000  
C25  22331724.439                       -2599.599          32.000                                                                  
C32  21026424.194   109490105.487         834.856          50.000                                                                  
C06  35359956.375   184128579.566         163.226          44.000    35359939.689   142379827.916         125.973          46.000  
G25  20424069.361   107329219.371        2488.855          44.000    20424060.505    83633116.028        1939.345          43.000  
G10  19483966.983   102388936.215         965.299          49.000    19483955.311    79783540.400         752.157          44.000  
G28  21962038.818   115411284.170        2541.865          40.000    21962027.718    89930843.828        1980.852          44.000  
C23  20720396.216   107896533.514         184.838          49.000                                                                  
C09  36825442.112   191759739.902         261.836          42.000    36825429.845   148280747.063         202.593          47.000  
C37  22792548.034   118686790.661        2647.398          45.000                                                                  
> 2025 10 27 02 53 03.2360000  0 18                     
G12  20727602.260   108924283.271         785.391          44.000    20727590.141    84876019.206         611.846          44.000  
G15  23339950.806                2      -3268.654          32.000    23339948.655                       -2548.753          31.000  
G18  23680730.779   124443072.290       -3669.291          33.000    23680728.071    96968618.774       -2859.176          38.000  
G23  19318151.975   101517566.505       -2167.774          46.000    19318140.231    79104522.222       -1688.858          46.000  
G24  21033506.432                       -3398.165          27.000    21033499.530                       -2647.357          31.000  
G32  20857456.410   109606670.170        1486.476          43.000    20857446.950    85407759.993        1158.558          41.000  
C08  34720779.973   180800205.208        -364.185          45.000    34720762.439   139806108.033        -281.732          48.000  
C13  34713501.274   180762303.151         -64.642          47.000    34713491.588   139776832.632         -49.884          48.000  
C16  35672086.315   185753916.899         -15.855          47.000    35672074.558   143636662.989         -12.203          48.000  
C25  22331744.430                       -2599.666          32.000                                                                  
C32  21026417.836   109490072.085         834.973          50.000                                                                  
C06  35359955.127   184128573.053         162.993          44.000    35359938.439   142379822.856         126.335          46.000  
G25  20424050.394   107329119.788        2489.363          44.000    20424041.536    83633038.429        1939.734          43.000  
G10  19483959.646   102388897.599         965.374          49.000    19483947.978    79783510.306         752.214          44.000  
G28  21962019.464   115411182.499        2541.761          40.000    21962008.383    89930764.597        1980.809          44.000  
C23  20720394.854   107896526.111         184.970          49.000                                                                  
C09  36825440.135   191759729.413         262.069          42.000    36825427.831   148280738.950         202.730          47.000  
C37  22792527.703   118686684.765        2647.424          45.000                                                                  
> 2025 10 27 02 53 03.2760000  0 18                     
G12  20727596.293   108924251.871         785.153          44.000    20727584.144    84875994.735         611.853          44.000  
G15  23339975.852                2      -3269.741          32.000    23339973.582                       -2547.688          31.000  
G18  23680758.713   124443219.069       -3669.431          33.000    23680756.006    96968733.118       -2858.760          38.000  
G23  19318168.488   101517653.203       -2167.565          46.000    19318156.714    79104589.776       -1688.817          46.000  
G24  21033532.141                       -3398.344          27.000    21033525.437                       -2647.454          31.000  
G32  20857445.114   109606610.702        1486.633          43.000    20857435.643    85407713.674        1158.208          41.000  
C08  34720782.773   180800219.774        -364.105          45.000    34720765.271   139806119.312        -281.909          48.000  
C13  34713501.788   180762305.733         -64.551          47.000    34713492.047   139776834.617         -49.677          48.000  
C16  35672086.453   185753917.522         -15.648          47.000    35672074.656   143636663.477         -12.194          48.000  
C25  22331764.415                       -2599.055          32.000                                                                  
C32  21026411.462   109490038.665         835.357          50.000                                                                  
C06  35359953.930   184128566.523         163.140          44.000    35359937.220   142379817.816         126.146          46.000  
G25  20424031.421   107329020.241        2488.919          43.000    20424022.592    83632960.861        1939.353          42.000  
G10  19483952.290   102388858.971         965.590          49.000    19483940.655    79783480.220         752.122          44.000  
G28  21962000.114   115411080.803        2542.205          40.000    21961989.048    89930685.365        1980.766          44.000  
C23  20720393.447   107896518.719         184.858          49.000                                                                  
C09  36825438.161   191759718.938         261.870          42.000    36825425.841   148280730.846         202.634          47.000  
C37  22792507.400   118686578.855        2647.680          45.000                                                                  
> 2025 10 27 02 53 03.3160000  0 18                     
G12  20727590.343   108924220.483         784.798          44.000    20727578.191    84875970.279         611.539          44.000  
G15  23340000.176                2      -3269.755          32.000    23339998.491                       -2547.522          31.000  
G18  23680786.633   124443365.851       -3669.500          33.000    23680783.937    96968847.495       -2859.201          38.000  
G23  19318184.982   101517739.902       -2167.504          45.000    19318173.201    79104657.339       -1688.984          46.000  
G24  21033558.113                       -3398.449          27.000    21033551.303                       -2648.093          31.000  
G32  20857433.773   109606551.246        1486.425          43.000    20857424.323    85407667.327        1158.456          41.000  
C08  34720785.578   180800234.366        -364.575          45.000    34720768.060   139806130.575        -281.696          48.000  
C13  34713502.301   180762308.303         -64.301          47.000    34713492.529   139776836.635         -50.256          48.000  
C16  35672086.580   185753918.161         -15.844          47.000    35672074.765   143636663.967         -12.254          48.000  
C25  22331784.419                       -2598.983          32.000                                                                  
C32  21026405.087   109490005.262         835.207          50.000                                                                  
C06  35359952.717   184128560.015         162.883          44.000    35359935.980   142379812.767         126.205          46.000  
G25  20424012.475   107328920.705        2488.479          42.000    20424003.637    83632883.298        1939.073          41.000  
G10  19483944.961   102388820.365         965.275          49.000    19483933.309    79783450.112         752.504          45.000  
G28  21961980.743   115410979.100        2542.526          40.000    21961969.697    89930606.145        1980.523          44.000  
C23  20720392.090   107896511.309         185.124          49.000                                                                  
C09  36825436.180   191759708.448         262.099          42.000    36825423.844   148280722.736         202.704          47.000  
C37  22792487.073   118686472.940        2647.895          45.000                                                                  
> 2025 10 27 02 53 03.3560000  0 18                     
G12  20727584.372   108924189.095         784.652          43.000    20727572.212    84875945.814         611.483          44.000  
G15  23340024.969                2      -3270.305          32.000    23340023.459                       -2547.168          31.000  
G18  23680814.524   124443512.566       -3668.220          33.000    23680811.879    96968961.910       -2860.095          36.000  
G23  19318201.497   101517826.613       -2167.721          45.000    19318189.676    79104724.917       -1689.360          45.000  
G24  21033584.343                       -3398.171          27.000    21033577.180                       -2648.622          31.000  
G32  20857422.474   109606491.797        1486.270          43.000    20857413.001    85407620.997        1158.319          41.000  
C08  34720788.392   180800248.953        -364.728          45.000    34720770.838   139806141.832        -281.470          49.000  
C13  34713502.780   180762310.889         -64.526          47.000    34713493.038   139776838.652         -50.507          48.000  
C16  35672086.703   185753918.795         -15.843          47.000    35672074.919   143636664.453         -12.196          49.000  
C25  22331804.412                       -2599.318          32.000                                                                  
C32  21026398.697   109489971.881         834.739          49.000                                                                  
C06  35359951.507   184128553.487         163.107          44.000    35359934.745   142379807.713         126.307          46.000  
G25  20423993.537   107328821.161        2488.429          42.000    20423984.713    83632805.740        1938.925          41.000  
G10  19483937.622   102388781.749         965.319          49.000    19483925.980    79783420.029         752.214          45.000  
G28  21961961.398   115410877.436        2541.912          40.000    21961950.379    89930526.914        1980.632          44.000  
C23  20720390.705   107896503.892         185.376          49.000                                                                  
C09  36825434.184   191759697.963         262.200          42.000    36825421.856   148280714.617         202.897          47.000  
C37  22792466.755   118686367.039        2647.663          44.000                                                                  
> 2025 10 27 02 53 03.3960000  0 18                     
G12  20727578.386   108924157.694         784.834          43.000    20727566.253    84875921.362         611.269          44.000  
G15  23340050.119                2      -3270.199          32.000    23340048.258                       -2547.672          31.000  
G18  23680842.418   124443659.287       -3667.847          32.000    23680839.835    96969076.309       -2860.288          36.000  
G23  19318218.027   101517913.332       -2167.936          45.000    19318206.182    79104792.506       -1689.765          45.000  
G24  21033610.403                       -3398.195          27.000    21033603.019                       -2648.024          31.000  
G32  20857411.148   109606432.321        1486.690          43.000    20857401.707    85407574.696        1157.748          41.000  
C08  34720791.200   180800263.524        -364.441          46.000    34720773.637   139806153.103        -281.653          49.000  
C13  34713503.300   180762313.500         -65.125          47.000    34713493.547   139776840.655         -50.311          48.000  
C16  35672086.859   185753919.414         -15.622          48.000    35672074.997   143636664.939         -12.164          49.000  
C25  22331824.366                       -2599.866          32.000                                                                  
C32  21026392.310   109489938.488         834.715          50.000                                                                  
C06  35359950.256   184128546.958         163.214          44.000    35359933.479   142379802.665         126.271          46.000  
G25  20423974.609   107328721.611        2488.584          42.000    20423965.775    83632728.161        1939.235          41.000  
G10  19483930.269   102388743.131         965.399          49.000    19483918.658    79783389.962         751.777          44.000  
G28  21961942.062   115410775.783        2541.455          40.000    21961931.026    89930447.671        1980.962          44.000  
C23  20720389.285   107896496.488         185.224          49.000                                                                  
C09  36825432.193   191759687.467         262.379          42.000    36825419.871   148280706.517         202.618          47.000  
C37  22792446.426   118686261.144        2647.406          44.000                                                                  
> 2025 10 27 02 53 03.4360000  0 18                     
G12  20727572.417   108924126.293         784.977          43.000    20727560.280    84875896.892         611.550          44.000  
G15  23340074.641                2      -3270.028          32.000    23340073.169                       -2548.009          31.000  
G18  23680870.361   124443806.124       -3669.759          32.000    23680867.780    96969190.676       -2859.720          36.000  
G23  19318234.518   101518000.049       -2168.002          44.000    19318222.676    79104860.069       -1689.368          45.000  
G24  21033636.250                       -3398.201          27.000    21033628.855                       -2647.007          31.000  
G32  20857399.829   109606372.835        1487.050          43.000    20857390.389    85407528.358        1158.129          41.000  
C08  34720794.030   180800278.093        -364.276          46.000    34720776.414   139806164.374        -281.775          49.000  
C13  34713503.825   180762316.094         -65.051          46.000    34713494.048   139776842.647         -49.921          48.000  
C16  35672087.001   185753920.041         -15.615          48.000    35672075.126   143636665.427         -12.205          49.000  
C25  22331844.378                       -2600.276          33.000                                                                  
C32  21026385.919   109489905.073         835.129          50.000                                                                  
C06  35359949.035   184128540.427         163.293          44.000    35359932.238   142379797.621         126.163          46.000  
G25  20423955.680   107328622.035        2489.147          41.000    20423946.821    83632650.581        1939.366          40.000  
G10  19483922.913   102388704.510         965.473          48.000    19483911.327    79783359.873         751.951          44.000  
G28  21961922.717   115410674.105        2541.652          40.000    21961911.662    89930368.426        1981.172          44.000  
C23  20720387.866   107896489.101         184.836          49.000                                                                  
C09  36825430.164   191759676.962         262.608          41.000    36825417.852   148280698.415         202.474          47.000  
C37  22792426.085   118686155.255        2647.184          44.000                                                                  
> 2025 10 27 02 53 03.4760000  0 18                     
G12  20727566.431   108924094.898         784.889          43.000    20727554.283    84875872.422         611.709          43.000  
G15  23340099.410                2      -3269.624          32.000    23340097.994                       -2548.817          31.000  
G18  23680898.304   124443952.851       -3668.728          32.000    23680895.735    96969305.062       -2859.716          36.000  
G23  19318251.020   101518086.755       -2167.798          44.000    19318239.174    79104927.630       -1689.115          45.000  
G24  21033662.061                       -3398.409          27.000    21033654.719                       -2647.046          31.000  
G32  20857388.513   109606313.364        1486.953          43.000    20857379.079    85407482.014        1158.484          41.000  
C08  34720796.862   180800292.673        -364.459          46.000    34720779.214   139806175.656        -282.025          49.000  
C13  34713504.338   180762318.683         -64.893          45.000    34713494.553   139776844.639         -49.780          48.000  
C16  35672087.141   185753920.678         -15.834          47.000    35672075.271   143636665.925         -12.395          48.000  
C25  22331864.319                       -2599.701          33.000                                                                  
C32  21026379.519   109489871.664         835.207          50.000                                                                  
C06  35359947.799   184128533.903         163.202          44.000    35359930.990   142379792.581         126.007          46.000  
G25  20423936.735   107328522.467        2489.312          41.000    20423927.860    83632572.986        1939.692          40.000  
G10  19483915.579   102388665.888         965.528          48.000    19483903.996    79783329.782         752.149          43.000  
G28  21961903.351   115410572.418        2541.938          40.000    21961892.292    89930289.194        1981.014          44.000  
C23  20720386.475   107896481.717         184.585          49.000                                                                  
C09  36825428.158   191759666.492         262.037          40.000    36825415.844   148280690.305         202.597          47.000  
C37  22792405.744   118686049.371        2647.020          44.000                                                                  
> 2025 10 27 02 53 03.5160000  0 18                     
G12  20727560.457   108924063.512         784.697          43.000    20727548.300    84875847.960         611.593          43.000  
G15  23340124.473                2      -3269.307          32.000    23340122.766                       -2548.249          32.000  
G18  23680926.249   124444099.665       -3669.797          32.000    23680923.669    96969419.442       -2859.522          36.000  
G23  19318267.508   101518173.459       -2167.650          44.000    19318255.670    79104995.194       -1689.055          45.000  
G24  21033688.154                       -3398.118          27.000    21033680.592                       -2647.521          31.000  
G32  20857377.183   109606253.904        1486.664          43.000    20857367.761    85407435.667        1158.653          41.000  
C08  34720799.705   180800307.258        -364.642          46.000    34720782.036   139806186.927        -281.909          49.000  
C13  34713504.869   180762321.271         -64.783          45.000    34713495.066   139776846.644         -50.024          48.000  
C16  35672087.267   185753921.314         -15.956          47.000    35672075.371   143636666.414         -12.364          48.000  
C25  22331884.299                       -2598.789          33.000                                                                  
C32  21026373.115   109489838.264         835.100          50.000                                                                  
C06  35359946.583   184128527.383         163.033          43.000    35359929.722   142379787.545         125.846          46.000  
G25  20423917.818   107328422.909        2489.163          40.000    20423908.925    83632495.399        1939.748          40.000  
G10  19483908.245   102388627.273         965.429          48.000    19483896.629    79783299.687         752.383          43.000  
G28  21961883.998   115410470.721        2542.298          40.000    21961872.936    89930209.968        1980.745          44.000  
C23  20720385.086   107896474.326         184.602          49.000                                                                  
C09  36825426.133   191759656.007         262.049          40.000    36825413.844   148280682.200         202.584          47.000  
C37  22792385.421   118685943.474        2647.213          43.000                                                                  
> 2025 10 27 02 53 03.5560000  0 18                     
G12  20727554.495   108924032.133         784.495          43.000    20727542.334    84875823.500         611.490          43.000  
G15  23340149.223                2      -3269.656          32.000    23340147.640                       -2547.947          31.000  
G18  23680954.199   124444246.422       -3669.516          32.000    23680951.577    96969533.787       -2858.852          36.000  
G23  19318284.021   101518260.166       -2167.645          44.000    19318272.185    79105062.756       -1689.019          45.000  
G24  21033714.102                       -3398.125          27.000    21033706.452                       -2648.057          31.000  
G32  20857365.877   109606194.451        1486.351          43.000    20857356.456    85407389.352        1158.140          41.000  
C08  34720802.515   180800321.833        -364.520          46.000    34720784.832   139806198.201        -281.891          49.000  
C13  34713505.393   180762323.859         -64.734          45.000    34713495.581   139776848.651         -50.189          48.000  
C16  35672087.400   185753921.958         -16.125          47.000    35672075.464   143636666.899         -12.217          48.000  
C25  22331904.274                       -2599.002          33.000                                                                  
C32  21026366.692   109489804.868         834.933          50.000                                                                  
C06  35359945.349   184128520.863         162.947          43.000    35359928.462   142379782.492         126.106          46.000  
G25  20423898.883   107328323.355        2488.947          40.000    20423889.991    83632417.839        1939.224          40.000  
G10  19483900.933   102388588.664         965.250          48.000    19483889.291    79783269.601         752.258          43.000  
G28  21961864.678   115410369.049        2541.996          40.000    21961853.598    89930130.751        1980.435          44.000  
C23  20720383.697   107896466.943         184.525          49.000                                                                  
C09  36825424.103   191759645.528         261.898          40.000    36825411.823   148280674.092         202.623          47.000  
C37  22792365.076   118685837.577        2647.322          43.000                                                                  
> 2025 10 27 02 53 03.5960000  0 18                     
G12  20727548.524   108924000.740         784.630          43.000    20727536.355    84875799.043         611.360          43.000  
G15  23340173.958                2      -3270.311          33.000    23340172.458                       -2546.674          31.000  
G18  23680982.138   124444393.177       -3669.162          32.000    23680979.493    96969648.120       -2858.255          36.000  
G23  19318300.542   101518346.879       -2167.800          44.000    19318288.678    79105130.333       -1689.315          45.000  
G24  21033739.983                       -3397.661          27.000    21033732.317                       -2648.607          31.000  
G32  20857354.548   109606135.000        1486.186          43.000    20857345.126    85407343.009        1158.332          41.000  
C08  34720805.332   180800336.417        -364.594          46.000    34720787.626   139806209.474        -281.854          49.000  
C13  34713505.929   180762326.438         -64.539          45.000    34713496.048   139776850.658         -50.262          48.000  
C16  35672087.537   185753922.599         -16.135          47.000    35672075.547   143636667.383         -12.114          48.000  
C25  22331924.236                       -2599.515          33.000                                                                  
C32  21026360.278   109489771.476         834.788          50.000                                                                  
C06  35359944.097   184128514.341         162.971          43.000    35359927.208   142379777.456         125.929          46.000  
G25  20423879.944   107328223.802        2488.799          40.000    20423871.039    83632340.273        1939.134          40.000  
G10  19483893.606   102388550.060         965.072          48.000    19483881.954    79783239.507         752.313          43.000  
G28  21961845.334   115410267.393        2541.530          40.000    21961834.244    89930051.528        1980.401          44.000  
C23  20720382.317   107896459.552         184.659          49.000                                                                  
C09  36825422.105   191759635.047         261.920          40.000    36825409.816   148280665.979         202.767          47.000  
C37  22792344.738   118685731.686        2647.305          43.000                                                                  
> 2025 10 27 02 53 03.6360000  0 18                     
G12  20727542.518   108923969.351         784.663          43.000    20727530.400    84875774.592         611.259          42.000  
G15  23340198.786                2      -3269.894          33.000    23340197.269                       -2546.821          32.000  
G18  23681010.075   124444539.966       -3669.618          31.000    23681007.430    96969762.506       -2859.064          35.000  
G23  19318317.051   101518433.593       -2167.885          44.000    19318305.170    79105197.897       -1689.222          45.000  
G24  21033766.186                       -3397.866          27.000    21033758.185                       -2649.326          31.000  
G32  20857343.232   109606075.544        1486.260          43.000    20857333.804    85407296.679        1158.276          41.000  
C08  34720808.172   180800350.991        -364.453          46.000    34720790.418   139806220.743        -281.769          49.000  
C13  34713506.474   180762329.015         -64.423          45.000    34713496.535   139776852.655         -50.067          48.000  
C16  35672087.676   185753923.227         -15.875          48.000    35672075.667   143636667.873         -12.197          48.000  
C25  22331944.236                       -2599.796          33.000                                                                  
C32  21026353.897   109489738.076         834.869          50.000                                                                  
C06  35359942.834   184128507.823         162.928          44.000    35359925.968   142379772.411         125.991          46.000  
G25  20423861.006   107328124.256        2488.624          40.000    20423852.114    83632262.710        1939.003          40.000  
G10  19483886.225   102388511.448         965.160          49.000    19483874.607    79783209.416         752.270          43.000  
G28  21961825.994   115410165.715        2541.727          40.000    21961814.897    89929972.303        1980.484          44.000  
C23  20720380.939   107896452.152         184.878          49.000                                                                  
C09  36825420.103   191759624.559         262.059          40.000    36825407.824   148280657.870         202.728          47.000  
C37  22792324.422   118685625.787        2647.432          43.000                                                                  
> 2025 10 27 02 53 03.6760000  0 18                     
G12  20727536.549   108923937.957         784.800          43.000    20727524.441    84875750.135         611.335          42.000  
G15  23340223.951                2      -3269.542          33.000    23340222.215                       -2547.738          32.000  
G18  23681038.024                       -3670.142          31.000    23681035.355    96969876.895       -2859.512          36.000  
G23  19318333.571   101518520.309       -2167.928          44.000    19318321.682    79105265.466       -1689.228          45.000  
G24  21033791.893                       -3398.181          27.000    21033784.020                       -2647.835          31.000  
G32  20857331.910   109606016.076        1486.523          44.000    20857322.490    85407250.342        1158.349          41.000  
C08  34720811.011   180800365.567        -364.441          46.000    34720793.226   139806232.015        -281.775          49.000  
C13  34713506.972   180762331.605         -64.661          45.000    34713497.033   139776854.653         -49.957          48.000  
C16  35672087.825   185753923.853         -15.717          48.000    35672075.760   143636668.359         -12.166          48.000  
C25  22331964.202                       -2599.197          33.000                                                                  
C32  21026347.536   109489704.670         835.050          50.000                                                                  
C06  35359941.601   184128501.299         163.019          44.000    35359924.709   142379767.356         126.250          46.000  
G25  20423842.060   107328024.698        2488.754          40.000    20423833.151    83632185.110        1939.609          40.000  
G10  19483878.878   102388472.838         965.203          49.000    19483867.276    79783179.330         752.165          43.000  
G28  21961806.623   115410064.021        2542.182          40.000    21961795.530    89929893.067        1980.746          44.000  
C23  20720379.565   107896444.754         184.970          49.000                                                                  
C09  36825418.097   191759614.069         262.184          40.000    36825405.801   148280649.756         202.809          47.000  
C37  22792304.086   118685519.889        2647.439          43.000                                                                  
> 2025 10 27 02 53 03.7160000  0 18                     
G12  20727530.567   108923906.569         784.704          44.000    20727518.457    84875725.686         611.183          42.000  
G15  23340248.975                2      -3269.739          33.000    23340247.105                       -2548.101          32.000  
G18  23681065.958                       -3669.734          31.000    23681063.298    96969991.275       -2859.630          36.000  
G23  19318350.080   101518607.032       -2168.069          44.000    19318338.175    79105333.037       -1689.327          45.000  
G24  21033817.893                       -3398.299          27.000    21033809.894                       -2647.069          31.000  
G32  20857320.579   109605956.616        1486.519          44.000    20857311.181    85407204.010        1158.317          40.000  
C08  34720813.845   180800380.149        -364.539          46.000    34720796.040   139806243.288        -281.824          49.000  
C13  34713507.494   180762334.190         -64.703          45.000    34713497.518   139776856.650         -49.915          48.000  
C16  35672087.959   185753924.480         -15.645          48.000    35672075.850   143636668.851         -12.291          48.000  
C25  22331984.229   116288500.203       -2599.494          33.000                                                                  
C32  21026341.143   109489671.270         835.028          50.000                                                                  
C06  35359940.346   184128494.771         163.163          44.000    35359923.435   142379762.309         126.210          46.000  
G25  20423823.103   107327925.142        2488.843          41.000    20423814.214    83632107.540        1939.443          40.000  
G10  19483871.511   102388434.228         965.209          49.000    19483859.918    79783149.253         751.956          43.000  
G28  21961787.273   115409962.343        2542.054          40.000    21961776.185    89929813.828        1980.912          44.000  
C23  20720378.187   107896437.365         184.810          49.000                                                                  
C09  36825416.106   191759603.584         262.113          40.000    36825403.781   148280641.654         202.612          47.000  
C37  22792283.765   118685413.990        2647.468          43.000                                                                  
> 2025 10 27 02 53 03.7560000  0 18                     
G12  20727524.600   108923875.186         784.563          44.000    20727512.478    84875701.229         611.286          43.000  
G15  23340274.150                2      -3269.916          33.000    23340272.012                       -2547.943          32.000  
G18  23681093.880                       -3669.626          27.000    23681091.231    96970105.635       -2859.168          35.000  
G23  19318366.575   101518693.747       -2167.982          44.000    19318354.690    79105400.619       -1689.579          45.000  
G24  21033843.702                       -3398.184          27.000    21033835.737                       -2647.790          31.000  
G32  20857309.258   109605897.144        1486.758          44.000    20857299.862    85407157.682        1158.245          40.000  
C08  34720816.677   180800394.729        -364.539          46.000    34720798.848   139806254.558        -281.805          49.000  
C13  34713508.002   180762336.786         -64.850          45.000    34713498.002   139776858.647         -49.915          48.000  
C16  35672088.071   185753925.117         -15.813          48.000    35672075.997   143636669.341         -12.301          48.000  
C25  22332004.184   116288604.202       -2599.801          33.000                                                                  
C32  21026334.743   109489637.871         834.975          50.000                                                                  
C06  35359939.095   184128488.246         163.198          44.000    35359922.196   142379757.265         126.094          46.000  
G25  20423804.153   107327825.589        2488.820          41.000    20423795.263    83632029.975        1939.255          40.000  
G10  19483864.152   102388395.623         965.117          49.000    19483852.569    79783119.170         751.951          43.000  
G28  21961767.916   115409860.680        2541.749          40.000    21961756.829    89929734.600        1980.785          44.000  
C23  20720376.788   107896429.984         184.571          49.000                                                                  
C09  36825414.103   191759593.108         261.951          40.000    36825401.772   148280633.551         202.507          47.000  
C37  22792263.428   118685308.109        2647.140          43.000                                                                  
> 2025 10 27 02 53 03.7960000  0 18                     
G12  20727518.627   108923843.805         784.455          44.000    20727506.515    84875676.775         611.292          43.000  
G15  23340299.246                2      -3269.740          33.000    23340297.039                       -2548.098          32.000  
G18  23681121.807                       -3670.268          27.000    23681119.155    96970219.969       -2858.519          35.000  
G23  19318383.056   101518780.457       -2167.865          44.000    19318371.189    79105468.190       -1689.430          45.000  
G24  21033869.903                       -3398.315          27.000    21033861.610                       -2648.345          31.000  
G32  20857297.958   109605837.686        1486.597          44.000    20857288.551    85407111.345        1158.344          40.000  
C08  34720819.497   180800409.310        -364.557          45.000    34720801.665   139806265.836        -281.934          48.000  
C13  34713508.529   180762339.374         -64.777          45.000    34713498.524   139776860.654         -50.104          48.000  
C16  35672088.169   185753925.757         -15.976          47.000    35672076.127   143636669.830         -12.286          48.000  
C25  22332024.173   116288708.201       -2599.948          33.000                                                                  
C32  21026328.355   109489604.475         834.872          49.000                                                                  
C06  35359937.863   184128481.735         162.924          44.000    35359920.955   142379752.230         125.919          46.000  
G25  20423785.225   107327726.053        2488.480          41.000    20423776.311    83631952.419        1938.958          40.000  
G10  19483856.798   102388357.014         965.160          49.000    19483845.226    79783089.094         751.903          43.000  
G28  21961748.531   115409759.006        2541.782          40.000    21961737.502    89929655.386        1980.450          44.000  
C23  20720375.411   107896422.603         184.460          49.000                                                                  
C09  36825412.096   191759582.629         261.940          40.000    36825399.741   148280625.450         202.459          47.000  
C37  22792243.125   118685202.213        2647.249          42.000                                                                  
> 2025 10 27 02 53 03.8360000  0 18                     
G12  20727512.659   108923812.426         784.383          44.000    20727500.546    84875652.310         611.562          42.000  
G15  23340324.153                2      -3269.098          33.000    23340321.993                       -2547.913          32.000  
G18  23681149.736                       -3668.450          27.000    23681147.081    96970334.345       -2858.975          35.000  
G23  19318399.564   101518867.168       -2167.810          44.000    19318387.682    79105535.759       -1689.263          45.000  
G24  21033895.905                       -3398.227          27.000    21033887.483                       -2649.812          31.000  
G32  20857286.635   109605778.225        1486.563          44.000    20857277.233    85407065.007        1158.420          40.000  
C08  34720822.300   180800423.887        -364.502          45.000    34720804.453   139806277.111        -281.952          48.000  
C13  34713509.056   180762341.957         -64.624          45.000    34713499.024   139776862.656         -50.110          48.000  
C16  35672088.319   185753926.384         -15.808          47.000    35672076.248   143636670.320         -12.285          48.000  
C25  22332044.171   116288812.192       -2599.941          33.000                                                                  
C32  21026321.985   109489571.072         834.970          49.000                                                                  
C06  35359936.609   184128475.207         163.073          44.000    35359919.731   142379747.184         126.011          46.000  
G25  20423766.285   107327626.501        2488.593          41.000    20423757.377    83631874.850        1939.028          40.000  
G10  19483849.441   102388318.397         965.345          48.000    19483837.873    79783059.002         752.168          43.000  
G28  21961729.189   115409657.315        2542.131          40.000    21961718.147    89929576.155        1980.601          44.000  
C23  20720374.053   107896415.209         184.667          49.000                                                                  
C09  36825410.104   191759572.145         262.101          40.000    36825397.721   148280617.341         202.618          47.000  
C37  22792222.814   118685096.323        2647.227          42.000                                                                  
