     3.04           OBSERVATION DATA    M: Mixed            RINEX VERSION / TYPE
RTKCONV 2.4.3 b34                       20251027 032812 UTC PGM / RUN BY / DATE 
format: u-blox UBX                                          COMMENT             
log: D:\GPdata\10_27\fingure_190_rev_10_27_1.ubx            COMMENT             
                                                            MARKER NAME         
                                                            MARKER NUMBER       
                                                            MARKER TYPE         
                                                            OBSERVER / AGENCY   
                                                            REC # / TYPE / VERS 
                                                            ANT # / TYPE        
        0.0000        0.0000        0.0000                  APPROX POSITION XYZ 
        0.0000        0.0000        0.0000                  ANTENNA: DELTA H/E/N
G   11 C1C L1C D1C S1C C2L L2L D2L S2L C2S D2S S2S          SYS / # / OBS TYPES 
C    8 C2I L2I D2I S2I C7I L7I D7I S7I                      SYS / # / OBS TYPES 
  2025    10    27    02    54   31.6760000     GPS         TIME OF FIRST OBS   
  2025    10    27    02    54   57.0760000     GPS         TIME OF LAST OBS    
G L1C                                                       SYS / PHASE SHIFT   
G L2L  0.00000                                              SYS / PHASE SHIFT   
C L2I                                                       SYS / PHASE SHIFT   
C L7I                                                       SYS / PHASE SHIFT   
  0                                                         GLONASS SLOT / FRQ #
 C1C    0.000 C1P    0.000 C2C    0.000 C2P    0.000        GLONASS COD/PHS/BIS 
                                                            END OF HEADER       
> 2025 10 27 02 54 31.6760000  0 19                     
G12  20714882.971   108857446.4891        727.122          45.000    20714871.523    84823938.6191        566.580          43.000                                                  
G15  23395064.869                1      -3279.566          32.000    23395063.159    95798873.8571      -2554.848          33.000                                                  
G18  23742421.141   124767272.9921      -3660.387          33.000    23742418.725    97221225.9141      -2852.483          37.000                                                  
G23  19355074.668   101711595.5891      -2219.354          47.000    19355062.626    79255713.5151      -1729.271          47.000                                                  
G24  21090852.817                1      -3415.753          29.000    21090844.392                       -2661.689          31.000                                                  
G32  20832531.799   109475690.7041       1476.080          45.000    20832522.359    85305698.1251       1149.744          42.000                                                  
C08  34727112.064   180833159.6841       -380.127          46.000    34727091.161   139831590.4361       -293.939          49.000  
C13  34714724.512   180768655.5191        -78.345          47.000    34714711.744   139781744.6171        -60.706          48.000  
C16  35672453.974   185755817.7191        -26.369          48.000    35672440.085   143638132.8051        -20.370          48.000  
C25  22376164.221   116518558.8071      -2630.520          32.000                                                                  
C32  21012450.324   109417326.7961        810.654          50.000                                                                  
C06  35357288.242   184114666.1981        152.235          45.000    35357268.124   142369069.1961        117.635          46.000  
G25  20382502.136   107110782.5111       2449.122          45.000    20382493.274    83462905.6031       1908.275          43.000                                                  
G10  19468144.364   102305789.2491        914.587          50.000    19468133.296    79718750.5291        712.634          45.000                                                  
G28  21919471.284   115187592.5141       2514.943          42.000    21919460.274    89756538.9071       1959.531          43.000                                                  
C23  20717674.704   107882346.2721        136.476          50.000                                                                  
C09  36821089.753   191737056.0111        251.167          43.000    36821073.876   148263206.4371        194.281          47.000  
C33  26248790.765                1      -2959.504          27.000                                                                  
C37  22747785.214   118453684.8231       2622.107          45.000                                                                  
> 2025 10 27 02 54 31.7160000  0 19                     
G12  20714877.435   108857417.399         727.171          45.000    20714865.985    84823915.944         566.774          43.000                                                  
G15  23395089.796                       -3278.214          32.000    23395088.151    95798976.110       -2555.780          33.000                                                  
G18  23742449.011   124767419.408       -3660.242          33.000    23742446.572    97221340.002       -2852.225          37.000                                                  
G23  19355091.558   101711684.364       -2219.385          47.000    19355079.527    79255782.692       -1729.358          47.000                                                  
G24  21090878.816                       -3415.603          29.000    21090870.399                       -2662.751          31.000                                                  
G32  20832520.569   109475631.645        1476.363          45.000    20832511.107    85305652.101        1150.205          42.000                                                  
C08  34727114.986   180833174.887        -380.103          46.000    34727094.089   139831602.195        -293.958          49.000  
C13  34714725.117   180768658.650         -78.271          47.000    34714712.324   139781747.042         -60.693          48.000  
C16  35672454.224   185755818.770         -26.271          48.000    35672440.309   143638133.624         -20.407          48.000  
C25  22376184.409   116518664.009       -2630.112          32.000                                                                  
C32  21012444.129   109417294.370         810.665          50.000                                                                  
C06  35357287.082   184114660.101         152.406          45.000    35357266.922   142369064.486         117.742          46.000  
G25  20382483.508   107110684.542        2449.175          45.000    20382474.625    83462829.265        1908.428          43.000                                                  
G10  19468137.401   102305752.665         914.606          50.000    19468126.320    79718722.027         712.560          45.000                                                  
G28  21919452.137   115187491.917        2514.942          42.000    21919441.127    89756460.507        1959.868          43.000                                                  
C23  20717673.656   107882340.815         136.447          50.000                                                                  
C09  36821087.841   191737045.963         251.143          42.000    36821071.981   148263198.658         194.412          47.000  
C33  26248813.710                       -2959.493          27.000                                                                  
C37  22747765.082   118453579.920        2622.437          45.000                                                                  
> 2025 10 27 02 54 31.7560000  0 19                     
G12  20714871.887   108857388.304         727.285          45.000    20714860.470    84823893.294         566.398          43.000                                                  
G15  23395114.788                       -3280.302          32.000    23395113.099    95799078.321       -2555.597          33.000                                                  
G18  23742476.846   124767565.860       -3660.826          33.000    23742474.443    97221454.115       -2852.618          37.000                                                  
G23  19355108.452   101711773.141       -2219.422          47.000    19355096.442    79255851.863       -1729.309          47.000                                                  
G24  21090904.776                       -3415.529          29.000    21090896.389                       -2661.777          30.000                                                  
G32  20832509.341   109475572.594        1476.356          45.000    20832499.889    85305606.092        1150.199          42.000                                                  
C08  34727117.898   180833190.097        -380.231          46.000    34727097.077   139831613.952        -293.945          49.000  
C13  34714725.708   180768661.776         -78.186          47.000    34714712.939   139781749.460         -60.535          48.000  
C16  35672454.430   185755819.827         -26.363          48.000    35672440.542   143638134.434         -20.286          48.000  
C25  22376204.573   116518769.183       -2629.497          32.000                                                                  
C32  21012437.884   109417261.943         810.683          50.000                                                                  
C06  35357285.896   184114654.011         152.351          45.000    35357265.736   142369059.777         117.762          46.000  
G25  20382464.871   107110586.575        2449.176          45.000    20382455.993    83462752.928        1908.440          43.000                                                  
G10  19468130.439   102305716.078         914.648          50.000    19468119.358    79718693.517         712.652          45.000                                                  
G28  21919432.975   115187391.306        2515.190          42.000    21919421.982    89756382.122        1959.729          43.000                                                  
C23  20717672.580   107882335.361         136.350          50.000                                                                  
C09  36821085.887   191737035.896         251.515          42.000    36821070.049   148263190.879         194.479          47.000  
C33  26248836.318                       -2959.500          27.000                                                                  
C37  22747744.937   118453475.023        2622.485          45.000                                                                  
> 2025 10 27 02 54 31.7960000  0 19                     
G12  20714866.380   108857359.225         727.104          45.000    20714854.931    84823870.620         566.618          43.000                                                  
G15  23395139.770                       -3280.995          32.000    23395138.070    95799180.545       -2555.690          33.000                                                  
G18  23742504.709   124767712.307       -3661.148          33.000    23742502.311    97221568.206       -2852.461          37.000                                                  
G23  19355125.349   101711861.919       -2219.472          47.000    19355113.344    79255921.046       -1729.494          47.000                                                  
G24  21090930.754                       -3415.927          29.000    21090922.387                       -2661.030          30.000                                                  
G32  20832498.102   109475513.558        1476.083          45.000    20832488.635    85305560.085        1150.193          42.000                                                  
C08  34727120.825   180833205.302        -380.194          46.000    34727099.968   139831625.707        -293.915          49.000  
C13  34714726.281   180768664.908         -78.265          47.000    34714713.544   139781751.877         -60.449          48.000  
C16  35672454.643   185755820.895         -26.611          48.000    35672440.735   143638135.253         -20.381          48.000  
C25  22376224.791   116518874.428       -2630.554          32.000                                                                  
C32  21012431.616   109417229.522         810.573          50.000                                                                  
C06  35357284.702   184114647.936         152.051          45.000    35357264.548   142369055.074         117.639          46.000  
G25  20382446.239   107110488.618        2448.983          45.000    20382437.359    83462676.589        1908.434          43.000                                                  
G10  19468123.507   102305679.496         914.568          50.000    19468112.386    79718665.009         712.639          45.000                                                  
G28  21919413.837   115187290.711        2515.001          42.000    21919402.845    89756303.731        1959.766          43.000                                                  
C23  20717671.528   107882329.908         136.301          50.000                                                                  
C09  36821083.976   191737025.841         251.428          42.000    36821068.101   148263183.109         194.320          47.000  
C33  26248858.904                       -2959.273          27.000                                                                  
C37  22747724.787   118453370.139        2622.229          45.000                                                                  
> 2025 10 27 02 54 31.8360000  0 19                     
G12  20714860.856   108857330.148         726.938          45.000    20714849.413    84823847.964         566.456          43.000                                                  
G15  23395164.721                       -3279.291          32.000    23395163.047    95799282.725       -2554.930          33.000                                                  
G18  23742532.572   124767858.731       -3660.923          33.000    23742530.201    97221682.316       -2852.661          37.000                                                  
G23  19355142.245   101711950.698       -2219.502          47.000    19355130.232    79255990.230       -1729.635          47.000                                                  
G24  21090956.787                       -3415.750          29.000    21090948.371                       -2661.542          30.000                                                  
G32  20832486.861   109475454.520        1475.978          45.000    20832477.396    85305514.074        1150.265          42.000                                                  
C08  34727123.732   180833220.516        -380.371          46.000    34727102.871   139831637.469        -294.043          49.000  
C13  34714726.869   180768668.048         -78.455          47.000    34714714.158   139781754.308         -60.675          48.000  
C16  35672454.868   185755821.959         -26.664          48.000    35672440.946   143638136.077         -20.545          48.000  
C25  22376244.988   116518979.643       -2630.726          32.000                                                                  
C32  21012425.360   109417197.102         810.496          50.000                                                                  
C06  35357283.515   184114641.861         151.844          45.000    35357263.355   142369050.376         117.489          46.000  
G25  20382427.598   107110390.665        2448.796          45.000    20382418.694    83462600.246        1908.539          43.000                                                  
G10  19468116.573   102305642.923         914.352          50.000    19468105.437    79718636.506         712.603          45.000                                                  
G28  21919394.703   115187190.129        2514.628          42.000    21919383.707    89756225.349        1959.578          43.000                                                  
C23  20717670.460   107882324.460         136.200          50.000                                                                  
C09  36821082.052   191737015.785         251.403          42.000    36821066.174   148263175.334         194.347          47.000  
C33  26248881.770                       -2959.011          27.000                                                                  
C37  22747704.643   118453265.249        2622.186          45.000                                                                  
> 2025 10 27 02 54 31.8760000  0 19                     
G12  20714855.292   108857301.063         727.001          45.000    20714843.904    84823825.299         566.545          43.000                                                  
G15  23395189.703                       -3278.102          32.000    23395187.995    95799384.925       -2554.986          33.000                                                  
G18  23742560.428   124768005.202       -3661.654          33.000    23742558.060    97221796.414       -2852.526          37.000                                                  
G23  19355159.123   101712039.481       -2219.588          47.000    19355147.113    79256059.409       -1729.560          47.000                                                  
G24  21090982.785                       -3415.896          29.000    21090974.386                       -2661.888          30.000                                                  
G32  20832475.624   109475395.485        1475.871          45.000    20832466.157    85305468.067        1150.164          42.000                                                  
C08  34727126.647   180833235.722        -380.261          46.000    34727105.785   139831649.231        -294.110          49.000  
C13  34714727.490   180768671.187         -78.528          47.000    34714714.748   139781756.734         -60.693          48.000  
C16  35672455.107   185755823.024         -26.698          48.000    35672441.143   143638136.902         -20.659          48.000  
C25  22376265.215   116519084.856       -2630.576          32.000                                                                  
C32  21012419.166   109417164.681         810.486          50.000                                                                  
C06  35357282.342   184114635.782         151.820          45.000    35357262.187   142369045.672         117.520          46.000  
G25  20382408.949   107110292.703        2448.882          45.000    20382400.060    83462523.923        1908.226          43.000                                                  
G10  19468109.602   102305606.340         914.470          50.000    19468098.459    79718608.008         712.486          45.000                                                  
G28  21919375.552   115187089.538        2514.636          42.000    21919364.549    89756146.970        1959.494          43.000                                                  
C23  20717669.394   107882319.005         136.281          50.000                                                                  
C09  36821080.113   191737005.729         251.397          42.000    36821064.225   148263167.567         194.234          47.000  
C33  26248904.706                       -2958.364          27.000                                                                  
C37  22747684.495   118453160.365        2622.052          45.000                                                                  
> 2025 10 27 02 54 31.9160000  0 19                     
G12  20714849.766   108857271.982         726.976          45.000    20714838.371    84823802.639         566.520          43.000                                                  
G15  23395214.706                       -3278.679          32.000    23395212.973    95799487.187       -2556.014          33.000                                                  
G18  23742588.297   124768151.596       -3660.467          33.000    23742585.925    97221910.509       -2852.397          37.000                                                  
G23  19355176.003   101712128.262       -2219.600          47.000    19355163.998    79256128.583       -1729.456          47.000                                                  
G24  21091008.843                       -3416.147          29.000    21091000.386                       -2661.038          30.000                                                  
G32  20832464.387   109475336.434        1476.102          45.000    20832454.916    85305422.057        1150.219          42.000                                                  
C08  34727129.560   180833250.928        -380.219          46.000    34727108.735   139831660.988        -294.012          49.000  
C13  34714728.095   180768674.321         -78.448          47.000    34714715.356   139781759.154         -60.577          48.000  
C16  35672455.325   185755824.075         -26.461          48.000    35672441.368   143638137.725         -20.667          48.000  
C25  22376285.447   116519190.062       -2630.334          32.000                                                                  
C32  21012412.936   109417132.254         810.563          50.000                                                                  
C06  35357281.172   184114629.696         151.986          45.000    35357261.028   142369040.962         117.655          46.000  
G25  20382390.300   107110194.746        2448.885          45.000    20382381.429    83462447.594        1908.132          43.000                                                  
G10  19468102.662   102305569.761         914.440          50.000    19468091.481    79718579.504         712.492          45.000                                                  
G28  21919356.410   115186988.937        2514.849          42.000    21919345.403    89756068.582        1959.619          43.000                                                  
C23  20717668.365   107882313.547         136.393          50.000                                                                  
C09  36821078.173   191736995.674         251.365          42.000    36821062.291   148263159.794         194.260          47.000  
C33  26248927.721                       -2958.833          27.000                                                                  
C37  22747664.368   118453055.477        2622.089          45.000                                                                  
> 2025 10 27 02 54 31.9560000  0 19                     
G12  20714844.216   108857242.899         727.030          45.000    20714832.837    84823779.975         566.552          43.000                                                  
G15  23395239.689                       -3280.038          32.000    23395237.948    95799589.371       -2555.142          33.000                                                  
G18  23742616.152   124768298.040       -3660.779          33.000    23742613.810    97222024.625       -2852.690          37.000                                                  
G23  19355192.907   101712217.045       -2219.655          47.000    19355180.926    79256197.771       -1729.635          47.000                                                  
G24  21091034.855                       -3416.096          29.000    21091026.401                       -2661.624          31.000                                                  
G32  20832453.148   109475277.394        1476.028          45.000    20832443.691    85305376.045        1150.277          42.000                                                  
C08  34727132.518   180833266.137        -380.243          46.000    34727111.648   139831672.751        -294.073          49.000  
C13  34714728.714   180768677.460         -78.491          47.000    34714715.990   139781761.578         -60.596          48.000  
C16  35672455.545   185755825.134         -26.430          48.000    35672441.545   143638138.540         -20.508          48.000  
C25  22376305.651   116519295.278       -2630.409          32.000                                                                  
C32  21012406.694   109417099.837         810.448          50.000                                                                  
C06  35357279.984   184114623.607         152.130          45.000    35357259.853   142369036.259         117.621          46.000  
G25  20382371.646   107110096.786        2448.920          45.000    20382362.802    83462371.265        1908.098          43.000                                                  
G10  19468095.701   102305533.187         914.348          50.000    19468084.512    79718551.005         712.443          45.000                                                  
G28  21919337.266   115186888.343        2514.849          42.000    21919326.267    89755990.201        1959.544          43.000                                                  
C23  20717667.316   107882308.100         136.241          50.000                                                                  
C09  36821076.227   191736985.635         251.051          42.000    36821060.345   148263152.014         194.424          47.000  
C33  26248950.754                3      -2959.218          26.000                                                                  
C37  22747644.256   118452950.592        2622.064          45.000                                                                  
> 2025 10 27 02 54 31.9960000  0 19                     
G12  20714838.668   108857213.823         726.921          45.000    20714827.298    84823757.331         566.200          43.000                                                  
G15  23395264.655                       -3279.441          32.000    23395262.900    95799691.590       -2555.399          33.000                                                  
G18  23742643.993   124768444.483       -3661.032          33.000    23742641.665    97222138.744       -2852.926          37.000                                                  
G23  19355209.822   101712305.833       -2219.735          47.000    19355197.803    79256266.957       -1729.727          47.000                                                  
G24  21091060.851                       -3415.862          29.000    21091052.380                       -2661.520          31.000                                                  
G32  20832441.915   109475218.352        1476.014          45.000    20832432.452    85305330.043        1150.121          42.000                                                  
C08  34727135.436   180833281.346        -380.273          46.000    34727114.580   139831684.513        -294.092          49.000  
C13  34714729.349   180768680.598         -78.497          47.000    34714716.637   139781764.004         -60.663          48.000  
C16  35672455.754   185755826.193         -26.446          48.000    35672441.759   143638139.363         -20.562          48.000  
C25  22376325.889   116519400.453       -2629.607          32.000                                                                  
C32  21012400.460   109417067.421         810.359          50.000                                                                  
C06  35357278.807   184114617.521         152.166          45.000    35357258.697   142369031.554         117.642          46.000  
G25  20382353.021   107109998.837        2448.749          45.000    20382344.159    83462294.935        1908.171          43.000                                                  
G10  19468088.766   102305496.617         914.212          50.000    19468077.553    79718522.504         712.437          45.000                                                  
G28  21919318.116   115186787.750        2514.786          42.000    21919307.092    89755911.810        1959.681          43.000                                                  
C23  20717666.257   107882302.652         136.158          50.000                                                                  
C09  36821074.318   191736975.587         251.060          42.000    36821058.410   148263144.244         194.296          47.000  
C33  26248973.598                3      -2958.574          26.000                                                                  
C37  22747624.101   118452845.705        2622.095          45.000                                                                  
> 2025 10 27 02 54 32.0360000  0 19                     
G12  20714833.145   108857184.749         726.860          45.000    20714821.765    84823734.680         566.142          43.000                                                  
G15  23395289.593                       -3279.045          32.000    23395287.862    95799793.819       -2555.740          33.000                                                  
G18  23742671.850   124768590.898       -3660.567          33.000    23742669.539    97222252.854       -2852.906          37.000                                                  
G23  19355226.739   101712394.623       -2219.821          47.000    19355214.693    79256336.141       -1729.708          47.000                                                  
G24  21091086.849                       -3415.976          29.000    21091078.401                       -2662.309          30.000                                                  
G32  20832430.684   109475159.310        1476.014          45.000    20832421.203    85305284.031        1150.240          42.000                                                  
C08  34727138.349   180833296.561        -380.402          46.000    34727117.518   139831696.276        -294.110          49.000  
C13  34714729.957   180768683.734         -78.442          47.000    34714717.245   139781766.430         -60.693          48.000  
C16  35672455.951   185755827.257         -26.559          48.000    35672441.994   143638140.185         -20.573          48.000  
C25  22376346.048   116519505.650       -2629.740          32.000                                                                  
C32  21012394.224   109417035.005         810.337          50.000                                                                  
C06  35357277.641   184114611.450         151.892          45.000    35357257.541   142369026.859         117.439          46.000  
G25  20382334.391   107109900.880        2448.843          45.000    20382325.496    83462218.598        1908.324          43.000                                                  
G10  19468081.813   102305460.046         914.213          50.000    19468070.590    79718493.998         712.511          45.000                                                  
G28  21919298.985   115186687.159        2514.794          42.000    21919287.928    89755833.429        1959.619          43.000                                                  
C23  20717665.158   107882297.209         136.052          50.000                                                                  
C09  36821072.393   191736965.542         251.005          42.000    36821056.489   148263136.479         194.140          47.000  
C33  26248996.025                3      -2957.881          27.000                                                                  
C37  22747603.939   118452740.833        2621.826          45.000                                                                  
> 2025 10 27 02 54 32.0760000  0 19                     
G12  20714827.645   108857155.693         726.493          45.000    20714816.214    84823712.034         566.059          43.000                                                  
G15  23395314.548                       -3279.630          32.000    23395312.793    95799896.022       -2555.537          33.000                                                  
G18  23742699.748   124768737.375       -3661.471          33.000    23742697.413    97222366.948       -2852.587          37.000                                                  
G23  19355243.650   101712483.416       -2219.888          47.000    19355231.609    79256405.329       -1729.757          47.000                                                  
G24  21091112.836                       -3415.925          29.000    21091104.386                       -2661.851          30.000                                                  
G32  20832419.463   109475100.280        1475.788          45.000    20832409.989    85305238.036        1149.960          42.000                                                  
C08  34727141.261   180833311.771        -380.353          46.000    34727120.423   139831708.048        -294.257          49.000  
C13  34714730.554   180768686.879         -78.607          47.000    34714717.889   139781768.866         -60.895          48.000  
C16  35672456.185   185755828.331         -26.805          48.000    35672442.189   143638141.015         -20.738          48.000  
C25  22376366.292   116519610.903       -2630.900          32.000                                                                  
C32  21012388.031   109417002.592         810.288          50.000                                                                  
C06  35357276.477   184114605.375         151.840          45.000    35357256.407   142369022.167         117.288          46.000  
G25  20382315.756   107109802.932        2448.738          45.000    20382306.873    83462142.280        1908.042          43.000                                                  
G10  19468074.840   102305423.477         914.164          50.000    19468063.639    79718465.511         712.203          45.000                                                  
G28  21919279.852   115186586.580        2514.571          42.000    21919268.785    89755755.063        1959.239          43.000                                                  
C23  20717664.091   107882291.772         135.901          50.000                                                                  
C09  36821070.484   191736955.499         251.008          42.000    36821054.594   148263128.713         194.079          47.000  
C33  26249018.580                3      -2959.071          27.000                                                                  
C37  22747583.789   118452635.964        2621.649          45.000                                                                  
> 2025 10 27 02 54 32.1160000  0 19                     
G12  20714822.106   108857126.632         726.412          45.000    20714810.660    84823689.381         566.188          43.000                                                  
G15  23395339.509                       -3280.046          32.000    23395337.729    95799998.236       -2555.508          33.000                                                  
G18  23742727.613   124768883.798       -3660.959          33.000    23742725.288    97222481.053       -2852.640          37.000                                                  
G23  19355260.545   101712572.209       -2219.918          47.000    19355248.490    79256474.523       -1729.873          47.000                                                  
G24  21091138.823                       -3416.289          29.000    21091130.403                       -2662.151          30.000                                                  
G32  20832408.207   109475041.243        1475.828          45.000    20832398.760    85305192.046        1149.799          42.000                                                  
C08  34727144.189   180833326.996        -380.603          46.000    34727123.336   139831719.820        -294.354          49.000  
C13  34714731.154   180768690.027         -78.723          47.000    34714718.504   139781771.300         -60.938          48.000  
C16  35672456.424   185755829.405         -26.929          48.000    35672442.394   143638141.844         -20.813          48.000  
C25  22376386.514   116519716.155       -2631.401          32.000                                                                  
C32  21012381.834   109416970.182         810.227          50.000                                                                  
C06  35357275.333   184114599.304         151.725          45.000    35357255.268   142369017.468         117.369          46.000  
G25  20382297.109   107109704.992        2448.522          45.000    20382288.245    83462065.969        1907.765          43.000                                                  
G10  19468067.889   102305386.913         914.060          50.000    19468056.693    79718437.019         712.180          45.000                                                  
G28  21919260.702   115186486.001        2514.467          42.000    21919249.637    89755676.691        1959.211          43.000                                                  
C23  20717663.013   107882286.339         135.784          50.000                                                                  
C09  36821068.568   191736945.460         250.959          42.000    36821052.658   148263120.949         194.037          47.000  
C33  26249041.391                3      -2960.178          26.000                                                                  
C37  22747563.649   118452531.076        2621.936          45.000                                                                  
> 2025 10 27 02 54 32.1560000  0 19                     
G12  20714816.579   108857097.557         726.658          45.000    20714805.101    84823666.728         566.259          43.000                                                  
G15  23395364.498                       -3280.381          32.000    23395362.725    95800100.438       -2555.159          33.000                                                  
G18  23742755.469   124769030.271       -3661.650          33.000    23742753.171    97222595.160       -2852.740          37.000                                                  
G23  19355277.439   101712661.004       -2219.948          47.000    19355265.406    79256543.716       -1729.916          47.000                                                  
G24  21091164.831                       -3416.192          29.000    21091156.380                       -2661.926          30.000                                                  
G32  20832396.969   109474982.210        1475.798          45.000    20832387.495    85305146.030        1150.161          42.000                                                  
C08  34727147.131   180833342.214        -380.560          46.000    34727126.243   139831731.584        -294.202          49.000  
C13  34714731.780   180768693.167         -78.607          47.000    34714719.147   139781773.730         -60.864          48.000  
C16  35672456.677   185755830.476         -26.915          48.000    35672442.584   143638142.669         -20.756          48.000  
C25  22376406.729   116519821.394       -2631.267          32.000                                                                  
C32  21012375.620   109416937.769         810.275          50.000                                                                  
C06  35357274.192   184114593.233         151.705          45.000    35357254.107   142369012.769         117.444          46.000  
G25  20382278.467   107109607.046        2448.524          45.000    20382269.615    83461989.652        1907.755          43.000                                                  
G10  19468060.941   102305350.354         913.925          50.000    19468049.742    79718408.533         712.082          45.000                                                  
G28  21919241.553   115186385.417        2514.569          42.000    21919230.493    89755598.307        1959.443          43.000                                                  
C23  20717662.000   107882280.902         135.802          50.000                                                                  
C09  36821066.640   191736935.409         251.136          42.000    36821050.737   148263113.187         194.008          47.000  
C33  26249063.928                3      -2959.109          26.000                                                                  
C37  22747543.493   118452426.191        2622.101          45.000                                                                  
> 2025 10 27 02 54 32.1960000  0 19                     
G12  20714811.069   108857068.489         726.657          45.000    20714799.563    84823644.065         566.450          43.000                                                  
G15  23395389.467                       -3279.571          32.000    23395387.670    95800202.664       -2555.405          33.000                                                  
G18  23742783.343   124769176.691       -3661.031          33.000    23742781.012    97222709.268       -2852.728          37.000                                                  
G23  19355294.312   101712749.800       -2219.966          47.000    19355282.301    79256612.909       -1729.897          46.000                                                  
G24  21091190.853                       -3415.951          29.000    21091182.396                       -2662.023          31.000                                                  
G32  20832385.745   109474923.176        1475.805          45.000    20832376.286    85305100.039        1149.910          42.000                                                  
C08  34727150.066   180833357.432        -380.530          46.000    34727129.178   139831743.344        -294.037          49.000  
C13  34714732.380   180768696.306         -78.540          47.000    34714719.761   139781776.157         -60.760          48.000  
C16  35672456.897   185755831.543         -26.792          48.000    35672442.767   143638143.495         -20.735          48.000  
C25  22376426.896   116519926.585       -2630.205          32.000                                                                  
C32  21012369.387   109416905.357         810.282          50.000                                                                  
C06  35357273.041   184114587.157         151.802          45.000    35357252.971   142369008.067         117.516          46.000  
G25  20382259.829   107109509.096        2448.621          45.000    20382250.976    83461913.332        1907.808          43.000                                                  
G10  19468053.991   102305313.789         914.006          50.000    19468042.804    79718380.041         712.169          45.000                                                  
G28  21919222.420   115186284.831        2514.618          42.000    21919211.346    89755519.927        1959.485          43.000                                                  
C23  20717660.963   107882275.462         135.883          50.000                                                                  
C09  36821064.710   191736925.359         251.223          42.000    36821048.796   148263105.417         194.147          47.000  
C33  26249087.047                3      -2958.089          26.000                                                                  
C37  22747523.358   118452321.302        2622.223          45.000                                                                  
> 2025 10 27 02 54 32.2360000  0 19                     
G12  20714805.528   108857039.419         726.716          45.000    20714794.044    84823621.418         566.251          43.000                                                  
G15  23395414.428                       -3278.941          32.000    23395412.659    95800304.901       -2555.699          33.000                                                  
G18  23742811.197   124769323.106       -3660.606          33.000    23742808.902    97222823.374       -2852.723          37.000                                                  
G23  19355311.213   101712838.595       -2219.935          47.000    19355299.184    79256682.096       -1729.760          47.000                                                  
G24  21091216.842                       -3416.280          29.000    21091208.416                       -2661.695          31.000                                                  
G32  20832374.493   109474864.140        1475.845          45.000    20832365.052    85305054.042        1149.827          42.000                                                  
C08  34727152.996   180833372.643        -380.383          46.000    34727132.131   139831755.105        -294.000          49.000  
C13  34714732.985   180768699.448         -78.571          47.000    34714720.379   139781778.587         -60.760          48.000  
C16  35672457.120   185755832.604         -26.616          48.000    35672442.984   143638144.314         -20.585          48.000  
C25  22376447.081   116520031.792       -2629.930          32.000                                                                  
C32  21012363.145   109416872.947         810.237          50.000                                                                  
C06  35357271.876   184114581.082         151.821          45.000    35357251.836   142369003.368         117.479          46.000  
G25  20382241.217   107109411.156        2448.496          45.000    20382232.321    83461837.009        1907.980          43.000                                                  
G10  19468047.032   102305277.224         914.074          50.000    19468035.864    79718351.552         712.169          45.000                                                  
G28  21919203.262   115186184.242        2514.692          42.000    21919192.213    89755441.542        1959.590          43.000                                                  
C23  20717659.919   107882270.022         135.949          50.000                                                                  
C09  36821062.744   191736915.315         251.166          42.000    36821046.859   148263097.642         194.335          47.000  
C33  26249109.753                3      -2959.005          26.000                                                                  
C37  22747503.193   118452216.422        2622.107          45.000                                                                  
> 2025 10 27 02 54 32.2760000  0 19                     
G12  20714799.985   108857010.354         726.676          45.000    20714788.484    84823598.779         566.042          43.000                                                  
G15  23395439.389                       -3278.485          32.000    23395437.620    95800407.115       -2555.574          33.000                                                  
G18  23742839.066   124769469.532       -3660.611          33.000    23742836.779    97222937.485       -2852.758          37.000                                                  
G23  19355328.119   101712927.392       -2219.960          47.000    19355316.102    79256751.287       -1729.767          47.000                                                  
G24  21091242.894                       -3416.020          29.000    21091234.425                       -2662.661          31.000                                                  
G32  20832363.253   109474805.108        1475.821          45.000    20832353.830    85305008.035        1150.017          42.000                                                  
C08  34727155.919   180833387.856        -380.341          46.000    34727135.080   139831766.873        -294.104          49.000  
C13  34714733.583   180768702.594         -78.650          47.000    34714720.975   139781781.011         -60.669          48.000  
C16  35672457.344   185755833.666         -26.522          48.000    35672443.197   143638145.137         -20.582          48.000  
C25  22376467.253   116520137.022       -2630.520          32.000                                                                  
C32  21012356.946   109416840.532         810.302          50.000                                                                  
C06  35357270.723   184114575.002         151.960          45.000    35357250.694   142368998.672         117.426          46.000  
G25  20382222.553   107109313.193        2448.820          45.000    20382213.664    83461760.672        1908.278          43.000                                                  
G10  19468040.056   102305240.657         914.148          50.000    19468028.896    79718323.050         712.403          45.000                                                  
G28  21919184.137   115186083.666        2514.505          42.000    21919173.059    89755363.170        1959.378          43.000                                                  
C23  20717658.887   107882264.584         135.950          50.000                                                                  
C09  36821060.834   191736905.272         251.095          42.000    36821044.951   148263089.869         194.370          47.000  
C33  26249131.926                3      -2960.331          26.000                                                                  
C37  22747483.029   118452111.546        2621.942          45.000                                                                  
> 2025 10 27 02 54 32.3160000  0 19                     
G12  20714794.462   108856981.286         726.648          45.000    20714782.945    84823576.131         566.099          43.000                                                  
G15  23395464.333                       -3278.721          32.000    23395462.573    95800509.310       -2555.063          33.000                                                  
G18  23742866.920   124769615.983       -3661.130          33.000    23742864.649    97223051.581       -2852.421          37.000                                                  
G23  19355345.014   101713016.183       -2219.843          47.000    19355332.988    79256820.479       -1729.798          47.000                                                  
G24  21091268.877                       -3415.976          29.000    21091260.384                       -2661.891          30.000                                                  
G32  20832352.013   109474746.068        1475.943          45.000    20832342.593    85304962.028        1150.120          42.000                                                  
C08  34727158.830   180833403.069        -380.347          46.000    34727137.990   139831778.635        -294.073          49.000  
C13  34714734.206   180768705.737         -78.632          47.000    34714721.560   139781783.440         -60.712          48.000  
C16  35672457.548   185755834.737         -26.692          48.000    35672443.387   143638145.960         -20.569          48.000  
C25  22376487.512   116520242.209       -2629.940          32.000                                                                  
C32  21012350.753   109416808.116         810.377          50.000                                                                  
C06  35357269.549   184114568.925         151.956          45.000    35357249.492   142368993.971         117.444          46.000  
G25  20382203.904   107109215.252        2448.650          45.000    20382195.020    83461684.350        1908.190          43.000                                                  
G10  19468033.105   102305204.091         914.173          50.000    19468021.958    79718294.563         712.273          45.000                                                  
G28  21919164.962   115185983.075        2514.661          42.000    21919153.924    89755284.798        1959.272          43.000                                                  
C23  20717657.854   107882259.140         136.052          50.000                                                                  
C09  36821058.911   191736895.227         251.122          42.000    36821043.037   148263082.101         194.281          47.000  
C33  26249154.542                3      -2959.198          26.000                                                                  
C37  22747462.886   118452006.675        2621.790          45.000                                                                  
> 2025 10 27 02 54 32.3560000  0 19                     
G12  20714788.951   108856952.222         726.585          45.000    20714777.424    84823553.480         566.171          43.000                                                  
G15  23395489.311                       -3278.900          32.000    23395487.571    95800611.569       -2555.987          33.000                                                  
G18  23742894.800   124769762.407       -3660.904          33.000    23742892.516    97223165.688       -2852.492          37.000                                                  
G23  19355361.904   101713104.976       -2219.812          47.000    19355349.868    79256889.664       -1729.668          47.000                                                  
G24  21091294.875   110835503.2611      -3415.769          29.000    21091286.413                       -2661.627          30.000                                                  
G32  20832340.750   109474687.026        1476.018          45.000    20832331.343    85304916.018        1150.241          42.000                                                  
C08  34727161.760   180833418.275        -380.206          46.000    34727140.906   139831790.398        -294.086          49.000  
C13  34714734.840   180768708.868         -78.375          47.000    34714722.151   139781785.870         -60.748          48.000  
C16  35672457.750   185755835.800         -26.646          48.000    35672443.594   143638146.784         -20.597          48.000  
C25  22376507.723   116520347.429       -2630.281          32.000                                                                  
C32  21012344.505   109416775.699         810.414          50.000                                                                  
C06  35357268.407   184114562.848         151.954          45.000    35357248.310   142368989.272         117.458          46.000  
G25  20382185.279   107109117.299        2448.765          45.000    20382176.393    83461608.020        1908.240          43.000                                                  
G10  19468026.152   102305167.522         914.215          50.000    19468014.992    79718266.064         712.434          45.000                                                  
G28  21919145.813   115185882.484        2514.779          42.000    21919134.764    89755206.416        1959.417          43.000                                                  
C23  20717656.817   107882253.695         136.133          50.000                                                                  
C09  36821056.982   191736885.181         251.115          42.000    36821041.125   148263074.331         194.235          47.000  
C33  26249177.065                3      -2961.036          26.000                                                                  
C37  22747442.762   118451901.793        2621.942          45.000                                                                  
> 2025 10 27 02 54 32.3960000  0 19                     
G12  20714783.425   108856923.147         726.760          45.000    20714771.877    84823530.817         566.442          43.000                                                  
G15  23395514.244                       -3279.961          32.000    23395512.513    95800713.761       -2555.239          33.000                                                  
G18  23742922.671   124769908.844       -3661.062          33.000    23742920.369    97223279.796       -2852.616          37.000                                                  
G23  19355378.811   101713193.765       -2219.757          47.000    19355366.763    79256958.852       -1729.669          47.000                                                  
G24  21091320.846   110835639.897       -3415.790          29.000    21091312.400                       -2660.806          30.000                                                  
G32  20832329.513   109474627.985        1476.040          45.000    20832320.087    85304870.001        1150.417          42.000                                                  
C08  34727164.706   180833433.482        -380.170          46.000    34727143.833   139831802.162        -294.116          49.000  
C13  34714735.447   180768712.007         -78.430          47.000    34714722.733   139781788.297         -60.693          48.000  
C16  35672457.954   185755836.860         -26.547          48.000    35672443.794   143638147.613         -20.687          48.000  
C25  22376527.968   116520452.662       -2630.619          32.000                                                                  
C32  21012338.311   109416743.278         810.482          50.000                                                                  
C06  35357267.236   184114556.760         152.130          45.000    35357247.098   142368984.563         117.642          46.000  
G25  20382166.629   107109019.358        2448.612          45.000    20382157.777    83461531.698        1908.110          43.000                                                  
G10  19468019.202   102305130.959         914.116          50.000    19468008.051    79718237.571         712.365          45.000                                                  
G28  21919126.677   115185781.887        2514.896          42.000    21919115.623    89755128.033        1959.504          43.000                                                  
C23  20717655.783   107882248.250         136.142          50.000                                                                  
C09  36821055.072   191736875.124         251.277          42.000    36821039.194   148263066.556         194.286          47.000  
C33  26249199.558                3      -2960.401          26.000                                                                  
C37  22747422.648   118451796.905        2622.137          45.000                                                                  
> 2025 10 27 02 54 32.4360000  0 19                     
G12  20714777.888   108856894.084         726.649          45.000    20714766.349    84823508.172         566.233          43.000                                                  
G15  23395539.197                       -3280.287          32.000    23395537.463    95800815.951       -2554.855          33.000                                                  
G18  23742950.547   124770055.284       -3661.190          33.000    23742948.233    97223393.899       -2852.629          37.000                                                  
G23  19355395.720   101713282.560       -2219.844          47.000    19355383.675    79257028.045       -1729.786          46.000                                                  
G24  21091346.855   110835776.526       -3415.723          29.000    21091338.406                       -2662.012          30.000                                                  
G32  20832318.277   109474568.945        1476.011          45.000    20832308.857    85304824.009        1150.018          42.000                                                  
C08  34727167.634   180833448.700        -380.383          46.000    34727146.774   139831813.925        -294.116          49.000  
C13  34714736.046   180768715.146         -78.473          47.000    34714723.321   139781790.726         -60.699          48.000  
C16  35672458.166   185755837.919         -26.484          48.000    35672444.003   143638148.431         -20.534          48.000  
C25  22376548.176                       -2630.899          32.000                                                                  
C32  21012332.114   109416710.865         810.358          50.000                                                                  
C06  35357266.046   184114550.683         151.997          45.000    35357245.909   142368979.864         117.545          46.000  
G25  20382147.976   107108921.407        2448.684          45.000    20382139.141    83461455.381        1907.946          43.000                                                  
G10  19468012.247   102305094.396         914.036          50.000    19468001.100    79718209.091         712.088          45.000                                                  
G28  21919107.547   115185681.316        2514.446          42.000    21919096.483    89755049.652        1959.540          43.000                                                  
C23  20717654.712   107882242.819         135.874          50.000                                                                  
C09  36821053.173   191736865.069         251.364          43.000    36821037.271   148263058.793         194.122          47.000  
C33  26249222.408                3      -2959.856          26.000                                                                  
C37  22747402.499   118451692.023        2622.107          45.000                                                                  
> 2025 10 27 02 54 32.4760000  0 19                     
G12  20714772.366   108856865.018         726.630          45.000    20714760.818    84823485.530         566.055          43.000                                                  
G15  23395564.163                       -3279.490          32.000    23395562.396    95800918.182       -2555.418          33.000                                                  
G18  23742978.424   124770201.728       -3661.246          33.000    23742976.112    97223508.008       -2852.753          37.000                                                  
G23  19355412.632   101713371.359       -2219.954          47.000    19355400.574    79257097.238       -1729.848          47.000                                                  
G24  21091372.828   110835913.147       -3415.612          29.000    21091364.422                       -2661.696          30.000                                                  
G32  20832307.038   109474509.908        1475.920          45.000    20832297.656    85304778.007        1150.017          42.000                                                  
C08  34727170.567   180833463.922        -380.560          46.000    34727149.692   139831825.697        -294.287          49.000  
C13  34714736.636   180768718.291         -78.601          47.000    34714723.918   139781793.154         -60.712          48.000  
C16  35672458.354   185755838.985         -26.592          48.000    35672444.228   143638149.253         -20.517          48.000  
C25  22376568.395                       -2630.542          32.000                                                                  
C32  21012325.872   109416678.453         810.308          50.000                                                                  
C06  35357264.865   184114544.600         152.031          45.000    35357244.759   142368975.159         117.590          46.000  
G25  20382129.345   107108823.464        2448.599          45.000    20382120.493    83461379.076        1907.665          43.000                                                  
G10  19468005.304   102305057.834         914.006          50.000    19467994.119    79718180.593         712.280          45.000                                                  
G28  21919088.389   115185580.729        2514.510          42.000    21919077.334    89754971.278        1959.422          43.000                                                  
C23  20717653.671   107882237.385         135.795          50.000                                                                  
C09  36821051.221   191736855.025         251.193          43.000    36821035.363   148263051.021         194.180          47.000  
C33  26249245.372                3      -2959.565          26.000                                                                  
C37  22747382.343   118451587.145        2622.009          45.000                                                                  
> 2025 10 27 02 54 32.5160000  0 19                     
G12  20714766.847   108856835.952         726.638          45.000    20714755.301    84823462.884         566.053          43.000                                                  
G15  23395589.090                       -3279.604          32.000    23395587.361    95801020.384       -2555.153          33.000                                                  
G18  23743006.298   124770348.150       -3660.860          33.000    23743003.981    97223622.098       -2852.459          37.000                                                  
G23  19355429.535   101713460.157       -2220.022          47.000    19355417.476    79257166.429       -1729.829          47.000                                                  
G24  21091398.836   110836049.795       -3415.827          29.000    21091390.447                       -2662.087          30.000                                                  
G32  20832295.785   109474450.866        1476.000          45.000    20832286.428    85304732.005        1150.018          42.000                                                  
C08  34727173.469   180833479.139        -380.518          46.000    34727152.614   139831837.460        -294.183          49.000  
C13  34714737.232   180768721.429         -78.540          47.000    34714724.489   139781795.579         -60.675          48.000  
C16  35672458.584   185755840.046         -26.554          48.000    35672444.408   143638150.081         -20.630          48.000  
C25  22376588.591   116520768.330       -2630.512          32.000                                                                  
C32  21012319.656   109416646.039         810.291          50.000                                                                  
C06  35357263.678   184114538.518         152.036          45.000    35357243.580   142368970.465         117.404          46.000  
G25  20382110.715   107108725.518        2448.600          45.000    20382101.863    83461302.748        1907.966          43.000                                                  
G10  19467998.337   102305021.270         914.050          50.000    19467987.167    79718152.102         712.274          45.000                                                  
G28  21919069.221   115185480.149        2514.436          42.000    21919058.181    89754892.896        1959.509          43.000                                                  
C23  20717652.640   107882231.947         135.858          50.000                                                                  
C09  36821049.313   191736844.983         251.087          43.000    36821033.422   148263043.253         194.162          47.000  
C33  26249267.981                3      -2959.802          26.000                                                                  
C37  22747362.180   118451482.271        2621.869          45.000                                                                  
> 2025 10 27 02 54 32.5560000  0 19                     
G12  20714761.313   108856806.900         726.387          45.000    20714749.761    84823440.240         566.002          43.000                                                  
G15  23395614.039                       -3279.669          32.000    23395612.334    95801122.618       -2555.580          33.000                                                  
G18  23743034.179   124770494.563       -3660.498          33.000    23743031.827    97223736.187       -2852.352          37.000                                                  
G23  19355446.441   101713548.958       -2220.108          47.000    19355434.385    79257235.622       -1729.847          47.000                                                  
G24  21091424.867   110836186.476       -3416.374          29.000    21091416.463                       -2660.920          30.000                                                  
G32  20832284.558   109474391.826        1476.013          45.000    20832275.205    85304686.004        1149.980          42.000                                                  
C08  34727176.361   180833494.349        -380.383          46.000    34727155.520   139831849.225        -294.171          49.000  
C13  34714737.845   180768724.573         -78.607          47.000    34714725.080   139781798.007         -60.712          48.000  
C16  35672458.783   185755841.112         -26.624          48.000    35672444.619   143638150.900         -20.530          48.000  
C25  22376608.843   116520873.555       -2630.561          32.000                                                                  
C32  21012313.426   109416613.626         810.306          50.000                                                                  
C06  35357262.501   184114532.445         151.885          45.000    35357242.380   142368965.762         117.460          46.000  
G25  20382092.085   107108627.576        2448.514          45.000    20382083.203    83461226.420        1908.156          43.000                                                  
G10  19467991.358   102304984.705         914.080          50.000    19467980.222    79718123.612         712.237          45.000                                                  
G28  21919050.073   115185379.561        2514.594          42.000    21919039.023    89754814.525        1959.354          43.000                                                  
C23  20717651.633   107882226.508         135.911          50.000                                                                  
C09  36821047.360   191736834.931         251.202          43.000    36821031.511   148263035.486         194.176          47.000  
C33  26249290.834                3      -2958.784          26.000                                                                  
C37  22747342.055   118451377.386        2621.991          45.000                                                                  
> 2025 10 27 02 54 32.5960000  0 19                     
G12  20714755.763   108856777.832         726.568          45.000    20714744.239    84823417.592         566.089          43.000                                                  
G15  23395638.987                       -3279.319          32.000    23395637.274    95801224.845       -2555.913          33.000                                                  
G18  23743062.048   124770641.001       -3660.724          33.000    23743059.703    97223850.305       -2852.755          37.000                                                  
G23  19355463.350   101713637.753       -2219.996          47.000    19355451.277    79257304.816       -1729.853          47.000                                                  
G24  21091450.883   110836323.120       -3416.338          29.000    21091442.452                       -2660.935          30.000                                                  
G32  20832273.325   109474332.795        1475.850          45.000    20832263.965    85304640.000        1150.006          42.000                                                  
C08  34727179.256   180833509.560        -380.304          46.000    34727158.399   139831860.987        -294.080          49.000  
C13  34714738.438   180768727.710         -78.491          47.000    34714725.679   139781800.434         -60.699          48.000  
C16  35672459.001   185755842.179         -26.674          48.000    35672444.826   143638151.717         -20.449          48.000  
C25  22376629.030   116520978.780       -2630.685          32.000                                                                  
C32  21012307.225   109416581.213         810.319          50.000                                                                  
C06  35357261.315   184114526.361         152.014          45.000    35357241.230   142368961.063         117.419          46.000  
G25  20382073.429   107108529.624        2448.668          45.000    20382064.557    83461150.091        1908.263          43.000                                                  
G10  19467984.410   102304948.145         914.013          50.000    19467973.263    79718095.116         712.366          45.000                                                  
G28  21919030.952   115185278.976        2514.631          42.000    21919019.901    89754736.140        1959.522          43.000                                                  
C23  20717650.570   107882221.067         135.968          50.000                                                                  
C09  36821045.423   191736824.883         251.227          42.000    36821029.607   148263027.713         194.244          47.000  
C33  26249313.505                3      -2958.070          26.000                                                                  
C37  22747321.890   118451272.506        2621.960          45.000                                                                  
> 2025 10 27 02 54 32.6360000  0 19                     
G12  20714750.217   108856748.767         726.599          45.000    20714738.724    84823394.943         566.162          43.000                                                  
G15  23395663.935                       -3279.052          32.000    23395662.242    95801327.056       -2555.670          33.000                                                  
G18  23743089.889   124770787.417       -3660.521          33.000    23743087.543    97223964.416       -2852.906          37.000                                                  
G23  19355480.227   101713726.548       -2219.910          47.000    19355468.174    79257374.004       -1729.773          47.000                                                  
G24  21091476.865   110836459.730       -3415.895          29.000    21091468.496                       -2661.201          30.000                                                  
G32  20832262.095   109474273.748        1476.034          45.000    20832252.743    85304593.988        1150.181          42.000                                                  
C08  34727182.184   180833524.770        -380.273          46.000    34727161.327   139831872.747        -294.006          49.000  
C13  34714739.036   180768730.840         -78.302          47.000    34714726.284   139781802.864         -60.773          48.000  
C16  35672459.214   185755843.242         -26.627          48.000    35672445.013   143638152.538         -20.483          48.000  
C25  22376649.215   116521084.014       -2630.900          32.000                                                                  
C32  21012301.008   109416548.797         810.377          50.000                                                                  
C06  35357260.129   184114520.285         151.935          45.000    35357240.107   142368956.351         117.640          46.000  
G25  20382054.784   107108431.675        2448.706          45.000    20382045.908    83461073.769        1908.170          43.000                                                  
G10  19467977.454   102304911.582         914.031          50.000    19467966.315    79718066.634         712.125          45.000                                                  
G28  21919011.810   115185178.375        2514.948          42.000    21919000.761    89754657.763        1959.440          43.000                                                  
C23  20717649.524   107882215.628         135.973          50.000                                                                  
C09  36821043.474   191736814.833         251.245          42.000    36821027.691   148263019.935         194.407          47.000  
C33  26249336.023                3      -2959.934          26.000                                                                  
C37  22747301.753   118451167.613        2622.223          45.000                                                                  
> 2025 10 27 02 54 32.6760000  0 19                     
G12  20714744.672   108856719.699         726.689          45.000    20714733.190    84823372.297         566.161          43.000                                                  
G15  23395688.904                       -3279.083          32.000    23395687.192    95801429.243       -2554.892          33.000                                                  
G18  23743117.766   124770933.876       -3661.109          33.000    23743115.398    97224078.503       -2852.476          37.000                                                  
G23  19355497.128   101713815.345       -2219.941          47.000    19355485.065    79257443.196       -1729.786          46.000                                                  
G24  21091502.859                       -3416.275          29.000    21091494.524                       -2661.634          30.000                                                  
G32  20832250.857   109474214.707        1476.059          45.000    20832241.501    85304547.977        1150.255          42.000                                                  
C08  34727185.103   180833539.980        -380.280          46.000    34727164.273   139831884.508        -294.000          49.000  
C13  34714739.629   180768733.977         -78.375          47.000    34714726.871   139781805.286         -60.645          48.000  
C16  35672459.412   185755844.303         -26.596          48.000    35672445.223   143638153.360         -20.544          48.000  
C25  22376669.425   116521189.222       -2630.337          32.000                                                                  
C32  21012294.833   109416516.376         810.484          50.000                                                                  
C06  35357258.974   184114514.197         152.114          45.000    35357238.961   142368951.646         117.649          46.000  
G25  20382036.139   107108333.727        2448.698          45.000    20382027.267    83460997.444        1908.146          43.000                                                  
G10  19467970.486   102304875.020         914.044          50.000    19467959.348    79718038.145         712.132          45.000                                                  
G28  21918992.680   115185077.788        2514.845          42.000    21918981.617    89754579.377        1959.597          43.000                                                  
C23  20717648.449   107882210.195         135.876          50.000                                                                  
C09  36821041.526   191736804.773         251.427          42.000    36821025.735   148263012.165         194.297          47.000  
C33  26249358.933                3      -2959.513          26.000                                                                  
C37  22747281.581   118451062.737        2622.058          45.000                                                                  
> 2025 10 27 02 54 32.7160000  0 19                     
G12  20714739.139   108856690.634         726.641          45.000    20714727.666    84823349.649         566.193          43.000                                                  
G15  23395713.878                       -3280.066          32.000    23395712.122    95801531.463       -2555.144          33.000                                                  
G18  23743145.652   124771080.287       -3660.540          33.000    23743143.256    97224192.596       -2852.312          37.000                                                  
G23  19355514.020   101713904.143       -2219.966          47.000    19355501.972    79257512.390       -1729.878          47.000                                                  
G24  21091528.903                       -3416.215          29.000    21091520.530                       -2662.017          30.000                                                  
G32  20832239.620   109474155.670        1475.952          45.000    20832230.287    85304501.974        1150.122          42.000                                                  
C08  34727188.015   180833555.192        -380.298          46.000    34727167.216   139831896.274        -294.122          49.000  
C13  34714740.199   180768737.112         -78.394          47.000    34714727.468   139781807.713         -60.669          48.000  
C16  35672459.638   185755845.358         -26.440          48.000    35672445.433   143638154.185         -20.642          48.000  
C25  22376689.608   116521294.416       -2629.969          32.000                                                                  
C32  21012288.564   109416483.963         810.372          50.000                                                                  
C06  35357257.806   184114508.110         152.166          45.000    35357237.818   142368946.945         117.581          46.000  
G25  20382017.499   107108235.784        2448.550          45.000    20382008.630    83460921.122        1908.101          43.000                                                  
G10  19467963.532   102304838.457         914.056          50.000    19467952.396    79718009.657         712.151          45.000                                                  
G28  21918973.546   115184977.196        2514.807          42.000    21918962.471    89754500.993        1959.633          43.000                                                  
C23  20717647.426   107882204.759         135.872          50.000                                                                  
C09  36821039.588   191736794.721         251.374          42.000    36821023.782   148263004.390         194.341          47.000  
C33  26249381.452                3      -2959.034          26.000                                                                  
C37  22747261.415   118450957.858        2621.979          45.000                                                                  
> 2025 10 27 02 54 32.7560000  0 19                     
G12  20714733.617   108856661.585         726.337          45.000    20714722.110    84823327.008         566.047          43.000                                                  
G15  23395738.834                       -3280.276          32.000    23395737.075    95801633.677       -2555.298          33.000                                                  
G18  23743173.492   124771226.709       -3660.451          33.000    23743171.115    97224306.689       -2852.279          37.000                                                  
G23  19355530.918   101713992.945       -2220.058          47.000    19355518.867    79257581.588       -1729.958          46.000                                                  
G24  21091554.903                       -3416.101          29.000    21091546.540                       -2662.049          30.000                                                  
G32  20832228.369   109474096.632        1475.927          45.000    20832219.039    85304455.975        1149.974          42.000                                                  
C08  34727190.936   180833570.401        -380.286          46.000    34727170.149   139831908.038        -294.153          49.000  
C13  34714740.808   180768740.249         -78.455          47.000    34714728.066   139781810.143         -60.724          48.000  
C16  35672459.835   185755846.422         -26.542          48.000    35672445.606   143638155.005         -20.586          48.000  
C25  22376709.803   116521399.631       -2630.125          32.000                                                                  
C32  21012282.342   109416451.548         810.354          50.000                                                                  
C06  35357256.637   184114502.035         151.964          45.000    35357236.649   142368942.244         117.521          46.000  
G25  20381998.877   107108137.841        2448.529          45.000    20381990.013    83460844.831        1907.476          43.000                                                  
G10  19467956.586   102304801.897         914.000          50.000    19467945.467    79717981.171         712.139          45.000                                                  
G28  21918954.425   115184876.624        2514.433          42.000    21918943.339    89754422.616        1959.501          43.000                                                  
C23  20717646.393   107882199.324         135.853          50.000                                                                  
C09  36821037.657   191736784.672         251.247          42.000    36821021.821   148262996.620         194.266          47.000  
C33  26249404.061                3      -2958.799          26.000                                                                  
C37  22747241.294   118450852.980        2621.936          45.000                                                                  
> 2025 10 27 02 54 32.7960000  0 19                     
G12  20714728.099   108856632.526         726.382          45.000    20714716.587    84823304.358         566.168          43.000                                                  
G15  23395763.784                       -3279.671          32.000    23395762.058    95801735.894       -2555.428          33.000                                                  
G18  23743201.368   124771373.149       -3660.752          33.000    23743198.987    97224420.777       -2852.160          37.000                                                  
G23  19355547.813   101714081.746       -2220.070          47.000    19355535.781    79257650.781       -1729.914          46.000                                                  
G24  21091580.874                       -3415.976          29.000    21091572.532                       -2661.877          30.000                                                  
G32  20832217.128   109474037.585        1476.065          45.000    20832207.794    85304409.970        1149.996          42.000                                                  
C08  34727193.826   180833585.622        -380.469          46.000    34727173.065   139831919.802        -294.128          49.000  
C13  34714741.408   180768743.389         -78.503          47.000    34714728.676   139781812.570         -60.718          48.000  
C16  35672460.030   185755847.491         -26.678          48.000    35672445.784   143638155.833         -20.705          48.000  
C25  22376730.012   116521504.815       -2629.626          32.000                                                                  
C32  21012276.104   109416419.137         810.258          50.000                                                                  
C06  35357255.478   184114495.953         151.954          45.000    35357235.498   142368937.538         117.574          46.000  
G25  20381980.236   107108039.899        2448.500          45.000    20381971.387    83460768.511        1907.670          43.000                                                  
G10  19467949.657   102304765.342         913.883          50.000    19467938.494    79717952.677         712.274          45.000                                                  
G28  21918935.286   115184776.042        2514.442          42.000    21918924.186    89754344.235        1959.521          43.000                                                  
C23  20717645.343   107882193.892         135.782          50.000                                                                  
C09  36821035.731   191736774.621         251.287          42.000    36821019.876   148262988.847         194.305          47.000  
C33  26249426.943                3      -2958.430          26.000                                                                  
C37  22747221.143   118450748.101        2621.942          45.000                                                                  
> 2025 10 27 02 54 32.8360000  0 19                     
G12  20714722.569   108856603.475         726.255          45.000    20714711.063    84823281.724         565.922          43.000                                                  
G15  23395788.714                       -3278.665          32.000    23395787.008    95801838.100       -2555.188          33.000                                                  
G18  23743229.230   124771519.565       -3660.451          33.000    23743226.867    97224534.903       -2852.874          37.000                                                  
G23  19355564.684   101714170.543       -2219.989          47.000    19355552.703    79257719.980       -1730.000          46.000                                                  
G24  21091606.907                       -3415.995          29.000    21091598.523                       -2662.143          30.000                                                  
G32  20832205.883   109473978.541        1476.101          45.000    20832196.542    85304363.975        1149.869          42.000                                                  
C08  34727196.733   180833600.843        -380.573          46.000    34727175.964   139831931.569        -294.202          49.000  
C13  34714742.014   180768746.532         -78.601          47.000    34714729.260   139781814.993         -60.638          48.000  
C16  35672460.225   185755848.559         -26.761          48.000    35672445.980   143638156.654         -20.629          48.000  
C25  22376750.203   116521610.090       -2631.057          32.000                                                                  
C32  21012269.867   109416386.726         810.221          50.000                                                                  
C06  35357254.318   184114489.885         151.754          45.000    35357234.342   142368932.837         117.522          46.000  
G25  20381961.605   107107941.949        2448.655          45.000    20381952.758    83460692.176        1908.112          43.000                                                  
G10  19467942.713   102304728.788         913.798          50.000    19467931.536    79717924.190         712.213          45.000                                                  
G28  21918916.154   115184675.477        2514.145          42.000    21918905.060    89754265.857        1959.458          43.000                                                  
C23  20717644.303   107882188.462         135.733          50.000                                                                  
C09  36821033.778   191736764.580         251.079          42.000    36821017.934   148262981.074         194.311          47.000  
C33  26249449.789                3      -2959.136          26.000                                                                  
C37  22747200.993   118450643.228        2621.826          45.000                                                                  
> 2025 10 27 02 54 32.8760000  0 19                     
G12  20714717.041   108856574.415         726.363          45.000    20714705.524    84823259.088         565.876          43.000                                                  
G15  23395813.669                       -3278.712          32.000    23395811.962    95801940.351       -2555.903          33.000                                                  
G18  23743257.117   124771665.982       -3660.382          33.000    23743254.722    97224649.009       -2852.840          37.000                                                  
G23  19355581.591   101714259.350       -2220.119          47.000    19355569.629    79257789.181       -1730.081          46.000                                                  
G24  21091632.916                       -3415.882          29.000    21091624.531                       -2661.598          30.000                                                  
G32  20832194.651   109473919.503        1475.989          45.000    20832185.268    85304317.958        1150.211          42.000                                                  
C08  34727199.671   180833616.053        -380.402          46.000    34727178.883   139831943.331        -294.135          49.000  
C13  34714742.606   180768749.677         -78.674          47.000    34714729.830   139781817.422         -60.687          48.000  
C16  35672460.430   185755849.618         -26.599          48.000    35672446.167   143638157.478         -20.650          48.000  
C25  22376770.415   116521715.285       -2630.296          32.000                                                                  
C32  21012263.633   109416354.315         810.203          50.000                                                                  
C06  35357253.167   184114483.800         151.967          45.000    35357233.182   142368928.142         117.371          46.000  
G25  20381942.978   107107844.011        2448.528          45.000    20381934.105    83460615.845        1908.286          43.000                                                  
G10  19467935.758   102304692.232         913.811          50.000    19467924.564    79717895.705         712.114          45.000                                                  
G28  21918896.990   115184574.884        2514.552          42.000    21918885.904    89754187.483        1959.334          43.000                                                  
C23  20717643.288   107882183.030         135.754          50.000                                                                  
C09  36821031.851   191736754.535         251.050          42.000    36821016.038   148262973.309         194.140          47.000  
C33  26249471.918                3      -2960.324          26.000                                                                  
C37  22747180.853   118450538.343        2621.991          45.000                                                                  
> 2025 10 27 02 54 32.9160000  0 19                     
G12  20714711.517   108856545.361         726.316          45.000    20714700.006    84823236.443         566.002          43.000                                                  
G15  23395838.643                       -3279.117          32.000    23395836.922    95802042.581       -2555.964          33.000                                                  
G18  23743284.982   124771812.409       -3660.543          33.000    23743282.604    97224763.114       -2852.815          37.000                                                  
G23  19355598.483   101714348.159       -2220.223          47.000    19355586.531    79257858.379       -1730.031          46.000                                                  
G24  21091658.895                       -3416.028          29.000    21091650.504                       -2662.103          30.000                                                  
G32  20832183.434   109473860.470        1475.848          45.000    20832174.025    85304271.945        1150.321          42.000                                                  
C08  34727202.622   180833631.270        -380.414          46.000    34727181.806   139831955.094        -294.116          49.000  
C13  34714743.203   180768752.823         -78.735          47.000    34714730.434   139781819.852         -60.760          48.000  
C16  35672460.649   185755850.682         -26.600          48.000    35672446.332   143638158.294         -20.491          48.000  
C25  22376790.575   116521820.519       -2630.729          32.000                                                                  
C32  21012257.391   109416321.906         810.179          50.000                                                                  
C06  35357252.035   184114477.727         151.873          45.000    35357231.994   142368923.445         117.355          46.000  
G25  20381924.328   107107746.062        2448.649          45.000    20381915.485    83460539.533        1907.977          43.000                                                  
G10  19467928.772   102304655.673         913.904          50.000    19467917.612    79717867.221         712.052          45.000                                                  
G28  21918877.821   115184474.294        2514.681          42.000    21918866.781    89754109.114        1959.173          43.000                                                  
C23  20717642.243   107882177.599         135.729          50.000                                                                  
C09  36821029.914   191736744.484         251.171          42.000    36821014.084   148262965.540         194.142          47.000  
C33  26249494.307                3      -2957.249          26.000                                                                  
C37  22747160.698   118450433.475        2621.747          45.000                                                                  
> 2025 10 27 02 54 32.9560000  0 19                     
G12  20714705.977   108856516.305         726.317          45.000    20714694.468    84823213.803         565.994          43.000                                                  
G15  23395863.580                       -3280.196          32.000    23395861.886    95802144.752       -2554.872          33.000                                                  
G18  23743312.853   124771958.842       -3660.741          33.000    23743310.484    97224877.205       -2852.542          37.000                                                  
G23  19355615.369   101714436.971       -2220.302          47.000    19355603.424    79257927.575       -1729.950          46.000                                                  
G24  21091684.894                       -3415.966          29.000    21091676.497                       -2662.373          30.000                                                  
G32  20832172.215   109473801.431        1475.891          45.000    20832162.811    85304225.946        1150.090          42.000                                                  
C08  34727205.558   180833646.488        -380.475          46.000    34727184.761   139831966.857        -294.080          49.000  
C13  34714743.797   180768755.962         -78.589          47.000    34714731.054   139781822.286         -60.858          48.000  
C16  35672460.839   185755851.748         -26.655          48.000    35672446.497   143638159.111         -20.451          48.000  
C25  22376810.762                       -2631.319          32.000                                                                  
C32  21012251.150   109416289.500         810.144          50.000                                                                  
C06  35357250.887   184114471.650         151.859          45.000    35357230.841   142368918.748         117.352          46.000  
G25  20381905.699   107107648.119        2448.621          45.000    20381896.836    83460463.224        1907.758          43.000                                                  
G10  19467921.814   102304619.120         913.848          50.000    19467910.645    79717838.740         711.998          45.000                                                  
G28  21918858.686   115184373.712        2514.618          42.000    21918847.654    89754030.747        1959.088          43.000                                                  
C23  20717641.173   107882172.173         135.647          50.000                                                                  
C09  36821027.975   191736734.437         251.164          43.000    36821012.149   148262957.772         194.149          47.000  
C33  26249517.063                3      -2958.861          26.000                                                                  
C37  22747140.554   118450328.593        2621.936          45.000                                                                  
> 2025 10 27 02 54 32.9960000  0 19                     
G12  20714700.465   108856487.258         726.169          45.000    20714688.948    84823191.171         565.806          43.000                                                  
G15  23395888.544                       -3280.053          32.000    23395886.841    95802246.962       -2555.223          33.000                                                  
G18  23743340.711   124772105.294       -3661.158          33.000    23743338.342    97224991.291       -2852.268          37.000                                                  
G23  19355632.253   101714525.778       -2220.271          47.000    19355620.306    79257996.773       -1729.944          46.000                                                  
G24  21091710.898                       -3415.898          29.000    21091702.525                       -2662.576          30.000                                                  
G32  20832160.978   109473742.397        1475.846          45.000    20832151.594    85304179.938        1150.122          42.000                                                  
C08  34727208.516   180833661.710        -380.573          46.000    34727187.693   139831978.627        -294.208          49.000  
C13  34714744.396   180768759.105         -78.589          47.000    34714731.649   139781824.712         -60.736          48.000  
C16  35672461.018   185755852.821         -26.796          48.000    35672446.688   143638159.941         -20.684          48.000  
C25  22376830.955                       -2631.285          32.000                                                                  
C32  21012244.948   109416257.084         810.286          50.000                                                                  
C06  35357249.711   184114465.566         151.998          45.000    35357229.652   142368914.046         117.468          46.000  
G25  20381887.068   107107550.190        2448.350          45.000    20381878.190    83460386.919        1907.594          43.000                                                  
G10  19467914.871   102304582.569         913.762          50.000    19467903.692    79717810.265         711.875          45.000                                                  
G28  21918839.539   115184273.129        2514.573          42.000    21918828.549    89753952.370        1959.296          43.000                                                  
C23  20717640.159   107882166.744         135.677          50.000                                                                  
C09  36821026.048   191736724.395         251.051          43.000    36821010.197   148262949.993         194.351          47.000  
C33  26249539.720                3      -2959.832          26.000                                                                  
C37  22747120.415   118450223.719        2621.857          45.000                                                                  
> 2025 10 27 02 54 33.0360000  0 19                     
G12  20714694.925   108856458.198         726.321          45.000    20714683.423    84823168.529         565.912          43.000                                                  
G15  23395913.481                       -3279.200          32.000    23395911.849    95802349.233       -2556.297          33.000                                                  
G18  23743368.523   124772251.741       -3661.261          33.000    23743366.225    97225105.372       -2852.079          37.000                                                  
G23  19355649.151   101714614.588       -2220.265          47.000    19355637.202    79258065.978       -1730.086          46.000                                                  
G24  21091736.921   110837826.155       -3416.068          29.000    21091728.534                       -2661.649          30.000                                                  
G32  20832149.731   109473683.351        1476.022          45.000    20832140.358    85304133.934        1150.023          42.000                                                  
C08  34727211.415   180833676.920        -380.371          46.000    34727190.638   139831990.394        -294.196          49.000  
C13  34714744.997   180768762.244         -78.497          47.000    34714732.280   139781827.139         -60.699          48.000  
C16  35672461.251   185755853.880         -26.623          48.000    35672446.889   143638160.768         -20.758          48.000  
C25  22376851.140   116522136.243       -2630.945          32.000                                                                  
C32  21012238.719   109416224.675         810.252          50.000                                                                  
C06  35357248.516   184114459.492         151.876          45.000    35357228.463   142368909.349         117.426          46.000  
G25  20381868.431   107107452.265        2448.119          45.000    20381859.551    83460310.606        1907.655          43.000                                                  
G10  19467907.905   102304546.019         913.719          50.000    19467896.746    79717781.783         711.937          45.000                                                  
G28  21918820.410   115184172.562        2514.263          42.000    21918809.395    89753873.990        1959.451          43.000                                                  
C23  20717639.120   107882161.320         135.600          50.000                                                                  
C09  36821024.133   191736714.346         251.075          43.000    36821008.240   148262942.233         194.084          47.000  
C33  26249562.278                3      -2959.232          26.000                                                                  
C37  22747100.289   118450118.842        2621.869          45.000                                                                  
> 2025 10 27 02 54 33.0760000  0 19                     
G12  20714689.398   108856429.147         726.269          45.000    20714677.887    84823145.897         565.776          43.000                                                  
G15  23395938.444                       -3279.530          32.000    23395936.821    95802451.412       -2555.198          33.000                                                  
G18  23743396.363   124772398.157       -3660.790          33.000    23743394.119    97225219.487       -2852.617          37.000                                                  
G23  19355666.038   101714703.390       -2220.160          47.000    19355654.109    79258135.177       -1730.080          46.000                                                  
G24  21091762.938                       -3416.054          29.000    21091754.571                       -2661.543          30.000                                                  
G32  20832138.494   109473624.307        1476.058          45.000    20832129.143    85304087.932        1150.009          42.000                                                  
C08  34727214.323   180833692.127        -380.225          46.000    34727193.554   139832002.161        -294.208          49.000  
C13  34714745.589   180768765.381         -78.442          47.000    34714732.868   139781829.562         -60.602          48.000  
C16  35672461.472   185755854.942         -26.558          48.000    35672447.093   143638161.590         -20.687          48.000  
C25  22376871.348   116522241.459       -2630.539          32.000                                                                  
C32  21012232.478   109416192.263         810.258          50.000                                                                  
C06  35357247.365   184114453.410         151.957          45.000    35357227.319   142368904.642         117.549          46.000  
G25  20381849.799   107107354.322        2448.347          45.000    20381840.912    83460234.288        1907.806          43.000                                                  
G10  19467900.941   102304509.467         913.732          50.000    19467889.780    79717753.290         712.190          45.000                                                  
G28  21918801.256   115184071.977        2514.420          42.000    21918790.278    89753795.618        1959.368          43.000                                                  
C23  20717638.089   107882155.890         135.672          50.000                                                                  
C09  36821022.206   191736704.297         251.087          43.000    36821006.315   148262934.469         194.017          47.000  
C33  26249585.045                3      -2958.905          26.000                                                                  
C37  22747080.136   118450013.965        2621.869          45.000                                                                  
> 2025 10 27 02 54 33.1160000  0 19                     
G12  20714683.876   108856400.095         726.271          45.000    20714672.375    84823123.271         565.625          43.000                                                  
G15  23395963.392                       -3279.335          32.000    23395961.796    95802553.608       -2554.882          33.000                                                  
G18  23743424.204   124772544.562       -3660.242          33.000    23743421.982    97225333.585       -2852.630          37.000                                                  
G23  19355682.929   101714792.190       -2220.043          47.000    19355670.996    79258204.376       -1730.024          46.000                                                  
G24  21091788.944                       -3415.833          29.000    21091780.528                       -2661.793          30.000                                                  
G32  20832127.262   109473565.272        1475.939          45.000    20832117.925    85304041.936        1149.910          42.000                                                  
C08  34727217.229   180833707.342        -380.310          46.000    34727196.420   139832013.924        -294.135          49.000  
C13  34714746.187   180768768.517         -78.400          47.000    34714733.499   139781831.990         -60.645          48.000  
C16  35672461.654   185755856.006         -26.561          48.000    35672447.270   143638162.408         -20.549          48.000  
C25  22376891.564   116522346.642       -2629.714          32.000                                                                  
C32  21012226.229   109416159.852         810.258          50.000                                                                  
C06  35357246.193   184114447.324         152.073          45.000    35357226.124   142368899.942         117.527          46.000  
G25  20381831.140   107107256.370        2448.629          45.000    20381822.245    83460157.956        1908.153          43.000                                                  
G10  19467893.985   102304472.914         913.775          50.000    19467882.810    79717724.806         712.134          45.000                                                  
G28  21918782.107   115183971.397        2514.445          42.000    21918771.134    89753717.238        1959.481          43.000                                                  
C23  20717637.097   107882150.459         135.724          50.000                                                                  
C09  36821020.287   191736694.243         251.214          43.000    36821004.383   148262926.703         194.044          47.000  
C33  26249607.292                3      -2959.067          26.000                                                                  
C37  22747059.986   118449909.086        2621.906          45.000                                                                  
> 2025 10 27 02 54 33.1560000  0 19                     
G12  20714678.338   108856371.048         726.189          45.000    20714666.866    84823100.620         566.060          43.000                                                  
G15  23395988.337                       -3279.297          32.000    23395986.766    95802655.848       -2555.481          33.000                                                  
G18  23743452.061   124772690.972       -3660.048          33.000    23743449.827    97225447.687       -2852.714          37.000                                                  
G23  19355699.842   101714881.005       -2220.290          47.000    19355687.885    79258273.577       -1730.055          46.000                                                  
G24  21091814.949                       -3416.080          29.000    21091806.538                       -2662.190          30.000                                                  
G32  20832116.025   109473506.238        1475.851          45.000    20832106.690    85303995.934        1149.945          42.000                                                  
C08  34727220.174   180833722.558        -380.426          46.000    34727199.331   139832025.693        -294.208          49.000  
C13  34714746.770   180768771.657         -78.485          47.000    34714734.079   139781834.420         -60.712          48.000  
C16  35672461.867   185755857.071         -26.629          48.000    35672447.450   143638163.235         -20.608          48.000  
C25  22376911.765   116522451.840       -2629.762          32.000                                                                  
C32  21012219.999   109416127.443         810.232          50.000                                                                  
C06  35357245.002   184114441.249         151.953          45.000    35357224.957   142368895.246         117.415          46.000  
G25  20381812.529   107107158.433        2448.528          45.000    20381803.634    83460081.649        1907.874          43.000                                                  
G10  19467887.035   102304436.362         913.793          50.000    19467875.861    79717696.327         711.979          45.000                                                  
G28  21918762.958   115183870.803        2514.739          42.000    21918752.007    89753638.854        1959.579          43.000                                                  
C23  20717636.050   107882145.033         135.664          50.000                                                                  
C09  36821018.351   191736684.196         251.149          42.000    36821002.474   148262918.931         194.177          47.000  
C33  26249630.327                3      -2960.642          26.000                                                                  
C37  22747039.843   118449804.213        2621.826          45.000                                                                  
> 2025 10 27 02 54 33.1960000  0 19                     
G12  20714672.804   108856342.007         726.050          45.000    20714661.339    84823077.989         565.878          43.000                                                  
G15  23396013.275                       -3278.656          32.000    23396011.742    95802758.074       -2555.724          33.000                                                  
G18  23743479.949   124772837.423       -3660.888          33.000    23743477.690    97225561.809       -2853.083          37.000                                                  
G23  19355716.751   101714969.823       -2220.469          47.000    19355704.783    79258342.777       -1730.049          46.000                                                  
G24  21091840.968   110838372.726       -3416.155          29.000    21091832.521                       -2660.874          30.000                                                  
G32  20832104.792   109473447.201        1475.880          45.000    20832095.433    85303949.926        1150.080          42.000                                                  
C08  34727223.099   180833737.787        -380.737          46.000    34727202.258   139832037.462        -294.226          49.000  
C13  34714747.358   180768774.805         -78.699          47.000    34714734.678   139781836.856         -60.846          48.000  
C16  35672462.064   185755858.140         -26.734          48.000    35672447.634   143638164.059         -20.628          48.000  
C25  22376932.020   116522557.089       -2630.831          32.000                                                                  
C32  21012213.765   109416095.039         810.098          50.000                                                                  
C06  35357243.824   184114435.173         151.895          45.000    35357223.788   142368890.552         117.352          46.000  
G25  20381793.893   107107060.495        2448.440          45.000    20381784.993    83460005.334        1907.847          43.000                                                  
G10  19467880.111   102304399.820         913.596          50.000    19467868.902    79717667.855         711.832          45.000                                                  
G28  21918743.810   115183770.231        2514.488          42.000    21918732.875    89753560.487        1959.285          43.000                                                  
C23  20717634.977   107882139.613         135.523          50.000                                                                  
C09  36821016.414   191736674.150         251.113          43.000    36821000.537   148262911.162         194.233          47.000  
C33  26249653.122                3      -2960.220          26.000                                                                  
C37  22747019.684   118449699.349        2621.649          45.000                                                                  
> 2025 10 27 02 54 33.2360000  0 19                     
G12  20714667.273   108856312.964         726.014          45.000    20714655.815    84823055.362         565.709          43.000                                                  
G15  23396038.250                       -3279.984          32.000    23396036.705    95802860.289       -2555.499          33.000                                                  
G18  23743507.818   124772983.855       -3660.930          33.000    23743505.575    97225675.888       -2852.443          37.000                                                  
G23  19355733.628   101715058.633       -2220.375          47.000    19355721.701    79258411.984       -1730.172          46.000                                                  
G24  21091866.997   110838509.373       -3416.185          29.000    21091858.531                       -2662.037          30.000                                                  
G32  20832093.568   109473388.160        1475.959          45.000    20832084.153    85303903.912        1150.244          42.000                                                  
C08  34727226.044   180833753.008        -380.731          46.000    34727205.200   139832049.229        -294.226          49.000  
C13  34714747.962   180768777.951         -78.735          47.000    34714735.312   139781839.292         -60.938          48.000  
C16  35672462.253   185755859.211         -26.802          48.000    35672447.853   143638164.888         -20.692          48.000  
C25  22376952.229   116522662.358       -2631.722          32.000                                                                  
C32  21012207.526   109416062.638         810.006          50.000                                                                  
C06  35357242.656   184114429.095         151.910          45.000    35357222.638   142368885.855         117.390          46.000  
G25  20381775.272   107106962.583        2447.985          45.000    20381766.366    83459929.025        1907.765          43.000                                                  
G10  19467873.165   102304363.272         913.634          50.000    19467861.945    79717639.378         711.833          45.000                                                  
G28  21918724.654   115183669.655        2514.433          42.000    21918713.722    89753482.126        1959.031          43.000                                                  
C23  20717633.927   107882134.195         135.430          50.000                                                                  
C09  36821014.507   191736664.107         251.064          43.000    36820998.626   148262903.384         194.428          47.000  
C33  26249675.890                3      -2958.062          26.000                                                                  
C37  22746999.545   118449594.471        2621.826          45.000                                                                  
> 2025 10 27 02 54 33.2760000  0 19                     
G12  20714661.765   108856283.927         725.908          45.000    20714650.301    84823032.730         565.728          43.000                                                  
G15  23396063.248                       -3281.058          32.000    23396061.672    95802962.513       -2555.538          33.000                                                  
G18  23743535.694   124773130.311       -3661.346          33.000    23743533.436    97225789.986       -2852.355          37.000                                                  
G23  19355750.512   101715147.441       -2220.295          47.000    19355738.599    79258481.190       -1730.202          46.000                                                  
G24  21091893.020   110838646.012       -3416.102          29.000    21091884.528                       -2662.227          30.000                                                  
G32  20832082.352   109473329.123        1475.937          45.000    20832072.937    85303857.914        1150.047          42.000                                                  
C08  34727228.953   180833768.218        -380.444          46.000    34727208.145   139832060.995        -294.183          49.000  
C13  34714748.588   180768781.092         -78.638          47.000    34714735.889   139781841.720         -60.815          48.000  
C16  35672462.457   185755860.279         -26.764          48.000    35672448.047   143638165.707         -20.567          48.000  
C25  22376972.449   116522767.580       -2631.250          32.000                                                                  
C32  21012201.323   109416030.231         810.092          50.000                                                                  
C06  35357241.476   184114423.023         151.785          45.000    35357221.472   142368881.154         117.434          46.000  
G25  20381756.627   107106864.642        2448.263          45.000    20381747.745    83459852.730        1907.458          43.000                                                  
G10  19467866.188   102304326.718         913.776          50.000    19467854.981    79717610.890         712.036          45.000                                                  
G28  21918705.515   115183569.080        2514.352          42.000    21918694.556    89753403.756        1959.115          43.000                                                  
C23  20717632.869   107882128.776         135.415          50.000                                                                  
C09  36821012.575   191736654.056         251.204          43.000    36820996.711   148262895.612         194.362          47.000  
C33  26249698.546                3      -2959.901          26.000                                                                  
C37  22746979.435   118449489.593        2621.906          45.000                                                                  
> 2025 10 27 02 54 33.3160000  0 19                     
G12  20714656.212   108856254.866         726.308          45.000    20714644.794    84823010.091         565.858          43.000                                                  
G15  23396088.242                       -3278.536          32.000    23396086.622    95803064.705       -2555.018          33.000                                                  
G18  23743563.548   124773276.719       -3660.552          33.000    23743561.289    97225904.075       -2852.179          37.000                                                  
G23  19355767.430   101715236.254       -2220.338          47.000    19355755.502    79258550.396       -1730.171          46.000                                                  
G24  21091919.004   110838782.660       -3416.139          29.000    21091910.534                       -2662.020          30.000                                                  
G32  20832071.146   109473270.088        1475.852          45.000    20832061.690    85303811.917        1149.938          42.000                                                  
C08  34727231.857   180833783.424        -380.206          46.000    34727211.091   139832072.761        -294.177          49.000  
C13  34714749.240   180768784.234         -78.577          47.000    34714736.511   139781844.146         -60.675          48.000  
C16  35672462.661   185755861.342         -26.652          48.000    35672448.240   143638166.531         -20.560          48.000  
C25  22376992.624   116522872.804       -2630.809          32.000                                                                  
C32  21012195.100   109415997.815         810.277          50.000                                                                  
C06  35357240.296   184114416.939         151.954          45.000    35357220.321   142368876.447         117.577          46.000  
G25  20381737.973   107106766.701        2448.474          45.000    20381729.119    83459776.418        1907.579          43.000                                                  
G10  19467859.210   102304290.165         913.825          50.000    19467848.040    79717582.410         712.024          45.000                                                  
G28  21918686.395   115183468.505        2514.341          42.000    21918675.393    89753325.380        1959.322          43.000                                                  
C23  20717631.816   107882123.349         135.572          50.000                                                                  
C09  36821010.672   191736644.005         251.266          43.000    36820994.801   148262887.847         194.223          47.000  
C33  26249721.511                3      -2959.446          26.000                                                                  
C37  22746959.324   118449384.717        2621.936          45.000                                                                  
> 2025 10 27 02 54 33.3560000  0 19                     
G12  20714650.699   108856225.816         726.326          45.000    20714639.264    84822987.450         565.977          43.000                                                  
G15  23396113.223                       -3278.460          32.000    23396111.600    95803166.895       -2554.704          33.000                                                  
G18  23743591.409   124773423.114       -3659.963          33.000    23743589.160    97226018.170       -2852.259          37.000                                                  
G23  19355784.350   101715325.060       -2220.208          47.000    19355772.390    79258619.596       -1730.060          46.000                                                  
G24  21091945.044   110838919.314       -3416.214          29.000    21091936.553                       -2661.979          30.000                                                  
G32  20832059.905   109473211.042        1476.022          45.000    20832050.441    85303765.903        1150.161          42.000                                                  
C08  34727234.774   180833798.640        -380.298          46.000    34727213.985   139832084.522        -294.080          49.000  
C13  34714749.856   180768787.360         -78.241          47.000    34714737.121   139781846.572         -60.645          48.000  
C16  35672462.871   185755862.400         -26.510          48.000    35672448.413   143638167.346         -20.398          48.000  
C25  22377012.804   116522978.035       -2630.736          32.000                                                                  
C32  21012188.862   109415965.403         810.332          50.000                                                                  
C06  35357239.125   184114410.863         151.940          45.000    35357219.166   142368871.745         117.532          46.000  
G25  20381719.344   107106668.750        2448.726          45.000    20381710.468    83459700.076        1908.222          43.000                                                  
G10  19467852.272   102304253.614         913.794          50.000    19467841.100    79717553.933         711.950          45.000                                                  
G28  21918667.287   115183367.912        2514.690          42.000    21918656.240    89753247.001        1959.445          43.000                                                  
C23  20717630.787   107882117.924         135.617          50.000                                                                  
C09  36821008.721   191736633.960         251.157          43.000    36820992.896   148262880.074         194.267          47.000  
C33  26249744.072                3      -2959.053          26.000                                                                  
C37  22746939.179   118449279.844        2621.875          45.000                                                                  
> 2025 10 27 02 54 33.3960000  0 19                     
G12  20714645.163   108856196.757         726.464          45.000    20714633.737    84822964.814         565.949          43.000                                                  
G15  23396138.176                       -3278.704          32.000    23396136.576    95803269.118       -2555.296          33.000                                                  
G18  23743619.268   124773569.507       -3659.652          34.000    23743617.026    97226132.269       -2852.405          37.000                                                  
G23  19355801.251   101715413.870       -2220.252          47.000    19355789.267    79258688.792       -1729.924          46.000                                                  
G24  21091971.022   110839055.952       -3416.112          29.000    21091962.508                       -2661.135          30.000                                                  
G32  20832048.676   109473151.992        1476.187          45.000    20832039.190    85303719.884        1150.397          42.000                                                  
C08  34727237.714   180833813.847        -380.206          46.000    34727216.900   139832096.280        -293.982          49.000  
C13  34714750.450   180768790.499         -78.375          47.000    34714737.734   139781848.997         -60.626          48.000  
C16  35672463.073   185755863.460         -26.491          48.000    35672448.616   143638168.165         -20.411          48.000  
C25  22377033.033   116523083.221       -2629.880          32.000                                                                  
C32  21012182.673   109415932.986         810.419          50.000                                                                  
C06  35357237.998   184114404.779         152.058          45.000    35357218.013   142368867.043         117.531          46.000  
G25  20381700.708   107106570.816        2448.542          45.000    20381691.840    83459623.762        1908.060          43.000                                                  
G10  19467845.337   102304217.065         913.719          50.000    19467834.142    79717525.449         712.048          45.000                                                  
G28  21918648.160   115183267.336        2514.551          42.000    21918637.116    89753168.623        1959.468          43.000                                                  
C23  20717629.702   107882112.494         135.704          50.000                                                                  
C09  36821006.784   191736623.906         251.276          43.000    36820990.948   148262872.303         194.242          47.000  
C33  26249766.708                3      -2960.674          26.000                                                                  
C37  22746919.039   118449174.966        2621.887          45.000                                                                  
> 2025 10 27 02 54 33.4360000  0 19                     
G12  20714639.631   108856167.713         726.238          45.000    20714628.228    84822942.179         565.917          43.000                                                  
G15  23396163.110                       -3279.490          32.000    23396161.602    95803371.336       -2555.503          33.000                                                  
G18  23743647.133   124773715.951       -3660.448          34.000    23743644.898    97226246.368       -2852.418          37.000                                                  
G23  19355818.170   101715502.687       -2220.406          47.000    19355806.175    79258758.005       -1730.215          46.000                                                  
G24  21091997.027   110839192.595       -3416.068          29.000    21091988.507                       -2661.434          30.000                                                  
G32  20832037.459   109473092.952        1476.091          45.000    20832027.954    85303673.890        1150.068          42.000                                                  
C08  34727240.626   180833829.069        -380.444          46.000    34727219.820   139832108.050        -294.183          49.000  
C13  34714751.026   180768793.647         -78.638          47.000    34714738.360   139781851.427         -60.712          48.000  
C16  35672463.257   185755864.528         -26.646          48.000    35672448.818   143638168.989         -20.551          48.000  
C25  22377053.249   116523188.474       -2630.709          32.000                                                                  
C32  21012176.402   109415900.582         810.210          50.000                                                                  
C06  35357236.815   184114398.701         151.974          45.000    35357216.853   142368862.352         117.356          45.000  
G25  20381682.086   107106472.894        2448.185          45.000    20381673.210    83459547.449        1907.888          43.000                                                  
G10  19467838.405   102304180.524         913.522          50.000    19467827.186    79717496.972         711.937          45.000                                                  
G28  21918629.014   115183166.756        2514.488          42.000    21918617.988    89753090.251        1959.336          43.000                                                  
C23  20717628.635   107882107.077         135.506          50.000                                                                  
C09  36821004.836   191736613.871         250.973          43.000    36820988.994   148262864.540         194.085          47.000  
C33  26249789.621                3      -2958.615          26.000                                                                  
C37  22746898.863   118449070.096        2621.759          45.000                                                                  
> 2025 10 27 02 54 33.4760000  0 19                     
G12  20714634.119   108856138.677         725.962          45.000    20714622.696    84822919.555         565.732          43.000                                                  
G15  23396188.080                       -3279.489          32.000    23396186.580    95803473.599       -2556.316          33.000                                                  
G18  23743675.018   124773862.417       -3661.355          34.000    23743672.784    97226360.477       -2852.645          38.000                                                  
G23  19355835.108   101715591.512       -2220.596          47.000    19355823.078    79258827.219       -1730.343          46.000                                                  
G24  21092023.055   110839329.218       -3415.817          29.000    21092014.508                       -2661.559          30.000                                                  
G32  20832026.210   109473033.919        1475.911          45.000    20832016.731    85303627.889        1149.919          42.000                                                  
C08  34727243.555   180833844.293        -380.609          46.000    34727222.759   139832119.819        -294.238          49.000  
C13  34714751.614   180768796.796         -78.760          47.000    34714738.956   139781853.860         -60.809          48.000  
C16  35672463.407   185755865.597         -26.763          48.000    35672448.998   143638169.818         -20.707          48.000  
C25  22377073.462   116523293.712       -2630.986          32.000                                                                  
C32  21012170.159   109415868.185         809.982          50.000                                                                  
C06  35357235.647   184114392.625         151.895          45.000    35357215.714   142368857.653         117.421          45.000  
G25  20381663.456   107106374.971        2448.031          45.000    20381654.613    83459471.149        1907.582          43.000                                                  
G10  19467831.473   102304143.984         913.412          50.000    19467820.221    79717468.508         711.635          45.000                                                  
G28  21918609.869   115183066.188        2514.214          42.000    21918598.857    89753011.879        1959.249          43.000                                                  
C23  20717627.573   107882101.662         135.366          50.000                                                                  
C09  36821002.902   191736603.824         251.065          43.000    36820987.085   148262856.772         194.118          47.000  
C33  26249812.721                3      -2958.566          26.000                                                                  
C37  22746878.706   118448965.222        2621.796          45.000                                                                  
> 2025 10 27 02 54 33.5160000  0 19                     
G12  20714628.619   108856109.658         725.483          45.000    20714617.164    84822896.940         565.438          43.000                                                  
G15  23396213.068                       -3279.700          32.000    23396211.538    95803575.806       -2555.668          33.000                                                  
G18  23743702.875   124774008.848       -3661.193          34.000    23743700.674    97226474.581       -2852.637          38.000                                                  
G23  19355851.993   101715680.333       -2220.614          47.000    19355839.971    79258896.424       -1730.238          46.000                                                  
G24  21092049.057   110839465.845       -3415.675          29.000    21092040.496                       -2661.927          30.000                                                  
G32  20832014.980   109472974.883        1475.862          45.000    20832005.495    85303581.884        1150.004          42.000                                                  
C08  34727246.456   180833859.510        -380.542          46.000    34727225.700   139832131.587        -294.232          49.000  
C13  34714752.199   180768799.943         -78.760          47.000    34714739.536   139781856.292         -60.834          48.000  
C16  35672463.591   185755866.665         -26.798          48.000    35672449.183   143638170.650         -20.826          48.000  
C25  22377093.648   116523398.924       -2630.553          32.000                                                                  
C32  21012163.961   109415835.779         810.032          50.000                                                                  
C06  35357234.463   184114386.557         151.727          45.000    35357214.564   142368852.948         117.532          45.000  
G25  20381644.821   107106277.037        2448.159          45.000    20381635.984    83459394.848        1907.468          43.000                                                  
G10  19467824.517   102304107.442         913.438          50.000    19467813.256    79717440.032         711.742          45.000                                                  
G28  21918590.719   115182965.605        2514.396          42.000    21918579.716    89752933.524        1958.952          43.000                                                  
C23  20717626.542   107882096.246         135.320          50.000                                                                  
C09  36821000.980   191736593.775         251.140          43.000    36820985.178   148262849.003         194.189          47.000  
C33  26249835.874                3      -2958.898          26.000                                                                  
C37  22746858.556   118448860.353        2621.704          45.000                                                                  
> 2025 10 27 02 54 33.5560000  0 19                     
G12  20714623.091   108856080.620         725.654          45.000    20714611.613    84822874.314         565.483          43.000                                                  
G15  23396238.060                       -3279.430          32.000    23396236.499    95803677.994       -2555.106          33.000                                                  
G18  23743730.731   124774155.240       -3660.359          34.000    23743728.531    97226588.674       -2852.325          37.000                                                  
G23  19355868.870   101715769.143       -2220.410          47.000    19355856.846    79258965.632       -1730.244          46.000                                                  
G24  21092075.071   110839602.498       -3415.897          29.000    21092066.484                       -2661.764          30.000                                                  
G32  20832003.729   109472915.852        1475.769          45.000    20831994.259    85303535.879        1150.064          42.000                                                  
C08  34727249.381   180833874.720        -380.377          46.000    34727228.666   139832143.349        -294.128          49.000  
C13  34714752.849   180768803.086         -78.668          47.000    34714740.171   139781858.715         -60.699          48.000  
C16  35672463.808   185755867.723         -26.603          48.000    35672449.366   143638171.468         -20.637          48.000  
C25  22377113.852   116523504.178       -2631.096          32.000                                                                  
C32  21012157.768   109415803.371         810.119          50.000                                                                  
C06  35357233.300   184114380.470         152.017          45.000    35357213.376   142368848.239         117.697          45.000  
G25  20381626.189   107106179.103        2448.247          45.000    20381617.337    83459318.530        1907.712          43.000                                                  
G10  19467817.544   102304070.902         913.445          50.000    19467806.290    79717411.556         711.835          45.000                                                  
G28  21918571.553   115182865.027        2514.415          42.000    21918560.575    89752855.144        1959.285          43.000                                                  
C23  20717625.498   107882090.823         135.459          50.000                                                                  
C09  36820999.067   191736583.726         251.190          43.000    36820983.268   148262841.234         194.214          47.000  
C33  26249858.660                3      -2959.306          26.000                                                                  
C37  22746838.432   118448755.479        2621.771          45.000                                                                  
> 2025 10 27 02 54 33.5960000  0 19                     
G12  20714617.542   108856051.559         726.248          45.000    20714606.087    84822851.676         565.718          43.000                                                  
G15  23396263.036                       -3279.313          32.000    23396261.499    95803780.206       -2555.150          33.000                                                  
G18  23743758.633   124774301.673       -3660.642          34.000    23743756.391    97226702.762       -2852.153          37.000                                                  
G23  19355885.764   101715857.953       -2220.331          47.000    19355873.770    79259034.846       -1730.355          46.000                                                  
G24  21092101.089   110839739.146       -3416.030          29.000    21092092.503                       -2661.891          30.000                                                  
G32  20831992.479   109472856.810        1475.934          45.000    20831983.040    85303489.883        1149.930          42.000                                                  
C08  34727252.308   180833889.933        -380.310          46.000    34727231.607   139832155.109        -294.043          48.000  
C13  34714753.483   180768806.222         -78.491          47.000    34714740.784   139781861.139         -60.626          47.000  
C16  35672463.998   185755868.784         -26.533          48.000    35672449.549   143638172.279         -20.392          47.000  
C25  22377134.049                       -2630.490          32.000                                                                  
C32  21012151.597   109415770.962         810.194          50.000                                                                  
C06  35357232.150   184114374.393         151.993          45.000    35357212.212   142368843.534         117.660          45.000  
G25  20381607.550   107106081.162        2448.450          45.000    20381598.695    83459242.217        1907.714          43.000                                                  
G10  19467810.584   102304034.359         913.519          50.000    19467799.353    79717383.083         711.841          45.000                                                  
G28  21918552.404   115182764.439        2514.602          43.000    21918541.444    89752776.769        1959.365          43.000                                                  
C23  20717624.469   107882085.400         135.524          50.000                                                                  
C09  36820997.140   191736573.676         251.240          43.000    36820981.351   148262833.455         194.389          47.000  
C33  26249881.782                3      -2960.026          26.000                                                                  
C37  22746818.305   118448650.602        2621.887          45.000                                                                  
> 2025 10 27 02 54 33.6360000  0 19                     
G12  20714612.019   108856022.517         726.173          45.000    20714600.575    84822829.059         565.468          42.000                                                  
G15  23396288.009                       -3279.457          32.000    23396286.465    95803882.421       -2555.218          33.000                                                  
G18  23743786.500   124774448.092       -3660.504          34.000    23743784.265    97226816.855       -2852.153          37.000                                                  
G23  19355902.686   101715946.771       -2220.417          47.000    19355890.636    79259104.051       -1730.244          46.000                                                  
G24  21092127.109   110839875.783       -3415.979          29.000    21092118.536                       -2662.003          30.000                                                  
G32  20831981.239   109472797.778        1475.795          45.000    20831971.822    85303443.879        1150.009          41.000                                                  
C08  34727255.229   180833905.153        -380.487          46.000    34727234.505   139832166.875        -294.086          48.000  
C13  34714754.112   180768809.363         -78.503          47.000    34714741.357   139781863.572         -60.791          47.000  
C16  35672464.168   185755869.855         -26.715          48.000    35672449.748   143638173.101         -20.471          47.000  
C25  22377154.291   116523714.602       -2630.393          32.000                                                                  
C32  21012145.407   109415738.550         810.270          50.000                                                                  
C06  35357231.011   184114368.310         152.048          45.000    35357211.014   142368838.838         117.472          45.000  
G25  20381588.911   107105983.232        2448.359          45.000    20381580.059    83459165.907        1907.722          43.000                                                  
G10  19467803.613   102303997.812         913.617          50.000    19467792.396    79717354.609         711.828          45.000                                                  
G28  21918533.276   115182663.861        2514.495          43.000    21918522.304    89752698.392        1959.406          43.000                                                  
C23  20717623.418   107882079.982         135.476          50.000                                                                  
C09  36820995.226   191736563.628         251.194          43.000    36820979.427   148262825.687         194.293          47.000  
C33  26249904.239                3      -2959.750          26.000                                                                  
C37  22746798.120   118448545.722        2621.960          45.000                                                                  
> 2025 10 27 02 54 33.6760000  0 19                     
G12  20714606.504   108855993.480         725.979          45.000    20714595.084    84822806.442         565.404          42.000                                                  
G15  23396312.995                       -3279.498          32.000    23396311.439    95803984.639       -2555.316          33.000                                                  
G18  23743814.333   124774594.485       -3659.957          34.000    23743812.140    97226930.943       -2852.140          37.000                                                  
G23  19355919.607   101716035.592       -2220.516          47.000    19355907.558    79259173.256       -1730.182          46.000                                                  
G24  21092153.075   110840012.423       -3415.998          29.000    21092144.528                       -2661.996          30.000                                                  
G32  20831969.987   109472738.724        1476.174          45.000    20831960.596    85303397.879        1149.996          41.000                                                  
C08  34727258.168   180833920.368        -380.444          46.000    34727237.408   139832178.646        -294.232          48.000  
C13  34714754.724   180768812.502         -78.467          47.000    34714741.964   139781866.006         -60.864          47.000  
C16  35672464.353   185755870.915         -26.600          48.000    35672449.933   143638173.929         -20.643          47.000  
C25  22377174.485   116523819.828       -2630.505          32.000                                                                  
C32  21012139.165   109415706.144         810.197          50.000                                                                  
C06  35357229.868   184114362.222         152.178          45.000    35357209.830   142368834.148         117.245          45.000  
G25  20381570.294   107105885.298        2448.394          45.000    20381561.416    83459089.594        1907.798          43.000                                                  
G10  19467796.643   102303961.271         913.549          50.000    19467785.434    79717326.133         711.890          45.000                                                  
G28  21918514.134   115182563.289        2514.314          43.000    21918503.172    89752620.014        1959.430          43.000                                                  
C23  20717622.386   107882074.566         135.405          50.000                                                                  
C09  36820993.289   191736553.586         251.088          43.000    36820977.505   148262817.915         194.318          47.000  
C33  26249926.969                3      -2958.917          26.000                                                                  
C37  22746777.978   118448440.849        2621.869          45.000                                                                  
> 2025 10 27 02 54 33.7160000  0 19                     
G12  20714600.965   108855964.446         725.854          45.000    20714589.538    84822783.793         565.938          43.000                                                  
G15  23396337.966                       -3279.062          32.000    23396336.396    95804086.856       -2555.402          33.000                                                  
G18  23743842.190   124774740.903       -3660.185          34.000    23743840.000    97227045.031       -2852.110          37.000                                                  
G23  19355936.528   101716124.416       -2220.608          47.000    19355924.465    79259242.465       -1730.226          46.000                                                  
G24  21092179.075   110840149.058       -3415.948          29.000    21092170.555                       -2662.122          30.000                                                  
G32  20831958.756   109472679.687        1476.031          45.000    20831949.365    85303351.864        1150.261          42.000                                                  
C08  34727261.109   180833935.589        -380.511          46.000    34727240.322   139832190.420        -294.360          48.000  
C13  34714755.330   180768815.645         -78.577          47.000    34714742.564   139781868.440         -60.901          47.000  
C16  35672464.550   185755871.978         -26.581          48.000    35672450.110   143638174.764         -20.867          47.000  
C25  22377194.681   116523925.091       -2631.288          32.000                                                                  
C32  21012132.910   109415673.745         810.011          50.000                                                                  
C06  35357228.700   184114356.159         151.783          45.000    35357208.653   142368829.455         117.207          45.000  
G25  20381551.647   107105787.372        2448.218          45.000    20381542.783    83459013.275        1907.905          43.000                                                  
G10  19467789.695   102303924.733         913.432          50.000    19467778.484    79717297.659         711.840          45.000                                                  
G28  21918494.984   115182462.719        2514.229          43.000    21918484.040    89752541.644        1959.280          43.000                                                  
C23  20717621.334   107882069.151         135.341          50.000                                                                  
C09  36820991.356   191736543.543         251.046          43.000    36820975.558   148262810.145         194.261          47.000  
C33  26249949.126                3      -2957.458          25.000                                                                  
C37  22746757.835   118448335.985        2621.649          45.000                                                                  
> 2025 10 27 02 54 33.7560000  0 19                     
G12  20714595.425   108855935.414         725.789          45.000    20714584.028    84822761.160         565.935          43.000                                                  
G15  23396362.921                       -3280.150          32.000    23396361.313    95804189.053       -2555.074          33.000                                                  
G18  23743870.044   124774887.345       -3660.673          34.000    23743867.870    97227159.109       -2851.959          37.000                                                  
G23  19355953.439   101716213.243       -2220.724          47.000    19355941.376    79259311.678       -1730.330          46.000                                                  
G24  21092205.117   110840285.723       -3416.282          29.000    21092196.570                       -2661.864          30.000                                                  
G32  20831947.527   109472620.656        1475.849          45.000    20831938.150    85303305.860        1150.199          41.000                                                  
C08  34727264.029   180833950.801        -380.414          46.000    34727243.259   139832202.191        -294.391          48.000  
C13  34714755.929   180768818.795         -78.741          47.000    34714743.165   139781870.870         -60.840          47.000  
C16  35672464.722   185755873.051         -26.759          48.000    35672450.328   143638175.586         -20.695          47.000  
C25  22377214.898   116524030.317       -2630.915          32.000                                                                  
C32  21012126.699   109415641.347         809.925          50.000                                                                  
C06  35357227.528   184114350.078         151.898          45.000    35357207.492   142368824.757         117.301          45.000  
G25  20381533.022   107105689.453        2448.018          45.000    20381524.142    83458936.960        1907.871          43.000                                                  
G10  19467782.787   102303888.201         913.284          50.000    19467771.528    79717269.189         711.723          45.000                                                  
G28  21918475.834   115182362.153        2514.112          43.000    21918464.912    89752463.288        1958.957          43.000                                                  
C23  20717620.280   107882063.737         135.292          50.000                                                                  
C09  36820989.431   191736533.493         251.102          43.000    36820973.609   148262802.382         194.097          47.000  
C33  26249971.950                3      -2959.961          25.000                                                                  
C37  22746737.717   118448231.125        2621.466          45.000                                                                  
> 2025 10 27 02 54 33.7960000  0 19                     
G12  20714589.881   108855906.390         725.617          45.000    20714578.514    84822738.533         565.781          43.000                                                  
G15  23396387.913                       -3279.787          32.000    23396386.302    95804291.265       -2555.179          33.000                                                  
G18  23743897.940   124775033.793       -3661.142          34.000    23743895.719    97227273.224       -2852.592          37.000                                                  
G23  19355970.337   101716302.070       -2220.785          47.000    19355958.273    79259380.895       -1730.447          46.000                                                  
G24  21092231.109   110840422.384       -3416.475          29.000    21092222.583                       -2661.964          30.000                                                  
G32  20831936.314   109472561.624        1475.769          45.000    20831926.937    85303259.863        1150.036          41.000                                                  
C08  34727266.906   180833966.030        -380.646          46.000    34727246.180   139832213.963        -294.366          47.000  
C13  34714756.528   180768821.943         -78.778          47.000    34714743.765   139781873.300         -60.773          47.000  
C16  35672464.888   185755874.126         -26.917          48.000    35672450.528   143638176.419         -20.798          46.000  
C25  22377235.108   116524135.573       -2631.291          32.000                                                                  
C32  21012120.498   109415608.947         809.928          50.000                                                                  
C06  35357226.356   184114344.014         151.641          45.000    35357206.341   142368820.057         117.401          44.000  
G25  20381514.372   107105591.531        2447.966          45.000    20381505.491    83458860.669        1907.444          43.000                                                  
G10  19467775.839   102303851.669         913.217          50.000    19467764.589    79717240.725         711.569          45.000                                                  
G28  21918456.678   115182261.575        2514.269          43.000    21918445.776    89752384.926        1958.948          43.000                                                  
C23  20717619.207   107882058.330         135.159          50.000                                                                  
C09  36820987.486   191736523.454         250.990          43.000    36820971.686   148262794.624         193.917          47.000  
C33  26249994.214                3      -2960.479          25.000                                                                  
C37  22746717.571   118448126.258        2621.582          45.000                                                                  
> 2025 10 27 02 54 33.8360000  0 19                     
G12  20714584.369   108855877.367         725.548          45.000    20714573.017    84822715.912         565.587          43.000                                                  
G15  23396412.865                       -3278.470          32.000    23396411.275    95804393.496       -2555.649          33.000                                                  
G18  23743925.779   124775180.224       -3660.989          34.000    23743923.590    97227387.338       -2852.927          37.000                                                  
G23  19355987.232   101716390.893       -2220.704          47.000    19355975.211    79259450.108       -1730.409          46.000                                                  
G24  21092257.113   110840558.994       -3415.988          29.000    21092248.592                       -2661.906          30.000                                                  
G32  20831925.077   109472502.583        1475.929          45.000    20831915.696    85303213.861        1150.010          41.000                                                  
C08  34727269.793   180833981.263        -380.829          46.000    34727249.112   139832225.730        -294.269          47.000  
C13  34714757.126   180768825.087         -78.693          47.000    34714744.376   139781875.729         -60.748          47.000  
C16  35672465.113   185755875.193         -26.813          48.000    35672450.722   143638177.240         -20.640          46.000  
C25  22377255.319   116524240.784       -2630.537          32.000                                                                  
C32  21012114.289   109415576.538         810.083          50.000                                                                  
C06  35357225.171   184114337.934         151.807          45.000    35357205.179   142368815.352         117.557          44.000  
G25  20381495.717   107105493.595        2448.215          45.000    20381486.874    83458784.365        1907.455          43.000                                                  
G10  19467768.864   102303815.133         913.286          50.000    19467757.630    79717212.253         711.675          45.000                                                  
G28  21918437.557   115182161.007        2514.213          43.000    21918426.621    89752306.554        1959.130          43.000                                                  
C23  20717618.185   107882052.925         135.060          50.000                                                                  
C09  36820985.564   191736513.401         251.205          43.000    36820969.777   148262786.856         194.052          46.000  
C33  26250017.297                3      -2960.012          25.000                                                                  
C37  22746697.454   118448021.377        2621.906          45.000                                                                  
> 2025 10 27 02 54 33.8760000  0 19                     
G12  20714578.832   108855848.320         725.953          45.000    20714567.518    84822693.313         565.081          43.000                                                  
G15  23396437.828                       -3279.513          32.000    23396436.244    95804495.735       -2555.967          33.000                                                  
G18  23743953.649   124775326.650       -3660.844          34.000    23743951.464    97227501.432       -2852.667          37.000                                                  
G23  19356004.136   101716479.718       -2220.680          47.000    19355992.097    79259519.314       -1730.255          46.000                                                  
G24  21092283.103   110840695.634       -3415.983          29.000    21092274.608                       -2661.453          30.000                                                  
G32  20831913.837   109472443.548        1475.888          45.000    20831904.473    85303167.855        1150.070          41.000                                                  
C08  34727272.714   180833996.481        -380.597          46.000    34727252.013   139832237.496        -294.189          47.000  
C13  34714757.722   180768828.236         -78.754          47.000    34714744.986   139781878.166         -60.889          47.000  
C16  35672465.351   185755876.262         -26.747          48.000    35672450.907   143638178.065         -20.650          46.000  
C25  22377275.499   116524346.024       -2630.817          32.000                                                                  
C32  21012108.082   109415544.132         810.120          50.000                                                                  
C06  35357224.001   184114331.850         151.991          45.000    35357204.019   142368810.658         117.399          44.000  
G25  20381477.103   107105395.673        2448.058          45.000    20381468.233    83458708.064        1907.415          43.000                                                  
G10  19467761.890   102303778.598         913.305          50.000    19467750.680    79717183.793         711.509          45.000                                                  
G28  21918418.417   115182060.439        2514.189          43.000    21918407.473    89752228.175        1959.367          43.000                                                  
C23  20717617.164   107882047.514         135.143          50.000                                                                  
C09  36820983.611   191736503.346         251.322          43.000    36820967.838   148262779.083         194.229          46.000  
C33  26250040.296                3      -2960.041          25.000                                                                  
C37  22746677.280   118447916.517        2621.649          45.000                                                                  
> 2025 10 27 02 54 33.9160000  0 19                     
G12  20714573.311   108855819.286         725.893          45.000    20714561.987    84822670.696         565.159          43.000                                                  
G15  23396462.785                       -3279.134          32.000    23396461.211    95804597.968       -2556.025          33.000                                                  
G18  23743981.523   124775473.056       -3660.353          34.000    23743979.327    97227615.537       -2852.676          37.000                                                  
G23  19356021.048   101716568.539       -2220.631          47.000    19356009.006    79259588.531       -1730.366          46.000                                                  
G24  21092309.127   110840832.321       -3416.505          29.000    21092300.635                       -2662.353          30.000                                                  
G32  20831902.617   109472384.510        1475.907          45.000    20831893.236    85303121.859        1149.941          42.000                                                  
C08  34727275.646   180834011.701        -380.524          46.000    34727254.913   139832249.266        -294.214          47.000  
C13  34714758.328   180768831.380         -78.662          47.000    34714745.585   139781880.598         -60.864          47.000  
C16  35672465.546   185755877.335         -26.806          48.000    35672451.135   143638178.892         -20.656          46.000  
C25  22377295.684   116524451.262       -2631.015          33.000                                                                  
C32  21012101.827   109415511.730         810.093          50.000                                                                  
C06  35357222.826   184114325.780         151.820          45.000    35357202.841   142368805.966         117.295          44.000  
G25  20381458.478   107105297.754        2447.948          45.000    20381449.603    83458631.770        1907.301          43.000                                                  
G10  19467754.918   102303742.069         913.206          50.000    19467743.718    79717155.330         711.485          45.000                                                  
G28  21918399.273   115181959.872        2514.158          43.000    21918388.348    89752149.820        1959.010          43.000                                                  
C23  20717616.139   107882042.105         135.157          50.000                                                                  
C09  36820981.680   191736493.312         250.973          43.000    36820965.922   148262771.310         194.315          46.000  
C33  26250062.741                3      -2960.055          25.000                                                                  
C37  22746657.141   118447811.655        2621.515          45.000                                                                  
> 2025 10 27 02 54 33.9560000  0 19                     
G12  20714567.805   108855790.257         725.768          45.000    20714556.478    84822648.088         565.142          43.000                                                  
G15  23396487.737                       -3278.716          32.000    23396486.140    95804700.174       -2555.463          33.000                                                  
G18  23744009.425   124775619.465       -3660.045          34.000    23744007.172    97227729.623       -2852.331          37.000                                                  
G23  19356037.961   101716657.368       -2220.729          47.000    19356025.912    79259657.753       -1730.539          46.000                                                  
G24  21092335.119   110840968.982       -3416.603          29.000    21092326.649                       -2661.972          30.000                                                  
G32  20831891.381   109472325.477        1475.815          45.000    20831882.025    85303075.858        1149.944          42.000                                                  
C08  34727278.612   180834026.911        -380.353          46.000    34727257.832   139832261.040        -294.318          47.000  
C13  34714758.889   180768834.534         -78.802          47.000    34714746.188   139781883.038         -61.005          47.000  
C16  35672465.739   185755878.404         -26.787          48.000    35672451.296   143638179.721         -20.729          46.000  
C25  22377315.924   116524556.496       -2630.965          33.000                                                                  
C32  21012095.547   109415479.336         809.882          50.000                                                                  
C06  35357221.635   184114319.704         151.835          45.000    35357201.696   142368801.268         117.338          44.000  
G25  20381439.864   107105199.837        2447.861          45.000    20381430.966    83458555.469        1907.401          43.000                                                  
G10  19467747.957   102303705.541         913.164          50.000    19467736.748    79717126.860         711.646          45.000                                                  
G28  21918380.123   115181859.306        2514.127          43.000    21918369.203    89752071.445        1959.229          43.000                                                  
C23  20717615.086   107882036.698         135.146          50.000                                                                  
C09  36820979.755   191736483.276         250.806          43.000    36820963.998   148262763.550         194.086          46.000  
C33  26250085.739                3      -2962.299          25.000                                                                  
C37  22746637.008   118447706.791        2621.490          45.000                                                                  
> 2025 10 27 02 54 33.9960000  0 19                     
G12  20714562.289   108855761.246         725.381          45.000    20714550.946    84822625.460         565.488          43.000                                                  
G15  23396512.665                       -3279.750          32.000    23396511.085    95804802.394       -2555.496          33.000                                                  
G18  23744037.253   124775765.871       -3659.998          34.000    23744035.031    97227843.730       -2852.552          37.000                                                  
G23  19356054.862   101716746.201       -2220.833          47.000    19356042.819    79259726.978       -1730.680          46.000                                                  
G24  21092361.126   110841105.663       -3416.863          29.000    21092352.650                       -2662.033          30.000                                                  
G32  20831880.157   109472266.452        1475.644          45.000    20831870.793    85303029.862        1149.853          42.000                                                  
C08  34727281.518   180834042.137        -380.566          46.000    34727260.771   139832272.811        -294.330          47.000  
C13  34714759.502   180768837.688         -78.894          47.000    34714746.780   139781885.477         -61.035          47.000  
C16  35672465.987   185755879.460         -26.525          48.000    35672451.508   143638180.552         -20.807          46.000  
C25  22377336.151   116524661.734       -2631.008          33.000                                                                  
C32  21012089.336   109415446.941         809.828          50.000                                                                  
C06  35357220.490   184114313.635         151.718          45.000    35357200.545   142368796.572         117.352          44.000  
G25  20381421.246   107105101.918        2447.888          45.000    20381412.322    83458479.155        1907.664          43.000                                                  
G10  19467741.007   102303669.010         913.207          50.000    19467729.769    79717098.396         711.633          45.000                                                  
G28  21918360.988   115181758.735        2514.190          42.000    21918350.072    89751993.080        1959.160          43.000                                                  
C23  20717614.026   107882031.291         135.139          50.000                                                                  
C09  36820977.836   191736473.235         250.860          43.000    36820962.095   148262755.790         193.981          46.000  
C33  26250107.979                3      -2956.907          25.000                                                                  
C37  22746616.853   118447601.927        2621.521          45.000                                                                  
> 2025 10 27 02 54 34.0360000  0 19                     
G12  20714556.778   108855732.234         725.218          45.000    20714545.417    84822602.833         565.651          43.000                                                  
G15  23396537.658                       -3280.919          31.000    23396536.051    95804904.630       -2555.922          34.000                                                  
G18  23744065.113   124775912.317       -3660.794          34.000    23744062.893    97227957.822       -2852.448          37.000                                                  
G23  19356071.776   101716835.030       -2220.808          47.000    19356059.709    79259796.193       -1730.524          46.000                                                  
G24  21092387.115   110841242.333       -3416.903          29.000    21092378.640                       -2662.396          30.000                                                  
G32  20831868.927   109472207.419        1475.713          45.000    20831859.558    85302983.869        1149.781          42.000                                                  
C08  34727284.442   180834057.361        -380.597          46.000    34727263.701   139832284.591        -294.501          47.000  
C13  34714760.125   180768840.833         -78.754          47.000    34714747.366   139781887.911         -60.938          47.000  
C16  35672466.166   185755880.522         -26.512          48.000    35672451.704   143638181.383         -20.815          47.000  
C25  22377356.377   116524766.991       -2631.390          33.000                                                                  
C32  21012083.154   109415414.543         809.856          50.000                                                                  
C06  35357219.323   184114307.563         151.730          45.000    35357199.388   142368791.870         117.443          44.000  
G25  20381402.606   107105003.991        2448.035          45.000    20381393.687    83458402.852        1907.604          43.000                                                  
G10  19467734.059   102303632.477         913.275          50.000    19467722.807    79717069.921         711.812          45.000                                                  
G28  21918341.862   115181658.163        2514.239          42.000    21918330.937    89751914.719        1959.036          43.000                                                  
C23  20717612.961   107882025.884         135.127          50.000                                                                  
C09  36820975.941   191736463.195         250.938          43.000    36820960.145   148262748.034         193.864          46.000  
C33  26250130.422                3      -2961.125          25.000                                                                  
C37  22746596.727   118447497.059        2621.643          45.000                                                                  
> 2025 10 27 02 54 34.0760000  0 19                     
G12  20714551.240   108855703.210         725.417          45.000    20714539.911    84822580.213         565.599          43.000                                                  
G15  23396562.624                       -3280.303          31.000    23396561.006    95805006.797       -2554.870          34.000                                                  
G18  23744092.974   124776058.773       -3661.323          34.000    23744090.736    97228071.904       -2852.193          37.000                                                  
G23  19356088.675   101716923.856       -2220.715          47.000    19356076.613    79259865.403       -1730.321          46.000                                                  
G24  21092413.094                       -3416.057          29.000    21092404.651                       -2662.611          30.000                                                  
G32  20831857.693   109472148.381        1475.851          45.000    20831848.318    85302937.864        1149.949          42.000                                                  
C08  34727287.362   180834072.587        -380.676          46.000    34727266.634   139832296.356        -294.281          47.000  
C13  34714760.742   180768843.977         -78.638          47.000    34714747.959   139781890.348         -60.944          47.000  
C16  35672466.356   185755881.593         -26.681          48.000    35672451.891   143638182.200         -20.607          47.000  
C25  22377376.617   116524872.218       -2630.987          33.000                                                                  
C32  21012076.936   109415382.143         809.942          50.000                                                                  
C06  35357218.168   184114301.493         151.719          45.000    35357198.253   142368787.172         117.443          44.000  
G25  20381383.959   107104906.067        2448.073          45.000    20381375.046    83458326.541        1907.678          43.000                                                  
G10  19467727.108   102303595.941         913.361          50.000    19467715.857    79717041.460         711.620          45.000                                                  
G28  21918322.753   115181557.595        2514.220          42.000    21918311.783    89751836.365        1958.857          43.000                                                  
C23  20717611.923   107882020.476         135.175          50.000                                                                  
C09  36820974.011   191736453.140         251.279          43.000    36820958.228   148262740.268         194.011          46.000  
C33  26250152.986                3      -2958.238          25.000                                                                  
C37  22746576.616   118447392.195        2621.625          45.000                                                                  
> 2025 10 27 02 54 34.1160000  0 19                     
G12  20714545.730   108855674.171         725.812          45.000    20714534.379    84822557.585         565.664          43.000                                                  
G15  23396587.581                       -3279.872          32.000    23396585.936    95805108.980       -2554.511          34.000                                                  
G18  23744120.839   124776205.169       -3660.449          34.000    23744118.601    97228185.993       -2852.234          38.000                                                  
G23  19356105.550   101717012.687       -2220.728          47.000    19356093.542    79259934.619       -1730.340          46.000                                                  
G24  21092439.098   110841515.579       -3416.054          29.000    21092430.694                       -2661.038          30.000                                                  
G32  20831846.453   109472089.347        1475.854          45.000    20831837.078    85302891.859        1150.078          42.000                                                  
C08  34727290.252   180834087.810        -380.621          46.000    34727269.514   139832308.118        -294.098          47.000  
C13  34714761.328   180768847.121         -78.601          47.000    34714748.556   139781892.777         -60.791          47.000  
C16  35672466.571   185755882.666         -26.831          48.000    35672452.088   143638183.025         -20.611          47.000  
C25  22377396.837   116524977.474       -2631.383          33.000                                                                  
C32  21012070.745   109415349.739         810.043          50.000                                                                  
C06  35357217.031   184114295.413         151.877          45.000    35357197.087   142368782.476         117.423          44.000  
G25  20381365.319   107104808.146        2448.002          45.000    20381356.404    83458250.245        1907.493          43.000                                                  
G10  19467720.158   102303559.410         913.324          50.000    19467708.901    79717012.998         711.533          45.000                                                  
G28  21918303.608   115181457.013        2514.451          42.000    21918292.642    89751757.999        1959.014          43.000                                                  
C23  20717610.890   107882015.071         135.147          50.000                                                                  
C09  36820972.089   191736443.090         251.337          43.000    36820956.284   148262732.495         194.224          46.000  
C33  26250175.318                3      -2959.707          25.000                                                                  
C37  22746556.495   118447287.315        2621.930          45.000                                                                  
> 2025 10 27 02 54 34.1560000  0 19                     
G12  20714540.198   108855645.126         726.100          45.000    20714528.855    84822534.968         565.515          43.000                                                  
G15  23396612.520                       -3278.770          32.000    23396610.906    95805211.215       -2555.342          34.000                                                  
G18  23744148.684   124776351.574       -3660.209          34.000    23744146.451    97228300.080       -2852.233          38.000                                                  
G23  19356122.432   101717101.512       -2220.660          47.000    19356110.449    79260003.840       -1730.445          46.000                                                  
G24  21092465.092   110841652.229       -3416.094          29.000    21092456.653                       -2661.656          30.000                                                  
G32  20831835.190   109472030.293        1476.180          45.000    20831825.798    85302845.839        1150.405          42.000                                                  
C08  34727293.177   180834103.023        -380.402          46.000    34727272.397   139832319.878        -293.994          48.000  
C13  34714761.903   180768850.265         -78.601          47.000    34714749.154   139781895.202         -60.651          47.000  
C16  35672466.744   185755883.731         -26.746          48.000    35672452.308   143638183.843         -20.488          47.000  
C25  22377417.090   116525082.687       -2630.735          33.000                                                                  
C32  21012064.509   109415317.329         810.207          50.000                                                                  
C06  35357215.879   184114289.324         152.137          45.000    35357195.919   142368777.773         117.513          45.000  
G25  20381346.679   107104710.221        2448.051          45.000    20381337.771    83458173.942        1907.496          43.000                                                  
G10  19467713.207   102303522.877         913.318          50.000    19467701.967    79716984.525         711.694          45.000                                                  
G28  21918284.475   115181356.434        2514.523          42.000    21918273.509    89751679.622        1959.306          43.000                                                  
C23  20717609.858   107882009.656         135.288          50.000                                                                  
C09  36820970.143   191736433.042         251.258          43.000    36820954.331   148262724.716         194.428          47.000  
C33  26250197.742                3      -2960.739          24.000                                                                  
C37  22746536.339   118447182.452        2621.698          45.000                                                                  
> 2025 10 27 02 54 34.1960000  0 19                     
G12  20714534.681   108855616.094         725.950          45.000    20714523.325    84822512.352         565.392          43.000                                                  
G15  23396637.474                       -3278.093          32.000    23396635.846    95805313.384       -2554.699          34.000                                                  
G18  23744176.572   124776497.986       -3660.188          34.000    23744174.326    97228414.190       -2852.666          38.000                                                  
G23  19356139.331   101717190.341       -2220.722          47.000    19356127.337    79260073.059       -1730.469          46.000                                                  
G24  21092491.107   110841788.862       -3415.940          29.000    21092482.620                       -2661.611          30.000                                                  
G32  20831823.958   109471971.256        1476.023          45.000    20831814.569    85302799.838        1150.208          42.000                                                  
C08  34727296.108   180834118.238        -380.371          46.000    34727275.302   139832331.652        -294.281          48.000  
C13  34714762.502   180768853.407         -78.577          47.000    34714749.759   139781897.638         -60.828          47.000  
C16  35672466.934   185755884.798         -26.698          48.000    35672452.516   143638184.665         -20.505          47.000  
C25  22377437.273   116525187.922       -2630.891          33.000                                                                  
C32  21012058.251   109415284.932         810.030          50.000                                                                  
C06  35357214.696   184114283.252         151.930          45.000    35357194.737   142368773.068         117.590          45.000  
G25  20381328.048   107104612.298        2448.069          45.000    20381319.130    83458097.645        1907.413          43.000                                                  
G10  19467706.258   102303486.356         913.083          50.000    19467695.009    79716956.063         711.577          45.000                                                  
G28  21918265.358   115181255.866        2514.310          42.000    21918254.372    89751601.239        1959.527          43.000                                                  
C23  20717608.782   107882004.251         135.195          50.000                                                                  
C09  36820968.208   191736422.998         251.105          43.000    36820952.401   148262716.939         194.443          47.000  
C33  26250220.718                3      -2959.997          24.000                                                                  
C37  22746516.199   118447077.584        2621.674          45.000                                                                  
> 2025 10 27 02 54 34.2360000  0 19                     
G12  20714529.162   108855587.086         725.410          45.000    20714517.821    84822489.737         565.339          43.000                                                  
G15  23396662.424                       -3278.111          32.000    23396660.837    95805415.633       -2555.675          34.000                                                  
G18  23744204.469   124776644.424       -3660.709          34.000    23744202.203    97228528.292       -2852.735          38.000                                                  
G23  19356156.239   101717279.179       -2220.926          47.000    19356144.237    79260142.279       -1730.507          46.000                                                  
G24  21092517.131   110841925.500       -3415.898          29.000    21092508.614                       -2662.033          30.000                                                  
G32  20831812.721   109471912.227        1475.776          45.000    20831803.328    85302753.836        1150.089          42.000                                                  
C08  34727299.022   180834133.464        -380.566          46.000    34727278.242   139832343.431        -294.476          48.000  
C13  34714763.074   180768856.557         -78.729          47.000    34714750.353   139781900.066         -60.767          47.000  
C16  35672467.142   185755885.867         -26.726          48.000    35672452.760   143638185.500         -20.769          47.000  
C25  22377457.467   116525293.147       -2630.712          33.000                                                                  
C32  21012052.015   109415252.536         809.916          50.000                                                                  
C06  35357213.538   184114277.181         151.807          45.000    35357193.565   142368768.371         117.466          45.000  
G25  20381309.397   107104514.391        2447.800          45.000    20381300.485    83458021.342        1907.491          43.000                                                  
G10  19467699.325   102303449.833         913.010          50.000    19467688.039    79716927.606         711.442          45.000                                                  
G28  21918246.237   115181155.307        2514.038          42.000    21918235.232    89751522.880        1959.169          43.000                                                  
C23  20717607.719   107881998.851         135.020          50.000                                                                  
C09  36820966.274   191736412.956         250.980          43.000    36820950.451   148262709.178         194.133          47.000  
C33  26250243.682                3      -2960.207          24.000                                                                  
C37  22746496.056   118446972.724        2621.503          45.000                                                                  
> 2025 10 27 02 54 34.2760000  0 19                     
G12  20714523.655   108855558.073         725.200          45.000    20714512.307    84822467.123         565.318          43.000                                                  
G15  23396687.402                       -3279.113          32.000    23396685.785    95805517.834       -2555.379          34.000                                                  
G18  23744232.325   124776790.833       -3660.470          34.000    23744230.091    97228642.379       -2852.470          38.000                                                  
G23  19356173.160   101717368.015       -2220.974          47.000    19356161.142    79260211.502       -1730.593          46.000                                                  
G24  21092543.130   110842062.148       -3416.027          29.000    21092534.611                       -2663.165          30.000                                                  
G32  20831801.504   109471853.200        1475.605          45.000    20831792.094    85302707.848        1149.776          42.000                                                  
C08  34727301.923   180834148.688        -380.640          46.000    34727281.155   139832355.205        -294.470          48.000  
C13  34714763.689   180768859.702         -78.723          47.000    34714750.956   139781902.498         -60.797          47.000  
C16  35672467.312   185755886.939         -26.811          48.000    35672452.967   143638186.327         -20.743          47.000  
C25  22377477.717   116525398.410       -2631.372          33.000                                                                  
C32  21012045.779   109415220.144         809.804          50.000                                                                  
C06  35357212.387   184114271.105         151.852          45.000    35357192.387   142368763.675         117.374          45.000  
G25  20381290.758   107104416.468        2447.911          45.000    20381281.848    83457945.049        1907.366          43.000                                                  
G10  19467692.372   102303413.306         913.066          50.000    19467681.080    79716899.141         711.504          45.000                                                  
G28  21918227.079   115181054.742        2514.027          42.000    21918216.109    89751444.533        1958.780          43.000                                                  
C23  20717606.659   107881993.450         134.946          50.000                                                                  
C09  36820964.325   191736402.915         250.946          43.000    36820948.532   148262701.417         193.991          46.000  
C33  26250266.347                3      -2960.633          24.000                                                                  
C37  22746475.907   118446867.864        2621.478          45.000                                                                  
> 2025 10 27 02 54 34.3160000  0 19                     
G12  20714518.124   108855529.054         725.289          45.000    20714506.747    84822444.504         565.371          43.000                                                  
G15  23396712.382                       -3279.724          32.000    23396710.766    95805620.015       -2554.813          34.000                                                  
G18  23744260.235   124776937.284       -3661.091          34.000    23744257.954    97228756.480       -2852.535          38.000                                                  
G23  19356190.054   101717456.853       -2221.042          47.000    19356178.054    79260280.722       -1730.593          46.000                                                  
G24  21092569.175   110842198.783       -3415.939          29.000    21092560.611                       -2662.085          30.000                                                  
G32  20831790.271   109471794.169        1475.626          45.000    20831780.856    85302661.847        1149.805          42.000                                                  
C08  34727304.851   180834163.913        -380.676          46.000    34727284.110   139832366.975        -294.360          48.000  
C13  34714764.301   180768862.851         -78.772          47.000    34714751.535   139781904.938         -60.944          47.000  
C16  35672467.516   185755888.006         -26.750          48.000    35672453.163   143638187.162         -20.871          47.000  
C25  22377497.906   116525503.650       -2631.278          33.000                                                                  
C32  21012039.574   109415187.749         809.807          50.000                                                                  
C06  35357211.197   184114265.036         151.746          45.000    35357191.198   142368758.985         117.255          45.000  
G25  20381272.150   107104318.559        2447.749          45.000    20381263.223    83457868.749        1907.430          43.000                                                  
G10  19467685.417   102303376.785         913.005          50.000    19467674.131    79716870.683         711.411          45.000                                                  
G28  21918207.926   115180954.177        2514.047          42.000    21918196.992    89751366.169        1958.908          43.000                                                  
C23  20717605.604   107881988.055         134.842          50.000                                                                  
C09  36820962.387   191736392.863         251.181          43.000    36820946.592   148262693.658         193.918          47.000  
C33  26250288.924                3      -2958.287          24.000                                                                  
C37  22746455.794   118446763.000        2621.527          45.000                                                                  
> 2025 10 27 02 54 34.3560000  0 19                     
G12  20714512.567   108855500.018         725.683          45.000    20714501.209    84822421.898         565.176          43.000                                                  
G15  23396737.357                       -3279.090          32.000    23396735.699    95805722.222       -2555.130          34.000                                                  
G18  23744288.142   124777083.696       -3660.608          34.000    23744285.830    97228870.574       -2852.512          38.000                                                  
G23  19356206.952   101717545.694       -2221.096          47.000    19356194.971    79260349.953       -1730.783          46.000                                                  
G24  21092595.192   110842335.446       -3416.204          29.000    21092586.590                       -2660.896          30.000                                                  
G32  20831779.050   109471735.124        1475.942          45.000    20831769.647    85302615.844        1149.941          41.000                                                  
C08  34727307.762   180834179.133        -380.579          46.000    34727287.022   139832378.742        -294.250          48.000  
C13  34714764.908   180768866.002         -78.851          47.000    34714752.174   139781907.378         -61.023          47.000  
C16  35672467.711   185755889.076         -26.735          48.000    35672453.372   143638187.988         -20.782          47.000  
C25  22377518.077   116525608.886       -2631.111          33.000                                                                  
C32  21012033.409   109415155.351         809.873          50.000                                                                  
C06  35357210.020   184114258.969         151.650          45.000    35357190.023   142368754.281         117.444          45.000  
G25  20381253.508   107104220.642        2447.813          45.000    20381244.582    83457792.448        1907.517          43.000                                                  
G10  19467678.463   102303340.263         912.993          50.000    19467667.185    79716842.225         711.388          45.000                                                  
G28  21918188.792   115180853.599        2514.329          42.000    21918177.851    89751287.793        1959.207          43.000                                                  
C23  20717604.590   107881982.655         134.912          50.000                                                                  
C09  36820960.463   191736382.821         251.135          43.000    36820944.657   148262685.881         194.197          47.000  
C33  26250311.540                3      -2957.740          24.000                                                                  
C37  22746435.648   118446658.146        2621.375          45.000                                                                  
> 2025 10 27 02 54 34.3960000  0 19                     
G12  20714507.061   108855471.001         725.513          45.000    20714495.660    84822399.286         565.165          43.000                                                  
G15  23396762.292                       -3278.609          32.000    23396760.700    95805824.456       -2555.601          33.000                                                  
G18  23744315.993   124777230.105       -3660.370          34.000    23744313.685    97228984.657       -2852.328          38.000                                                  
G23  19356223.843   101717634.522       -2220.880          47.000    19356211.891    79260419.175       -1730.665          46.000                                                  
G24  21092621.185   110842472.092       -3416.228          29.000    21092612.596                       -2660.986          30.000                                                  
G32  20831767.810   109471676.087        1475.991          45.000    20831758.406    85302569.849        1149.891          41.000                                                  
C08  34727310.701   180834194.356        -380.566          46.000    34727289.913   139832390.516        -294.312          48.000  
C13  34714765.480   180768869.146         -78.699          47.000    34714752.768   139781909.806         -60.822          47.000  
C16  35672467.921   185755890.139         -26.631          48.000    35672453.577   143638188.818         -20.787          47.000  
C25  22377538.294   116525714.129       -2631.111          33.000                                                                  
C32  21012027.183   109415122.946         810.059          50.000                                                                  
C06  35357208.847   184114252.889         151.825          45.000    35357188.833   142368749.585         117.430          45.000  
G25  20381234.891   107104122.730        2447.789          45.000    20381225.943    83457716.151        1907.442          43.000                                                  
G10  19467671.507   102303303.740         913.030          50.000    19467660.263    79716813.772         711.308          45.000                                                  
G28  21918169.627   115180753.026        2514.389          42.000    21918158.702    89751209.428        1959.161          43.000                                                  
C23  20717603.553   107881977.245         135.127          50.000                                                                  
C09  36820958.560   191736372.774         251.186          43.000    36820942.721   148262678.102         194.370          47.000  
C33  26250334.437                3      -2958.695          24.000                                                                  
C37  22746415.525   118446553.282        2621.509          45.000                                                                  
> 2025 10 27 02 54 34.4360000  0 19                     
G12  20714501.537   108855441.991         725.335          45.000    20714490.136    84822376.682         565.040          43.000                                                  
G15  23396787.253                       -3278.765          32.000    23396785.675    95805926.697       -2556.010          30.000                                                  
G18  23744343.880   124777376.508       -3660.159          34.000    23744341.562    97229098.770       -2852.668          37.000                                                  
G23  19356240.735   101717723.359       -2220.911          47.000    19356228.789    79260488.398       -1730.628          46.000                                                  
G24  21092647.167   110842608.727       -3416.102          29.000    21092638.589                       -2661.051          30.000                                                  
G32  20831756.576   109471617.056        1475.858          45.000    20831747.136    85302523.844        1150.034          41.000                                                  
C08  34727313.644   180834209.576        -380.554          46.000    34727292.816   139832402.287        -294.299          48.000  
C13  34714766.089   180768872.298         -78.796          47.000    34714753.404   139781912.238         -60.809          47.000  
C16  35672468.094   185755891.208         -26.687          48.000    35672453.783   143638189.641         -20.636          47.000  
C25  22377558.505   116525819.356       -2630.784          33.000                                                                  
C32  21012020.960   109415090.550         809.966          50.000                                                                  
C06  35357207.662   184114246.814         151.848          45.000    35357187.653   142368744.886         117.426          45.000  
G25  20381216.256   107104024.805        2448.002          45.000    20381207.309    83457639.838        1907.686          43.000                                                  
G10  19467664.555   102303267.215         913.086          50.000    19467653.330    79716785.311         711.444          45.000                                                  
G28  21918150.492   115180652.469        2514.045          42.000    21918139.580    89751131.060        1959.185          43.000                                                  
C23  20717602.530   107881971.841         135.121          50.000                                                                  
C09  36820956.625   191736362.737         250.983          43.000    36820940.794   148262670.343         194.123          47.000  
C33  26250357.177                3      -2963.366          24.000                                                                  
C37  22746395.420   118446448.419        2621.558          45.000                                                                  
> 2025 10 27 02 54 34.4760000  0 19                     
G12  20714496.031   108855412.990         725.048          45.000    20714484.618    84822354.078         565.002          43.000                                                  
G15  23396812.227                       -3278.493          32.000    23396810.619    95806028.925       -2555.896          29.000                                                  
G18  23744371.754   124777522.941       -3660.587          34.000    23744369.417    97229212.851       -2852.275          37.000                                                  
G23  19356257.670   101717812.198       -2220.985          47.000    19356245.710    79260557.621       -1730.591          46.000                                                  
G24  21092673.202   110842745.406       -3416.491          29.000    21092664.601                       -2662.071          30.000                                                  
G32  20831745.343   109471558.023        1475.825          45.000    20831735.902    85302477.832        1150.278          41.000                                                  
C08  34727316.554   180834224.805        -380.701          46.000    34727295.763   139832414.053        -294.208          48.000  
C13  34714766.680   180768875.448         -78.796          47.000    34714754.016   139781914.680         -60.980          47.000  
C16  35672468.264   185755892.283         -26.844          48.000    35672453.981   143638190.464         -20.581          47.000  
C25  22377578.735   116525924.625       -2631.575          33.000                                                                  
C32  21012014.716   109415058.157         809.849          50.000                                                                  
C06  35357206.474   184114240.736         151.913          45.000    35357186.453   142368740.189         117.378          45.000  
G25  20381197.633   107103926.892        2447.876          45.000    20381188.700    83457563.556        1907.271          43.000                                                  
G10  19467657.603   102303230.693         913.055          50.000    19467646.361    79716756.851         711.518          45.000                                                  
G28  21918131.370   115180551.908        2513.959          42.000    21918120.429    89751052.702        1958.979          43.000                                                  
C23  20717601.457   107881966.442         135.015          50.000                                                                  
C09  36820954.696   191736352.695         250.946          43.000    36820938.873   148262662.593         193.792          46.000  
C33  26250380.195                3      -2961.133          24.000                                                                  
C37  22746375.309   118446343.551        2621.661          45.000                                                                  
> 2025 10 27 02 54 34.5160000  0 19                     
G12  20714490.535   108855383.981         725.071          45.000    20714479.087    84822331.472         565.030          43.000                                                  
G15  23396837.200                       -3278.817          27.000    23396835.599    95806131.225       -2556.862          29.000                                                  
G18  23744399.625   124777669.377       -3660.858          34.000    23744397.282    97229326.921       -2851.921          38.000                                                  
G23  19356274.591   101717901.040       -2221.071          47.000    19356262.592    79260626.838       -1730.493          46.000                                                  
G24  21092699.192   110842882.089       -3416.834          29.000    21092690.631                       -2662.904          30.000                                                  
G32  20831734.110   109471498.994        1475.728          45.000    20831724.689    85302431.848        1149.864          41.000                                                  
C08  34727319.511   180834240.033        -380.725          46.000    34727298.694   139832425.831        -294.379          48.000  
C13  34714767.276   180768878.598         -78.772          47.000    34714754.624   139781917.112         -60.889          47.000  
C16  35672468.451   185755893.363         -26.997          48.000    35672454.199   143638191.299         -20.801          47.000  
C25  22377598.952   116526029.889       -2631.856          33.000                                                                  
C32  21012008.461   109415025.761         809.832          50.000                                                                  
C06  35357205.263   184114234.664         151.851          45.000    35357185.270   142368735.496         117.310          45.000  
G25  20381179.005   107103828.978        2447.831          45.000    20381170.069    83457487.262        1907.245          43.000                                                  
G10  19467650.633   102303194.172         913.018          50.000    19467639.406    79716728.388         711.586          45.000                                                  
G28  21918112.224   115180451.350        2513.899          42.000    21918101.290    89750974.353        1958.713          43.000                                                  
C23  20717600.413   107881961.049         134.849          50.000                                                                  
C09  36820952.777   191736342.662         250.823          43.000    36820936.943   148262654.839         193.720          47.000  
C33  26250402.824                3      -2959.215          24.000                                                                  
C37  22746355.134   118446238.689        2621.594          45.000                                                                  
> 2025 10 27 02 54 34.5560000  0 19                     
G12  20714485.014   108855354.961         725.369          45.000    20714473.577    84822308.849         565.374          43.000                                                  
G15  23396862.174                       -3278.500          27.000                                                                                                                  
G18  23744427.470   124777815.768       -3660.158          34.000    23744425.137    97229441.011       -2852.155          38.000                                                  
G23  19356291.500   101717989.883       -2221.108          47.000    19356279.488    79260696.056       -1730.475          46.000                                                  
G24  21092725.200   110843018.745       -3416.762          29.000    21092716.660                       -2661.789          30.000                                                  
G32  20831722.891   109471439.958        1475.836          45.000    20831713.441    85302385.846        1149.932          41.000                                                  
C08  34727322.451   180834255.254        -380.597          46.000    34727301.641   139832437.601        -294.330          48.000  
C13  34714767.881   180768881.740         -78.638          47.000    34714755.238   139781919.544         -60.834          47.000  
C16  35672468.672   185755894.429         -26.835          48.000    35672454.410   143638192.123         -20.707          47.000  
C25  22377619.188   116526135.139       -2631.539          33.000                                                                  
C32  21012002.236   109414993.367         809.815          50.000                                                                  
C06  35357204.099   184114228.587         151.877          45.000    35357184.089   142368730.804         117.274          45.000  
G25  20381160.362   107103731.059        2447.919          45.000    20381151.443    83457410.976        1907.125          43.000                                                  
G10  19467643.692   102303157.656         912.894          50.000    19467632.464    79716699.931         711.480          45.000                                                  
G28  21918093.116   115180350.778        2514.105          42.000    21918082.187    89750895.996        1958.810          43.000                                                  
C23  20717599.377   107881955.654         134.809          50.000                                                                  
C09  36820950.841   191736332.613         251.037          43.000    36820935.015   148262647.065         194.089          47.000  
C33  26250425.612                3      -2959.601          24.000                                                                  
C37  22746334.978   118446133.826        2621.545          45.000                                                                  
> 2025 10 27 02 54 34.5960000  0 19                     
G12  20714479.481   108855325.942         725.439          45.000    20714468.048    84822286.238         565.376          43.000                                                  
G15  23396887.191                3      -3276.926          27.000                                                                                                                  
G18  23744455.353   124777962.168       -3659.983          34.000    23744452.996    97229555.103       -2852.255          38.000                                                  
G23  19356308.407   101718078.726       -2221.138          47.000    19356296.398    79260765.301       -1730.968          46.000                                                  
G24  21092751.221   110843155.404       -3416.718          29.000    21092742.658                       -2662.607          30.000                                                  
G32  20831711.670   109471380.921        1475.893          45.000    20831702.222    85302339.843        1149.958          41.000                                                  
C08  34727325.334   180834270.486        -380.737          46.000    34727304.560   139832449.375        -294.385          48.000  
C13  34714768.472   180768884.886         -78.632          47.000    34714755.853   139781921.977         -60.815          47.000  
C16  35672468.880   185755895.498         -26.791          48.000    35672454.630   143638192.945         -20.616          47.000  
C25  22377639.392   116526240.398       -2631.457          33.000                                                                  
C32  21011996.038   109414960.972         809.842          50.000                                                                  
C06  35357202.915   184114222.521         151.720          45.000    35357182.926   142368726.110         117.290          45.000  
G25  20381141.723   107103633.142        2447.931          45.000    20381132.794    83457334.681        1907.203          43.000                                                  
G10  19467636.754   102303121.139         912.871          50.000    19467625.510    79716671.478         711.363          45.000                                                  
G28  21918073.969   115180250.209        2514.204          42.000    21918063.041    89750817.626        1959.091          43.000                                                  
C23  20717598.385   107881950.259         134.799          50.000                                                                  
C09  36820948.919   191736322.561         251.225          43.000    36820933.096   148262639.295         194.225          47.000  
C33  26250448.307                3      -2957.314          23.000                                                                  
C37  22746314.866   118446028.969        2621.436          45.000                                                                  
> 2025 10 27 02 54 34.6360000  0 19                     
G12  20714473.965   108855296.933         725.307          45.000    20714462.504    84822263.630         565.262          42.000                                                  
G15  23396912.844                3      -3279.283          27.000                                                                                                                  
G18  23744483.214   124778108.601       -3660.453          34.000    23744480.853    97229669.217       -2852.765          37.000                                                  
G23  19356325.309   101718167.572       -2221.193          47.000    19356313.307    79260834.539       -1731.065          46.000                                                  
G24  21092777.264   110843292.056       -3416.370          29.000    21092768.667                       -2662.427          30.000                                                  
G32  20831700.452   109471321.893        1475.735          45.000    20831690.999    85302293.849        1149.869          42.000                                                  
C08  34727328.255   180834285.710        -380.682          46.000    34727307.471   139832461.146        -294.324          48.000  
C13  34714769.064   180768888.038         -78.772          47.000    34714756.454   139781924.409         -60.779          47.000  
C16  35672469.089   185755896.568         -26.751          48.000    35672454.848   143638193.774         -20.690          47.000  
C25  22377659.577   116526345.602       -2630.497          33.000                                                                  
C32  21011989.792   109414928.576         809.854          50.000                                                                  
C06  35357201.755   184114216.454         151.672          45.000    35357181.800   142368721.419         117.230          45.000  
G25  20381123.092   107103535.243        2447.615          45.000    20381114.161    83457258.390        1907.184          43.000                                                  
G10  19467629.794   102303084.622         912.865          50.000    19467618.579    79716643.024         711.314          45.000                                                  
G28  21918054.822   115180149.644        2514.109          42.000    21918043.875    89750739.265        1959.026          43.000                                                  
C23  20717597.369   107881944.867         134.769          50.000                                                                  
C09  36820946.983   191736312.526         250.970          43.000    36820931.136   148262631.521         194.347          47.000  
C33  26250470.695                3      -2957.314          23.000                                                                  
C37  22746294.744   118445924.115        2621.320          45.000                                                                  
> 2025 10 27 02 54 34.6760000  0 19                     
G12  20714468.454   108855267.928         725.159          45.000    20714457.003    84822241.035         564.964          42.000                                                  
G15  23396938.286                3      -3279.401          27.000                                                                                                                  
G18  23744511.063   124778255.036       -3660.813          34.000    23744508.718    97229783.310       -2852.583          37.000                                                  
G23  19356342.207   101718256.412       -2221.057          47.000    19356330.220    79260903.771       -1730.946          46.000                                                  
G24  21092803.303   110843428.751       -3417.203          29.000    21092794.625                       -2661.649          30.000                                                  
G32  20831689.214   109471262.860        1475.762          45.000    20831679.768    85302247.850        1149.930          42.000                                                  
C08  34727331.184   180834300.936        -380.676          46.000    34727310.361   139832472.918        -294.312          48.000  
C13  34714769.667   180768891.192         -78.876          47.000    34714757.056   139781926.844         -60.852          47.000  
C16  35672469.277   185755897.647         -26.922          48.000    35672455.051   143638194.599         -20.677          47.000  
C25  22377679.798   116526450.837       -2630.568          33.000                                                                  
C32  21011983.550   109414896.187         809.746          50.000                                                                  
C06  35357200.583   184114210.384         151.689          45.000    35357180.648   142368716.728         117.213          45.000  
G25  20381104.452   107103437.336        2447.598          45.000    20381095.534    83457182.090        1907.371          43.000                                                  
G10  19467622.854   102303048.104         912.896          50.000    19467611.605    79716614.567         711.358          45.000                                                  
G28  21918035.699   115180049.084        2513.979          42.000    21918024.728    89750660.898        1959.081          43.000                                                  
C23  20717596.367   107881939.473         134.790          50.000                                                                  
C09  36820945.026   191736302.483         251.017          43.000    36820929.204   148262623.750         194.319          47.000  
C33  26250493.233                3      -2957.314          23.000                                                                  
C37  22746274.615   118445819.254        2621.436          45.000                                                                  
> 2025 10 27 02 54 34.7160000  0 19                     
G12  20714462.934   108855238.920         725.157          45.000    20714451.472    84822218.434         564.885          42.000                                                  
G15  23396963.520                3      -3276.918          27.000                                                                                                                  
G18  23744538.929   124778401.483       -3661.149          34.000    23744536.586    97229897.413       -2852.521          37.000                                                  
G23  19356359.100   101718345.252       -2221.008          47.000    19356347.116    79260972.992       -1730.644          46.000                                                  
G24  21092829.309                       -3416.219          29.000    21092820.626                       -2661.668          30.000                                                  
G32  20831677.995   109471203.826        1475.776          45.000    20831668.537    85302201.833        1150.280          42.000                                                  
C08  34727334.155   180834316.156        -380.554          46.000    34727313.280   139832484.692        -294.348          48.000  
C13  34714770.284   180768894.341         -78.821          47.000    34714757.644   139781929.280         -60.901          47.000  
C16  35672469.462   185755898.724         -26.964          48.000    35672455.279   143638195.431         -20.796          47.000  
C25  22377700.012   116526556.077       -2630.954          33.000                                                                  
C32  21011977.349   109414863.795         809.721          50.000                                                                  
C06  35357199.419   184114204.309         151.768          45.000    35357179.487   142368712.027         117.386          45.000  
G25  20381085.804   107103339.429        2447.610          45.000    20381076.895    83457105.795        1907.374          43.000                                                  
G10  19467615.920   102303011.590         912.816          50.000    19467604.679    79716586.118         711.234          45.000                                                  
G28  21918016.563   115179948.516        2514.073          42.000    21918005.583    89750582.539        1959.007          43.000                                                  
C23  20717595.355   107881934.080         134.777          50.000                                                                  
C09  36820943.089   191736292.446         250.955          43.000    36820927.275   148262615.982         194.210          47.000  
C33  26250515.978                3      -2963.094          23.000                                                                  
C37  22746254.494   118445714.395        2621.460          46.000                                                                  
> 2025 10 27 02 54 34.7560000  0 19                     
G12  20714457.412   108855209.912         725.193          44.000    20714445.955    84822195.837         564.827          42.000                                                  
G15  23396988.751                3      -3278.712          27.000                                                                                                                  
G18  23744566.784   124778547.904       -3660.866          34.000    23744564.433    97230011.513       -2852.455          37.000                                                  
G23  19356376.017   101718434.101       -2221.163          47.000    19356364.009    79261042.221       -1730.632          46.000                                                  
G24  21092855.293                       -3414.723          29.000    21092846.604                       -2662.532          30.000                                                  
G32  20831666.790   109471144.803        1475.636          45.000    20831657.260    85302155.848        1149.863          41.000                                                  
C08  34727337.078   180834331.386        -380.701          46.000    34727316.216   139832496.471        -294.458          48.000  
C13  34714770.888   180768897.497         -78.912          47.000    34714758.229   139781931.721         -61.017          47.000  
C16  35672469.674   185755899.800         -26.983          48.000    35672455.491   143638196.264         -20.877          47.000  
C25  22377720.235   116526661.327       -2631.224          33.000                                                                  
C32  21011971.124   109414831.409         809.640          50.000                                                                  
C06  35357198.246   184114198.244         151.648          45.000    35357178.296   142368707.334         117.343          45.000  
G25  20381067.168   107103241.529        2447.506          45.000    20381058.250    83457029.512        1907.196          43.000                                                  
G10  19467609.011   102302975.086         912.625          50.000    19467597.732    79716557.674         711.044          45.000                                                  
G28  21917997.435   115179847.970        2513.693          42.000    21917986.444    89750504.189        1958.796          43.000                                                  
C23  20717594.269   107881928.698         134.571          50.000                                                                  
C09  36820941.156   191736282.408         250.944          43.000    36820925.360   148262608.228         193.928          47.000  
C33  26250538.653                3      -2958.153          23.000                                                                  
C37  22746234.362   118445609.539        2621.381          46.000                                                                  
> 2025 10 27 02 54 34.7960000  0 19                     
G12  20714451.890   108855180.895         725.349          44.000    20714440.430    84822173.227         565.024          42.000                                                  
G15  23397013.588                3      -3278.892          27.000                                                                                                                  
G18  23744594.673   124778694.326       -3660.725          34.000    23744592.302    97230125.593       -2852.204          37.000                                                  
G23  19356392.943   101718522.952       -2221.310          47.000    19356380.927    79261111.454       -1730.762          46.000                                                  
G24  21092881.269                       -3414.525          29.000    21092872.592                       -2661.650          30.000                                                  
G32  20831655.566   109471085.772        1475.711          45.000    20831646.023    85302109.851        1149.780          41.000                                                  
C08  34727339.991   180834346.623        -380.914          46.000    34727319.131   139832508.251        -294.531          48.000  
C13  34714771.515   180768900.642         -78.735          47.000    34714758.825   139781934.168         -61.212          47.000  
C16  35672469.850   185755900.867         -26.803          48.000    35672455.715   143638197.092         -20.808          47.000  
C25  22377740.426   116526766.604       -2631.926          33.000                                                                  
C32  21011964.928   109414799.020         809.663          50.000                                                                  
C06  35357197.087   184114192.174         151.671          45.000    35357177.134   142368702.635         117.429          45.000  
G25  20381048.519   107103143.625        2447.509          45.000    20381039.630    83456953.226        1907.128          43.000                                                  
G10  19467602.062   102302938.576         912.644          50.000    19467590.791    79716529.225         711.100          45.000                                                  
G28  21917978.288   115179747.415        2513.721          42.000    21917967.306    89750425.830        1958.841          43.000                                                  
C23  20717593.222   107881923.312         134.578          50.000                                                                  
C09  36820939.204   191736272.374         250.850          43.000    36820923.444   148262600.471         193.844          47.000  
C33  26250561.374                3      -2958.153          24.000                                                                  
C37  22746214.243   118445504.682        2621.368          45.000                                                                  
> 2025 10 27 02 54 34.8360000  0 19                     
G12  20714446.374   108855151.888         725.254          44.000    20714434.894    84822150.624         565.043          42.000                                                  
G15  23397038.619                3      -3279.939          27.000                                                                                                                  
G18  23744622.565   124778840.747       -3660.653          34.000    23744620.160    97230239.675       -2852.083          37.000                                                  
G23  19356409.830   101718611.799       -2221.279          47.000    19356397.825    79261180.685       -1730.762          46.000                                                  
G24  21092907.282                       -3414.982          29.000    21092898.613                       -2662.067          30.000                                                  
G32  20831644.328   109471026.739        1475.790          45.000    20831634.794    85302063.847        1149.934          41.000                                                  
C08  34727342.901   180834361.857        -380.951          46.000    34727322.089   139832520.022        -294.366          48.000  
C13  34714772.143   180768903.784         -78.589          47.000    34714759.417   139781936.596         -60.938          47.000  
C16  35672470.034   185755901.932         -26.656          48.000    35672455.947   143638197.924         -20.832          47.000  
C25  22377760.604   116526871.849       -2631.509          33.000                                                                  
C32  21011958.725   109414766.629         809.688          50.000                                                                  
C06  35357195.925   184114186.109         151.571          45.000    35357175.964   142368697.938         117.432          45.000  
G25  20381029.860   107103045.716        2447.611          45.000    20381020.995    83456876.939        1907.103          43.000                                                  
G10  19467595.107   102302902.057         912.836          50.000    19467583.810    79716500.768         711.323          45.000                                                  
G28  21917959.136   115179646.855        2513.853          42.000    21917948.181    89750347.468        1958.992          43.000                                                  
C23  20717592.190   107881917.919         134.703          50.000                                                                  
C09  36820937.255   191736262.328         251.046          43.000    36820921.503   148262592.710         193.917          47.000  
C33  26250583.998                3      -2956.052          24.000                                                                  
C37  22746194.109   118445399.829        2621.313          45.000                                                                  
> 2025 10 27 02 54 34.8760000  0 19                     
G12  20714440.851   108855122.882         725.142          44.000    20714429.373    84822128.012         565.231          42.000                                                  
G15  23397063.457                3      -3278.774          27.000                                                                                                                  
G18  23744650.409   124778987.137       -3660.029          34.000    23744648.003    97230353.755       -2851.937          38.000                                                  
G23  19356426.729   101718700.649       -2221.303          47.000    19356414.722    79261249.922       -1730.910          46.000                                                  
G24  21092933.294                       -3415.521          29.000    21092924.612                       -2661.861          30.000                                                  
G32  20831633.105   109470967.715        1475.657          45.000    20831623.552    85302017.850        1149.877          41.000                                                  
C08  34727345.787   180834377.077        -380.688          46.000    34727324.995   139832531.795        -294.318          48.000  
C13  34714772.749   180768906.938         -78.778          47.000    34714760.013   139781939.032         -60.919          47.000  
C16  35672470.234   185755903.006         -26.760          48.000    35672456.176   143638198.752         -20.765          47.000  
C25  22377780.825   116526977.129       -2631.989          33.000                                                                  
C32  21011952.524   109414734.234         809.798          50.000                                                                  
C06  35357194.783   184114180.031         151.799          45.000    35357174.759   142368693.241         117.432          45.000  
G25  20381011.231   107102947.806        2447.681          45.000    20381002.358    83456800.637        1907.363          43.000                                                  
G10  19467588.140   102302865.538         912.922          50.000    19467576.845    79716472.311         711.402          45.000                                                  
G28  21917939.994   115179546.298        2513.878          42.000    21917929.062    89750269.113        1958.897          43.000                                                  
C23  20717591.163   107881912.527         134.760          50.000                                                                  
C09  36820935.326   191736252.287         251.044          43.000    36820919.584   148262584.941         194.125          47.000  
C33  26250606.209                3      -2956.052          24.000                                                                  
C37  22746173.966   118445294.974        2621.326          45.000                                                                  
> 2025 10 27 02 54 34.9160000  0 19                     
G12  20714435.344   108855093.878         725.047          44.000    20714423.842    84822105.413         565.077          42.000                                                  
G15  23397088.049                3      -3278.719          27.000                                                                                                                  
G18  23744678.295   124779133.549       -3660.100          34.000    23744675.869    97230467.867       -2852.480          38.000                                                  
G23  19356443.645   101718789.504       -2221.370          47.000    19356431.645    79261319.160       -1731.008          46.000                                                  
G24  21092959.297                       -3416.160          29.000    21092950.593                       -2661.296          30.000                                                  
G32  20831621.870   109470908.687        1475.653          45.000    20831612.323    85301971.855        1149.776          42.000                                                  
C08  34727348.685   180834392.305        -380.713          46.000    34727327.915   139832543.571        -294.373          48.000  
C13  34714773.360   180768910.094         -78.906          47.000    34714760.589   139781941.467         -60.883          47.000  
C16  35672470.397   185755904.085         -26.938          48.000    35672456.420   143638199.578         -20.681          47.000  
C25  22377801.049   116527082.379       -2631.580          33.000                                                                  
C32  21011946.288   109414701.848         809.706          50.000                                                                  
C06  35357193.635   184114173.961         151.782          45.000    35357173.602   142368688.559         117.167          45.000  
G25  20380992.613   107102849.897        2447.721          45.000    20380983.697    83456724.329        1907.627          43.000                                                  
G10  19467581.211   102302829.032         912.736          50.000    19467569.911    79716443.866         711.254          45.000                                                  
G28  21917920.864   115179445.734        2514.053          42.000    21917909.907    89750190.765        1958.742          43.000                                                  
C23  20717590.107   107881907.139         134.720          50.000                                                                  
C09  36820933.418   191736242.242         251.120          43.000    36820917.639   148262577.181         194.060          47.000  
C33  26250628.986                3      -2956.052          24.000                                                                  
C37  22746153.838   118445190.123        2621.271          45.000                                                                  
> 2025 10 27 02 54 34.9560000  0 19                     
G12  20714429.805   108855064.880         724.896          44.000    20714418.350    84822082.810         565.052          42.000                                                  
G15  23397112.948                3      -3279.272          27.000                                                                                                                  
G18  23744706.170   124779279.966       -3660.281          34.000    23744703.732    97230581.968       -2852.600          38.000                                                  
G23  19356460.556   101718878.353       -2221.302          47.000    19356448.565    79261388.400       -1731.063          46.000                                                  
G24  21092985.282                       -3416.492          29.000    21092976.634                       -2662.924          30.000                                                  
G32  20831610.650   109470849.646        1475.900          45.000    20831601.085    85301925.860        1149.741          42.000                                                  
C08  34727351.606   180834407.533        -380.725          46.000    34727330.833   139832555.354        -294.543          48.000  
C13  34714774.008   180768913.250         -78.967          47.000    34714761.177   139781943.904         -60.962          47.000  
C16  35672470.611   185755905.160         -26.952          48.000    35672456.681   143638200.409         -20.723          47.000  
C25  22377821.217   116527187.587       -2630.508          33.000                                                                  
C32  21011940.069   109414669.457         809.733          50.000                                                                  
C06  35357192.477   184114167.885         151.838          45.000    35357172.426   142368683.866         117.184          45.000  
G25  20380973.984   107102751.988        2447.729          45.000    20380965.088    83456648.054        1907.122          43.000                                                  
G10  19467574.269   102302792.527         912.607          50.000    19467562.955    79716415.421         711.131          45.000                                                  
G28  21917901.711   115179345.163        2514.282          42.000    21917890.762    89750112.394        1959.073          43.000                                                  
C23  20717589.034   107881901.753         134.648          50.000                                                                  
C09  36820931.472   191736232.201         251.099          43.000    36820915.688   148262569.421         193.990          47.000  
C33  26250651.766                3      -2953.623          23.000                                                                  
C37  22746133.710   118445085.266        2621.356          45.000                                                                  
> 2025 10 27 02 54 34.9960000  0 19                     
G12  20714424.266   108855035.873         725.004          44.000    20714412.840    84822060.217         564.873          42.000                                                  
G15  23397138.191                3      -3279.684          27.000                                                                                                                  
G18  23744734.066   124779426.364       -3660.000          34.000    23744731.594    97230696.056       -2852.346          38.000                                                  
G23  19356477.472   101718967.205       -2221.302          47.000    19356465.467    79261457.635       -1730.964          46.000                                                  
G24  21093011.277                       -3416.300          29.000    21093002.646                       -2662.909          30.000                                                  
G32  20831599.420   109470790.611        1475.907          45.000    20831589.847    85301879.872        1149.628          42.000                                                  
C08  34727354.568   180834422.758        -380.701          46.000    34727333.749   139832567.134        -294.537          48.000  
C13  34714774.618   180768916.403         -78.918          47.000    34714761.789   139781946.350         -61.127          47.000  
C16  35672470.842   185755906.231         -26.858          48.000    35672456.916   143638201.241         -20.796          47.000  
C25  22377841.438   116527292.833       -2630.790          33.000                                                                  
C32  21011933.837   109414637.068         809.713          50.000                                                                  
C06  35357191.319   184114161.821         151.680          45.000    35357171.276   142368679.180         117.139          45.000  
G25  20380955.356   107102654.093        2447.491          45.000    20380946.437    83456571.762        1907.170          43.000                                                  
G10  19467567.312   102302756.022         912.565          50.000    19467556.010    79716386.972         711.156          45.000                                                  
G28  21917882.567   115179244.601        2514.148          42.000    21917871.638    89750034.034        1959.021          43.000                                                  
C23  20717587.984   107881896.374         134.501          50.000                                                                  
C09  36820929.552   191736222.158         251.112          42.000    36820913.760   148262561.666         193.879          47.000  
C33  26250674.234                3      -2953.623          23.000                                                                  
C37  22746113.566   118444980.416        2621.283          45.000                                                                  
> 2025 10 27 02 54 35.0360000  0 19                     
G12  20714418.733   108855006.870         725.033          45.000    20714407.300    84822037.620         564.879          42.000                                                  
G15  23397163.468                3      -3279.535          27.000                                                                                                                  
G18  23744761.955   124779572.794       -3660.560          34.000    23744759.450    97230810.153       -2852.417          38.000                                                  
G23  19356494.409   101719056.060       -2221.376          47.000    19356482.373    79261526.870       -1730.914          46.000                                                  
G24  21093037.289                       -3416.581          29.000    21093028.677                       -2662.794          30.000                                                  
G32  20831588.184   109470731.577        1475.871          45.000    20831578.613    85301833.878        1149.663          42.000                                                  
C08  34727357.478   180834437.994        -380.866          46.000    34727336.679   139832578.907        -294.415          48.000  
C13  34714775.261   180768919.551         -78.760          47.000    34714762.404   139781948.788         -61.078          47.000  
C16  35672471.054   185755907.301         -26.794          48.000    35672457.147   143638202.079         -20.952          47.000  
C25  22377861.654   116527398.072       -2630.858          33.000                                                                  
C32  21011927.616   109414604.681         809.650          50.000                                                                  
C06  35357190.127   184114155.757         151.604          45.000    35357170.096   142368674.487         117.213          45.000  
G25  20380936.718   107102556.189        2447.511          45.000    20380927.810    83456495.482        1906.996          42.000                                                  
G10  19467560.363   102302719.517         912.534          50.000    19467549.053    79716358.531         711.014          45.000                                                  
G28  21917863.446   115179144.044        2513.986          42.000    21917852.519    89749955.690        1958.684          43.000                                                  
C23  20717586.941   107881890.994         134.442          50.000                                                                  
C09  36820927.628   191736212.131         250.797          42.000    36820911.840   148262553.902         193.980          47.000  
C33  26250696.563                3      -2953.623          23.000                                                                  
C37  22746093.435   118444875.551        2621.533          45.000                                                                  
> 2025 10 27 02 54 35.0760000  0 19                     
G12  20714413.214   108854977.871         724.989          45.000    20714401.781    84822015.032         564.728          42.000                                                  
G15  23397188.349                2      -3279.535          27.000                                                                                                                  
G18  23744789.850   124779719.257       -3661.404          34.000    23744787.306    97230924.228       -2852.074          38.000                                                  
G23  19356511.320   101719144.919       -2221.480          47.000    19356499.278    79261596.102       -1730.847          46.000                                                  
G24  21093063.321                       -3416.741          29.000    21093054.678                       -2662.674          30.000                                                  
G32  20831576.969   109470672.566        1475.411          45.000    20831567.395    85301787.881        1149.831          42.000                                                  
C08  34727360.392   180834453.219        -380.768          46.000    34727339.626   139832590.682        -294.391          48.000  
C13  34714775.846   180768922.706         -78.833          47.000    34714763.013   139781951.232         -61.145          47.000  
C16  35672471.293   185755908.378         -26.915          48.000    35672457.390   143638202.907         -20.815          47.000  
C25  22377881.885   116527503.341       -2631.481          33.000                                                                  
C32  21011921.396   109414572.298         809.560          50.000                                                                  
C06  35357188.921   184114149.693         151.597          45.000    35357168.906   142368669.789         117.351          45.000  
G25  20380918.087   107102458.295        2447.363          45.000    20380909.171    83456419.194        1907.091          42.000                                                  
G10  19467553.392   102302683.009         912.603          50.000    19467542.092    79716330.087         711.021          45.000                                                  
G28  21917844.307   115179043.506        2513.545          42.000    21917833.390    89749877.350        1958.475          43.000                                                  
C23  20717585.934   107881885.611         134.490          50.000                                                                  
C09  36820925.708   191736202.102         250.668          42.000    36820909.916   148262546.132         194.163          47.000  
C33  26250719.517                3      -2953.623          23.000                                                                  
C37  22746073.257   118444770.698        2621.405          45.000                                                                  
> 2025 10 27 02 54 35.1160000  0 19                     
G12  20714407.690   108854948.877         724.833          45.000    20714396.249    84821992.431         564.906          42.000                                                  
G15  23397212.885                2      -3279.708          27.000                                                                                                                  
G18  23744817.755   124779865.694       -3661.349          34.000    23744815.148    97231038.305       -2851.893          38.000                                                  
G23  19356528.226   101719233.778       -2221.523          47.000    19356516.199    79261665.337       -1730.860          46.000                                                  
G24  21093089.303                       -3416.758          29.000    21093080.664                       -2661.923          30.000                                                  
G32  20831565.734   109470613.537        1475.518          45.000    20831556.152    85301741.867        1150.155          42.000                                                  
C08  34727363.302   180834468.450        -380.817          46.000    34727342.569   139832602.456        -294.373          48.000  
C13  34714776.450   180768925.853         -78.717          47.000    34714763.620   139781953.668         -61.029          47.000  
C16  35672471.502   185755909.450         -26.871          48.000    35672457.557   143638203.734         -20.718          47.000  
C25  22377902.087   116527608.621       -2632.047          32.000                                                                  
C32  21011915.214   109414539.908         809.659          50.000                                                                  
C06  35357187.742   184114143.618         151.761          45.000    35357167.755   142368665.092         117.426          45.000  
G25  20380899.456   107102360.387        2447.545          45.000    20380890.536    83456342.900        1907.286          42.000                                                  
G10  19467546.451   102302646.502         912.621          50.000    19467535.151    79716301.641         711.108          45.000                                                  
G28  21917825.168   115178942.961        2513.468          42.000    21917814.254    89749798.992        1958.695          43.000                                                  
C23  20717584.961   107881880.224         134.602          50.000                                                                  
C09  36820923.819   191736192.069         250.708          42.000    36820907.980   148262538.358         194.291          47.000  
C33  26250742.267                3      -2953.623          23.000                                                                  
C37  22746053.101   118444665.851        2621.228          45.000                                                                  
> 2025 10 27 02 54 35.1560000  0 19                     
G12  20714402.165   108854919.884         724.745          46.000    20714390.735    84821969.832         564.921          42.000                                                  
G15  23397238.044                2      -3279.656          27.000                                                                                                                  
G18  23744845.656   124780012.110       -3660.825          34.000    23744843.024    97231152.409       -2852.326          38.000                                                  
G23  19356545.143   101719322.636       -2221.529          47.000    19356533.135    79261734.573       -1730.891          46.000                                                  
G24  21093115.294                       -3416.755          29.000    21093106.670                       -2661.714          30.000                                                  
G32  20831554.489   109470554.510        1475.594          45.000    20831544.932    85301695.878        1149.874          42.000                                                  
C08  34727366.234   180834483.685        -380.890          46.000    34727345.502   139832614.230        -294.366          48.000  
C13  34714777.045   180768929.008         -78.845          47.000    34714764.208   139781956.096         -60.803          47.000  
C16  35672471.712   185755910.520         -26.793          48.000    35672457.759   143638204.563         -20.728          47.000  
C25  22377922.297   116527713.902       -2632.259          32.000                                                                  
C32  21011909.019   109414507.518         809.704          50.000                                                                  
C06  35357186.549   184114137.550         151.704          45.000    35357166.568   142368660.404         117.284          45.000  
G25  20380880.817   107102262.483        2447.563          45.000    20380871.887    83456266.618        1907.157          42.000                                                  
G10  19467539.535   102302610.001         912.529          50.000    19467528.208    79716273.193         711.145          45.000                                                  
G28  21917806.042   115178842.405        2513.682          42.000    21917795.099    89749720.629        1958.982          43.000                                                  
C23  20717583.931   107881874.838         134.625          50.000                                                                  
C09  36820921.904   191736182.028         250.905          42.000    36820906.040   148262530.593         194.188          47.000  
C33  26250765.027                3      -2953.623          23.000                                                                  
C37  22746032.979   118444561.000        2621.210          45.000                                                                  
> 2025 10 27 02 54 35.1960000  0 19                     
G12  20714396.661   108854890.893         724.706          46.000    20714385.208    84821947.243         564.725          42.000                                                  
G15  23397260.154                2      -3280.017          28.000                                                                                                                  
G18  23744873.527   124780158.528       -3660.556          34.000    23744870.882    97231266.507       -2852.411          38.000                                                  
G23  19356562.037   101719411.488       -2221.405          47.000    19356550.045    79261803.810       -1730.971          46.000                                                  
G24  21093141.314                       -3416.854          29.000    21093132.658                       -2662.890          30.000                                                  
G32  20831543.231   109470495.474        1475.781          45.000    20831533.714    85301649.887        1149.706          42.000                                                  
C08  34727369.186   180834498.909        -380.713          46.000    34727348.413   139832626.003        -294.360          48.000  
C13  34714777.655   180768932.159         -78.833          47.000    34714764.828   139781958.531         -60.828          47.000  
C16  35672471.934   185755911.591         -26.791          48.000    35672457.993   143638205.390         -20.655          47.000  
C25  22377942.513   116527819.155       -2631.757          33.000                                                                  
C32  21011902.851   109414475.124         809.799          50.000                                                                  
C06  35357185.375   184114131.479         151.730          45.000    35357165.405   142368655.709         117.339          45.000  
G25  20380862.188   107102164.587        2447.422          45.000    20380853.250    83456190.325        1907.255          42.000                                                  
G10  19467532.575   102302573.493         912.634          50.000    19467521.261    79716244.749         711.089          45.000                                                  
G28  21917786.908   115178741.854        2513.713          42.000    21917775.965    89749642.267        1959.048          43.000                                                  
C23  20717582.882   107881869.457         134.560          50.000                                                                  
C09  36820919.988   191736171.984         251.080          42.000    36820904.128   148262522.831         194.068          47.000  
C33  26250787.605                3      -2952.265          23.000                                                                  
C37  22746012.858   118444456.152        2621.149          45.000                                                                  
> 2025 10 27 02 54 35.2360000  0 19                     
G12  20714391.144   108854861.905         724.660          46.000    20714379.704    84821924.654         564.658          42.000                                                  
G15  23397284.281                2      -3281.178          28.000                                                                                                                  
G18  23744901.363   124780304.914       -3659.896          34.000    23744898.733    97231380.605       -2852.525          38.000                                                  
G23  19356578.961   101719500.338       -2221.276          47.000    19356566.980    79261873.051       -1731.026          46.000                                                  
G24  21093167.310                       -3416.494          29.000    21093158.634                       -2661.591          30.000                                                  
G32  20831532.006   109470436.440        1475.855          45.000    20831522.466    85301603.878        1150.010          42.000                                                  
C08  34727372.117   180834514.144        -380.823          46.000    34727351.335   139832637.784        -294.495          48.000  
C13  34714778.252   180768935.316         -78.931          47.000    34714765.417   139781960.965         -60.858          47.000  
C16  35672472.144   185755912.675         -27.033          48.000    35672458.204   143638206.225         -20.802          47.000  
C25  22377962.722   116527924.374       -2630.808          32.000                                                                  
C32  21011896.606   109414442.735         809.745          50.000                                                                  
C06  35357184.239   184114125.406         151.770          45.000    35357164.264   142368651.018         117.278          45.000  
G25  20380843.544   107102066.685        2447.451          45.000    20380834.624    83456114.042        1907.140          42.000                                                  
G10  19467525.637   102302536.986         912.652          50.000    19467514.308    79716216.295         711.249          45.000                                                  
G28  21917767.763   115178641.295        2513.887          42.000    21917756.817    89749563.911        1958.972          43.000                                                  
C23  20717581.825   107881864.078         134.483          50.000                                                                  
C09  36820918.083   191736161.939         251.159          43.000    36820902.214   148262515.065         194.037          47.000  
C33  26250810.553                3      -2952.265          23.000                                                                  
C37  22745992.748   118444351.296        2621.283          46.000                                                                  
> 2025 10 27 02 54 35.2760000  0 19                     
G12  20714385.633   108854832.914         724.716          46.000    20714374.175    84821902.061         564.714          42.000                                                  
G15  23397308.823                2      -3280.772          28.000                                                                                                                  
G18  23744929.216   124780451.320       -3659.926          34.000    23744926.579    97231494.681       -2852.153          38.000                                                  
G23  19356595.865   101719589.199       -2221.462          47.000    19356583.893    79261942.296       -1731.142          46.000                                                  
G24  21093193.332                       -3416.684          29.000    21093184.643                       -2663.687          30.000                                                  
G32  20831520.796   109470377.422        1475.606          45.000    20831511.213    85301557.884        1149.917          41.000                                                  
C08  34727375.045   180834529.385        -381.024          46.000    34727354.253   139832649.566        -294.568          48.000  
C13  34714778.878   180768938.473         -78.973          47.000    34714766.026   139781963.412         -61.108          47.000  
C16  35672472.362   185755913.749         -26.962          48.000    35672458.424   143638207.050         -20.696          47.000  
C25  22377982.929   116528029.629       -2631.208          32.000                                                                  
C32  21011890.360   109414410.357         809.521          50.000                                                                  
C06  35357183.054   184114119.345         151.613          45.000    35357163.057   142368646.321         117.351          45.000  
G25  20380824.911   107101968.788        2447.360          45.000    20380816.009    83456037.759        1907.056          42.000                                                  
G10  19467518.676   102302500.489         912.467          50.000    19467507.359    79716187.862         710.910          45.000                                                  
G28  21917748.610   115178540.724        2514.171          42.000    21917737.693    89749485.556        1958.878          43.000                                                  
C23  20717580.784   107881858.702         134.395          50.000                                                                  
C09  36820916.166   191736151.892         251.200          43.000    36820900.288   148262507.317         193.750          47.000  
C33  26250833.172                3      -2952.265          23.000                                                                  
C37  22745972.642   118444246.442        2621.295          46.000                                                                  
> 2025 10 27 02 54 35.3160000  0 19                     
G12  20714380.137   108854803.929         724.638          46.000    20714368.659    84821879.465         564.820          43.000                                                  
G15  23397333.266                2      -3279.536          28.000                                                                                                                  
G18  23744957.069   124780597.725       -3660.016          34.000    23744954.438    97231608.751       -2851.855          38.000                                                  
G23  19356612.796   101719678.064       -2221.659          47.000    19356600.797    79262011.538       -1731.129          46.000                                                  
G24  21093219.325                       -3416.193          29.000    21093210.634                       -2662.800          30.000                                                  
G32  20831509.569   109470318.396        1475.583          45.000    20831499.986    85301511.894        1149.781          41.000                                                  
C08  34727377.977   180834544.612        -380.853          46.000    34727357.182   139832661.347        -294.598          48.000  
C13  34714779.506   180768941.635         -79.102          47.000    34714766.610   139781965.856         -61.169          47.000  
C16  35672472.591   185755914.829         -27.059          48.000    35672458.660   143638207.888         -20.881          47.000  
C25  22378003.161   116528134.912       -2631.848          32.000                                                                  
C32  21011884.132   109414377.981         809.364          50.000                                                                  
C06  35357181.895   184114113.279         151.638          45.000    35357161.881   142368641.631         117.271          45.000  
G25  20380806.290   107101870.902        2447.183          45.000    20380797.378    83455961.483        1906.901          42.000                                                  
G10  19467511.759   102302463.998         912.258          50.000    19467500.409    79716159.430         710.769          45.000                                                  
G28  21917729.508   115178440.174        2513.920          42.000    21917718.541    89749407.204        1958.836          43.000                                                  
C23  20717579.726   107881853.332         134.250          50.000                                                                  
C09  36820914.240   191736141.850         251.116          43.000    36820898.327   148262499.563         193.736          47.000  
C33  26250855.974                3      -2964.133          23.000                                                                  
C37  22745952.510   118444141.606        2620.984          46.000                                                                  
> 2025 10 27 02 54 35.3560000  0 19                     
G12  20714374.626   108854774.946         724.543          46.000    20714363.140    84821856.884         564.633          43.000                                                  
G15  23397358.525                2      -3279.632          28.000                                                                                                                  
G18  23744984.914   124780744.166       -3660.744          34.000    23744982.305    97231722.854       -2852.338          38.000                                                  
G23  19356629.707   101719766.934       -2221.812          47.000    19356617.719    79262080.783       -1731.166          46.000                                                  
G24  21093245.342                       -3416.296          29.000    21093236.644                       -2661.945          30.000                                                  
G32  20831498.340   109470259.372        1475.573          45.000    20831488.730    85301465.902        1149.753          41.000                                                  
C08  34727380.875   180834559.845        -380.853          46.000    34727360.112   139832673.131        -294.617          48.000  
C13  34714780.094   180768944.794         -79.089          47.000    34714767.235   139781968.297         -61.102          47.000  
C16  35672472.841   185755915.914         -27.159          48.000    35672458.850   143638208.734         -21.152          47.000  
C25  22378023.361   116528240.142       -2631.131          32.000                                                                  
C32  21011877.924   109414345.603         809.351          50.000                                                                  
C06  35357180.748   184114107.218         151.576          45.000    35357160.714   142368636.939         117.288          45.000  
G25  20380787.646   107101773.006        2447.255          45.000    20380778.752    83455885.196        1907.068          42.000                                                  
G10  19467504.811   102302427.503         912.272          50.000    19467493.455    79716130.996         710.734          45.000                                                  
G28  21917710.397   115178339.626        2513.721          42.000    21917699.408    89749328.861        1958.599          43.000                                                  
C23  20717578.694   107881847.967         134.092          50.000                                                                  
C09  36820912.302   191736131.823         250.821          43.000    36820896.403   148262491.810         193.771          47.000  
C33  26250879.104                3      -2964.133          23.000                                                                  
C37  22745932.389   118444036.770        2620.844          46.000                                                                  
> 2025 10 27 02 54 35.3960000  0 19                     
G12  20714369.105   108854745.962         724.546          46.000    20714357.611    84821834.302         564.532          43.000                                                  
G15  23397384.114                2      -3277.639          29.000                                                                                                                  
G18  23745012.781   124780890.617       -3661.202          34.000    23745010.163    97231836.966       -2852.765          38.000                                                  
G23  19356646.602   101719855.798       -2221.780          47.000    19356634.614    79262150.030       -1731.221          46.000                                                  
G24  21093271.338                       -3416.594          29.000    21093262.666                       -2662.782          30.000                                                  
G32  20831487.110   109470200.349        1475.556          45.000    20831477.499    85301419.914        1149.679          41.000                                                  
C08  34727383.759   180834575.079        -380.829          46.000    34727363.021   139832684.907        -294.513          48.000  
C13  34714780.705   180768947.954         -79.071          47.000    34714767.839   139781970.740         -61.090          47.000  
C16  35672473.084   185755916.992         -27.070          48.000    35672459.058   143638209.566         -20.992          47.000  
C25  22378043.600   116528345.388       -2631.108          32.000                                                                  
C32  21011871.705   109414313.221         809.431          50.000                                                                  
C06  35357179.588   184114101.149         151.669          45.000    35357159.563   142368632.250         117.229          45.000  
G25  20380769.037   107101675.124        2447.080          45.000    20380760.138    83455808.924        1906.882          42.000                                                  
G10  19467497.827   102302391.005         912.340          50.000    19467486.474    79716102.550         710.999          45.000                                                  
G28  21917691.240   115178239.076        2513.679          42.000    21917680.265    89749250.509        1958.676          43.000                                                  
C23  20717577.683   107881842.592         134.202          50.000                                                                  
C09  36820910.383   191736121.804         250.498          43.000    36820894.477   148262484.044         194.016          47.000  
C33  26250901.764                3      -2964.133          23.000                                                                  
C37  22745912.266   118443931.926        2620.959          46.000                                                                  
> 2025 10 27 02 54 35.4360000  0 19                     
G12  20714363.604   108854716.986         724.414          46.000    20714352.106    84821811.720         564.484          43.000                                                  
G15  23397409.219                2      -3279.103          29.000                                                                                                                  
G18  23745040.620   124781037.028       -3660.687          34.000    23745038.028    97231951.085       -2853.021          38.000                                                  
G23  19356663.501   101719944.660       -2221.687          47.000    19356651.542    79262219.275       -1731.196          46.000                                                  
G24  21093297.360                       -3416.417          29.000    21093288.642                       -2660.867          30.000                                                  
G32  20831475.862   109470141.320        1475.634          45.000    20831466.249    85301373.916        1149.808          41.000                                                  
C08  34727386.665   180834590.314        -380.896          46.000    34727365.946   139832696.688        -294.550          48.000  
C13  34714781.327   180768951.115         -79.077          47.000    34714768.457   139781973.179         -61.041          47.000  
C16  35672473.328   185755918.076         -27.100          48.000    35672459.294   143638210.399         -20.914          47.000  
C25  22378063.830   116528450.680       -2631.872          32.000                                                                  
C32  21011865.517   109414280.837         809.534          50.000                                                                  
C06  35357178.439   184114095.073         151.837          45.000    35357158.410   142368627.561         117.175          45.000  
G25  20380750.381   107101577.224        2447.310          45.000    20380741.497    83455732.648        1906.854          42.000                                                  
G10  19467490.873   102302354.505         912.439          50.000    19467479.535    79716074.107         711.060          45.000                                                  
G28  21917672.097   115178138.525        2513.699          42.000    21917661.160    89749172.163        1958.628          43.000                                                  
C23  20717576.649   107881837.210         134.410          50.000                                                                  
C09  36820908.459   191736111.771         250.616          42.000    36820892.556   148262476.278         194.146          47.000  
C33  26250924.546                3      -2961.083          23.000                                                                  
C37  22745892.136   118443827.073        2621.204          46.000                                                                  
> 2025 10 27 02 54 35.4760000  0 19                     
G12  20714358.108   108854687.997         724.633          45.000    20714346.582    84821789.139         564.489          43.000                                                  
G15  23397434.504                2      -3280.811          29.000                                                                                                                  
G18  23745068.469   124781183.407       -3659.791          34.000    23745065.882    97232065.165       -2852.412          38.000                                                  
G23  19356680.419   101720033.529       -2221.717          47.000    19356668.448    79262288.522       -1731.215          46.000                                                  
G24  21093323.353                       -3416.795          29.000    21093314.620                       -2662.113          30.000                                                  
G32  20831464.619   109470082.294        1475.652          45.000    20831454.985    85301327.908        1150.114          41.000                                                  
C08  34727389.617   180834605.549        -380.896          46.000    34727368.860   139832708.469        -294.568          48.000  
C13  34714781.936   180768954.273         -79.004          47.000    34714769.039   139781975.627         -61.176          47.000  
C16  35672473.577   185755919.149         -26.930          48.000    35672459.498   143638211.233         -20.909          47.000  
C25  22378084.088   116528555.958       -2632.030          32.000                                                                  
C32  21011859.304   109414248.452         809.591          50.000                                                                  
C06  35357177.309   184114089.028         151.385          45.000    35357157.250   142368622.877         117.080          45.000  
G25  20380731.746   107101479.334        2447.253          45.000    20380722.873    83455656.365        1906.947          42.000                                                  
G10  19467483.920   102302318.010         912.377          50.000    19467472.590    79716045.670         710.942          45.000                                                  
G28  21917652.985   115178038.000        2513.202          42.000    21917642.044    89749093.820        1958.541          43.000                                                  
C23  20717575.593   107881831.834         134.414          50.000                                                                  
C09  36820906.517   191736101.737         250.724          42.000    36820890.621   148262468.520         194.036          47.000  
C33  26250947.183                3      -2961.083          23.000                                                                  
C37  22745872.023   118443722.221        2621.301          46.000                                                                  
> 2025 10 27 02 54 35.5160000  0 19                     
G12  20714352.563   108854659.004         724.847          45.000    20714341.063    84821766.555         564.563          43.000                                                  
G15  23397459.148                2      -3280.673          29.000                                                                    23397483.582       -2553.520          30.000  
G18  23745096.312   124781329.814       -3659.867          34.000    23745093.751    97232179.255       -2852.277          38.000                                                  
G23  19356697.305   101720122.384       -2221.477          47.000    19356685.379    79262357.762       -1731.073          46.000                                                  
G24  21093349.351                       -3416.673          29.000    21093340.649                       -2662.280          30.000                                                  
G32  20831453.390   109470023.256        1475.886          45.000    20831443.753    85301281.914        1149.955          41.000                                                  
C08  34727392.570   180834620.785        -380.951          46.000    34727371.793   139832720.248        -294.525          48.000  
C13  34714782.542   180768957.423         -78.821          47.000    34714769.660   139781978.076         -61.243          47.000  
C16  35672473.784   185755920.221         -26.796          48.000    35672459.710   143638212.070         -20.955          47.000  
C25  22378104.240   116528661.202       -2631.418          32.000                                                                  
C32  21011853.066   109414216.067         809.621          50.000                                                                  
C06  35357176.160   184114082.959         151.581          45.000    35357156.079   142368618.188         117.124          45.000  
G25  20380713.105   107101381.443        2447.247          45.000    20380704.247    83455580.081        1907.083          42.000                                                  
G10  19467476.969   102302281.517         912.322          50.000    19467465.639    79716017.231         710.937          45.000                                                  
G28  21917633.833   115177937.447        2513.517          42.000    21917622.928    89749015.473        1958.554          43.000                                                  
C23  20717574.545   107881826.462         134.355          50.000                                                                  
C09  36820904.585   191736091.698         250.868          42.000    36820888.716   148262460.759         194.030          47.000  
C33  26250969.817                3      -2961.083          23.000                                                                  
C37  22745851.892   118443617.369        2621.362          46.000                                                                  
> 2025 10 27 02 54 35.5560000  0 19                     
G12  20714347.050   108854630.009         724.955          45.000    20714335.560    84821743.962         564.763          43.000                                                  
G15  23397484.394                2      -3280.794          29.000                                                                    23397507.830       -2555.054          30.000  
G18  23745124.166   124781476.239       -3660.333          34.000    23745121.590    97232293.330       -2851.900          38.000                                                  
G23  19356714.194   101720211.247       -2221.502          47.000    19356702.275    79262427.014       -1731.221          46.000                                                  
G24  21093375.336                       -3416.383          29.000    21093366.647                       -2662.204          30.000                                                  
G32  20831442.150   109469964.227        1475.834          45.000    20831432.508    85301235.916        1149.976          41.000                                                  
C08  34727395.481   180834636.019        -380.945          46.000    34727374.716   139832732.024        -294.440          48.000  
C13  34714783.139   180768960.583         -78.931          47.000    34714770.252   139781980.508         -60.950          47.000  
C16  35672473.999   185755921.295         -26.809          48.000    35672459.927   143638212.898         -20.804          47.000  
C25  22378124.452   116528766.445       -2631.031          32.000                                                                  
C32  21011846.844   109414183.683         809.606          50.000                                                                  
C06  35357174.996   184114076.888         151.682          45.000    35357154.902   142368613.496         117.233          45.000  
G25  20380694.491   107101283.542        2447.427          45.000    20380685.641    83455503.789        1907.283          42.000                                                  
G10  19467470.009   102302245.024         912.291          50.000    19467458.720    79715988.797         710.882          45.000                                                  
G28  21917614.681   115177836.886        2513.860          42.000    21917603.803    89748937.103        1959.021          43.000                                                  
C23  20717573.522   107881821.090         134.302          50.000                                                                  
C09  36820902.659   191736081.650         251.131          42.000    36820886.767   148262453.001         193.967          47.000  
C33  26250992.218                3      -2961.083          23.000                                                                  
C37  22745831.749   118443512.517        2621.307          46.000                                                                  
> 2025 10 27 02 54 35.5960000  0 19                     
G12  20714341.548   108854601.025         724.760          44.000    20714330.048    84821721.378         564.686          43.000                                                  
G15  23397509.097                2      -3279.883          29.000                                                                    23397532.123       -2555.607          30.000  
G18  23745152.046   124781622.684       -3661.018          34.000    23745149.464    97232407.407       -2851.795          38.000                                                  
G23  19356731.135   101720300.111       -2221.558          47.000    19356719.170    79262496.255       -1731.128          46.000                                                  
G24  21093401.353                       -3416.573          29.000    21093392.655                       -2662.470          30.000                                                  
G32  20831430.924   109469905.206        1475.625          45.000    20831421.252    85301189.937        1149.654          41.000                                                  
C08  34727398.391   180834651.250        -380.859          46.000    34727377.663   139832743.803        -294.434          48.000  
C13  34714783.752   180768963.738         -78.906          47.000    34714770.877   139781982.945         -60.907          47.000  
C16  35672474.218   185755922.373         -26.896          48.000    35672460.128   143638213.721         -20.636          47.000  
C25  22378144.694   116528871.667       -2630.490          32.000                                                                  
C32  21011840.607   109414151.296         809.644          50.000                                                                  
C06  35357173.843   184114070.817         151.744          45.000    35357153.724   142368608.799         117.368          45.000  
G25  20380675.848   107101185.634        2447.673          45.000    20380666.994    83455427.501        1907.280          42.000                                                  
G10  19467463.044   102302208.531         912.260          50.000    19467451.766    79715960.354         711.011          45.000                                                  
G28  21917595.534   115177736.322        2514.100          42.000    21917584.635    89748858.735        1959.230          43.000                                                  
C23  20717572.507   107881815.715         134.329          50.000                                                                  
C09  36820900.744   191736071.618         250.971          42.000    36820884.839   148262445.240         193.967          47.000  
C33  26251014.979                3      -2961.083          23.000                                                                  
C37  22745811.583   118443407.667        2621.265          46.000                                                                  
