     3.04           OBSERVATION DATA    M: Mixed            RINEX VERSION / TYPE
RTKCONV 2.4.3 b34                       20251027 033020 UTC PGM / RUN BY / DATE 
format: u-blox UBX                                          COMMENT             
log: D:\GPdata\10_27\fingure_up_130_310_10_27_1.ubx         COMMENT             
                                                            MARKER NAME         
                                                            MARKER NUMBER       
                                                            MARKER TYPE         
                                                            OBSERVER / AGENCY   
                                                            REC # / TYPE / VERS 
                                                            ANT # / TYPE        
        0.0000        0.0000        0.0000                  APPROX POSITION XYZ 
        0.0000        0.0000        0.0000                  ANTENNA: DELTA H/E/N
G    8 C1C L1C D1C S1C C2L L2L D2L S2L                      SYS / # / OBS TYPES 
C    8 C2I L2I D2I S2I C7I L7I D7I S7I                      SYS / # / OBS TYPES 
  2025    10    27    02    15   36.3560000     GPS         TIME OF FIRST OBS   
  2025    10    27    02    16   20.1560000     GPS         TIME OF LAST OBS    
G L1C                                                       SYS / PHASE SHIFT   
G L2L  0.00000                                              SYS / PHASE SHIFT   
C L2I                                                       SYS / PHASE SHIFT   
C L7I                                                       SYS / PHASE SHIFT   
  0                                                         GLONASS SLOT / FRQ #
 C1C    0.000 C1P    0.000 C2C    0.000 C2P    0.000        GLONASS COD/PHS/BIS 
                                                            END OF HEADER       
> 2025 10 27 02 15 36.3560000  0 22                     
G12  21340930.044   112147386.6861       1993.387          44.000    21340918.924    87387520.8621       1553.035          40.000  
G15  21992842.673   115573152.9291      -3034.854          40.000    21992833.759    90056976.3771      -2364.573          38.000  
G18  22099484.645   116133559.6391      -3645.998          42.000    22099475.623    90493655.0551      -2841.142          41.000  
G23  18676720.014    98146825.6501       -836.120          47.000    18676707.748    76477985.4761       -651.586          50.000  
G24  19704542.439   103548062.1021      -2753.644          40.000    19704531.552    80686748.8851      -2145.898          37.000  
G32  21539051.401   113188488.6451       1682.360          44.000    21539041.755    88198781.9941       1311.147          41.000  
C08  34636936.645   180363613.1041        -53.162          45.000    34636919.017   139468517.2421        -41.107          50.000  
C13  34746910.128   180936278.7551        189.240          46.000    34746900.992   139911368.9421        146.246          47.000  
C16  35721641.747   186011961.8771        240.199          48.000    35721630.922   143836204.6991        185.829          47.000  
C25  21400225.532   111436583.1041      -1675.026          44.000                                                                  
C32  21495374.127   111932051.7131       1285.065          46.000                                                                  
C06  35487316.268   184791767.3711        419.549          43.000    35487299.748   142892654.2841        324.408          45.000  
G25  21653357.008   113789176.6181       3145.209          40.000    21653350.463    88666867.5211       2450.864          40.000  
G10  20135275.269   105811583.4951       1992.959          48.000    20135263.842    82450548.9881       1553.241          43.000  
G02  24840396.796                3       1729.000          16.000                                                                  
G28  23174548.560   121783089.2071       3077.623          37.000    23174541.496    94895856.2931       2398.284          42.000  
C23  21055649.033   109642291.0161       1335.633          50.000                                                                  
C09  36992614.410   192630254.8341        501.285          40.000    36992602.549   148953877.7971        387.707          46.000  
C33  24989338.297   130126029.2371      -2660.980          35.000                                                                  
C30  24651006.678   128364244.9291      -2090.913          41.000                                                                  
C27  25112945.929   130769711.4641      -2775.868          33.000                                                                  
C37  24040257.681   125183926.8171       3062.605          43.000                                                                  
> 2025 10 27 02 15 36.3960000  0 21                     
G12  21340914.848   112147306.948        1993.363          44.000    21340903.743    87387458.725        1553.179          40.000  
G15  21992865.751   115573274.317       -3034.785          40.000    21992856.862    90057070.958       -2364.493          38.000  
G18  22099512.401   116133705.479       -3645.991          42.000    22099503.382    90493768.705       -2841.271          41.000  
G23  18676726.365    98146859.094        -836.137          47.000    18676714.099    76478011.536        -651.598          50.000  
G24  19704563.400   103548172.250       -2753.760          40.000    19704552.503    80686834.706       -2145.697          37.000  
G32  21539038.612   113188421.335        1682.638          44.000    21539028.966    88198729.558        1310.922          41.000  
C08  34636937.024   180363615.235         -53.241          45.000    34636919.419   139468518.891         -41.211          50.000  
C13  34746908.666   180936271.183         189.276          46.000    34746899.565   139911363.088         146.277          47.000  
C16  35721639.931   186011952.258         240.323          48.000    35721629.059   143836197.260         185.913          47.000  
C25  21400238.382   111436650.106       -1675.029          44.000                                                                  
C32  21495364.240   111932000.302        1285.207          46.000                                                                  
C06  35487313.042   184791750.574         419.764          43.000    35487296.536   142892641.297         324.553          45.000  
G25  21653333.057   113789050.815        3145.073          40.000    21653326.528    88666769.482        2450.928          40.000  
G10  20135260.087   105811503.768        1993.063          48.000    20135248.667    82450486.870        1553.060          43.000  
G28  23174525.115   121782966.095        3077.716          37.000    23174518.068    94895760.367        2398.196          42.000  
C23  21055638.782   109642237.581        1335.758          50.000                                                                  
C09  36992610.549   192630234.773         501.448          40.000    36992598.689   148953862.288         387.675          46.000  
C33  24989358.751   130126135.697       -2661.436          35.000                                                                  
C30  24651022.758   128364328.564       -2090.927          41.000                                                                  
C27  25112967.237   130769822.508       -2776.235          33.000                                                                  
C37  24040234.165   125183804.302        3062.776          43.000                                                                  
> 2025 10 27 02 15 36.4360000  0 21                     
G12  21340899.670   112147227.219        1993.221          44.000    21340888.565    87387396.598        1553.097          40.000  
G15  21992888.834   115573395.696       -3034.580          40.000    21992879.971    90057165.555       -2364.813          38.000  
G18  22099540.169   116133851.330       -3646.246          42.000    22099531.145    90493882.347       -2841.144          41.000  
G23  18676732.715    98146892.542        -836.230          47.000    18676720.479    76478037.599        -651.615          50.000  
G24  19704584.365   103548282.390       -2753.668          40.000    19704573.456    80686920.512       -2145.313          37.000  
G32  21539025.798   113188354.038        1682.532          44.000    21539016.164    88198677.133        1310.626          41.000  
C08  34636937.435   180363617.362         -53.217          45.000    34636919.823   139468520.539         -41.241          50.000  
C13  34746907.219   180936263.616         189.160          46.000    34746898.120   139911357.232         146.332          47.000  
C16  35721638.138   186011942.640         240.394          48.000    35721627.214   143836189.835         185.706          47.000  
C25  21400251.286   111436717.110       -1675.088          44.000                                                                  
C32  21495354.387   111931948.899        1285.123          46.000                                                                  
C06  35487309.854   184791733.780         419.834          43.000    35487293.306   142892628.318         324.480          45.000  
G25  21653309.137   113788924.997        3145.269          40.000    21653302.576    88666671.447        2450.890          40.000  
G10  20135244.928   105811424.043        1993.075          48.000    20135233.525    82450424.757        1552.874          43.000  
G28  23174501.686   121782842.972        3077.935          37.000    23174494.675    94895664.436        2398.248          43.000  
C23  21055628.546   109642184.146        1335.815          50.000                                                                  
C09  36992606.695   192630214.724         501.259          40.000    36992594.865   148953846.777         387.712          46.000  
C33  24989379.183   130126242.144       -2661.466          35.000                                                                  
C30  24651038.822   128364412.202       -2090.964          41.000                                                                  
C27  25112988.562   130769933.536       -2776.019          33.000                                                                  
C37  24040210.644   125183681.801        3062.548          43.000                                                                  
> 2025 10 27 02 15 36.4760000  0 21                     
G12  21340884.487   112147147.480        1993.339          44.000    21340873.375    87387334.470        1553.067          40.000  
G15  21992911.961   115573517.106       -3035.080          40.000    21992903.086    90057260.150       -2364.935          38.000  
G18  22099567.940   116133997.184       -3646.419          42.000    22099558.898    90493995.992       -2841.126          42.000  
G23  18676739.084    98146925.995        -836.335          47.000    18676726.849    76478063.661        -651.628          50.000  
G24  19704605.326   103548392.543       -2753.809          40.000    19704594.452    80687006.356       -2145.850          37.000  
G32  21539013.016   113188286.758        1682.137          44.000    21539003.354    88198624.706        1310.551          41.000  
C08  34636937.840   180363619.489         -53.198          45.000    34636920.223   139468522.188         -41.260          50.000  
C13  34746905.753   180936256.045         189.191          46.000    34746896.660   139911351.379         146.313          47.000  
C16  35721636.287   186011933.031         240.262          48.000    35721625.380   143836182.401         185.754          47.000  
C25  21400264.144   111436784.119       -1675.221          44.000                                                                  
C32  21495344.477   111931897.504        1284.894          46.000                                                                  
C06  35487306.659   184791716.990         419.771          43.000    35487290.100   142892615.336         324.494          45.000  
G25  21653285.197   113788799.181        3145.344          40.000    21653278.667    88666573.419        2450.804          40.000  
G10  20135229.755   105811344.326        1992.955          48.000    20135218.340    82450362.637        1552.899          43.000  
G28  23174478.263   121782719.879        3077.521          37.000    23174471.279    94895568.509        2398.193          43.000  
C23  21055618.266   109642130.721        1335.680          50.000                                                                  
C09  36992602.844   192630194.658         501.472          40.000    36992591.004   148953831.269         387.732          46.000  
C33  24989399.638   130126348.574       -2661.147          35.000                                                                  
C30  24651054.893   128364495.837       -2090.906          41.000                                                                  
C27  25113009.873   130770044.551       -2775.651          33.000                                                                  
C37  24040187.129   125183559.301        3062.463          43.000                                                                  
> 2025 10 27 02 15 36.5160000  0 21                     
G12  21340869.295   112147067.744        1993.331          44.000    21340858.202    87387272.342        1553.101          40.000  
G15  21992935.077   115573638.502       -3035.096          40.000    21992926.177    90057354.736       -2364.733          38.000  
G18  22099595.676   116134143.029       -3646.298          42.000    22099586.653    90494109.644       -2841.275          42.000  
G23  18676745.432    98146959.446        -836.333          47.000    18676733.230    76478089.731        -651.766          50.000  
G24  19704626.292   103548502.691       -2753.784          40.000    19704615.391    80687092.178       -2145.782          37.000  
G32  21539000.188   113188219.471        1682.034          44.000    21538990.543    88198572.263        1310.847          41.000  
C08  34636938.241   180363621.619         -53.253          45.000    34636920.645   139468523.832         -41.180          50.000  
C13  34746904.319   180936248.473         189.264          46.000    34746895.208   139911345.525         146.338          47.000  
C16  35721634.445   186011923.420         240.252          48.000    35721623.572   143836174.968         185.775          47.000  
C25  21400277.036   111436851.137       -1675.408          44.000                                                                  
C32  21495334.642   111931846.102        1284.936          46.000                                                                  
C06  35487303.428   184791700.217         419.439          43.000    35487286.880   142892602.351         324.559          45.000  
G25  21653261.255   113788673.364        3145.438          40.000    21653254.723    88666475.380        2450.891          40.000  
G10  20135214.605   105811264.612        1992.834          48.000    20135203.175    82450300.527        1552.772          43.000  
G28  23174454.847   121782596.784        3077.289          37.000    23174447.857    94895472.588        2398.087          43.000  
C23  21055607.981   109642077.297        1335.573          50.000                                                                  
C09  36992599.012   192630174.603         501.397          40.000    36992587.138   148953815.760         387.725          46.000  
C33  24989420.062   130126455.040       -2661.551          35.000                                                                  
C30  24651070.945   128364579.493       -2091.232          41.000                                                                  
C27  25113031.197   130770155.582       -2775.721          33.000                                                                  
C37  24040163.623   125183436.787        3062.672          43.000                                                                  
> 2025 10 27 02 15 36.5560000  0 21                     
G12  21340854.120   112146988.010        1993.326          44.000    21340843.027    87387210.214        1553.134          40.000  
G15  21992958.165   115573759.895       -3034.995          40.000    21992949.260    90057449.321       -2364.704          38.000  
G18  22099623.418   116134288.865       -3646.011          42.000    22099614.379    90494223.284       -2841.106          42.000  
G23  18676751.781    98146992.894        -836.249          47.000    18676739.579    76478115.793        -651.669          50.000  
G24  19704647.257   103548612.839       -2753.748          40.000    19704636.371    80687178.013       -2145.941          37.000  
G32  21538987.372   113188152.168        1682.324          44.000    21538977.735    88198519.814        1311.151          41.000  
C08  34636938.633   180363623.752         -53.320          45.000    34636921.039   139468525.478         -41.150          50.000  
C13  34746902.852   180936240.899         189.349          46.000    34746893.752   139911339.668         146.381          47.000  
C16  35721632.591   186011913.809         240.255          48.000    35721621.776   143836167.534         185.794          47.000  
C25  21400289.904   111436918.143       -1675.284          44.000                                                                  
C32  21495324.776   111931794.699        1284.975          46.000                                                                  
C06  35487300.191   184791683.438         419.404          43.000    35487283.654   142892589.373         324.467          45.000  
G25  21653237.303   113788547.555        3145.298          40.000    21653230.778    88666377.340        2450.958          40.000  
G10  20135199.447   105811184.891        1992.933          48.000    20135188.000    82450238.406        1552.875          43.000  
G28  23174431.410   121782473.682        3077.428          37.000    23174424.439    94895376.672        2397.938          43.000  
C23  21055597.741   109642023.870        1335.615          50.000                                                                  
C09  36992595.156   192630154.545         501.466          40.000    36992583.276   148953800.251         387.719          46.000  
C33  24989440.499   130126561.451       -2660.803          35.000                                                                  
C30  24651087.005   128364663.140       -2091.235          41.000                                                                  
C27  25113052.520   130770266.594       -2775.441          33.000                                                                  
C37  24040140.075   125183314.285        3062.573          43.000                                                                  
> 2025 10 27 02 15 36.5960000  0 21                     
G12  21340838.930   112146908.275        1993.318          44.000    21340827.856    87387148.063        1553.545          40.000  
G15  21992981.275   115573881.273       -3034.658          40.000    21992972.361    90057543.917       -2364.809          38.000  
G18  22099651.176   116134434.709       -3646.069          42.000    22099642.130    90494336.924       -2840.950          42.000  
G23  18676758.123    98147026.338        -836.136          47.000    18676745.947    76478141.851        -651.537          50.000  
G24  19704668.219   103548722.975       -2753.454          40.000    19704657.334    80687263.852       -2146.094          37.000  
G32  21538974.569   113188084.863        1682.532          44.000    21538964.934    88198467.360        1311.354          41.000  
C08  34636939.042   180363625.872         -53.082          45.000    34636921.437   139468527.120         -41.089          50.000  
C13  34746901.411   180936233.323         189.417          46.000    34746892.286   139911333.810         146.436          47.000  
C16  35721630.734   186011904.191         240.404          48.000    35721619.931   143836160.103         185.748          47.000  
C25  21400302.771   111436985.144       -1675.112          44.000                                                                  
C32  21495314.929   111931743.284        1285.254          46.000                                                                  
C06  35487296.980   184791666.642         419.682          43.000    35487280.400   142892576.387         324.594          45.000  
G25  21653213.376   113788421.740        3145.342          40.000    21653206.855    88666279.305        2450.882          40.000  
G10  20135184.266   105811105.166        1993.074          48.000    20135172.818    82450176.278        1553.080          43.000  
G28  23174407.973   121782350.566        3077.745          37.000    23174401.009    94895280.743        2398.130          43.000  
C23  21055587.500   109641970.438        1335.718          50.000                                                                  
C09  36992591.317   192630134.477         501.646          40.000    36992579.421   148953784.741         387.725          46.000  
C33  24989460.945   130126667.908       -2661.160          35.000                                                                  
C30  24651103.115   128364746.763       -2090.807          41.000                                                                  
C27  25113073.838   130770377.611       -2775.267          33.000                                                                  
C37  24040116.540   125183191.761        3062.919          43.000                                                                  
> 2025 10 27 02 15 36.6360000  0 21                     
G12  21340823.761   112146828.529        1993.495          44.000    21340812.679    87387085.929        1553.477          40.000  
G15  21993004.377   115574002.652       -3034.518          40.000    21992995.464    90057638.495       -2364.579          38.000  
G18  22099678.933   116134580.544       -3645.952          42.000    22099669.874    90494450.552       -2840.716          42.000  
G23  18676764.469    98147059.778        -836.038          47.000    18676752.320    76478167.910        -651.475          50.000  
G24  19704689.188   103548833.127       -2753.595          40.000    19704678.300    80687349.668       -2145.624          37.000  
G32  21538961.760   113188017.556        1682.727          44.000    21538952.139    88198414.933        1310.890          41.000  
C08  34636939.427   180363627.992         -52.997          45.000    34636921.850   139468528.761         -41.040          50.000  
C13  34746899.969   180936225.749         189.362          46.000    34746890.818   139911327.955         146.375          47.000  
C16  35721628.878   186011894.572         240.466          48.000    35721618.092   143836152.657         185.994          47.000  
C25  21400315.625   111437052.140       -1674.910          44.000                                                                  
C32  21495305.047   111931691.870        1285.320          46.000                                                                  
C06  35487293.729   184791649.836         420.010          43.000    35487277.171   142892563.402         324.583          45.000  
G25  21653189.428   113788295.923        3145.425          40.000    21653182.913    88666181.265        2450.946          40.000  
G10  20135169.070   105811025.439        1993.168          48.000    20135157.630    82450114.147        1553.246          43.000  
G28  23174384.553   121782227.441        3078.016          37.000    23174377.583    94895184.812        2398.240          43.000  
C23  21055577.258   109641917.003        1335.839          50.000                                                                  
C09  36992587.464   192630114.418         501.569          40.000    36992575.588   148953769.230         387.750          46.000  
C33  24989481.363   130126774.334       -2660.754          35.000                                                                  
C30  24651119.136   128364830.394       -2090.736          41.000                                                                  
C27  25113095.161   130770488.668       -2776.073          33.000                                                                  
C37  24040093.015   125183069.241        3063.049          43.000                                                                  
> 2025 10 27 02 15 36.6760000  0 21                     
G12  21340808.583   112146748.792        1993.482          44.000    21340797.503    87387023.787        1553.523          40.000  
G15  21993027.457   115574124.021       -3034.252          40.000    21993018.575    90057733.082       -2364.630          38.000  
G18  22099706.680   116134726.377       -3645.822          42.000    22099697.643    90494564.192       -2840.869          42.000  
G23  18676770.853    98147093.223        -836.072          47.000    18676758.689    76478193.975        -651.590          50.000  
G24  19704710.146   103548943.254       -2753.308          40.000    19704699.256    80687435.480       -2145.337          37.000  
G32  21538948.960   113187950.263        1682.499          44.000    21538939.340    88198362.498        1310.817          41.000  
C08  34636939.829   180363630.110         -52.911          45.000    34636922.251   139468530.402         -41.034          50.000  
C13  34746898.530   180936218.179         189.246          46.000    34746889.372   139911322.104         146.265          47.000  
C16  35721626.992   186011884.956         240.430          48.000    35721616.215   143836145.215         186.074          47.000  
C25  21400328.492   111437119.153       -1675.195          44.000                                                                  
C32  21495295.167   111931640.456        1285.361          46.000                                                                  
C06  35487290.514   184791633.046         419.888          43.000    35487273.962   142892550.415         324.668          45.000  
G25  21653165.479   113788170.099        3145.574          40.000    21653158.976    88666083.228        2450.958          40.000  
G10  20135153.915   105810945.711        1993.207          48.000    20135142.475    82450052.024        1553.179          43.000  
G28  23174361.137   121782104.339        3077.703          37.000    23174354.145    94895088.878        2398.326          43.000  
C23  21055567.000   109641863.569        1335.854          50.000                                                                  
C09  36992583.599   192630094.368         501.332          40.000    36992571.743   148953753.717         387.761          46.000  
C33  24989501.807   130126880.766       -2660.700          35.000                                                                  
C30  24651135.187   128364914.042       -2091.053          41.000                                                                  
C27  25113116.470   130770599.672       -2775.433          33.000                                                                  
C37  24040069.463   125182946.726        3062.973          43.000                                                                  
> 2025 10 27 02 15 36.7160000  0 21                     
G12  21340793.434   112146669.061        1993.329          44.000    21340782.329    87386961.668        1553.076          40.000  
G15  21993050.563   115574245.412       -3034.535          40.000    21993041.680    90057827.659       -2364.494          38.000  
G18  22099734.454   116134872.225       -3646.079          42.000    22099725.405    90494677.841       -2841.169          42.000  
G23  18676777.236    98147126.676        -836.273          47.000    18676765.057    76478220.043        -651.716          50.000  
G24  19704731.108   103549053.408       -2753.680          40.000    19704720.208    80687521.299       -2145.404          37.000  
G32  21538936.168   113187882.970        1682.347          44.000    21538926.553    88198310.065        1310.732          41.000  
C08  34636940.221   180363632.243         -53.168          45.000    34636922.650   139468532.043         -41.040          50.000  
C13  34746897.062   180936210.608         189.227          46.000    34746887.918   139911316.246         146.350          47.000  
C16  35721625.127   186011875.340         240.408          48.000    35721614.358   143836137.782         185.921          47.000  
C25  21400341.353   111437186.167       -1675.352          44.000                                                                  
C32  21495285.281   111931589.055        1285.131          46.000                                                                  
C06  35487287.299   184791616.263         419.664          43.000    35487270.749   142892537.430         324.645          45.000  
G25  21653141.529   113788044.294        3145.315          40.000    21653135.044    88665985.203        2450.758          40.000  
G10  20135138.745   105810865.997        1992.980          48.000    20135127.307    82449989.906        1553.044          43.000  
G28  23174337.742   121781981.229        3077.678          37.000    23174330.742    94894992.948        2398.336          43.000  
C23  21055556.723   109641810.144        1335.719          50.000                                                                  
C09  36992579.748   192630074.318         501.177          40.000    36992567.893   148953738.199         387.867          46.000  
C33  24989522.245   130126987.243       -2661.600          35.000                                                                  
C30  24651151.256   128364997.674       -2090.970          41.000                                                                  
C27  25113137.795   130770710.712       -2775.715          33.000                                                                  
C37  24040045.914   125182824.222        3062.735          43.000                                                                  
> 2025 10 27 02 15 36.7560000  0 21                     
G12  21340778.261   112146589.334        1993.185          44.000    21340767.172    87386899.546        1552.917          40.000  
G15  21993073.650   115574366.814       -3034.946          40.000    21993064.789    90057922.263       -2364.906          38.000  
G18  22099762.214   116135018.074       -3646.240          42.000    22099753.172    90494791.494       -2841.372          42.000  
G23  18676783.607    98147160.132        -836.422          47.000    18676771.429    76478246.110        -651.751          50.000  
G24  19704752.062   103549163.580       -2754.193          40.000    19704741.176    80687607.161       -2146.301          37.000  
G32  21538923.369   113187815.683        1682.166          44.000    21538913.760    88198257.631        1310.806          41.000  
C08  34636940.608   180363634.377         -53.345          45.000    34636923.047   139468533.693         -41.235          50.000  
C13  34746895.602   180936203.043         189.087          46.000    34746886.465   139911310.392         146.332          47.000  
C16  35721623.259   186011865.734         240.201          48.000    35721612.499   143836130.352         185.746          47.000  
C25  21400354.202   111437253.178       -1675.355          44.000                                                                  
C32  21495275.396   111931537.659        1284.884          46.000                                                                  
C06  35487284.096   184791599.487         419.419          43.000    35487267.546   142892524.458         324.375          45.000  
G25  21653117.588   113787918.477        3145.385          40.000    21653111.116    88665887.166        2450.848          40.000  
G10  20135123.614   105810786.283        1992.818          48.000    20135112.146    82449927.798        1552.777          43.000  
G28  23174314.303   121781858.138        3077.375          37.000    23174307.322    94894897.015        2398.351          43.000  
C23  21055546.421   109641756.726        1335.482          50.000                                                                  
C09  36992575.892   192630054.250         501.522          40.000    36992564.058   148953722.694         387.692          46.000  
C33  24989542.687   130127093.681       -2661.258          35.000                                                                  
C30  24651167.307   128365081.313       -2091.020          41.000                                                                  
C27  25113159.120   130770821.723       -2775.417          33.000                                                                  
C37  24040022.387   125182701.729        3062.385          43.000                                                                  
> 2025 10 27 02 15 36.7960000  0 21                     
G12  21340763.084   112146509.601        1993.226          44.000    21340751.981    87386837.416        1553.057          40.000  
G15  21993096.737   115574488.217       -3035.154          40.000    21993087.899    90058016.865       -2365.102          38.000  
G18  22099789.972   116135163.917       -3646.175          42.000    22099780.927    90494905.147       -2841.412          41.000  
G23  18676789.996    98147193.597        -836.671          47.000    18676777.792    76478272.178        -651.775          50.000  
G24  19704772.997   103549273.742       -2754.242          40.000    19704762.138    80687693.012       -2146.515          37.000  
G32  21538910.581   113187748.395        1682.112          44.000    21538900.947    88198205.189        1310.998          41.000  
C08  34636941.032   180363636.511         -53.430          45.000    34636923.445   139468535.345         -41.364          50.000  
C13  34746894.145   180936195.467         189.246          46.000    34746885.002   139911304.541         146.295          47.000  
C16  35721621.413   186011856.125         240.133          48.000    35721610.633   143836122.928         185.575          47.000  
C25  21400367.061   111437320.197       -1675.506          44.000                                                                  
C32  21495265.512   111931486.258        1284.936          46.000                                                                  
C06  35487280.895   184791582.705         419.400          43.000    35487264.323   142892511.487         324.240          45.000  
G25  21653093.643   113787792.673        3145.139          40.000    21653087.173    88665789.121        2451.055          40.000  
G10  20135108.442   105810706.566        1992.839          48.000    20135096.968    82449865.681        1552.813          43.000  
G28  23174290.854   121781735.030        3077.517          37.000    23174283.916    94894801.093        2398.115          43.000  
C23  21055536.119   109641703.308        1335.378          50.000                                                                  
C09  36992572.076   192630034.206         501.247          40.000    36992560.219   148953707.200         387.420          46.000  
C33  24989563.114   130127200.117       -2660.995          35.000                                                                  
C30  24651183.369   128365164.955       -2091.082          41.000                                                                  
C27  25113180.427   130770932.740       -2775.318          33.000                                                                  
C37  24039998.836   125182579.223        3062.471          43.000                                                                  
> 2025 10 27 02 15 36.8360000  0 21                     
G12  21340747.891   112146429.874        1993.118          44.000    21340736.804    87386775.287        1553.089          40.000  
G15  21993119.835   115574609.611       -3035.013          40.000    21993111.013    90058111.462       -2365.011          38.000  
G18  22099817.717   116135309.767       -3646.256          42.000    22099808.678    90495018.789       -2841.218          41.000  
G23  18676796.357    98147227.057        -836.654          47.000    18676784.157    76478298.256        -651.924          50.000  
G24  19704793.953   103549383.895       -2754.065          40.000    19704783.111    80687778.848       -2146.246          37.000  
G32  21538897.766   113187681.102        1682.198          44.000    21538888.122    88198152.747        1311.025          41.000  
C08  34636941.419   180363638.647         -53.479          45.000    34636923.856   139468536.997         -41.394          50.000  
C13  34746892.661   180936187.905         189.087          46.000    34746883.541   139911298.691         146.216          47.000  
C16  35721619.565   186011846.517         240.092          48.000    35721608.804   143836115.497         185.627          47.000  
C25  21400379.927   111437387.208       -1675.434          44.000                                                                  
C32  21495255.669   111931434.858        1284.950          46.000                                                                  
C06  35487277.685   184791565.918         419.519          43.000    35487261.104   142892498.500         324.482          45.000  
G25  21653069.702   113787666.867        3145.034          40.000    21653063.228    88665691.090        2450.883          40.000  
G10  20135093.250   105810626.852        1992.813          48.000    20135081.810    82449803.574        1552.672          43.000  
G28  23174267.424   121781611.933        3077.370          37.000    23174260.499    94894705.195        2397.622          43.000  
C23  21055525.857   109641649.888        1335.377          50.000                                                                  
C09  36992568.223   192630014.146         501.379          40.000    36992556.396   148953691.692         387.547          46.000  
C33  24989583.547   130127306.587       -2661.557          35.000                                                                  
C30  24651199.424   128365248.610       -2091.363          41.000                                                                  
C27  25113201.744   130771043.792       -2776.057          33.000                                                                  
C37  24039975.319   125182456.714        3062.588          43.000                                                                  
> 2025 10 27 02 15 36.8760000  0 21                     
G12  21340732.738   112146350.153        1993.000          44.000    21340721.630    87386713.169        1552.983          40.000  
G15  21993142.925   115574730.994       -3034.708          40.000    21993134.106    90058206.055       -2364.937          38.000  
G18  22099845.481   116135455.619       -3646.311          42.000    22099836.412    90495132.431       -2841.125          41.000  
G23  18676802.743    98147260.520        -836.677          47.000    18676790.529    76478324.332        -651.979          50.000  
G24  19704814.905   103549494.032       -2753.571          40.000    19704804.072    80687864.686       -2146.045          37.000  
G32  21538884.982   113187613.818        1682.104          44.000    21538875.325    88198100.314        1310.884          41.000  
C08  34636941.834   180363640.785         -53.510          45.000    34636924.251   139468538.646         -41.315          50.000  
C13  34746891.196   180936180.344         188.995          46.000    34746882.092   139911292.839         146.277          47.000  
C16  35721617.755   186011836.906         240.161          48.000    35721606.964   143836108.072         185.585          47.000  
C25  21400392.788   111437454.233       -1675.623          44.000                                                                  
C32  21495245.799   111931383.457        1284.996          46.000                                                                  
C06  35487274.464   184791549.137         419.493          43.000    35487257.871   142892485.524         324.421          45.000  
G25  21653045.778   113787541.077        3144.736          40.000    21653039.283    88665593.051        2450.914          40.000  
G10  20135078.092   105810547.141        1992.761          48.000    20135066.629    82449741.455        1552.794          43.000  
G28  23174244.007   121781488.839        3077.329          37.000    23174237.078    94894609.276        2397.690          43.000  
C23  21055515.659   109641596.473        1335.329          50.000                                                                  
C09  36992564.357   192629994.099         501.211          40.000    36992552.540   148953676.187         387.584          46.000  
C33  24989604.009   130127413.018       -2661.043          35.000                                                                  
C30  24651215.506   128365332.259       -2091.366          41.000                                                                  
C27  25113223.076   130771154.829       -2776.069          33.000                                                                  
C37  24039951.790   125182334.205        3062.666          43.000                                                                  
> 2025 10 27 02 15 36.9160000  0 21                     
G12  21340717.560   112146270.422        1993.111          44.000    21340706.453    87386651.049        1552.921          40.000  
G15  21993166.018   115574852.388       -3034.797          40.000    21993157.191    90058300.629       -2364.545          38.000  
G18  22099873.223   116135601.468       -3646.266          42.000    22099864.177    90495246.092       -2841.425          41.000  
G23  18676809.094    98147293.976        -836.511          47.000    18676796.896    76478350.408        -651.976          50.000  
G24  19704835.850   103549604.172       -2753.436          40.000    19704825.026    80687950.510       -2145.673          37.000  
G32  21538872.163   113187546.520        1682.341          44.000    21538862.544    88198047.888        1310.676          41.000  
C08  34636942.248   180363642.914         -53.363          45.000    34636924.661   139468540.292         -41.211          50.000  
C13  34746889.759   180936172.779         189.044          46.000    34746880.624   139911286.995         146.155          47.000  
C16  35721615.900   186011827.296         240.207          48.000    35721605.122   143836100.635         185.788          47.000  
C25  21400405.641   111437521.252       -1675.607          44.000                                                                  
C32  21495235.943   111931332.052        1285.085          46.000                                                                  
C06  35487271.239   184791532.348         419.590          43.000    35487254.654   142892472.547         324.374          45.000  
G25  21653021.826   113787415.271        3144.904          40.000    21653015.348    88665495.043        2450.367          40.000  
G10  20135062.927   105810467.432        1992.686          48.000    20135051.457    82449679.339        1552.855          43.000  
G28  23174220.570   121781365.742        3077.325          37.000    23174213.639    94894513.345        2398.022          43.000  
C23  21055505.415   109641543.058        1335.319          50.000                                                                  
C09  36992560.505   192629974.042         501.318          40.000    36992548.694   148953660.673         387.777          46.000  
C33  24989624.463   130127519.469       -2661.100          35.000                                                                  
C30  24651231.565   128365415.908       -2091.339          41.000                                                                  
C27  25113244.392   130771265.863       -2775.954          33.000                                                                  
C37  24039928.263   125182211.710        3062.459          43.000                                                                  
> 2025 10 27 02 15 36.9560000  0 21                     
G12  21340702.396   112146190.699        1993.054          44.000    21340691.273    87386588.924        1553.052          40.000  
G15  21993189.129   115574973.778       -3034.803          40.000    21993180.275    90058395.220       -2364.615          39.000  
G18  22099900.949   116135747.312       -3646.154          42.000    22099891.947    90495359.738       -2841.279          41.000  
G23  18676815.459    98147327.440        -836.594          47.000    18676803.231    76478376.486        -651.994          50.000  
G24  19704856.798   103549714.330       -2753.796          40.000    19704845.991    80688036.336       -2145.667          37.000  
G32  21538859.369   113187479.232        1682.301          44.000    21538849.747    88197995.471        1310.426          41.000  
C08  34636942.673   180363645.045         -53.290          45.000    34636925.065   139468541.941         -41.223          50.000  
C13  34746888.335   180936165.218         188.995          46.000    34746879.179   139911281.145         146.216          47.000  
C16  35721614.035   186011817.690         240.156          48.000    35721603.307   143836093.210         185.668          47.000  
C25  21400418.520   111437588.269       -1675.528          44.000                                                                  
C32  21495226.084   111931280.663        1284.816          46.000                                                                  
C06  35487268.026   184791515.567         419.524          43.000    35487251.436   142892459.576         324.245          45.000  
G25  21652997.871   113787289.454        3145.245          40.000    21652991.417    88665397.023        2450.317          40.000  
G10  20135047.761   105810387.726        1992.610          48.000    20135036.289    82449617.215        1553.038          43.000  
G28  23174197.143   121781242.646        3077.319          37.000    23174190.217    94894417.424        2398.058          43.000  
C23  21055495.205   109641489.639        1335.385          50.000                                                                  
C09  36992556.640   192629953.989         501.254          40.000    36992544.813   148953645.169         387.651          46.000  
C33  24989644.878   130127625.912       -2661.071          35.000                                                                  
C30  24651247.646   128365499.550       -2091.194          41.000                                                                  
C27  25113265.697   130771376.900       -2775.859          33.000                                                                  
C37  24039904.737   125182089.207        3062.488          43.000                                                                  
> 2025 10 27 02 15 36.9960000  0 21                     
G12  21340687.223   112146110.963        1993.265          44.000    21340676.098    87386526.788        1553.285          40.000  
G15  21993212.249   115575095.182       -3035.052          40.000    21993203.383    90058489.833       -2365.102          38.000  
G18  22099928.701   116135893.173       -3646.397          41.000    22099919.715    90495473.388       -2841.260          41.000  
G23  18676821.821    98147360.907        -836.681          47.000    18676809.561    76478402.557        -651.867          50.000  
G24  19704877.776   103549824.502       -2754.205          40.000    19704866.936    80688122.176       -2145.960          37.000  
G32  21538846.574   113187411.944        1682.204          44.000    21538836.920    88197943.041        1310.565          41.000  
C08  34636943.083   180363647.176         -53.265          45.000    34636925.495   139468543.594         -41.321          50.000  
C13  34746886.916   180936157.654         189.038          46.000    34746877.717   139911275.300         146.143          47.000  
C16  35721612.183   186011808.081         240.169          48.000    35721601.469   143836085.786         185.565          47.000  
C25  21400431.383   111437655.297       -1675.673          44.000                                                                  
C32  21495216.201   111931229.270        1284.756          46.000                                                                  
C06  35487264.803   184791498.796         419.324          43.000    35487248.224   142892446.602         324.257          45.000  
G25  21652973.924   113787163.638        3145.398          40.000    21652967.482    88665298.991        2450.560          40.000  
G10  20135032.583   105810308.015        1992.660          48.000    20135021.132    82449555.115        1552.648          43.000  
G28  23174173.700   121781119.536        3077.572          37.000    23174166.789    94894321.502        2398.018          43.000  
C23  21055484.934   109641436.218        1335.462          50.000                                                                  
C09  36992552.783   192629933.954         500.938          40.000    36992540.985   148953629.661         387.657          46.000  
C33  24989665.350   130127732.393       -2661.793          35.000                                                                  
C30  24651263.722   128365583.188       -2091.043          41.000                                                                  
C27  25113287.021   130771487.897       -2775.074          33.000                                                                  
C37  24039881.176   125181966.701        3062.600          43.000                                                                  
> 2025 10 27 02 15 37.0360000  0 21                     
G12  21340672.050   112146031.246        1993.003          44.000    21340660.912    87386464.664        1553.199          40.000  
G15  21993235.356   115575216.579       -3035.025          40.000    21993226.465    90058584.416       -2364.826          38.000  
G18  22099956.472   116136039.026       -3646.396          41.000    22099947.483    90495587.035       -2841.217          41.000  
G23  18676828.190    98147394.367        -836.579          47.000    18676815.919    76478428.629        -651.844          50.000  
G24  19704898.738   103549934.672       -2754.358          40.000    19704887.900    80688208.004       -2145.837          37.000  
G32  21538833.802   113187344.660        1682.097          44.000    21538824.131    88197890.593        1311.005          41.000  
C08  34636943.509   180363649.316         -53.448          45.000    34636925.938   139468545.243         -41.290          50.000  
C13  34746885.450   180936150.082         189.227          46.000    34746876.272   139911269.446         146.277          47.000  
C16  35721610.337   186011798.477         240.125          48.000    35721599.644   143836078.353         185.718          47.000  
C25  21400444.247   111437722.308       -1675.410          44.000                                                                  
C32  21495206.350   111931177.869        1284.886          46.000                                                                  
C06  35487261.589   184791482.015         419.408          43.000    35487244.952   142892433.624         324.344          45.000  
G25  21652949.998   113787037.839        3145.118          40.000    21652943.530    88665200.955        2450.772          40.000  
G10  20135017.402   105810228.297        1992.818          48.000    20135005.994    82449493.000        1552.701          43.000  
G28  23174150.276   121780996.448        3077.314          37.000    23174143.365    94894225.580        2397.976          43.000  
C23  21055474.651   109641382.803        1335.403          50.000                                                                  
C09  36992548.958   192629913.901         501.134          40.000    36992537.138   148953614.157         387.607          46.000  
C33  24989685.781   130127838.844       -2661.584          35.000                                                                  
C30  24651279.796   128365666.833       -2091.070          41.000                                                                  
C27  25113308.344   130771598.910       -2775.063          33.000                                                                  
C37  24039857.634   125181844.203        3062.549          43.000                                                                  
> 2025 10 27 02 15 37.0760000  0 21                     
G12  21340656.887   112145951.524        1992.992          44.000    21340645.756    87386402.542        1553.130          40.000  
G15  21993258.446   115575337.980       -3035.074          40.000    21993249.570    90058679.009       -2364.852          38.000  
G18  22099984.243   116136184.875       -3646.328          42.000    22099975.236    90495700.685       -2841.268          41.000  
G23  18676834.558    98147427.834        -836.667          47.000    18676822.303    76478454.703        -651.870          50.000  
G24  19704919.707   103550044.828       -2754.132          40.000    19704908.854    80688293.836       -2145.868          37.000  
G32  21538821.026   113187277.370        1682.183          44.000    21538811.321    88197838.156        1311.018          41.000  
C08  34636943.941   180363651.441         -53.247          45.000    34636926.361   139468546.893         -41.302          50.000  
C13  34746883.987   180936142.515         189.215          46.000    34746874.815   139911263.595         146.295          47.000  
C16  35721608.470   186011788.866         240.218          48.000    35721597.812   143836070.926         185.691          47.000  
C25  21400457.156   111437789.328       -1675.451          44.000                                                                  
C32  21495196.492   111931126.466        1285.011          46.000                                                                  
C06  35487258.365   184791465.220         419.723          43.000    35487241.708   142892420.644         324.442          45.000  
G25  21652926.054   113786912.038        3145.012          40.000    21652919.579    88665102.914        2450.900          40.000  
G10  20135002.239   105810148.581        1992.869          48.000    20134990.837    82449430.890        1552.693          43.000  
G28  23174126.857   121780873.349        3077.329          37.000    23174119.931    94894129.666        2397.854          43.000  
C23  21055464.371   109641329.389        1335.340          50.000                                                                  
C09  36992545.068   192629893.855         501.096          40.000    36992533.284   148953598.656         387.508          46.000  
C33  24989706.207   130127945.269       -2660.909          35.000                                                                  
C30  24651295.848   128365750.488       -2091.259          41.000                                                                  
C27  25113329.655   130771709.951       -2775.734          33.000                                                                  
C37  24039834.111   125181721.694        3062.703          43.000                                                                  
> 2025 10 27 02 15 37.1160000  0 21                     
G12  21340641.736   112145871.801        1993.007          44.000    21340630.600    87386340.430        1552.942          40.000  
G15  21993281.527   115575459.359       -3034.714          40.000    21993272.684    90058773.591       -2364.608          38.000  
G18  22100011.994   116136330.721       -3646.215          42.000    22100002.985    90495814.340       -2841.348          42.000  
G23  18676840.900    98147461.296        -836.610          47.000    18676828.715    76478480.784        -652.047          50.000  
G24  19704940.650   103550154.979       -2753.900          40.000    19704929.828    80688379.684       -2146.204          37.000  
G32  21538808.208   113187210.077        1682.272          44.000    21538798.521    88197785.726        1310.848          41.000  
C08  34636944.349   180363653.580         -53.436          45.000    34636926.798   139468548.540         -41.229          50.000  
C13  34746882.510   180936134.954         189.093          46.000    34746873.362   139911257.744         146.289          47.000  
C16  35721606.605   186011779.265         240.066          48.000    35721595.958   143836063.494         185.782          47.000  
C25  21400470.016   111437856.354       -1675.612          44.000                                                                  
C32  21495186.598   111931075.067        1284.984          46.000                                                                  
C06  35487255.144   184791448.444         419.553          43.000    35487238.473   142892407.666         324.430          45.000  
G25  21652902.104   113786786.228        3145.128          40.000    21652895.653    88665004.875        2450.935          40.000  
G10  20134987.084   105810068.877        1992.694          48.000    20134975.680    82449368.778        1552.758          43.000  
G28  23174103.430   121780750.239        3077.583          37.000    23174096.526    94894033.742        2397.985          43.000  
C23  21055454.087   109641275.978        1335.277          50.000                                                                  
C09  36992541.191   192629873.800         501.264          40.000    36992529.446   148953583.154         387.465          46.000  
C33  24989726.680   130128051.719       -2661.070          35.000                                                                  
C30  24651311.926   128365834.130       -2091.138          41.000                                                                  
C27  25113350.979   130771820.982       -2775.773          34.000                                                                  
C37  24039810.571   125181599.198        3062.493          43.000                                                                  
> 2025 10 27 02 15 37.1560000  0 21                     
G12  21340626.587   112145792.083        1992.964          44.000    21340615.416    87386278.305        1552.986          40.000  
G15  21993304.618   115575580.764       -3034.945          40.000    21993295.792    90058868.205       -2365.139          38.000  
G18  22100039.768   116136476.567       -3646.122          42.000    22100030.735    90495927.989       -2841.323          42.000  
G23  18676847.268    98147494.769        -836.780          47.000    18676835.094    76478506.865        -652.121          50.000  
G24  19704961.619   103550265.153       -2754.193          40.000    19704950.785    80688465.531       -2146.252          37.000  
G32  21538795.391   113187142.787        1682.269          44.000    21538785.718    88197733.297        1310.748          41.000  
C08  34636944.783   180363655.720         -53.540          45.000    34636927.259   139468550.191         -41.278          50.000  
C13  34746881.067   180936127.399         188.886          46.000    34746871.910   139911251.907         146.008          47.000  
C16  35721604.771   186011769.665         239.964          48.000    35721594.109   143836056.064         185.760          47.000  
C25  21400482.855   111437923.395       -1675.971          44.000                                                                  
C32  21495176.697   111931023.677        1284.813          46.000                                                                  
C06  35487251.886   184791431.662         419.546          43.000    35487235.264   142892394.691         324.412          45.000  
G25  21652878.168   113786660.421        3145.166          40.000    21652871.720    88664906.859        2450.557          40.000  
G10  20134971.929   105809989.177        1992.493          48.000    20134960.493    82449306.676        1552.633          43.000  
G28  23174080.001   121780627.147        3077.372          37.000    23174073.095    94893937.821        2398.010          43.000  
C23  21055443.819   109641222.571        1335.144          50.000                                                                  
C09  36992537.350   192629853.742         501.368          40.000    36992525.615   148953567.656         387.417          46.000  
C33  24989747.132   130128158.188       -2661.506          35.000                                                                  
C30  24651327.983   128365917.789       -2091.389          41.000                                                                  
C27  25113372.318   130771932.026       -2776.046          33.000                                                                  
C37  24039787.047   125181476.696        3062.473          43.000                                                                  
> 2025 10 27 02 15 37.1960000  0 21                     
G12  21340611.399   112145712.363        1992.959          44.000    21340600.246    87386216.202        1552.684          40.000  
G15  21993327.698   115575702.155       -3034.845          40.000    21993318.884    90058962.795       -2364.975          38.000  
G18  22100067.534   116136622.422       -3646.285          42.000    22100058.492    90496041.640       -2841.316          41.000  
G23  18676853.647    98147528.236        -836.766          47.000    18676841.480    76478532.947        -652.130          50.000  
G24  19704982.565   103550375.306       -2753.992          40.000    19704971.760    80688551.371       -2146.204          37.000  
G32  21538782.581   113187075.503        1682.141          44.000    21538772.922    88197680.867        1310.705          41.000  
C08  34636945.204   180363657.863         -53.613          45.000    34636927.694   139468551.846         -41.364          50.000  
C13  34746879.631   180936119.841         188.867          46.000    34746870.482   139911246.059         146.075          47.000  
C16  35721602.949   186011760.056         240.097          48.000    35721592.252   143836048.639         185.641          47.000  
C25  21400495.748   111437990.417       -1675.807          44.000                                                                  
C32  21495166.830   111930972.280        1284.880          46.000                                                                  
C06  35487248.661   184791414.885         419.456          43.000    35487232.063   142892381.717         324.352          45.000  
G25  21652854.222   113786534.621        3145.059          40.000    21652847.779    88664808.833        2450.575          40.000  
G10  20134956.775   105809909.483        1992.302          48.000    20134945.309    82449244.562        1552.732          43.000  
G28  23174056.567   121780504.041        3077.534          37.000    23174049.671    94893841.900        2398.016          43.000  
C23  21055433.577   109641169.161        1335.160          50.000                                                                  
C09  36992533.492   192629833.714         500.907          40.000    36992521.775   148953552.153         387.480          46.000  
C33  24989767.598   130128264.640       -2661.416          35.000                                                                  
C30  24651344.026   128366001.443       -2091.438          41.000                                                                  
C27  25113393.614   130772043.058       -2776.032          33.000                                                                  
C37  24039763.510   125181354.204        3062.323          43.000                                                                  
> 2025 10 27 02 15 37.2360000  0 21                     
G12  21340596.202   112145632.650        1992.833          44.000    21340585.080    87386154.084        1552.751          40.000  
G15  21993350.799   115575823.561       -3035.044          40.000    21993342.001    90059057.389       -2364.906          38.000  
G18  22100095.292   116136768.278       -3646.353          42.000    22100086.261    90496155.296       -2841.429          42.000  
G23  18676860.020    98147561.714        -836.935          47.000    18676847.824    76478559.029        -652.096          50.000  
G24  19705003.554   103550485.479       -2754.321          40.000    19704992.743    80688637.223       -2146.313          37.000  
G32  21538769.796   113187008.220        1682.035          44.000    21538760.133    88197628.443        1310.547          41.000  
C08  34636945.624   180363659.995         -53.406          45.000    34636928.123   139468553.501         -41.406          50.000  
C13  34746878.178   180936112.283         188.867          46.000    34746869.054   139911240.213         146.100          47.000  
C16  35721601.109   186011750.455         240.032          48.000    35721590.392   143836041.220         185.502          47.000  
C25  21400508.657   111438057.449       -1675.836          44.000                                                                  
C32  21495156.978   111930920.880        1284.949          46.000                                                                  
C06  35487245.431   184791398.105         419.485          43.000    35487228.848   142892368.749         324.197          45.000  
G25  21652830.271   113786408.813        3145.110          40.000    21652823.836    88664710.802        2450.715          40.000  
G10  20134941.623   105809829.783        1992.325          48.000    20134930.135    82449182.470        1552.408          43.000  
G28  23174033.161   121780380.951        3077.292          37.000    23174026.233    94893745.989        2397.865          43.000  
C23  21055423.325   109641115.751        1335.188          50.000                                                                  
C09  36992529.650   192629813.656         501.145          40.000    36992517.941   148953536.654         387.449          46.000  
C33  24989788.044   130128371.130       -2662.094          35.000                                                                  
C30  24651360.118   128366085.088       -2091.260          41.000                                                                  
C27  25113414.946   130772154.095       -2776.074          33.000                                                                  
C37  24039739.993   125181231.706        3062.339          42.000                                                                  
> 2025 10 27 02 15 37.2760000  0 21                     
G12  21340581.049   112145552.938        1992.765          44.000    21340569.896    87386091.968        1552.791          40.000  
G15  21993373.895   115575944.963       -3035.093          40.000    21993365.112    90059151.994       -2365.093          38.000  
G18  22100123.037   116136914.143       -3646.614          42.000    22100114.019    90496268.958       -2841.571          41.000  
G23  18676866.404    98147595.191        -837.008          47.000    18676854.213    76478585.114        -652.146          50.000  
G24  19705024.523   103550595.650       -2754.370          40.000    19705013.724    80688723.070       -2146.198          37.000  
G32  21538756.980   113186940.945        1681.899          44.000    21538747.335    88197576.012        1310.600          41.000  
C08  34636946.014   180363662.138         -53.497          45.000    34636928.538   139468555.154         -41.388          50.000  
C13  34746876.747   180936104.718         189.014          46.000    34746867.579   139911234.371         146.051          47.000  
C16  35721599.289   186011740.853         240.007          48.000    35721588.574   143836033.803         185.350          47.000  
C25  21400521.545   111438124.477       -1675.791          44.000                                                                  
C32  21495147.119   111930869.492        1284.771          46.000                                                                  
C06  35487242.193   184791381.342         419.199          43.000    35487225.598   142892355.782         324.122          45.000  
G25  21652806.354   113786283.014        3144.996          40.000    21652799.895    88664612.773        2450.681          40.000  
G10  20134926.461   105809750.079        1992.449          48.000    20134914.965    82449120.363        1552.466          43.000  
G28  23174009.737   121780257.873        3076.997          37.000    23174002.813    94893650.073        2397.869          43.000  
C23  21055413.059   109641062.345        1335.125          50.000                                                                  
C09  36992525.806   192629793.599         501.300          40.000    36992514.087   148953521.151         387.531          46.000  
C33  24989808.492   130128477.571       -2661.510          35.000                                                                  
C30  24651376.197   128366168.747       -2091.392          41.000                                                                  
C27  25113436.257   130772265.106       -2775.448          33.000                                                                  
C37  24039716.499   125181109.203        3062.483          42.000                                                                  
> 2025 10 27 02 15 37.3160000  0 21                     
G12  21340565.875   112145473.222        1992.806          44.000    21340554.717    87386029.859        1552.702          40.000  
G15  21993397.004   115576066.366       -3035.116          40.000    21993388.218    90059246.601       -2365.248          38.000  
G18  22100150.801   116137060.015       -3646.816          42.000    22100141.772    90496382.600       -2841.252          41.000  
G23  18676872.782    98147628.668        -837.024          47.000    18676860.578    76478611.199        -652.190          50.000  
G24  19705045.487   103550705.818       -2754.297          40.000    19705034.683    80688808.917       -2146.161          37.000  
G32  21538744.180   113186873.667        1681.851          44.000    21538734.538    88197523.581        1310.691          41.000  
C08  34636946.431   180363664.277         -53.503          45.000    34636928.977   139468556.808         -41.382          50.000  
C13  34746875.297   180936097.165         188.867          46.000    34746866.114   139911228.528         146.045          47.000  
C16  35721597.445   186011731.255         239.918          48.000    35721586.724   143836026.378         185.453          47.000  
C25  21400534.425   111438191.510       -1675.842          44.000                                                                  
C32  21495137.233   111930818.104        1284.672          46.000                                                                  
C06  35487238.937   184791364.573         419.120          43.000    35487222.380   142892342.807         324.190          45.000  
G25  21652782.420   113786157.208        3145.080          40.000    21652775.962    88664514.750        2450.600          40.000  
G10  20134911.269   105809670.371        1992.594          48.000    20134899.820    82449058.266        1552.360          43.000  
G28  23173986.311   121780134.787        3076.946          37.000    23173979.383    94893554.161        2397.791          43.000  
C23  21055402.808   109641008.938        1335.107          50.000                                                                  
C09  36992521.996   192629773.565         500.907          40.000    36992510.229   148953505.645         387.636          46.000  
C33  24989828.933   130128584.016       -2661.232          35.000                                                                  
C30  24651392.240   128366252.396       -2091.296          41.000                                                                  
C27  25113457.573   130772376.141       -2775.645          34.000                                                                  
C37  24039692.960   125180986.711        3062.401          42.000                                                                  
> 2025 10 27 02 15 37.3560000  0 21                     
G12  21340550.712   112145393.515        1992.673          44.000    21340539.556    87385967.740        1552.791          40.000  
G15  21993420.103   115576187.769       -3035.135          40.000    21993411.326    90059341.202       -2365.202          38.000  
G18  22100178.557   116137205.870       -3646.577          42.000    22100169.528    90496496.262       -2841.458          41.000  
G23  18676879.155    98147662.142        -836.941          47.000    18676866.934    76478637.285        -652.201          50.000  
G24  19705066.455   103550815.992       -2754.431          40.000    19705055.652    80688894.762       -2146.118          37.000  
G32  21538731.355   113186806.380        1682.018          44.000    21538721.733    88197471.151        1310.736          41.000  
C08  34636946.867   180363666.418         -53.516          45.000    34636929.401   139468558.463         -41.388          50.000  
C13  34746873.841   180936089.606         188.898          46.000    34746864.645   139911222.679         146.143          47.000  
C16  35721595.589   186011721.656         239.908          48.000    35721584.898   143836018.949         185.603          47.000  
C25  21400547.293   111438258.541       -1675.860          44.000                                                                  
C32  21495127.357   111930766.718        1284.631          46.000                                                                  
C06  35487235.707   184791347.796         419.243          43.000    35487219.153   142892329.835         324.238          45.000  
G25  21652758.495   113786031.413        3144.922          40.000    21652752.017    88664416.730        2450.514          40.000  
G10  20134896.112   105809590.666        1992.611          48.000    20134884.650    82448996.148        1552.723          43.000  
G28  23173962.902   121780011.704        3076.908          37.000    23173955.970    94893458.246        2397.792          43.000  
C23  21055392.518   109640955.542        1334.936          50.000                                                                  
C09  36992518.140   192629753.535         500.655          40.000    36992506.350   148953490.153         387.392          46.000  
C33  24989849.363   130128690.448       -2660.867          35.000                                                                  
C30  24651408.307   128366336.058       -2091.511          40.000                                                                  
C27  25113478.890   130772487.177       -2775.846          34.000                                                                  
C37  24039669.454   125180864.213        3062.405          42.000                                                                  
> 2025 10 27 02 15 37.3960000  0 21                     
G12  21340535.536   112145313.809        1992.579          44.000    21340524.401    87385905.636        1552.615          40.000  
G15  21993443.202   115576309.175       -3035.190          40.000    21993434.438    90059435.784       -2364.759          38.000  
G18  22100206.284   116137351.718       -3646.303          42.000    22100197.278    90496609.918       -2841.439          41.000  
G23  18676885.548    98147695.627        -837.097          47.000    18676873.328    76478663.376        -652.276          50.000  
G24  19705087.429   103550926.159       -2754.315          40.000    19705076.643    80688980.582       -2145.642          37.000  
G32  21538718.569   113186739.100        1681.998          44.000    21538708.947    88197418.731        1310.544          41.000  
C08  34636947.289   180363668.558         -53.497          45.000    34636929.803   139468560.117         -41.376          50.000  
C13  34746872.369   180936082.053         188.824          46.000    34746863.197   139911216.834         146.155          47.000  
C16  35721593.770   186011712.059         239.878          48.000    35721583.039   143836011.526         185.589          47.000  
C25  21400560.147   111438325.574       -1675.858          44.000                                                                  
C32  21495117.501   111930715.332        1284.608          46.000                                                                  
C06  35487232.498   184791331.018         419.334          43.000    35487215.934   142892316.860         324.303          45.000  
G25  21652734.558   113785905.629        3144.648          40.000    21652728.068    88664318.706        2450.540          40.000  
G10  20134880.960   105809510.968        1992.496          48.000    20134869.479    82448934.043        1552.725          43.000  
G28  23173939.462   121779888.605        3077.196          37.000    23173932.543    94893362.334        2397.771          43.000  
C23  21055382.301   109640902.141        1334.934          50.000                                                                  
C09  36992514.309   192629733.497         500.815          40.000    36992502.537   148953474.656         387.362          46.000  
C33  24989869.810   130128796.905       -2661.169          35.000                                                                  
C30  24651424.322   128366419.720       -2091.584          41.000                                                                  
C27  25113500.202   130772598.228       -2776.181          33.000                                                                  
C37  24039645.932   125180741.717        3062.347          42.000                                                                  
> 2025 10 27 02 15 37.4360000  0 21                     
G12  21340520.365   112145234.092        1992.760          44.000    21340509.237    87385843.523        1552.740          40.000  
G15  21993466.306   115576430.579       -3035.171          40.000    21993457.522    90059530.385       -2364.867          38.000  
G18  22100234.049   116137497.571       -3646.268          42.000    22100225.043    90496723.567       -2841.302          41.000  
G23  18676891.925    98147729.108        -837.095          47.000    18676879.698    76478689.460        -652.199          50.000  
G24  19705108.386   103551036.323       -2754.169          40.000    19705097.599    80689066.441       -2146.130          37.000  
G32  21538705.788   113186671.820        1681.967          44.000    21538696.134    88197366.302        1310.590          41.000  
C08  34636947.708   180363670.700         -53.546          45.000    34636930.248   139468561.775         -41.449          50.000  
C13  34746870.916   180936074.489         188.989          46.000    34746861.751   139911210.991         146.057          47.000  
C16  35721591.897   186011702.457         239.998          48.000    35721581.170   143836004.102         185.574          47.000  
C25  21400573.041   111438392.614       -1676.005          44.000                                                                  
C32  21495107.632   111930663.938        1284.749          46.000                                                                  
C06  35487229.277   184791314.241         419.398          43.000    35487212.732   142892303.891         324.251          45.000  
G25  21652710.588   113785779.821        3144.947          40.000    21652704.122    88664220.693        2450.333          40.000  
G10  20134865.805   105809431.274        1992.380          48.000    20134854.293    82448871.944        1552.518          43.000  
G28  23173916.007   121779765.506        3077.413          37.000    23173909.137    94893266.418        2397.859          43.000  
C23  21055372.066   109640848.737        1335.026          50.000                                                                  
C09  36992510.467   192629713.445         501.139          40.000    36992498.695   148953459.168         387.164          46.000  
C33  24989890.258   130128903.378       -2661.744          35.000                                                                  
C30  24651440.405   128366503.386       -2091.748          41.000                                                                  
C27  25113521.508   130772709.229       -2775.393          33.000                                                                  
C37  24039622.435   125180619.227        3062.227          42.000                                                                  
> 2025 10 27 02 15 37.4760000  0 21                     
G12  21340505.187   112145154.390        1992.634          44.000    21340494.083    87385781.395        1553.069          40.000  
G15  21993489.395   115576551.984       -3035.164          40.000    21993480.625    90059624.981       -2364.906          38.000  
G18  22100261.815   116137643.438       -3646.518          42.000    22100252.803    90496837.217       -2841.240          41.000  
G23  18676898.289    98147762.586        -837.019          47.000    18676886.077    76478715.549        -652.230          50.000  
G24  19705129.325   103551146.493       -2754.248          40.000    19705118.571    80689152.293       -2146.313          37.000  
G32  21538692.987   113186604.530        1682.158          44.000    21538683.355    88197313.878        1310.612          41.000  
C08  34636948.160   180363672.843         -53.601          45.000    34636930.668   139468563.432         -41.486          50.000  
C13  34746869.481   180936066.928         189.026          46.000    34746860.305   139911205.150         145.996          47.000  
C16  35721590.046   186011692.859         239.964          48.000    35721579.318   143835996.689         185.408          47.000  
C25  21400585.912   111438459.655       -1676.097          44.000                                                                  
C32  21495097.761   111930612.551        1284.683          46.000                                                                  
C06  35487226.060   184791297.473         419.238          43.000    35487209.492   142892290.919         324.264          45.000  
G25  21652686.651   113785654.038        3144.682          40.000    21652680.183    88664122.665        2450.530          40.000  
G10  20134850.633   105809351.573        1992.438          48.000    20134839.144    82448809.848        1552.399          43.000  
G28  23173892.575   121779642.417        3077.285          37.000    23173885.714    94893170.508        2397.784          43.000  
C23  21055361.804   109640795.336        1335.006          50.000                                                                  
C09  36992506.633   192629693.396         501.275          40.000    36992494.838   148953443.660         387.514          46.000  
C33  24989910.706   130129009.868       -2662.243          35.000                                                                  
C30  24651456.495   128366587.047       -2091.700          40.000                                                                  
C27  25113542.824   130772820.282       -2775.976          33.000                                                                  
C37  24039598.928   125180496.737        3062.192          42.000                                                                  
> 2025 10 27 02 15 37.5160000  0 21                     
G12  21340489.994   112145074.678        1992.731          44.000    21340478.929    87385719.282        1552.943          40.000  
G15  21993512.508   115576673.385       -3035.032          40.000    21993503.732    90059719.592       -2365.167          38.000  
G18  22100289.602   116137789.305       -3646.679          42.000    22100280.575    90496950.882       -2841.508          41.000  
G23  18676904.663    98147796.072        -837.126          47.000    18676892.482    76478741.647        -652.412          50.000  
G24  19705150.300   103551256.665       -2754.278          40.000    19705139.527    80689238.143       -2146.405          37.000  
G32  21538680.192   113186537.259        1681.901          44.000    21538670.553    88197261.444        1310.738          41.000  
C08  34636948.596   180363674.986         -53.613          45.000    34636931.111   139468565.094         -41.583          50.000  
C13  34746868.046   180936059.374         188.922          46.000    34746858.878   139911199.313         145.905          47.000  
C16  35721588.186   186011683.266         239.847          48.000    35721577.459   143835989.270         185.417          47.000  
C25  21400598.777   111438526.694       -1676.062          44.000                                                                  
C32  21495087.873   111930561.165        1284.633          46.000                                                                  
C06  35487222.817   184791280.710         419.122          43.000    35487206.248   142892277.954         324.153          45.000  
G25  21652662.718   113785528.238        3144.822          40.000    21652656.216    88664024.640        2450.567          40.000  
G10  20134835.481   105809271.882        1992.314          48.000    20134823.972    82448747.746        1552.457          43.000  
G28  23173869.139   121779519.333        3077.076          37.000    23173862.293    94893074.607        2397.567          43.000  
C23  21055351.553   109640741.938        1334.949          50.000                                                                  
C09  36992502.796   192629673.357         501.085          40.000    36992490.986   148953428.158         387.543          46.000  
C33  24989931.133   130129116.340       -2662.163          35.000                                                                  
C30  24651472.557   128366670.712       -2091.724          40.000                                                                  
C27  25113564.156   130772931.353       -2776.633          33.000                                                                  
C37  24039575.417   125180374.242        3062.250          42.000                                                                  
> 2025 10 27 02 15 37.5560000  0 21                     
G12  21340474.827   112144994.966        1992.794          44.000    21340463.759    87385657.180        1552.649          40.000  
G15  21993535.599   115576794.794       -3035.126          40.000    21993526.837    90059814.209       -2365.496          38.000  
G18  22100317.335   116137935.160       -3646.515          42.000    22100308.334    90497064.550       -2841.706          42.000  
G23  18676911.057    98147829.558        -837.182          47.000    18676898.839    76478767.740        -652.429          50.000  
G24  19705171.285   103551366.848       -2754.529          40.000    19705160.486    80689323.989       -2146.259          37.000  
G32  21538667.376   113186469.976        1681.960          44.000    21538657.748    88197209.030        1310.477          41.000  
C08  34636949.039   180363677.131         -53.650          45.000    34636931.523   139468566.756         -41.620          50.000  
C13  34746866.592   180936051.824         188.770          46.000    34746857.439   139911193.471         145.947          47.000  
C16  35721586.346   186011673.672         239.817          48.000    35721575.581   143835981.847         185.482          47.000  
C25  21400611.666   111438593.732       -1676.009          44.000                                                                  
C32  21495078.014   111930509.770        1284.792          46.000                                                                  
C06  35487219.583   184791263.949         419.029          43.000    35487203.024   142892264.990         324.072          45.000  
G25  21652638.779   113785402.448        3144.734          40.000    21652632.273    88663926.613        2450.623          40.000  
G10  20134820.303   105809192.186        1992.318          48.000    20134808.794    82448685.644        1552.457          43.000  
G28  23173845.719   121779396.251        3076.999          37.000    23173838.894    94892978.693        2397.679          43.000  
C23  21055341.239   109640688.543        1334.860          50.000                                                                  
C09  36992498.961   192629653.314         501.073          40.000    36992487.143   148953412.664         387.387          46.000  
C33  24989951.612   130129222.803       -2661.785          35.000                                                                  
C30  24651488.639   128366754.354       -2091.263          40.000                                                                  
C27  25113585.467   130773042.361       -2775.782          34.000                                                                  
C37  24039551.877   125180251.752        3062.260          42.000                                                                  
> 2025 10 27 02 15 37.5960000  0 21                     
G12  21340459.649   112144915.264        1992.602          44.000    21340448.617    87385595.081        1552.391          40.000  
G15  21993558.702   115576916.203       -3035.163          40.000    21993549.950    90059908.800       -2365.068          38.000  
G18  22100345.078   116138081.026       -3646.615          42.000    22100336.091    90497178.216       -2841.754          41.000  
G23  18676917.405    98147863.040        -837.156          47.000    18676905.186    76478793.837        -652.478          50.000  
G24  19705192.254   103551477.023       -2754.431          40.000    19705181.449    80689409.830       -2146.069          37.000  
G32  21538654.585   113186402.688        1682.133          44.000    21538644.919    88197156.606        1310.479          41.000  
C08  34636949.461   180363679.281         -53.741          45.000    34636931.928   139468568.416         -41.565          50.000  
C13  34746865.149   180936044.278         188.593          46.000    34746856.006   139911187.633         145.935          47.000  
C16  35721584.526   186011664.071         239.923          48.000    35721573.723   143835974.423         185.554          47.000  
C25  21400624.537   111438660.773       -1676.021          44.000                                                                  
C32  21495068.140   111930458.394        1284.505          46.000                                                                  
C06  35487216.363   184791247.169         419.321          43.000    35487199.815   142892252.027         324.052          45.000  
G25  21652614.844   113785276.656        3144.761          40.000    21652608.355    88663828.606        2450.295          40.000  
G10  20134805.150   105809112.498        1992.195          48.000    20134793.628    82448623.555        1552.289          43.000  
G28  23173822.325   121779273.174        3076.910          37.000    23173815.480    94892882.780        2397.752          43.000  
C23  21055331.000   109640635.148        1334.798          50.000                                                                  
C09  36992495.109   192629633.281         500.906          40.000    36992483.299   148953397.167         387.363          46.000  
C33  24989972.058   130129329.241       -2661.094          35.000                                                                  
C30  24651504.677   128366838.014       -2091.381          40.000                                                                  
C27  25113606.774   130773153.404       -2776.105          33.000                                                                  
C37  24039528.369   125180129.257        3062.337          42.000                                                                  
> 2025 10 27 02 15 37.6360000  0 21                     
G12  21340444.491   112144835.566        1992.438          44.000    21340433.465    87385532.973        1552.526          40.000  
G15  21993581.812   115577037.626       -3035.556          40.000    21993573.047    90060003.402       -2365.038          38.000  
G18  22100372.828   116138226.884       -3646.509          42.000    22100363.835    90497291.859       -2841.342          41.000  
G23  18676923.776    98147896.532        -837.300          47.000    18676911.547    76478819.929        -652.381          50.000  
G24  19705213.232   103551587.201       -2754.449          40.000    19705202.427    80689495.692       -2146.350          37.000  
G32  21538641.780   113186335.412        1681.958          44.000    21538632.124    88197104.185        1310.474          41.000  
C08  34636949.877   180363681.429         -53.784          45.000    34636932.368   139468570.070         -41.412          50.000  
C13  34746863.693   180936036.724         188.702          46.000    34746854.536   139911181.792         145.966          47.000  
C16  35721582.688   186011654.476         239.889          48.000    35721571.879   143835967.005         185.488          47.000  
C25  21400637.405   111438727.811       -1675.977          44.000                                                                  
C32  21495058.279   111930407.006        1284.578          46.000                                                                  
C06  35487213.176   184791230.395         419.382          43.000    35487196.603   142892239.067         323.982          45.000  
G25  21652590.888   113785150.860        3144.927          40.000    21652584.434    88663730.588        2450.343          40.000  
G10  20134789.982   105809032.810        1992.141          48.000    20134778.469    82448561.465        1552.182          43.000  
G28  23173798.889   121779150.095        3076.930          37.000    23173792.058    94892786.872        2397.686          43.000  
C23  21055320.737   109640581.755        1334.756          50.000                                                                  
C09  36992491.248   192629613.245         500.889          40.000    36992479.461   148953381.678         387.220          46.000  
C33  24989992.509   130129435.683       -2660.946          35.000                                                                  
C30  24651520.746   128366921.675       -2091.495          40.000                                                                  
C27  25113628.089   130773264.441       -2776.047          33.000                                                                  
C37  24039504.820   125180006.773        3062.169          42.000                                                                  
> 2025 10 27 02 15 37.6760000  0 21                     
G12  21340429.327   112144755.863        1992.487          44.000    21340418.289    87385470.870        1552.489          40.000  
G15  21993604.920   115577159.033       -3035.430          40.000    21993596.170    90060098.020       -2365.325          38.000  
G18  22100400.580   116138372.751       -3646.640          42.000    22100391.585    90497405.523       -2841.512          41.000  
G23  18676930.163    98147930.025        -837.380          47.000    18676917.923    76478846.018        -652.288          50.000  
G24  19705234.196   103551697.384       -2754.541          40.000    19705223.400    80689581.552       -2146.497          37.000  
G32  21538628.983   113186268.143        1681.750          44.000    21538619.312    88197051.759        1310.558          41.000  
C08  34636950.307   180363683.569         -53.619          45.000    34636932.807   139468571.730         -41.467          50.000  
C13  34746862.230   180936029.171         188.757          46.000    34746853.077   139911175.945         146.112          47.000  
C16  35721580.854   186011644.879         239.875          48.000    35721570.042   143835959.587         185.430          47.000  
C25  21400650.293   111438794.855       -1676.060          44.000                                                                  
C32  21495048.429   111930355.626        1284.477          46.000                                                                  
C06  35487209.955   184791213.624         419.309          43.000    35487193.385   142892226.095         324.167          45.000  
G25  21652566.935   113785025.067        3144.873          40.000    21652560.490    88663632.561        2450.552          40.000  
G10  20134774.797   105808953.122        1992.132          48.000    20134763.307    82448499.355        1552.474          43.000  
G28  23173775.463   121779027.002        3077.148          37.000    23173768.642    94892690.958        2397.750          43.000  
C23  21055310.504   109640528.365        1334.707          50.000                                                                  
C09  36992487.413   192629593.207         500.850          40.000    36992475.610   148953366.183         387.233          46.000  
C33  24990012.958   130129542.154       -2661.486          35.000                                                                  
C30  24651536.812   128367005.344       -2091.708          40.000                                                                  
C27  25113649.398   130773375.444       -2775.508          33.000                                                                  
C37  24039481.289   125179884.282        3062.250          42.000                                                                  
> 2025 10 27 02 15 37.7160000  0 21                     
G12  21340414.150   112144676.169        1992.375          44.000    21340403.133    87385408.775        1552.344          40.000  
G15  21993628.055   115577280.440       -3035.348          40.000    21993619.274    90060192.627       -2365.299          38.000  
G18  22100428.326   116138518.617       -3646.664          42.000    22100419.358    90497519.182       -2841.486          41.000  
G23  18676936.526    98147963.516        -837.397          47.000    18676924.305    76478872.112        -652.340          50.000  
G24  19705255.147   103551807.556       -2754.395          40.000    19705244.372    80689667.420       -2146.716          37.000  
G32  21538616.192   113186200.878        1681.564          44.000    21538606.513    88196999.330        1310.646          41.000  
C08  34636950.721   180363685.718         -53.705          45.000    34636933.241   139468573.395         -41.614          50.000  
C13  34746860.765   180936021.620         188.770          46.000    34746851.626   139911170.103         146.094          47.000  
C16  35721578.976   186011635.295         239.635          48.000    35721568.236   143835952.166         185.470          47.000  
C25  21400663.165   111438861.908       -1676.313          44.000                                                                  
C32  21495038.595   111930304.243        1284.498          46.000                                                                  
C06  35487206.732   184791196.854         419.221          43.000    35487190.161   142892213.125         324.229          45.000  
G25  21652542.998   113784899.271        3144.910          40.000    21652536.566    88663534.537        2450.606          40.000  
G10  20134759.621   105808873.432        1992.181          48.000    20134748.141    82448437.262        1552.366          43.000  
G28  23173752.054   121778903.917        3077.144          37.000    23173745.225    94892595.055        2397.633          43.000  
C23  21055300.242   109640474.971        1334.761          50.000                                                                  
C09  36992483.540   192629573.171         500.789          40.000    36992471.768   148953350.699         387.104          46.000  
C33  24990033.441   130129648.648       -2662.231          35.000                                                                  
C30  24651552.917   128367089.008       -2091.731          40.000                                                                  
C27  25113670.696   130773486.455       -2775.223          33.000                                                                  
C37  24039457.793   125179761.788        3062.300          42.000                                                                  
> 2025 10 27 02 15 37.7560000  0 21                     
G12  21340398.969   112144596.466        1992.466          44.000    21340387.982    87385346.675        1552.334          40.000  
G15  21993651.186   115577401.849       -3035.336          40.000    21993642.372    90060287.216       -2364.925          38.000  
G18  22100456.091   116138664.476       -3646.545          42.000    22100447.126    90497632.856       -2841.760          41.000  
G23  18676942.909    98147997.005        -837.326          47.000    18676930.691    76478898.214        -652.496          50.000  
G24  19705276.095   103551917.743       -2754.559          40.000    19705265.330    80689753.267       -2146.362          37.000  
G32  21538603.378   113186133.603        1681.709          44.000    21538593.700    88196946.904        1310.651          41.000  
C08  34636951.127   180363687.864         -53.723          45.000    34636933.665   139468575.054         -41.553          50.000  
C13  34746859.288   180936014.065         188.837          46.000    34746850.188   139911164.267         145.972          47.000  
C16  35721577.147   186011625.702         239.686          48.000    35721566.402   143835944.752         185.353          47.000  
C25  21400676.044   111438928.946       -1676.132          44.000                                                                  
C32  21495028.717   111930252.859        1284.550          46.000                                                                  
C06  35487203.523   184791180.090         419.100          43.000    35487186.951   142892200.161         324.154          45.000  
G25  21652519.069   113784773.485        3144.760          40.000    21652512.652    88663436.519        2450.525          40.000  
G10  20134744.435   105808793.741        1992.244          48.000    20134732.976    82448375.168        1552.336          43.000  
G28  23173728.651   121778780.824        3077.244          37.000    23173721.795    94892499.149        2397.609          43.000  
C23  21055289.971   109640421.580        1334.756          50.000                                                                  
C09  36992479.704   192629553.134         500.840          40.000    36992467.912   148953335.208         387.181          46.000  
C33  24990053.872   130129755.107       -2661.857          35.000                                                                  
C30  24651568.972   128367172.683       -2091.911          40.000                                                                  
C27  25113692.023   130773597.474       -2775.372          33.000                                                                  
C37  24039434.244   125179639.293        3062.416          42.000                                                                  
> 2025 10 27 02 15 37.7960000  0 21                     
G12  21340383.793   112144516.766        1992.525          44.000    21340372.822    87385284.566        1552.546          40.000  
G15  21993674.283   115577523.251       -3035.123          40.000    21993665.467    90060381.816       -2364.934          38.000  
G18  22100483.860   116138810.342       -3646.620          42.000    22100474.879    90497746.509       -2841.548          41.000  
G23  18676949.274    98148030.494        -837.275          47.000    18676937.053    76478924.311        -652.514          50.000  
G24  19705297.057   103552027.913       -2754.358          40.000    19705286.295    80689839.123       -2146.405          37.000  
G32  21538590.579   113186066.324        1681.908          44.000    21538580.893    88196894.471        1310.757          41.000  
C08  34636951.520   180363690.013         -53.766          45.000    34636934.080   139468576.709         -41.449          50.000  
C13  34746857.845   180936006.511         188.837          46.000    34746848.746   139911158.430         145.935          47.000  
C16  35721575.286   186011616.103         239.852          48.000    35721564.565   143835937.334         185.369          47.000  
C25  21400688.918   111438995.997       -1676.259          44.000                                                                  
C32  21495018.830   111930201.474        1284.575          46.000                                                                  
C06  35487200.305   184791163.335         418.863          43.000    35487183.734   142892187.188         324.245          45.000  
G25  21652495.125   113784647.702        3144.610          40.000    21652488.719    88663338.500        2450.467          40.000  
G10  20134729.256   105808714.046        1992.319          48.000    20134717.804    82448313.068        1552.423          43.000  
G28  23173705.249   121778657.746        3077.023          37.000    23173698.388    94892403.239        2397.693          43.000  
C23  21055279.714   109640368.184        1334.840          50.000                                                                  
C09  36992475.852   192629533.091         500.990          40.000    36992464.071   148953319.706         387.455          46.000  
C33  24990074.318   130129861.581       -2661.843          35.000                                                                  
C30  24651585.040   128367256.348       -2091.821          41.000                                                                  
C27  25113713.368   130773708.539       -2776.375          33.000                                                                  
C37  24039410.756   125179516.799        3062.399          42.000                                                                  
> 2025 10 27 02 15 37.8360000  0 21                     
G12  21340368.617   112144437.063        1992.568          44.000    21340357.656    87385222.460        1552.594          40.000  
G15  21993697.390   115577644.660       -3035.181          40.000    21993688.589    90060476.420       -2365.034          38.000  
G18  22100511.626   116138956.208       -3646.645          42.000    22100502.632    90497860.175       -2841.641          41.000  
G23  18676955.653    98148063.996        -837.501          47.000    18676943.451    76478950.417        -652.663          50.000  
G24  19705318.022   103552138.099       -2754.522          40.000    19705307.250    80689924.984       -2146.515          37.000  
G32  21538577.742   113185999.046        1681.936          44.000    21538568.093    88196842.066        1310.259          41.000  
C08  34636951.938   180363692.162         -53.766          45.000    34636934.493   139468578.373         -41.565          50.000  
C13  34746856.379   180935998.956         188.824          46.000    34746847.289   139911152.592         145.905          47.000  
C16  35721573.448   186011606.505         239.921          48.000    35721562.694   143835929.916         185.382          47.000  
C25  21400701.777   111439063.050       -1676.371          44.000                                                                  
C32  21495008.952   111930150.095        1284.466          46.000                                                                  
C06  35487197.111   184791146.565         419.056          43.000    35487180.545   142892174.230         324.048          45.000  
G25  21652471.211   113784521.910        3144.668          40.000    21652464.803    88663240.490        2450.286          40.000  
G10  20134714.111   105808634.357        1992.257          48.000    20134702.627    82448250.988        1552.090          43.000  
G28  23173681.827   121778534.680        3076.741          37.000    23173674.976    94892307.330        2397.703          43.000  
C23  21055269.432   109640314.800        1334.672          50.000                                                                  
C09  36992472.002   192629513.060         500.814          40.000    36992460.232   148953304.209         387.465          46.000  
C33  24990094.747   130129968.024       -2661.365          35.000                                                                  
C30  24651601.098   128367340.011       -2091.707          41.000                                                                  
C27  25113734.703   130773819.607       -2776.859          33.000                                                                  
C37  24039387.253   125179394.310        3062.255          42.000                                                                  
> 2025 10 27 02 15 37.8760000  0 21                     
G12  21340353.448   112144357.363        1992.509          44.000    21340342.479    87385160.346        1552.823          40.000  
G15  21993720.485   115577766.074       -3035.350          40.000    21993711.676    90060571.047       -2365.500          38.000  
G18  22100539.396   116139102.092       -3647.031          42.000    22100530.389    90497973.836       -2841.629          41.000  
G23  18676962.008    98148097.489        -837.424          47.000    18676949.823    76478976.520        -652.680          50.000  
G24  19705338.977   103552248.292       -2754.810          40.000    19705328.220    80690010.844       -2146.545          37.000  
G32  21538564.940   113185931.769        1681.940          44.000    21538555.293    88196789.649        1310.246          41.000  
C08  34636952.336   180363694.310         -53.735          45.000    34636934.887   139468580.035         -41.589          50.000  
C13  34746854.917   180935991.413         188.599          46.000    34746845.848   139911146.754         145.905          47.000  
C16  35721571.559   186011596.926         239.615          48.000    35721560.842   143835922.502         185.330          47.000  
C25  21400714.678   111439130.093       -1676.209          44.000                                                                  
C32  21494999.090   111930098.713        1284.487          46.000                                                                  
C06  35487193.934   184791129.794         419.221          43.000    35487177.324   142892161.274         323.882          45.000  
G25  21652447.272   113784396.119        3144.778          40.000    21652440.864    88663142.470        2450.389          40.000  
G10  20134698.965   105808554.679        1992.034          48.000    20134687.457    82448188.887        1552.282          43.000  
G28  23173658.390   121778411.602        3076.782          37.000    23173651.591    94892211.429        2397.563          43.000  
C23  21055259.160   109640261.416        1334.578          50.000                                                                  
C09  36992468.165   192629493.033         500.640          40.000    36992456.369   148953288.715         387.395          46.000  
C33  24990115.177   130130074.488       -2661.524          35.000                                                                  
C30  24651617.185   128367423.674       -2091.658          41.000                                                                  
C27  25113756.003   130773930.631       -2776.173          33.000                                                                  
C37  24039363.740   125179271.838        3061.900          42.000                                                                  
> 2025 10 27 02 15 37.9160000  0 21                     
G12  21340338.295   112144277.665        1992.451          44.000    21340327.308    87385098.249        1552.583          40.000  
G15  21993743.588   115577887.493       -3035.492          40.000    21993734.800    90060665.646       -2365.198          38.000  
G18  22100567.147   116139247.954       -3646.798          42.000    22100558.147    90498087.487       -2841.423          41.000  
G23  18676968.361    98148130.980        -837.335          47.000    18676956.208    76479002.621        -652.602          50.000  
G24  19705359.936   103552358.489       -2754.987          40.000    19705349.179    80690096.686       -2146.222          37.000  
G32  21538552.158   113185864.499        1681.786          44.000    21538542.498    88196737.250        1309.939          41.000  
C08  34636952.705   180363696.461         -53.778          45.000    34636935.292   139468581.703         -41.687          50.000  
C13  34746853.445   180935983.867         188.568          46.000    34746844.390   139911140.917         145.917          47.000  
C16  35721569.710   186011587.338         239.626          48.000    35721558.982   143835915.079         185.461          47.000  
C25  21400727.547   111439197.151       -1676.387          44.000                                                                  
C32  21494989.206   111930047.330        1284.545          46.000                                                                  
C06  35487190.748   184791113.036         419.020          43.000    35487174.095   142892148.306         324.037          45.000  
G25  21652423.311   113784270.326        3144.807          40.000    21652416.920    88663044.443        2450.583          40.000  
G10  20134683.800   105808474.996        1992.008          48.000    20134672.302    82448126.800        1552.184          43.000  
G28  23173634.947   121778288.522        3076.908          37.000    23173628.165    94892115.518        2397.666          43.000  
C23  21055248.899   109640208.030        1334.562          50.000                                                                  
C09  36992464.305   192629472.998         500.723          40.000    36992452.546   148953273.225         387.296          46.000  
C33  24990135.622   130130180.956       -2661.661          35.000                                                                  
C30  24651633.243   128367507.342       -2091.669          40.000                                                                  
C27  25113777.334   130774041.702       -2776.677          33.000                                                                  
C37  24039340.213   125179149.365        3061.767          42.000                                                                  
> 2025 10 27 02 15 37.9560000  0 21                     
G12  21340323.136   112144197.971        1992.365          44.000    21340312.132    87385036.150        1552.451          40.000  
G15  21993766.693   115578008.902       -3035.328          40.000    21993757.895    90060760.253       -2365.154          38.000  
G18  22100594.888   116139393.811       -3646.574          42.000    22100585.914    90498201.147       -2841.481          41.000  
G23  18676974.754    98148164.480        -837.455          47.000    18676962.563    76479028.717        -652.464          50.000  
G24  19705380.903   103552468.661       -2754.529          40.000    19705370.152    80690182.549       -2146.436          37.000  
G32  21538539.345   113185797.220        1681.858          44.000    21538529.684    88196684.809        1310.606          41.000  
C08  34636953.121   180363698.608         -53.705          45.000    34636935.683   139468583.355         -41.431          50.000  
C13  34746852.000   180935976.315         188.672          46.000    34746842.935   139911135.071         146.057          47.000  
C16  35721567.871   186011577.739         239.842          48.000    35721557.117   143835907.657         185.517          47.000  
C25  21400740.407   111439264.196       -1676.239          44.000                                                                  
C32  21494979.339   111929995.938        1284.716          46.000                                                                  
C06  35487187.530   184791096.265         419.173          43.000    35487170.859   142892135.335         324.165          45.000  
G25  21652399.368   113784144.535        3144.793          40.000    21652393.004    88662946.428        2450.462          40.000  
G10  20134668.618   105808395.302        1992.218          48.000    20134657.166    82448064.703        1552.335          43.000  
G28  23173611.523   121778165.440        3077.057          37.000    23173604.747    94892019.615        2397.614          42.000  
C23  21055238.682   109640154.640        1334.673          50.000                                                                  
C09  36992460.451   192629452.962         500.779          40.000    36992448.704   148953257.736         387.216          46.000  
C33  24990156.081   130130287.438       -2661.984          35.000                                                                  
C30  24651649.338   128367591.010       -2091.702          41.000                                                                  
C27  25113798.634   130774152.720       -2776.042          33.000                                                                  
C37  24039316.659   125179026.864        3062.235          42.000                                                                  
> 2025 10 27 02 15 37.9960000  0 21                     
G12  21340307.980   112144118.274        1992.373          44.000    21340296.967    87384974.043        1552.568          40.000  
G15  21993789.805   115578130.308       -3035.178          40.000    21993781.003    90060854.844       -2364.856          38.000  
G18  22100622.648   116139539.669       -3646.482          42.000    22100613.680    90498314.815       -2841.674          41.000  
G23  18676981.126    98148197.976        -837.467          47.000    18676968.959    76479054.820        -652.541          49.000  
G24  19705401.867   103552578.845       -2754.590          40.000    19705391.131    80690268.414       -2146.619          37.000  
G32  21538526.553   113185729.951        1681.757          44.000    21538516.889    88196632.376        1310.790          41.000  
C08  34636953.506   180363700.752         -53.619          45.000    34636936.061   139468585.015         -41.461          50.000  
C13  34746850.568   180935968.761         188.763          46.000    34746841.490   139911129.226         146.118          47.000  
C16  35721566.052   186011568.146         239.839          48.000    35721555.261   143835900.237         185.496          47.000  
C25  21400753.282   111439331.245       -1676.260          44.000                                                                  
C32  21494969.458   111929944.558        1284.579          46.000                                                                  
C06  35487184.293   184791079.490         419.315          43.000    35487167.609   142892122.364         324.215          45.000  
G25  21652375.433   113784018.746        3144.762          40.000    21652369.077    88662848.427        2450.156          40.000  
G10  20134653.422   105808315.611        1992.266          48.000    20134641.998    82448002.607        1552.405          43.000  
G28  23173588.109   121778042.336        3077.421          37.000    23173581.330    94891923.696        2397.844          42.000  
C23  21055228.452   109640101.250        1334.737          50.000                                                                  
C09  36992456.610   192629432.914         501.116          40.000    36992444.860   148953242.242         387.298          46.000  
C33  24990176.518   130130393.907       -2661.950          35.000                                                                  
C30  24651665.405   128367674.668       -2091.551          41.000                                                                  
C27  25113819.949   130774263.719       -2775.197          33.000                                                                  
C37  24039293.151   125178904.370        3062.364          42.000                                                                  
> 2025 10 27 02 15 38.0360000  0 21                     
G12  21340292.812   112144038.586        1992.195          44.000    21340281.817    87384911.945        1552.452          40.000  
G15  21993812.924   115578251.719       -3035.198          40.000    21993804.105    90060949.455       -2365.095          38.000  
G18  22100650.430   116139685.536       -3646.595          42.000    22100641.436    90498428.476       -2841.629          41.000  
G23  18676987.521    98148231.478        -837.567          47.000    18676975.340    76479080.918        -652.478          49.000  
G24  19705422.848   103552689.031       -2754.669          40.000    19705412.090    80690354.276       -2146.600          37.000  
G32  21538513.761   113185662.672        1681.885          44.000    21538504.097    88196579.953        1310.702          41.000  
C08  34636953.923   180363702.906         -53.790          45.000    34636936.449   139468586.680         -41.577          50.000  
C13  34746849.118   180935961.209         188.770          46.000    34746840.054   139911123.391         145.917          47.000  
C16  35721564.224   186011558.559         239.707          48.000    35721553.390   143835892.827         185.288          47.000  
C25  21400766.147   111439398.299       -1676.316          44.000                                                                  
C32  21494959.566   111929893.179        1284.498          46.000                                                                  
C06  35487181.043   184791062.725         419.212          43.000    35487164.380   142892109.410         323.965          45.000  
G25  21652351.496   113783892.957        3144.731          40.000    21652345.138    88662750.406        2450.399          40.000  
G10  20134638.284   105808235.929        1992.102          48.000    20134626.849    82447940.513        1552.339          43.000  
G28  23173564.686   121777919.255        3077.218          37.000    23173557.899    94891827.791        2397.763          42.000  
C23  21055218.205   109640047.865        1334.651          50.000                                                                  
C09  36992452.741   192629412.881         500.971          40.000    36992441.015   148953226.752         387.261          46.000  
C33  24990196.975   130130500.368       -2661.757          35.000                                                                  
C30  24651681.466   128367758.345       -2091.875          41.000                                                                  
C27  25113841.262   130774374.755       -2775.559          33.000                                                                  
C37  24039269.661   125178781.862        3062.654          42.000                                                                  
> 2025 10 27 02 15 38.0760000  0 21                     
G12  21340277.639   112143958.891        1992.281          44.000    21340266.675    87384849.859        1552.195          40.000  
G15  21993836.026   115578373.125       -3035.162          40.000    21993827.217    90061044.064       -2365.233          38.000  
G18  22100678.195   116139831.423       -3647.075          42.000    22100669.201    90498542.160       -2841.976          41.000  
G23  18676993.921    98148264.987        -837.734          47.000    18676981.736    76479107.024        -652.624          49.000  
G24  19705443.833   103552799.226       -2754.877          40.000    19705433.040    80690440.127       -2146.411          37.000  
G32  21538500.969   113185595.403        1681.763          44.000    21538491.302    88196527.536        1310.490          41.000  
C08  34636954.316   180363705.061         -53.906          45.000    34636936.835   139468588.351         -41.754          50.000  
C13  34746847.656   180935953.663         188.666          46.000    34746838.587   139911117.560         145.770          47.000  
C16  35721562.407   186011548.977         239.561          48.000    35721551.550   143835885.428         185.009          47.000  
C25  21400779.020   111439465.353       -1676.353          44.000                                                                  
C32  21494949.701   111929841.806        1284.347          46.000                                                                  
C06  35487177.848   184791045.972         418.932          43.000    35487161.196   142892096.447         323.977          45.000  
G25  21652327.556   113783767.172        3144.617          40.000    21652321.186    88662652.387        2450.473          40.000  
G10  20134623.134   105808156.252        1991.926          48.000    20134611.692    82447878.422        1552.260          43.000  
G28  23173541.249   121777796.196        3076.653          37.000    23173534.505    94891731.886        2397.633          42.000  
C23  21055207.916   109639994.489        1334.421          50.000                                                                  
C09  36992448.890   192629392.864         500.547          40.000    36992437.152   148953211.261         387.248          46.000  
C33  24990217.415   130130606.840       -2661.877          35.000                                                                  
C30  24651697.542   128367842.033       -2092.230          41.000                                                                  
C27  25113862.597   130774485.791       -2775.810          33.000                                                                  
C37  24039246.149   125178659.388        3062.199          42.000                                                                  
> 2025 10 27 02 15 38.1160000  0 21                     
G12  21340262.481   112143879.201        1992.251          44.000    21340251.506    87384787.758        1552.360          40.000  
G15  21993859.145   115578494.535       -3035.231          40.000    21993850.322    90061138.673       -2365.268          38.000  
G18  22100705.942   116139977.294       -3646.946          42.000    22100696.957    90498655.818       -2841.694          41.000  
G23  18677000.275    98148298.490        -837.662          47.000    18676988.130    76479133.136        -652.792          49.000  
G24  19705464.806   103552909.430       -2755.200          40.000    19705454.012    80690525.991       -2146.582          37.000  
G32  21538488.146   113185528.130        1681.771          44.000    21538478.492    88196475.111        1310.583          41.000  
C08  34636954.717   180363707.221         -54.065          45.000    34636937.230   139468590.012         -41.644          50.000  
C13  34746846.226   180935946.115         188.654          46.000    34746837.140   139911111.729         145.709          47.000  
C16  35721560.571   186011539.391         239.578          48.000    35721549.705   143835878.011         185.198          47.000  
C25  21400791.906   111439532.411       -1676.454          44.000                                                                  
C32  21494939.855   111929790.433        1284.274          46.000                                                                  
C06  35487174.636   184791029.218         418.787          43.000    35487158.009   142892083.493         323.848          45.000  
G25  21652303.617   113783641.399        3144.348          40.000    21652297.256    88662554.366        2450.573          40.000  
G10  20134607.974   105808076.579        1991.776          48.000    20134596.519    82447816.337        1552.139          43.000  
G28  23173517.817   121777673.128        3076.500          37.000    23173511.085    94891635.988        2397.465          42.000  
C23  21055197.655   109639941.116        1334.292          50.000                                                                  
C09  36992445.037   192629372.822         500.855          40.000    36992433.319   148953195.774         387.199          46.000  
C33  24990237.859   130130713.335       -2662.349          35.000                                                                  
C30  24651713.641   128367925.708       -2092.124          41.000                                                                  
C27  25113883.920   130774596.833       -2775.994          33.000                                                                  
C37  24039222.610   125178536.922        3061.774          42.000                                                                  
> 2025 10 27 02 15 38.1560000  0 21                     
G12  21340247.315   112143799.510        1992.251          44.000    21340236.352    87384725.661        1552.352          40.000  
G15  21993882.270   115578615.962       -3035.573          40.000    21993873.425    90061233.283       -2365.318          38.000  
G18  22100733.716   116140123.157       -3646.696          42.000    22100724.698    90498769.479       -2841.607          41.000  
G23  18677006.642    98148331.995        -837.662          47.000    18676994.495    76479159.249        -652.870          49.000  
G24  19705485.769   103553019.615       -2754.871          40.000    19705474.966    80690611.839       -2146.313          37.000  
G32  21538475.358   113185460.858        1681.765          44.000    21538465.690    88196422.700        1310.341          41.000  
C08  34636955.117   180363709.373         -53.925          45.000    34636937.624   139468591.675         -41.608          50.000  
C13  34746844.765   180935938.571         188.580          46.000    34746835.688   139911105.890         145.856          47.000  
C16  35721558.769   186011529.805         239.587          48.000    35721547.895   143835870.598         185.251          47.000  
C25  21400804.789   111439599.467       -1676.465          44.000                                                                  
C32  21494929.988   111929739.057        1284.296          46.000                                                                  
C06  35487171.404   184791012.457         418.894          43.000    35487154.805   142892070.529         323.977          45.000  
G25  21652279.660   113783515.610        3144.554          40.000    21652273.317    88662456.358        2450.357          40.000  
G10  20134592.806   105807996.900        1991.852          48.000    20134581.345    82447754.253        1552.073          43.000  
G28  23173494.406   121777550.047        3076.810          37.000    23173487.681    94891540.092        2397.389          42.000  
C23  21055187.416   109639887.734        1334.413          50.000                                                                  
C09  36992441.181   192629352.802         500.562          40.000    36992429.461   148953180.289         387.112          46.000  
C33  24990258.319   130130819.787       -2661.690          35.000                                                                  
C30  24651729.683   128368009.373       -2091.825          41.000                                                                  
C27  25113905.249   130774707.876       -2776.238          33.000                                                                  
C37  24039199.102   125178414.440        3061.846          42.000                                                                  
> 2025 10 27 02 15 38.1960000  0 21                     
G12  21340232.156   112143719.820        1992.227          44.000    21340221.164    87384663.561        1552.429          40.000  
G15  21993905.386   115578737.387       -3035.688          40.000    21993896.522    90061327.894       -2365.399          38.000  
G18  22100761.475   116140269.031       -3646.733          42.000    22100752.461    90498883.147       -2841.670          41.000  
G23  18677013.018    98148365.498        -837.636          47.000    18677000.862    76479185.357        -652.805          49.000  
G24  19705506.729   103553129.791       -2754.522          40.000    19705495.962    80690697.719       -2146.661          37.000  
G32  21538462.568   113185393.588        1681.729          44.000    21538452.890    88196370.268        1310.604          41.000  
C08  34636955.537   180363711.516         -53.650          45.000    34636937.995   139468593.339         -41.602          50.000  
C13  34746843.341   180935931.018         188.733          46.000    34746834.200   139911100.044         146.069          47.000  
C16  35721556.910   186011520.216         239.639          48.000    35721546.085   143835863.183         185.336          47.000  
C25  21400817.665   111439666.531       -1676.609          44.000                                                                  
C32  21494920.108   111929687.680        1284.341          46.000                                                                  
C06  35487168.211   184790995.679         419.276          43.000    35487151.575   142892057.563         324.095          45.000  
G25  21652255.722   113783389.823        3144.603          40.000    21652249.403    88662358.350        2450.188          40.000  
G10  20134577.651   105807917.217        1991.946          48.000    20134566.183    82447692.154        1552.327          43.000  
G28  23173470.987   121777426.992        3076.486          37.000    23173464.257    94891444.190        2397.440          42.000  
C23  21055177.174   109639834.351        1334.497          50.000                                                                  
C09  36992437.360   192629332.770         500.695          40.000    36992425.621   148953164.802         387.100          46.000  
C33  24990278.747   130130926.235       -2661.269          35.000                                                                  
C30  24651745.772   128368093.028       -2091.469          41.000                                                                  
C27  25113926.592   130774818.874       -2775.324          33.000                                                                  
C37  24039175.600   125178291.950        3062.094          42.000                                                                  
> 2025 10 27 02 15 38.2360000  0 21                     
G12  21340217.006   112143640.128        1992.266          44.000    21340206.008    87384601.480        1552.129          40.000  
G15  21993928.500   115578858.802       -3035.530          40.000    21993919.622    90061422.506       -2365.404          38.000  
G18  22100789.215   116140414.894       -3646.585          42.000    22100780.230    90498996.813       -2841.644          41.000  
G23  18677019.389    98148399.007        -837.724          47.000    18677007.232    76479211.462        -652.717          49.000  
G24  19705527.682   103553239.989       -2754.773          40.000    19705516.922    80690783.589       -2146.765          37.000  
G32  21538449.777   113185326.325        1681.583          44.000    21538440.085    88196317.858        1310.354          41.000  
C08  34636955.937   180363713.669         -53.735          45.000    34636938.401   139468595.003         -41.632          50.000  
C13  34746841.870   180935923.473         188.660          46.000    34746832.741   139911094.208         145.972          47.000  
C16  35721555.053   186011510.631         239.606          48.000    35721544.228   143835855.769         185.325          47.000  
C25  21400830.553   111439733.587       -1676.544          44.000                                                                  
C32  21494910.260   111929636.292        1284.570          46.000                                                                  
C06  35487164.989   184790978.916         419.173          43.000    35487148.318   142892044.600         324.092          45.000  
G25  21652231.804   113783264.043        3144.521          40.000    21652225.462    88662260.342        2450.114          40.000  
G10  20134562.457   105807837.532        1992.064          48.000    20134551.016    82447630.064        1552.311          43.000  
G28  23173447.570   121777303.901        3076.964          37.000    23173440.821    94891348.287        2397.493          42.000  
C23  21055166.893   109639780.971        1334.501          50.000                                                                  
C09  36992433.516   192629312.732         500.862          40.000    36992421.760   148953149.311         387.163          46.000  
C33  24990299.168   130131032.711       -2661.590          35.000                                                                  
C30  24651761.812   128368176.694       -2091.498          41.000                                                                  
C27  25113947.890   130774929.912       -2775.691          33.000                                                                  
C37  24039152.093   125178169.465        3062.144          42.000                                                                  
> 2025 10 27 02 15 38.2760000  0 21                     
G12  21340201.874   112143560.443        1992.170          44.000    21340190.837    87384539.375        1552.426          40.000  
G15  21993951.599   115578980.217       -3035.385          40.000    21993942.718    90061517.129       -2365.608          38.000  
G18  22100816.962   116140560.772       -3646.817          42.000    22100807.979    90499110.465       -2841.377          41.000  
G23  18677025.748    98148432.515        -837.755          47.000    18677013.604    76479237.577        -652.830          49.000  
G24  19705548.657   103553350.181       -2754.871          40.000    19705537.882    80690869.449       -2146.600          37.000  
G32  21538436.971   113185259.041        1681.922          44.000    21538427.301    88196265.452        1310.128          41.000  
C08  34636956.354   180363715.824         -53.821          45.000    34636938.801   139468596.673         -41.754          50.000  
C13  34746840.395   180935915.931         188.544          46.000    34746831.313   139911088.379         145.776          47.000  
C16  35721553.190   186011501.038         239.722          48.000    35721542.389   143835848.356         185.305          47.000  
C25  21400843.427   111439800.636       -1676.373          44.000                                                                  
C32  21494900.349   111929584.924        1284.338          46.000                                                                  
C06  35487161.752   184790962.168         418.860          43.000    35487145.110   142892031.645         323.932          45.000  
G25  21652207.873   113783138.258        3144.546          40.000    21652201.534    88662162.321        2450.355          40.000  
G10  20134547.306   105807757.848        1992.079          48.000    20134535.871    82447567.976        1552.250          43.000  
G28  23173424.146   121777180.810        3077.238          37.000    23173417.405    94891252.384        2397.476          42.000  
C23  21055156.629   109639727.591        1334.475          50.000                                                                  
C09  36992429.659   192629292.699         500.817          40.000    36992417.913   148953133.817         387.275          46.000  
C33  24990319.623   130131139.201       -2662.063          34.000                                                                  
C30  24651777.855   128368260.370       -2091.752          41.000                                                                  
C27  25113969.210   130775040.971       -2776.218          33.000                                                                  
C37  24039128.572   125178046.970        3062.313          42.000                                                                  
> 2025 10 27 02 15 38.3160000  0 21                     
G12  21340186.716   112143480.770        1991.873          44.000    21340175.673    87384477.289        1552.254          40.000  
G15  21993974.683   115579101.634       -3035.400          40.000    21993965.826    90061611.732       -2365.300          38.000  
G18  22100844.697   116140706.653       -3646.971          42.000    22100835.738    90499224.135       -2841.578          41.000  
G23  18677032.122    98148466.028        -837.861          47.000    18677019.967    76479263.689        -652.867          49.000  
G24  19705569.596   103553460.374       -2754.877          40.000    19705558.853    80690955.310       -2146.509          37.000  
G32  21538424.166   113185191.781        1681.686          44.000    21538414.501    88196213.031        1310.291          41.000  
C08  34636956.745   180363717.988         -54.077          45.000    34636939.195   139468598.343         -41.772          50.000  
C13  34746838.939   180935908.387         188.544          46.000    34746829.858   139911082.552         145.642          47.000  
C16  35721551.335   186011491.458         239.553          48.000    35721540.544   143835840.946         185.232          47.000  
C25  21400856.315   111439867.705       -1676.641          44.000                                                                  
C32  21494890.474   111929533.548        1284.353          46.000                                                                  
C06  35487158.532   184790945.416         418.735          43.000    35487141.900   142892018.690         323.823          45.000  
G25  21652183.933   113783012.477        3144.503          40.000    21652177.611    88662064.318        2450.120          40.000  
G10  20134532.146   105807678.184        1991.733          48.000    20134520.697    82447505.902        1551.973          43.000  
G28  23173400.734   121777057.746        3076.840          37.000    23173393.998    94891156.487        2397.371          42.000  
C23  21055146.358   109639674.217        1334.373          50.000                                                                  
C09  36992425.789   192629272.671         500.685          40.000    36992414.057   148953118.333         387.099          46.000  
C33  24990340.036   130131245.682       -2662.198          34.000                                                                  
C30  24651793.943   128368344.047       -2091.837          41.000                                                                  
C27  25113990.529   130775152.002       -2775.946          33.000                                                                  
C37  24039105.076   125177924.508        3061.791          42.000                                                                  
> 2025 10 27 02 15 38.3560000  0 21                     
G12  21340171.530   112143401.083        1991.993          44.000    21340160.497    87384415.198        1552.209          40.000  
G15  21993997.782   115579223.065       -3035.649          40.000    21993988.913    90061706.337       -2365.165          38.000  
G18  22100872.476   116140852.529       -3646.963          42.000    22100863.503    90499337.806       -2841.734          41.000  
G23  18677038.506    98148499.539        -837.840          47.000    18677026.335    76479289.802        -652.865          49.000  
G24  19705590.563   103553570.570       -2754.987          40.000    19705579.814    80691041.176       -2146.625          37.000  
G32  21538411.370   113185124.502        1681.864          44.000    21538401.701    88196160.614        1310.369          41.000  
C08  34636957.136   180363720.146         -54.083          45.000    34636939.600   139468600.009         -41.724          50.000  
C13  34746837.501   180935900.842         188.562          46.000    34746828.429   139911076.717         145.746          47.000  
C16  35721549.508   186011481.875         239.524          48.000    35721538.704   143835833.537         185.190          47.000  
C25  21400869.202   111439934.765       -1676.605          44.000                                                                  
C32  21494880.623   111929482.179        1284.227          46.000                                                                  
C06  35487155.343   184790928.659         418.821          43.000    35487138.694   142892005.732         323.848          45.000  
G25  21652159.982   113782886.694        3144.562          40.000    21652153.682    88661966.303        2450.236          40.000  
G10  20134516.986   105807598.505        1991.830          48.000    20134505.522    82447443.816        1552.019          43.000  
G28  23173377.300   121776934.668        3076.814          37.000    23173370.565    94891060.583        2397.482          42.000  
C23  21055136.106   109639620.845        1334.286          50.000                                                                  
C09  36992421.954   192629252.639         500.756          40.000    36992410.236   148953102.848         387.095          46.000  
C33  24990360.459   130131352.145       -2661.910          34.000                                                                  
C30  24651809.991   128368427.734       -2092.125          41.000                                                                  
C27  25114011.843   130775263.071       -2776.493          33.000                                                                  
C37  24039081.571   125177802.025        3061.920          42.000                                                                  
> 2025 10 27 02 15 38.3960000  0 21                     
G12  21340156.366   112143321.395        1992.102          44.000    21340145.329    87384353.101        1552.324          40.000  
G15  21994020.890   115579344.478       -3035.416          40.000    21994012.029    90061800.938       -2364.959          38.000  
G18  22100900.243   116140998.394       -3646.782          42.000    22100891.259    90499451.470       -2841.682          41.000  
G23  18677044.869    98148533.047        -837.770          47.000    18677032.705    76479315.911        -652.803          49.000  
G24  19705611.555   103553680.775       -2755.139          40.000    19705600.764    80691127.031       -2146.442          37.000  
G32  21538398.581   113185057.233        1681.812          44.000    21538388.899    88196108.188        1310.519          41.000  
C08  34636957.548   180363722.298         -53.931          45.000    34636940.033   139468601.674         -41.656          50.000  
C13  34746836.071   180935893.290         188.727          46.000    34746826.969   139911070.876         145.959          47.000  
C16  35721547.695   186011472.288         239.611          48.000    35721536.840   143835826.120         185.335          47.000  
C25  21400882.083   111440001.836       -1676.788          44.000                                                                  
C32  21494870.760   111929430.802        1284.331          46.000                                                                  
C06  35487152.121   184790911.887         419.108          43.000    35487135.490   142891992.777         323.831          45.000  
G25  21652136.044   113782760.909        3144.618          40.000    21652129.736    88661868.287        2450.324          40.000  
G10  20134501.824   105807518.828        1991.871          48.000    20134490.324    82447381.735        1551.969          43.000  
G28  23173353.883   121776811.593        3076.821          37.000    23173347.138    94890964.680        2397.534          42.000  
C23  21055125.858   109639567.472        1334.276          50.000                                                                  
C09  36992418.126   192629232.610         500.738          40.000    36992406.417   148953087.355         387.264          46.000  
C33  24990380.900   130131458.611       -2661.698          35.000                                                                  
C30  24651826.060   128368511.412       -2092.078          41.000                                                                  
C27  25114033.154   130775374.105       -2776.154          33.000                                                                  
C37  24039058.056   125177679.536        3062.153          42.000                                                                  
> 2025 10 27 02 15 38.4360000  0 21                     
G12  21340141.193   112143241.701        1992.244          44.000    21340130.166    87384291.007        1552.343          40.000  
G15  21994043.990   115579465.884       -3035.219          40.000    21994035.141    90061895.541       -2365.001          38.000  
G18  22100928.015   116141144.264       -3646.778          42.000    22100919.022    90499565.128       -2841.521          41.000  
G23  18677051.273    98148566.560        -837.827          47.000    18677039.078    76479342.020        -652.765          49.000  
G24  19705632.520   103553790.957       -2754.706          40.000    19705621.719    80691212.904       -2146.747          37.000  
G32  21538385.777   113184989.961        1681.777          44.000    21538376.085    88196055.760        1310.689          41.000  
C08  34636957.948   180363724.445         -53.723          45.000    34636940.458   139468603.335         -41.571          50.000  
C13  34746834.599   180935885.737         188.818          46.000    34746825.519   139911065.041         145.923          47.000  
C16  35721545.898   186011462.695         239.750          48.000    35721534.989   143835818.698         185.516          47.000  
C25  21400894.963   111440068.895       -1676.646          44.000                                                                  
C32  21494860.913   111929379.421        1284.470          46.000                                                                  
C06  35487148.877   184790895.113         419.331          43.000    35487132.262   142891979.802         324.192          45.000  
G25  21652112.110   113782635.124        3144.649          40.000    21652105.800    88661770.278        2450.248          40.000  
G10  20134486.666   105807439.149        1991.946          48.000    20134475.158    82447319.638        1552.242          43.000  
G28  23173330.438   121776688.522        3076.750          37.000    23173323.716    94890868.777        2397.594          42.000  
C23  21055115.616   109639514.093        1334.387          50.000                                                                  
C09  36992414.280   192629212.584         500.638          40.000    36992402.595   148953071.865         387.288          46.000  
C33  24990401.343   130131565.080       -2661.661          34.000                                                                  
C30  24651842.153   128368595.087       -2092.007          41.000                                                                  
C27  25114054.468   130775485.101       -2775.253          33.000                                                                  
C37  24039034.531   125177557.049        3062.160          42.000                                                                  
> 2025 10 27 02 15 38.4760000  0 21                     
G12  21340126.045   112143162.017        1992.128          44.000    21340115.002    87384228.918        1552.221          40.000  
G15  21994067.097   115579587.295       -3035.291          40.000    21994058.225    90061990.167       -2365.545          38.000  
G18  22100955.769   116141290.129       -3646.691          42.000    22100946.789    90499678.808       -2841.908          41.000  
G23  18677057.654    98148600.074        -837.877          47.000    18677045.455    76479368.134        -652.822          49.000  
G24  19705653.469   103553901.136       -2754.486          40.000    19705642.690    80691298.782       -2147.003          37.000  
G32  21538372.984   113184922.707        1681.402          44.000    21538363.296    88196003.350        1310.366          41.000  
C08  34636958.348   180363726.595         -53.699          45.000    34636940.837   139468604.998         -41.583          50.000  
C13  34746833.147   180935878.192         188.690          46.000    34746824.066   139911059.205         145.886          47.000  
C16  35721544.064   186011453.105         239.754          48.000    35721533.123   143835811.286         185.399          47.000  
C25  21400907.842   111440135.947       -1676.404          44.000                                                                  
C32  21494851.066   111929328.045        1284.423          46.000                                                                  
C06  35487145.637   184790878.358         419.047          43.000    35487129.054   142891966.842         324.119          45.000  
G25  21652088.192   113782509.348        3144.491          40.000    21652081.849    88661672.254        2450.468          40.000  
G10  20134471.490   105807359.472        1991.937          48.000    20134460.006    82447257.564        1552.009          43.000  
G28  23173307.007   121776565.448        3076.794          37.000    23173300.283    94890772.864        2397.732          42.000  
C23  21055105.364   109639460.722        1334.322          50.000                                                                  
C09  36992410.449   192629192.565         500.490          40.000    36992398.734   148953056.368         387.386          46.000  
C33  24990421.771   130131671.543       -2661.576          35.000                                                                  
C30  24651858.249   128368678.750       -2091.725          41.000                                                                  
C27  25114075.781   130775596.151       -2775.884          33.000                                                                  
C37  24039010.986   125177434.572        3061.959          42.000                                                                  
> 2025 10 27 02 15 38.5160000  0 21                     
G12  21340110.882   112143082.328        1992.161          44.000    21340099.839    87384166.823        1552.306          40.000  
G15  21994090.190   115579708.716       -3035.428          40.000    21994081.347    90062084.794       -2365.815          38.000  
G18  22100983.520   116141436.011       -3646.985          42.000    22100974.531    90499792.476       -2841.850          41.000  
G23  18677064.024    98148633.582        -837.794          47.000    18677051.851    76479394.245        -652.828          50.000  
G24  19705674.478   103554011.353       -2755.090          40.000    19705663.666    80691384.642       -2146.753          37.000  
G32  21538360.173   113184855.425        1681.771          44.000    21538350.499    88195950.927        1310.464          41.000  
C08  34636958.778   180363728.745         -53.729          45.000    34636941.229   139468606.661         -41.589          50.000  
C13  34746831.689   180935870.641         188.751          46.000    34746822.630   139911053.365         145.972          47.000  
C16  35721542.211   186011443.518         239.700          48.000    35721531.313   143835803.870         185.378          47.000  
C25  21400920.690   111440203.008       -1676.445          44.000                                                                  
C32  21494841.211   111929276.664        1284.493          46.000                                                                  
C06  35487142.421   184790861.597         418.996          43.000    35487125.844   142891953.880         324.083          45.000  
G25  21652064.268   113782383.574        3144.360          40.000    21652057.907    88661574.233        2450.515          40.000  
G10  20134456.334   105807279.802        1991.791          48.000    20134444.839    82447195.478        1552.057          43.000  
G28  23173283.572   121776442.364        3076.993          37.000    23173276.870    94890676.963        2397.572          42.000  
C23  21055095.109   109639407.346        1334.348          50.000                                                                  
C09  36992406.608   192629172.536         500.647          40.000    36992394.896   148953040.887         387.129          46.000  
C33  24990442.208   130131778.036       -2662.145          35.000                                                                  
C30  24651874.310   128368762.419       -2091.663          41.000                                                                  
C27  25114097.085   130775707.156       -2775.487          33.000                                                                  
C37  24038987.476   125177312.093        3061.950          42.000                                                                  
> 2025 10 27 02 15 38.5560000  0 21                     
G12  21340095.733   112143002.645        1992.078          44.000    21340084.680    87384104.738        1552.114          40.000  
G15  21994113.291   115579830.122       -3035.234          40.000    21994104.462    90062179.399       -2365.500          38.000  
G18  22101011.257   116141581.871       -3646.754          42.000    22101002.289    90499906.133       -2841.568          41.000  
G23  18677070.388    98148667.088        -837.713          47.000    18677058.233    76479420.358        -652.834          50.000  
G24  19705695.436   103554121.536       -2754.865          40.000    19705684.661    80691470.508       -2146.667          37.000  
G32  21538347.366   113184788.151        1681.845          44.000    21538337.706    88195898.517        1310.254          41.000  
C08  34636959.182   180363730.904         -53.925          45.000    34636941.650   139468608.328         -41.663          50.000  
C13  34746830.245   180935863.092         188.739          46.000    34746821.162   139911047.526         145.978          47.000  
C16  35721540.349   186011433.934         239.583          48.000    35721529.484   143835796.460         185.290          47.000  
C25  21400933.561   111440270.073       -1676.540          44.000                                                                  
C32  21494831.320   111929225.287        1284.479          46.000                                                                  
C06  35487139.233   184790844.839         418.942          43.000    35487122.623   142891940.921         324.018          45.000  
G25  21652040.342   113782257.777        3144.694          40.000    21652033.985    88661476.234        2450.104          40.000  
G10  20134441.175   105807200.123        1991.871          48.000    20134429.701    82447133.398        1551.984          43.000  
G28  23173260.153   121776319.288        3077.013          37.000    23173253.451    94890581.075        2397.229          42.000  
C23  21055084.862   109639353.967        1334.431          50.000                                                                  
C09  36992402.749   192629152.496         500.914          40.000    36992391.071   148953025.396         387.174          46.000  
C33  24990462.667   130131884.529       -2662.478          35.000                                                                  
C30  24651890.358   128368846.099       -2091.854          41.000                                                                  
C27  25114118.382   130775818.166       -2775.288          33.000                                                                  
C37  24038963.988   125177189.590        3062.354          42.000                                                                  
> 2025 10 27 02 15 38.5960000  0 21                     
G12  21340080.559   112142922.955        1992.148          44.000    21340069.515    87384042.636        1552.319          40.000  
G15  21994136.410   115579951.540       -3035.365          40.000    21994127.569    90062273.992       -2365.052          38.000  
G18  22101038.989   116141727.747       -3646.885          42.000    22101030.044    90500019.782       -2841.291          42.000  
G23  18677076.768    98148700.599        -837.751          47.000    18677064.611    76479446.470        -652.834          50.000  
G24  19705716.392   103554231.739       -2755.029          40.000    19705705.623    80691556.372       -2146.509          37.000  
G32  21538334.563   113184720.865        1682.077          44.000    21538324.896    88195846.097        1310.326          41.000  
C08  34636959.610   180363733.053         -53.839          45.000    34636942.016   139468609.992         -41.650          50.000  
C13  34746828.791   180935855.547         188.647          46.000    34746819.687   139911041.684         146.027          47.000  
C16  35721538.491   186011424.348         239.591          48.000    35721527.675   143835789.047         185.299          47.000  
C25  21400946.477   111440337.135       -1676.565          44.000                                                                  
C32  21494821.467   111929173.907        1284.498          46.000                                                                  
C06  35487136.031   184790828.076         419.004          43.000    35487119.412   142891927.953         324.116          45.000  
G25  21652016.392   113782131.988        3144.754          40.000    21652010.044    88661378.220        2450.157          40.000  
G10  20134426.029   105807120.449        1991.840          48.000    20134414.524    82447071.300        1552.269          43.000  
G28  23173236.741   121776196.213        3076.954          37.000    23173230.031    94890485.164        2397.477          42.000  
C23  21055074.629   109639300.588        1334.481          50.000                                                                  
C09  36992398.919   192629132.449         501.193          40.000    36992387.228   148953009.906         387.193          46.000  
C33  24990483.086   130131990.953       -2661.279          35.000                                                                  
C30  24651906.424   128368929.774       -2091.892          41.000                                                                  
C27  25114139.713   130775929.241       -2776.461          33.000                                                                  
C37  24038940.450   125177067.112        3062.116          42.000                                                                  
> 2025 10 27 02 15 38.6360000  0 21                     
G12  21340065.379   112142843.262        1992.256          44.000    21340054.357    87383980.536        1552.445          40.000  
G15  21994159.508   115580072.967       -3035.575          40.000    21994150.679    90062368.588       -2364.899          38.000  
G18  22101066.756   116141873.607       -3646.603          42.000    22101057.800    90500133.451       -2841.542          42.000  
G23  18677083.171    98148734.114        -837.853          47.000    18677070.988    76479472.584        -652.897          50.000  
G24  19705737.373   103554341.945       -2755.170          40.000    19705726.581    80691642.223       -2146.308          37.000  
G32  21538321.760   113184653.591        1681.951          44.000    21538312.091    88195793.667        1310.581          41.000  
C08  34636960.035   180363735.200         -53.735          45.000    34636942.413   139468611.654         -41.614          50.000  
C13  34746827.352   180935847.995         188.733          46.000    34746818.224   139911035.848         145.935          47.000  
C16  35721536.652   186011414.751         239.800          48.000    35721525.826   143835781.632         185.337          47.000  
C25  21400959.352   111440404.193       -1676.469          44.000                                                                  
C32  21494811.592   111929122.527        1284.502          46.000                                                                  
C06  35487132.817   184790811.311         419.094          43.000    35487116.211   142891914.988         324.099          45.000  
G25  21651992.457   113782006.195        3144.847          40.000    21651986.107    88661280.207        2450.209          40.000  
G10  20134410.876   105807040.765        1992.012          48.000    20134399.358    82447009.210        1552.275          43.000  
G28  23173213.312   121776073.129        3077.086          37.000    23173206.613    94890389.266        2397.430          42.000  
C23  21055064.377   109639247.213        1334.409          50.000                                                                  
C09  36992395.054   192629112.416         500.970          40.000    36992383.383   148952994.415         387.256          46.000  
C33  24990503.548   130132097.439       -2661.865          35.000                                                                  
C30  24651922.505   128369013.431       -2091.519          40.000                                                                  
C27  25114161.035   130776040.242       -2775.531          33.000                                                                  
C37  24038916.921   125176944.622        3062.175          42.000                                                                  
> 2025 10 27 02 15 38.6760000  0 21                     
G12  21340050.249   112142763.584        1992.026          44.000    21340039.203    87383918.449        1552.272          40.000  
G15  21994182.618   115580194.382       -3035.494          40.000    21994173.804    90062463.201       -2365.157          38.000  
G18  22101094.509   116142019.479       -3646.698          42.000    22101085.570    90500247.123       -2841.786          42.000  
G23  18677089.563    98148767.630        -837.952          47.000    18677077.373    76479498.702        -652.960          50.000  
G24  19705758.337   103554452.128       -2754.816          40.000    19705747.550    80691728.085       -2146.472          37.000  
G32  21538308.974   113184586.323        1681.774          44.000    21538299.289    88195741.246        1310.552          41.000  
C08  34636960.410   180363737.358         -53.925          45.000    34636942.836   139468613.323         -41.699          50.000  
C13  34746825.908   180935840.453         188.586          46.000    34746816.779   139911030.013         145.880          47.000  
C16  35721534.769   186011405.166         239.687          48.000    35721524.012   143835774.224         185.208          47.000  
C25  21400972.218   111440471.256       -1676.501          44.000                                                                  
C32  21494801.707   111929071.150        1284.432          46.000                                                                  
C06  35487129.582   184790794.542         419.182          43.000    35487113.000   142891902.025         324.053          45.000  
G25  21651968.526   113781880.411        3144.655          40.000    21651962.163    88661182.190        2450.330          40.000  
G10  20134395.719   105806961.083        1992.047          48.000    20134384.204    82446947.124        1552.177          43.000  
G28  23173189.872   121775950.060        3076.864          37.000    23173183.198    94890293.363        2397.465          42.000  
C23  21055054.102   109639193.841        1334.313          50.000                                                                  
C09  36992391.200   192629092.397         500.552          40.000    36992379.523   148952978.921         387.305          46.000  
C33  24990524.026   130132203.902       -2661.796          35.000                                                                  
C30  24651938.560   128369097.113       -2091.831          41.000                                                                  
C27  25114182.368   130776151.296       -2776.132          33.000                                                                  
C37  24038893.398   125176822.130        3062.271          42.000                                                                  
> 2025 10 27 02 15 38.7160000  0 21                     
G12  21340035.090   112142683.904        1991.960          44.000    21340024.020    87383856.361        1552.164          40.000  
G15  21994205.724   115580315.774       -3035.021          40.000    21994196.919    90062557.823       -2365.480          38.000  
G18  22101122.276   116142165.357       -3646.898          42.000    22101113.332    90500360.787       -2841.765          42.000  
G23  18677095.944    98148801.146        -837.962          47.000    18677083.773    76479524.816        -652.920          50.000  
G24  19705779.286   103554562.311       -2754.633          40.000    19705768.535    80691813.966       -2146.948          37.000  
G32  21538296.199   113184519.063        1681.587          44.000    21538286.508    88195688.824        1310.532          41.000  
C08  34636960.817   180363739.513         -53.931          45.000    34636943.253   139468614.986         -41.644          50.000  
C13  34746824.464   180935832.902         188.715          46.000    34746815.328   139911024.180         145.813          47.000  
C16  35721532.940   186011395.575         239.739          48.000    35721522.158   143835766.813         185.245          47.000  
C25  21400985.084   111440538.325       -1676.654          44.000                                                                  
C32  21494791.857   111929019.780        1284.307          46.000                                                                  
C06  35487126.326   184790777.784         419.029          43.000    35487109.794   142891889.067         323.983          45.000  
G25  21651944.585   113781754.641        3144.310          40.000    21651938.225    88661084.173        2450.372          40.000  
G10  20134380.577   105806881.411        1991.880          48.000    20134369.070    82446885.046        1551.974          43.000  
G28  23173166.437   121775826.996        3076.672          37.000    23173159.802    94890197.457        2397.587          42.000  
C23  21055043.815   109639140.475        1334.167          50.000                                                                  
C09  36992387.381   192629072.367         500.624          40.000    36992375.666   148952963.430         387.279          46.000  
C33  24990544.489   130132310.369       -2661.738          35.000                                                                  
C30  24651954.612   128369180.792       -2091.948          41.000                                                                  
C27  25114203.682   130776262.326       -2775.885          33.000                                                                  
C37  24038869.866   125176699.659        3061.930          42.000                                                                  
> 2025 10 27 02 15 38.7560000  0 21                     
G12  21340019.920   112142604.221        1992.013          44.000    21340008.852    87383794.263        1552.313          40.000  
G15  21994228.821   115580437.203       -3035.466          40.000    21994220.009    90062652.424       -2365.241          38.000  
G18  22101150.027   116142311.230       -3646.941          42.000    22101141.079    90500474.458       -2841.807          42.000  
G23  18677102.339    98148834.662        -837.955          47.000    18677090.147    76479550.934        -652.983          50.000  
G24  19705800.265   103554672.510       -2754.791          40.000    19705789.498    80691899.838       -2147.046          37.000  
G32  21538283.395   113184451.784        1681.787          44.000    21538273.703    88195636.394        1310.691          41.000  
C08  34636961.268   180363741.665         -53.906          45.000    34636943.643   139468616.651         -41.638          50.000  
C13  34746823.009   180935825.353         188.721          46.000    34746813.862   139911018.341         145.892          47.000  
C16  35721531.058   186011385.989         239.654          48.000    35721520.312   143835759.395         185.366          47.000  
C25  21400997.962   111440605.395       -1676.774          44.000                                                                  
C32  21494781.982   111928968.399        1284.417          46.000                                                                  
C06  35487123.106   184790761.029         418.873          43.000    35487106.573   142891876.117         323.756          45.000  
G25  21651920.636   113781628.845        3144.648          40.000    21651914.296    88660986.143        2450.680          40.000  
G10  20134365.435   105806801.747        1991.658          48.000    20134353.920    82446822.965        1551.934          43.000  
G28  23173143.026   121775703.933        3076.573          37.000    23173136.391    94890101.544        2397.770          42.000  
C23  21055033.580   109639087.103        1334.210          50.000                                                                  
C09  36992383.550   192629052.344         500.551          40.000    36992371.809   148952947.950         387.036          46.000  
C33  24990564.957   130132416.846       -2661.837          35.000                                                                  
C30  24651970.678   128369264.474       -2092.022          41.000                                                                  
C27  25114224.997   130776373.340       -2775.538          33.000                                                                  
C37  24038846.333   125176577.170        3062.049          42.000                                                                  
> 2025 10 27 02 15 38.7960000  0 21                     
G12  21340004.727   112142524.536        1992.071          44.000    21339993.681    87383732.173        1552.261          40.000  
G15  21994251.915   115580558.617       -3035.490          40.000    21994243.101    90062747.032       -2365.210          38.000  
G18  22101177.770   116142457.100       -3646.846          42.000    22101168.830    90500588.127       -2841.799          42.000  
G23  18677108.720    98148868.185        -838.054          47.000    18677096.525    76479577.053        -653.033          50.000  
G24  19705821.264   103554782.710       -2754.919          40.000    19705810.473    80691985.717       -2147.077          37.000  
G32  21538270.593   113184384.507        1681.882          44.000    21538260.891    88195583.974        1310.555          41.000  
C08  34636961.685   180363743.823         -53.931          45.000    34636944.057   139468618.317         -41.675          50.000  
C13  34746821.551   180935817.806         188.678          46.000    34746812.417   139911012.505         145.892          47.000  
C16  35721529.224   186011376.406         239.564          48.000    35721518.456   143835751.978         185.415          47.000  
C25  21401010.852   111440672.456       -1676.677          44.000                                                                  
C32  21494772.126   111928917.029        1284.302          46.000                                                                  
C06  35487119.879   184790744.264         419.011          43.000    35487103.358   142891863.148         324.024          45.000  
G25  21651896.698   113781503.057        3144.698          40.000    21651890.361    88660888.137        2450.394          40.000  
G10  20134350.275   105806722.076        1991.681          48.000    20134338.750    82446760.882        1551.965          43.000  
G28  23173119.600   121775580.861        3076.621          37.000    23173112.977    94890005.650        2397.541          42.000  
C23  21055023.318   109639033.736        1334.174          50.000                                                                  
C09  36992379.715   192629032.306         500.802          40.000    36992367.969   148952932.467         386.988          46.000  
C33  24990585.422   130132523.322       -2661.911          35.000                                                                  
C30  24651986.763   128369348.150       -2091.964          41.000                                                                  
C27  25114246.306   130776484.393       -2776.012          33.000                                                                  
C37  24038822.810   125176454.688        3062.031          42.000                                                                  
> 2025 10 27 02 15 38.8360000  0 21                     
G12  21339989.572   112142444.856        1992.007          44.000    21339978.526    87383670.096        1551.996          40.000  
G15  21994275.012   115580680.029       -3035.415          40.000    21994266.203    90062841.639       -2365.185          38.000  
G18  22101205.520   116142602.966       -3646.702          42.000    22101196.572    90500701.790       -2841.681          42.000  
G23  18677115.101    98148901.703        -838.009          47.000    18677102.894    76479603.172        -653.019          50.000  
G24  19705842.262   103554892.930       -2755.396          40.000    19705831.435    80692071.575       -2146.710          37.000  
G32  21538257.803   113184317.236        1681.848          44.000    21538248.103    88195531.569        1310.200          41.000  
C08  34636962.094   180363745.979         -53.931          45.000    34636944.460   139468619.987         -41.736          50.000  
C13  34746820.090   180935810.262         188.580          46.000    34746810.978   139911006.669         145.874          47.000  
C16  35721527.377   186011366.824         239.510          48.000    35721516.588   143835744.563         185.393          47.000  
C25  21401023.739   111440739.530       -1676.841          44.000                                                                  
C32  21494762.269   111928865.655        1284.311          46.000                                                                  
C06  35487116.684   184790727.510         418.920          43.000    35487100.151   142891850.189         323.976          45.000  
G25  21651872.758   113781377.286        3144.395          40.000    21651866.434    88660790.129        2450.258          40.000  
G10  20134335.099   105806642.399        1991.843          48.000    20134323.606    82446698.803        1551.908          43.000  
G28  23173096.173   121775457.778        3076.924          37.000    23173089.566    94889909.752        2397.471          42.000  
C23  21055013.077   109638980.371        1334.105          50.000                                                                  
C09  36992375.872   192629012.265         501.019          40.000    36992364.114   148952916.981         387.058          46.000  
C33  24990605.883   130132629.783       -2661.681          35.000                                                                  
C30  24652002.841   128369431.825       -2091.913          41.000                                                                  
C27  25114267.638   130776595.428       -2775.992          33.000                                                                  
C37  24038799.256   125176332.210        3061.983          42.000                                                                  
> 2025 10 27 02 15 38.8760000  0 21                     
G12  21339974.405   112142365.179        1991.918          44.000    21339963.369    87383608.010        1552.051          40.000  
G15  21994298.128   115580801.442       -3035.358          40.000    21994289.301    90062936.261       -2365.460          38.000  
G18  22101233.273   116142748.845       -3646.852          42.000    22101224.312    90500815.453       -2841.626          42.000  
G23  18677121.465    98148935.222        -838.002          47.000    18677109.280    76479629.291        -653.024          50.000  
G24  19705863.254   103555003.123       -2755.133          40.000    19705852.406    80692157.440       -2146.631          37.000  
G32  21538245.014   113184249.968        1681.746          44.000    21538235.301    88195479.154        1310.232          41.000  
C08  34636962.517   180363748.127         -53.827          45.000    34636944.878   139468621.654         -41.724          50.000  
C13  34746818.651   180935802.720         188.519          46.000    34746809.542   139911000.834         145.874          47.000  
C16  35721525.601   186011357.234         239.649          48.000    35721514.755   143835737.155         185.224          47.000  
C25  21401036.614   111440806.604       -1676.888          44.000                                                                  
C32  21494752.403   111928814.279        1284.375          46.000                                                                  
C06  35487113.458   184790710.740         419.109          43.000    35487096.942   142891837.229         323.991          45.000  
G25  21651848.832   113781251.513        3144.266          40.000    21651842.512    88660692.132        2450.002          40.000  
G10  20134319.924   105806562.727        1991.820          48.000    20134308.447    82446636.711        1552.129          43.000  
G28  23173072.744   121775334.705        3076.841          37.000    23173066.143    94889813.847        2397.539          42.000  
C23  21055002.861   109638926.997        1334.228          50.000                                                                  
C09  36992372.030   192628992.233         500.923          40.000    36992360.270   148952901.490         387.151          46.000  
C33  24990626.332   130132736.265       -2661.822          35.000                                                                  
C30  24652018.884   128369515.498       -2091.864          41.000                                                                  
C27  25114288.943   130776706.434       -2775.254          33.000                                                                  
C37  24038775.728   125176209.722        3062.118          42.000                                                                  
> 2025 10 27 02 15 38.9160000  0 21                     
G12  21339959.236   112142285.506        1991.793          44.000    21339948.208    87383545.902        1552.483          40.000  
G15  21994321.227   115580922.860       -3035.464          40.000    21994312.414    90063030.885       -2365.614          38.000  
G18  22101261.037   116142894.720       -3646.889          42.000    22101252.054    90500929.125       -2841.770          42.000  
G23  18677127.855    98148968.744        -838.065          47.000    18677115.670    76479655.416        -653.118          50.000  
G24  19705884.232   103555113.320       -2754.974          40.000    19705873.380    80692243.316       -2146.729          37.000  
G32  21538232.210   113184182.705        1681.609          44.000    21538222.513    88195426.738        1310.312          41.000  
C08  34636962.917   180363750.281         -53.870          45.000    34636945.324   139468623.316         -41.626          50.000  
C13  34746817.179   180935795.170         188.666          46.000    34746808.092   139910995.000         145.850          47.000  
C16  35721523.769   186011347.645         239.699          48.000    35721512.914   143835729.746         185.176          47.000  
C25  21401049.503   111440873.669       -1676.746          44.000                                                                  
C32  21494742.529   111928762.907        1284.318          46.000                                                                  
C06  35487110.237   184790693.976         419.132          43.000    35487093.709   142891824.265         324.048          45.000  
G25  21651824.882   113781125.740        3144.289          40.000    21651818.571    88660594.107        2450.414          40.000  
G10  20134304.775   105806483.059        1991.711          48.000    20134293.301    82446574.636        1551.968          43.000  
G28  23173049.326   121775211.628        3076.849          37.000    23173042.746    94889717.945        2397.537          42.000  
C23  21054992.563   109638873.631        1334.162          50.000                                                                  
C09  36992368.181   192628972.211         500.641          40.000    36992356.413   148952886.002         387.163          46.000  
C33  24990646.745   130132842.737       -2661.823          35.000                                                                  
C30  24652034.925   128369599.169       -2091.841          41.000                                                                  
C27  25114310.249   130776817.463       -2775.422          33.000                                                                  
C37  24038752.223   125176087.244        3061.973          42.000                                                                  
> 2025 10 27 02 15 38.9560000  0 21                     
G12  21339944.079   112142205.828        1991.833          44.000    21339933.045    87383483.826        1552.163          40.000  
G15  21994344.323   115581044.276       -3035.420          40.000    21994335.516    90063125.483       -2365.175          38.000  
G18  22101288.789   116143040.590       -3646.821          42.000    22101279.810    90501042.793       -2841.788          42.000  
G23  18677134.231    98149002.259        -837.945          47.000    18677122.065    76479681.535        -653.060          50.000  
G24  19705905.194   103555223.521       -2754.999          40.000    19705894.357    80692329.187       -2146.704          37.000  
G32  21538219.395   113184115.436        1681.669          44.000    21538209.735    88195374.322        1310.278          41.000  
C08  34636963.346   180363752.438         -53.943          45.000    34636945.750   139468624.985         -41.687          50.000  
C13  34746815.717   180935787.627         188.605          46.000    34746806.649   139910989.166         145.819          47.000  
C16  35721521.924   186011338.061         239.626          48.000    35721511.087   143835722.332         185.256          47.000  
C25  21401062.384   111440940.735       -1676.689          44.000                                                                  
C32  21494732.656   111928711.533        1284.317          46.000                                                                  
C06  35487107.024   184790677.220         419.001          43.000    35487090.486   142891811.306         323.979          45.000  
G25  21651800.954   113780999.949        3144.655          40.000    21651794.644    88660496.096        2450.342          40.000  
G10  20134289.624   105806403.388        1991.708          48.000    20134278.140    82446512.551        1552.063          43.000  
G28  23173025.910   121775088.551        3076.849          37.000    23173019.314    94889622.043        2397.572          42.000  
C23  21054982.283   109638820.267        1334.066          50.000                                                                  
C09  36992364.354   192628952.194         500.387          40.000    36992352.555   148952870.512         387.225          46.000  
C33  24990667.210   130132949.229       -2662.235          35.000                                                                  
C30  24652050.997   128369682.861       -2092.180          41.000                                                                  
C27  25114331.581   130776928.515       -2776.034          33.000                                                                  
C37  24038728.711   125175964.759        3062.046          42.000                                                                  
> 2025 10 27 02 15 38.9960000  0 21                     
G12  21339928.907   112142126.144        1991.987          44.000    21339917.872    87383421.735        1552.227          40.000  
G15  21994367.461   115581165.708       -3035.719          40.000    21994358.621    90063220.084       -2365.105          38.000  
G18  22101316.526   116143186.466       -3646.877          42.000    22101307.558    90501156.464       -2841.793          42.000  
G23  18677140.625    98149035.787        -838.135          47.000    18677128.441    76479707.658        -653.066          50.000  
G24  19705926.154   103555333.715       -2754.901          40.000    19705915.337    80692415.049       -2146.594          37.000  
G32  21538206.611   113184048.150        1682.025          44.000    21538196.937    88195321.902        1310.380          41.000  
C08  34636963.767   180363754.598         -54.010          45.000    34636946.188   139468626.653         -41.730          50.000  
C13  34746814.274   180935780.079         188.660          46.000    34746805.204   139910983.334         145.801          47.000  
C16  35721520.077   186011328.483         239.484          48.000    35721509.270   143835714.921         185.257          47.000  
C25  21401075.257   111441007.808       -1676.780          44.000                                                                  
C32  21494722.814   111928660.159        1284.310          46.000                                                                  
C06  35487103.816   184790660.465         418.885          43.000    35487087.276   142891798.344         323.966          45.000  
G25  21651777.008   113780874.162        3144.752          40.000    21651770.715    88660398.094        2450.154          40.000  
G10  20134274.464   105806323.723        1991.617          48.000    20134262.975    82446450.469        1552.057          43.000  
G28  23173002.500   121774965.493        3076.512          38.000    23172995.902    94889526.155        2397.320          42.000  
C23  21054972.099   109638766.899        1334.100          50.000                                                                  
C09  36992360.518   192628932.175         500.347          40.000    36992348.689   148952855.022         387.212          46.000  
C33  24990687.649   130133055.713       -2662.225          35.000                                                                  
C30  24652067.068   128369766.538       -2092.076          41.000                                                                  
C27  25114352.905   130777039.537       -2775.763          33.000                                                                  
C37  24038705.193   125175842.281        3061.962          42.000                                                                  
> 2025 10 27 02 15 39.0360000  0 21                     
G12  21339913.752   112142046.471        1991.873          44.000    21339902.723    87383359.667        1551.854          40.000  
G15  21994390.554   115581287.124       -3035.579          40.000    21994381.732    90063314.706       -2365.423          38.000  
G18  22101344.291   116143332.343       -3646.919          42.000    22101335.317    90501270.137       -2841.874          42.000  
G23  18677146.999    98149069.320        -838.314          47.000    18677134.824    76479733.779        -653.053          50.000  
G24  19705947.129   103555443.923       -2755.096          40.000    19705936.308    80692500.926       -2146.838          37.000  
G32  21538193.796   113183980.888        1681.760          44.000    21538184.134    88195269.472        1310.646          41.000  
C08  34636964.171   180363756.756         -54.016          45.000    34636946.614   139468628.323         -41.772          50.000  
C13  34746812.850   180935772.535         188.599          46.000    34746803.770   139910977.499         145.831          47.000  
C16  35721518.255   186011318.897         239.558          48.000    35721507.426   143835707.509         185.257          47.000  
C25  21401088.150   111441074.881       -1676.823          44.000                                                                  
C32  21494712.936   111928608.786        1284.291          46.000                                                                  
C06  35487100.616   184790643.717         418.684          43.000    35487084.068   142891785.393         323.792          45.000  
G25  21651753.064   113780748.378        3144.666          40.000    21651746.788    88660300.085        2450.115          40.000  
G10  20134259.311   105806244.058        1991.548          48.000    20134247.822    82446388.399        1551.837          43.000  
G28  23172979.065   121774842.431        3076.482          38.000    23172972.484    94889430.263        2397.247          42.000  
C23  21054961.843   109638713.539        1333.999          50.000                                                                  
C09  36992356.678   192628912.139         500.635          40.000    36992344.851   148952839.537         387.137          46.000  
C33  24990708.089   130133162.137       -2661.040          35.000                                                                  
C30  24652083.145   128369850.214       -2091.980          41.000                                                                  
C27  25114374.220   130777150.557       -2775.545          33.000                                                                  
C37  24038681.670   125175719.802        3061.925          42.000                                                                  
> 2025 10 27 02 15 39.0760000  0 21                     
G12  21339898.599   112141966.801        1991.791          44.000    21339887.571    87383297.587        1551.865          40.000  
G15  21994413.663   115581408.544       -3035.593          40.000    21994404.829    90063409.323       -2365.515          38.000  
G18  22101372.022   116143478.218       -3646.926          42.000    22101363.087    90501383.800       -2841.705          42.000  
G23  18677153.377    98149102.852        -838.400          47.000    18677141.202    76479759.905        -653.154          50.000  
G24  19705968.104   103555554.136       -2755.286          40.000    19705957.293    80692586.802       -2146.942          37.000  
G32  21538181.019   113183913.633        1681.443          44.000    21538171.338    88195217.065        1310.331          41.000  
C08  34636964.590   180363758.918         -54.083          45.000    34636947.017   139468629.996         -41.840          50.000  
C13  34746811.392   180935764.998         188.440          46.000    34746802.311   139910971.665         145.819          47.000  
C16  35721516.375   186011309.320         239.423          48.000    35721505.568   143835700.100         185.224          47.000  
C25  21401101.002   111441141.958       -1676.950          44.000                                                                  
C32  21494703.073   111928557.414        1284.260          46.000                                                                  
C06  35487097.412   184790626.971         418.561          43.000    35487080.877   142891772.441         323.676          45.000  
G25  21651729.153   113780622.612        3144.328          40.000    21651722.873    88660202.075        2450.149          40.000  
G10  20134244.152   105806164.387        1991.658          48.000    20134232.673    82446326.318        1551.853          43.000  
G28  23172955.616   121774719.355        3076.711          38.000    23172949.080    94889334.365        2397.362          42.000  
C23  21054951.576   109638660.184        1333.881          50.000                                                                  
C09  36992352.832   192628892.107         500.727          40.000    36992341.003   148952824.056         386.982          46.000  
C33  24990728.528   130133268.632       -2661.807          35.000                                                                  
C30  24652099.204   128369933.907       -2092.290          41.000                                                                  
C27  25114395.554   130777261.592       -2775.861          33.000                                                                  
C37  24038658.165   125175597.320        3061.972          42.000                                                                  
> 2025 10 27 02 15 39.1160000  0 21                     
G12  21339883.444   112141887.141        1991.500          44.000    21339872.416    87383235.504        1551.989          40.000  
G15  21994436.776   115581529.959       -3035.442          40.000    21994427.942    90063503.932       -2365.370          38.000  
G18  22101399.810   116143624.102       -3647.055          42.000    22101390.859    90501497.476       -2841.861          42.000  
G23  18677159.736    98149136.383        -838.385          47.000    18677147.581    76479786.039        -653.322          50.000  
G24  19705989.085   103555664.354       -2755.511          40.000    19705978.256    80692672.692       -2147.217          37.000  
G32  21538168.199   113183846.369        1681.460          44.000    21538158.542    88195164.647        1310.299          41.000  
C08  34636965.017   180363761.084         -54.193          45.000    34636947.448   139468631.666         -41.821          50.000  
C13  34746809.954   180935757.462         188.379          46.000    34746800.873   139910965.843         145.593          47.000  
C16  35721514.515   186011299.751         239.232          48.000    35721503.715   143835692.693         185.160          47.000  
C25  21401113.891   111441209.046       -1677.194          44.000                                                                  
C32  21494693.189   111928506.060        1283.912          46.000                                                                  
C06  35487094.210   184790610.212         418.722          43.000    35487077.663   142891759.495         323.587          45.000  
G25  21651705.217   113780496.841        3144.159          40.000    21651698.947    88660104.079        2449.936          40.000  
G10  20134229.006   105806084.731        1991.440          48.000    20134217.503    82446264.250        1551.692          43.000  
G28  23172932.204   121774596.312        3076.311          38.000    23172925.662    94889238.476        2397.299          42.000  
C23  21054941.338   109638606.830        1333.810          50.000                                                                  
C09  36992348.981   192628872.084         500.589          40.000    36992337.169   148952808.574         386.971          46.000  
C33  24990748.983   130133375.154       -2662.790          35.000                                                                  
C30  24652115.281   128370017.596       -2092.272          41.000                                                                  
C27  25114416.865   130777372.651       -2776.540          33.000                                                                  
C37  24038634.630   125175474.847        3061.870          42.000                                                                  
> 2025 10 27 02 15 39.1560000  0 21                     
G12  21339868.276   112141807.473        1991.531          44.000    21339857.241    87383173.420        1552.065          40.000  
G15  21994459.893   115581651.399       -3035.790          40.000    21994451.058    90063598.572       -2365.963          38.000  
G18  22101427.556   116143769.979       -3646.992          42.000    22101418.629    90501611.153       -2841.960          42.000  
G23  18677166.123    98149169.921        -838.478          47.000    18677153.960    76479812.173        -653.401          50.000  
G24  19706010.043   103555774.566       -2755.487          40.000    19705999.230    80692758.579       -2147.253          37.000  
G32  21538155.396   113183779.109        1681.444          44.000    21538145.748    88195112.241        1310.118          41.000  
C08  34636965.442   180363763.236         -53.925          45.000    34636947.867   139468633.339         -41.870          50.000  
C13  34746808.512   180935749.917         188.538          46.000    34746799.434   139910960.011         145.660          47.000  
C16  35721512.671   186011290.171         239.336          48.000    35721501.843   143835685.297         184.937          47.000  
C25  21401126.749   111441276.133       -1677.284          44.000                                                                  
C32  21494683.324   111928454.691        1284.039          46.000                                                                  
C06  35487090.982   184790593.453         418.861          43.000    35487074.403   142891746.530         323.886          45.000  
G25  21651681.258   113780371.051        3144.521          40.000    21651675.027    88660006.076        2450.010          40.000  
G10  20134213.849   105806005.071        1991.427          48.000    20134202.356    82446202.185        1551.541          43.000  
G28  23172908.778   121774473.223        3076.935          37.000    23172902.218    94889142.566        2397.566          43.000  
C23  21054931.119   109638553.472        1333.851          50.000                                                                  
C09  36992345.135   192628852.063         500.522          40.000    36992333.322   148952793.089         387.060          46.000  
C33  24990769.435   130133481.610       -2661.940          35.000                                                                  
C30  24652131.342   128370101.285       -2092.289          40.000                                                                  
C27  25114438.193   130777483.676       -2775.989          33.000                                                                  
C37  24038611.109   125175352.381        3061.667          42.000                                                                  
> 2025 10 27 02 15 39.1960000  0 21                     
G12  21339853.129   112141727.801        1991.680          44.000    21339842.073    87383111.329        1552.228          40.000  
G15  21994483.010   115581772.808       -3035.345          40.000    21994474.155    90063693.175       -2365.491          38.000  
G18  22101455.303   116143915.868       -3647.173          42.000    22101446.393    90501724.825       -2841.916          42.000  
G23  18677172.501    98149203.450        -838.324          47.000    18677160.319    76479838.299        -653.292          50.000  
G24  19706031.006   103555884.774       -2755.346          40.000    19706020.192    80692844.452       -2146.997          37.000  
G32  21538142.578   113183711.834        1681.686          44.000    21538132.967    88195059.829        1310.174          41.000  
C08  34636965.865   180363765.393         -53.912          45.000    34636948.299   139468635.006         -41.766          50.000  
C13  34746807.092   180935742.373         188.586          46.000    34746797.983   139910954.179         145.740          47.000  
C16  35721510.828   186011280.585         239.497          48.000    35721499.971   143835677.886         185.111          47.000  
C25  21401139.644   111441343.210       -1677.089          44.000                                                                  
C32  21494673.462   111928403.316        1284.224          46.000                                                                  
C06  35487087.786   184790576.691         418.988          43.000    35487071.183   142891733.566         324.053          45.000  
G25  21651657.304   113780245.258        3144.745          40.000    21651651.099    88659908.051        2450.411          40.000  
G10  20134198.689   105805925.408        1991.456          48.000    20134187.192    82446140.104        1551.807          43.000  
G28  23172885.351   121774350.146        3076.985          37.000    23172878.813    94889046.674        2397.436          42.000  
C23  21054920.891   109638500.110        1333.968          50.000                                                                  
C09  36992341.300   192628832.039         500.554          40.000    36992329.482   148952777.605         387.091          46.000  
C33  24990789.881   130133588.082       -2661.743          35.000                                                                  
C30  24652147.429   128370184.955       -2091.937          40.000                                                                  
C27  25114459.514   130777594.724       -2776.100          33.000                                                                  
C37  24038587.578   125175229.895        3061.948          42.000                                                                  
> 2025 10 27 02 15 39.2360000  0 21                     
G12  21339837.975   112141648.115        1992.015          44.000    21339826.908    87383049.249        1552.084          40.000  
G15  21994506.106   115581894.239       -3035.578          40.000    21994497.259    90063787.788       -2365.411          38.000  
G18  22101483.076   116144061.747       -3647.128          42.000    22101474.131    90501838.479       -2841.536          42.000  
G23  18677178.883    98149236.974        -838.174          47.000    18677166.696    76479864.424        -653.166          50.000  
G24  19706051.962   103555994.983       -2755.286          40.000    19706041.148    80692930.316       -2146.710          37.000  
G32  21538129.761   113183644.557        1681.861          44.000    21538120.158    88195007.407        1310.449          41.000  
C08  34636966.291   180363767.555         -54.065          45.000    34636948.759   139468636.672         -41.724          50.000  
C13  34746805.630   180935734.825         188.690          46.000    34746796.538   139910948.350         145.728          47.000  
C16  35721508.977   186011270.999         239.618          48.000    35721498.136   143835670.475         185.207          47.000  
C25  21401152.552   111441410.280       -1676.855          44.000                                                                  
C32  21494663.615   111928351.945        1284.266          46.000                                                                  
C06  35487084.572   184790559.928         419.048          43.000    35487067.984   142891720.610         323.996          45.000  
G25  21651633.373   113780119.487        3144.453          40.000    21651627.178    88659810.041        2450.345          40.000  
G10  20134183.530   105805845.738        1991.651          48.000    20134172.039    82446078.010        1552.180          43.000  
G28  23172861.915   121774227.078        3076.859          37.000    23172855.389    94888950.776        2397.428          42.000  
C23  21054910.648   109638446.746        1334.082          50.000                                                                  
C09  36992337.439   192628812.010         500.615          40.000    36992325.628   148952762.114         387.234          46.000  
C33  24990810.325   130133694.565       -2661.914          35.000                                                                  
C30  24652163.457   128370268.639       -2091.977          40.000                                                                  
C27  25114480.839   130777705.762       -2776.020          33.000                                                                  
C37  24038564.047   125175107.410        3062.065          42.000                                                                  
> 2025 10 27 02 15 39.2760000  0 21                     
G12  21339822.821   112141568.446        1991.877          44.000    21339811.757    87382987.172        1551.933          40.000  
G15  21994529.213   115582015.655       -3035.440          40.000    21994520.373    90063882.392       -2365.182          38.000  
G18  22101510.825   116144207.613       -3646.823          42.000    22101501.907    90501952.157       -2841.799          42.000  
G23  18677185.274    98149270.503        -838.196          47.000    18677173.092    76479890.550        -653.142          50.000  
G24  19706072.938   103556105.183       -2755.029          40.000    19706062.142    80693016.186       -2146.704          37.000  
G32  21538116.980   113183577.289        1681.782          44.000    21538107.344    88194954.978        1310.674          41.000  
C08  34636966.738   180363769.717         -54.089          45.000    34636949.187   139468638.346         -41.840          50.000  
C13  34746804.150   180935727.285         188.556          46.000    34746795.082   139910942.517         145.764          47.000  
C16  35721507.156   186011261.423         239.472          48.000    35721496.291   143835663.064         185.270          47.000  
C25  21401165.463   111441477.352       -1676.796          44.000                                                                  
C32  21494653.742   111928300.573        1284.297          46.000                                                                  
C06  35487081.379   184790543.179         418.857          43.000    35487064.781   142891707.654         323.914          45.000  
G25  21651609.422   113779993.718        3144.235          40.000    21651603.255    88659712.040        2450.115          40.000  
G10  20134168.381   105805766.074        1991.626          48.000    20134156.858    82446015.944        1551.907          43.000  
G28  23172838.483   121774104.037        3076.262          37.000    23172831.980    94888854.881        2397.380          43.000  
C23  21054900.403   109638393.388        1334.002          50.000                                                                  
C09  36992333.588   192628791.986         500.610          40.000    36992321.764   148952746.635         387.065          46.000  
C33  24990830.783   130133801.042       -2661.889          35.000                                                                  
C30  24652179.532   128370352.323       -2092.041          40.000                                                                  
C27  25114502.150   130777816.774       -2775.466          33.000                                                                  
C37  24038540.525   125174984.931        3062.023          42.000                                                                  
> 2025 10 27 02 15 39.3160000  0 21                     
G12  21339807.662   112141488.779        1991.723          44.000    21339796.585    87382925.098        1551.841          40.000  
G15  21994552.324   115582137.079       -3035.536          40.000    21994543.470    90063976.982       -2364.791          38.000  
G18  22101538.574   116144353.481       -3646.738          42.000    22101529.687    90502065.838       -2842.017          42.000  
G23  18677191.679    98149304.039        -838.373          47.000    18677179.477    76479916.680        -653.206          50.000  
G24  19706093.885   103556215.385       -2754.956          40.000    19706083.105    80693102.051       -2146.594          37.000  
G32  21538104.213   113183510.027        1681.642          44.000    21538094.527    88194902.555        1310.682          41.000  
C08  34636967.169   180363771.877         -54.083          45.000    34636949.644   139468640.014         -41.791          50.000  
C13  34746802.703   180935719.748         188.409          46.000    34746793.646   139910936.687         145.746          47.000  
C16  35721505.328   186011251.841         239.505          48.000    35721494.454   143835655.650         185.352          47.000  
C25  21401178.305   111441544.433       -1676.944          44.000                                                                  
C32  21494643.877   111928249.204        1284.238          46.000                                                                  
C06  35487078.147   184790526.429         418.741          43.000    35487061.578   142891694.697         323.908          45.000  
G25  21651585.493   113779867.957        3144.018          40.000    21651579.340    88659614.032        2450.091          40.000  
G10  20134153.204   105805686.409        1991.623          48.000    20134141.700    82445953.865        1551.925          43.000  
G28  23172815.085   121773980.974        3076.301          38.000    23172808.576    94888758.994        2397.226          42.000  
C23  21054890.123   109638340.034        1333.886          50.000                                                                  
C09  36992329.732   192628771.961         500.597          40.000    36992317.897   148952731.150         387.084          46.000  
C33  24990851.226   130133907.504       -2661.666          35.000                                                                  
C30  24652195.610   128370435.999       -2091.948          40.000                                                                  
C27  25114523.484   130777927.790       -2775.227          33.000                                                                  
C37  24038516.989   125174862.456        3061.922          42.000                                                                  
> 2025 10 27 02 15 39.3560000  0 21                     
G12  21339792.500   112141409.109        1991.700          44.000    21339781.447    87382863.021        1551.890          40.000  
G15  21994575.406   115582258.496       -3035.423          40.000    21994566.575    90064071.606       -2365.223          38.000  
G18  22101566.345   116144499.360       -3646.908          42.000    22101557.437    90502179.500       -2841.735          42.000  
G23  18677198.043    98149337.578        -838.490          47.000    18677185.855    76479942.807        -653.219          50.000  
G24  19706114.863   103556325.592       -2755.084          40.000    19706104.080    80693187.930       -2146.832          37.000  
G32  21538091.421   113183442.763        1681.592          44.000    21538081.735    88194850.143        1310.444          41.000  
C08  34636967.615   180363774.033         -53.973          45.000    34636950.082   139468641.682         -41.754          50.000  
C13  34746801.275   180935712.206         188.452          46.000    34746792.179   139910930.849         145.862          47.000  
C16  35721503.496   186011242.262         239.492          48.000    35721492.630   143835648.250         185.109          47.000  
C25  21401191.222   111441611.521       -1677.139          44.000                                                                  
C32  21494633.995   111928197.841        1284.125          46.000                                                                  
C06  35487074.911   184790509.668         418.889          43.000    35487058.363   142891681.747         323.772          45.000  
G25  21651561.548   113779742.180        3144.224          40.000    21651555.389    88659516.027        2450.049          40.000  
G10  20134138.051   105805606.741        1991.691          48.000    20134126.535    82445891.791        1551.866          43.000  
G28  23172791.631   121773857.899        3076.635          38.000    23172785.163    94888663.098        2397.289          43.000  
C23  21054879.921   109638286.676        1333.901          50.000                                                                  
C09  36992325.878   192628751.940         500.579          40.000    36992314.049   148952715.661         387.158          46.000  
C33  24990871.687   130134014.006       -2662.227          35.000                                                                  
C30  24652211.699   128370519.676       -2091.911          40.000                                                                  
C27  25114544.795   130778038.817       -2775.411          33.000                                                                  
C37  24038493.494   125174739.972        3062.025          42.000                                                                  
> 2025 10 27 02 15 39.3960000  0 21                     
G12  21339777.334   112141329.438        1991.727          44.000    21339766.269    87382800.924        1552.297          40.000  
G15  21994598.529   115582379.924       -3035.604          40.000    21994589.689    90064166.220       -2365.323          38.000  
G18  22101594.104   116144645.235       -3646.939          42.000    22101585.183    90502293.160       -2841.536          42.000  
G23  18677204.389    98149371.105        -838.324          47.000    18677192.238    76479968.940        -653.312          50.000  
G24  19706135.832   103556435.806       -2755.304          40.000    19706125.045    80693273.819       -2147.223          37.000  
G32  21538078.620   113183375.493        1681.696          44.000    21538068.937    88194797.736        1310.204          41.000  
C08  34636968.038   180363776.189         -53.912          45.000    34636950.507   139468643.350         -41.705          50.000  
C13  34746799.852   180935704.667         188.446          46.000    34746790.743   139910925.021         145.734          47.000  
C16  35721501.658   186011232.677         239.583          48.000    35721490.827   143835640.839         185.143          47.000  
C25  21401204.117   111441678.594       -1676.966          44.000                                                                  
C32  21494624.140   111928146.468        1284.267          46.000                                                                  
C06  35487071.684   184790492.908         418.994          43.000    35487055.111   142891668.786         323.914          45.000  
G25  21651537.597   113779616.401        3144.374          40.000    21651531.465    88659418.015        2450.169          40.000  
G10  20134122.862   105805527.072        1991.727          48.000    20134111.372    82445829.719        1551.823          43.000  
G28  23172768.213   121773734.808        3077.090          38.000    23172761.759    94888567.199        2397.402          43.000  
C23  21054869.661   109638233.320        1333.869          50.000                                                                  
C09  36992322.027   192628731.907         500.760          40.000    36992310.214   148952700.167         387.263          46.000  
C33  24990892.125   130134120.482       -2662.050          35.000                                                                  
C30  24652227.791   128370603.370       -2092.175          40.000                                                                  
C27  25114566.127   130778149.848       -2775.663          33.000                                                                  
C37  24038469.965   125174617.488        3062.101          42.000                                                                  
> 2025 10 27 02 15 39.4360000  0 21                     
G12  21339762.175   112141249.775        1991.581          44.000    21339751.108    87382738.845        1552.104          40.000  
G15  21994621.644   115582501.340       -3035.486          40.000    21994612.780    90064260.848       -2365.658          38.000  
G18  22101621.870   116144791.123       -3647.181          42.000    22101612.933    90502406.825       -2841.532          42.000  
G23  18677210.745    98149404.636        -838.301          47.000    18677198.625    76479995.071        -653.331          50.000  
G24  19706156.807   103556546.025       -2755.499          40.000    19706146.034    80693359.699       -2147.174          37.000  
G32  21538065.816   113183308.218        1681.815          44.000    21538056.128    88194745.321        1310.208          41.000  
C08  34636968.432   180363778.356         -54.108          45.000    34636950.925   139468645.021         -41.760          50.000  
C13  34746798.393   180935697.126         188.446          46.000    34746789.298   139910919.193         145.685          47.000  
C16  35721499.830   186011223.095         239.528          48.000    35721489.006   143835633.427         185.222          47.000  
C25  21401216.982   111441745.682       -1677.177          44.000                                                                  
C32  21494614.271   111928095.091        1284.373          46.000                                                                  
C06  35487068.463   184790476.157         418.846          43.000    35487051.901   142891655.829         323.885          45.000  
G25  21651513.649   113779490.605        3144.742          40.000    21651507.544    88659320.008        2450.163          40.000  
G10  20134107.729   105805447.419        1991.443          48.000    20134096.211    82445767.647        1551.758          43.000  
G28  23172744.794   121773611.733        3077.021          38.000    23172738.326    94888471.294        2397.535          43.000  
C23  21054859.416   109638179.963        1333.869          50.000                                                                  
C09  36992318.160   192628711.880         500.708          40.000    36992306.361   148952684.685         387.138          46.000  
C33  24990912.591   130134226.959       -2661.981          35.000                                                                  
C30  24652243.858   128370687.057       -2092.256          40.000                                                                  
C27  25114587.452   130778260.905       -2776.322          33.000                                                                  
C37  24038446.447   125174495.013        3061.945          42.000                                                                  
> 2025 10 27 02 15 39.4760000  0 21                     
G12  21339746.996   112141170.101        1991.697          44.000    21339735.958    87382676.770        1551.901          40.000  
G15  21994644.752   115582622.754       -3035.386          40.000    21994635.886    90064355.454       -2365.356          38.000  
G18  22101649.601   116144937.007       -3647.235          42.000    22101640.692    90502520.502       -2841.776          42.000  
G23  18677217.136    98149438.180        -838.559          47.000    18677204.988    76480021.205        -653.367          50.000  
G24  19706177.773   103556656.224       -2755.194          40.000    19706167.011    80693445.592       -2147.296          37.000  
G32  21538053.031   113183240.957        1681.597          44.000    21538043.320    88194692.911        1310.199          41.000  
C08  34636968.854   180363780.517         -54.083          45.000    34636951.342   139468646.691         -41.797          50.000  
C13  34746796.937   180935689.585         188.470          46.000    34746787.863   139910913.358         145.752          47.000  
C16  35721497.989   186011213.515         239.469          48.000    35721487.157   143835626.020         185.197          47.000  
C25  21401229.855   111441812.768       -1677.225          44.000                                                                  
C32  21494604.414   111928043.722        1284.288          46.000                                                                  
C06  35487065.252   184790459.402         418.821          43.000    35487048.679   142891642.876         323.853          45.000  
G25  21651489.709   113779364.837        3144.457          40.000    21651483.593    88659221.995        2450.218          40.000  
G10  20134092.576   105805367.763        1991.378          48.000    20134081.037    82445705.571        1551.798          43.000  
G28  23172721.407   121773488.677        3076.599          38.000    23172714.898    94888375.397        2397.471          43.000  
C23  21054849.164   109638126.613        1333.761          50.000                                                                  
C09  36992314.336   192628691.850         500.726          40.000    36992302.485   148952669.201         387.088          46.000  
C33  24990933.059   130134333.418       -2661.589          35.000                                                                  
C30  24652259.935   128370770.735       -2092.104          40.000                                                                  
C27  25114608.755   130778371.904       -2775.482          33.000                                                                  
C37  24038422.954   125174372.541        3061.771          42.000                                                                  
> 2025 10 27 02 15 39.5160000  0 21                     
G12  21339731.819   112141090.431        1991.735          44.000    21339720.800    87382614.687        1551.947          40.000  
G15  21994667.854   115582744.178       -3035.486          40.000    21994658.991    90064450.069       -2365.388          38.000  
G18  22101677.363   116145082.883       -3647.072          42.000    22101668.445    90502634.176       -2841.849          42.000  
G23  18677223.521    98149471.717        -838.530          47.000    18677211.370    76480047.339        -653.398          50.000  
G24  19706198.742   103556766.432       -2755.243          40.000    19706187.961    80693531.463       -2146.954          37.000  
G32  21538040.266   113183173.696        1681.496          44.000    21538030.509    88194640.501        1310.193          41.000  
C08  34636969.262   180363782.673         -53.973          45.000    34636951.769   139468648.361         -41.772          50.000  
C13  34746795.458   180935682.043         188.525          46.000    34746786.398   139910907.524         145.825          47.000  
C16  35721496.146   186011203.931         239.537          48.000    35721485.320   143835618.613         185.152          47.000  
C25  21401242.765   111441879.851       -1677.158          44.000                                                                  
C32  21494594.553   111927992.356        1284.174          46.000                                                                  
C06  35487062.041   184790442.648         418.796          43.000    35487045.444   142891629.916         323.940          45.000  
G25  21651465.751   113779239.065        3144.267          40.000    21651459.677    88659123.991        2450.118          40.000  
G10  20134077.415   105805288.101        1991.442          48.000    20134065.896    82445643.502        1551.729          43.000  
G28  23172698.020   121773365.616        3076.534          38.000    23172691.491    94888279.506        2397.297          43.000  
C23  21054838.963   109638073.259        1333.790          50.000                                                                  
C09  36992310.492   192628671.829         500.557          40.000    36992298.643   148952653.717         387.089          46.000  
C33  24990953.497   130134439.905       -2661.891          35.000                                                                  
C30  24652276.013   128370854.423       -2092.179          40.000                                                                  
C27  25114630.083   130778482.945       -2775.739          33.000                                                                  
C37  24038399.421   125174250.063        3061.821          42.000                                                                  
> 2025 10 27 02 15 39.5560000  0 21                     
G12  21339716.672   112141010.776        1991.449          44.000    21339705.648    87382552.621        1551.715          40.000  
G15  21994690.958   115582865.609       -3035.692          40.000    21994682.114    90064544.686       -2365.387          38.000  
G18  22101705.125   116145228.761       -3647.010          42.000    22101696.209    90502747.856       -2841.978          42.000  
G23  18677229.922    98149505.263        -838.674          47.000    18677217.745    76480073.473        -653.397          50.000  
G24  19706219.710   103556876.645       -2755.334          40.000    19706208.924    80693617.340       -2146.832          37.000  
G32  21538027.483   113183106.435        1681.483          44.000    21538017.702    88194588.079        1310.417          41.000  
C08  34636969.676   180363784.839         -54.108          45.000    34636952.188   139468650.038         -41.901          50.000  
C13  34746794.027   180935674.499         188.574          46.000    34746784.949   139910901.695         145.734          47.000  
C16  35721494.313   186011194.359         239.368          48.000    35721483.479   143835611.204         185.191          47.000  
C25  21401255.684   111441946.933       -1677.100          44.000                                                                  
C32  21494584.703   111927940.995        1284.030          46.000                                                                  
C06  35487058.842   184790425.896         418.758          43.000    35487042.240   142891616.967         323.775          45.000  
G25  21651441.824   113779113.291        3144.263          40.000    21651435.743    88659025.990        2450.012          40.000  
G10  20134062.258   105805208.448        1991.359          48.000    20134050.739    82445581.433        1551.650          43.000  
G28  23172674.594   121773242.561        3076.395          38.000    23172668.080    94888183.623        2397.144          43.000  
C23  21054828.708   109638019.909        1333.700          50.000                                                                  
C09  36992306.677   192628651.810         500.447          40.000    36992294.796   148952638.235         387.034          46.000  
C33  24990973.945   130134546.390       -2662.128          35.000                                                                  
C30  24652292.101   128370938.109       -2092.158          40.000                                                                  
C27  25114651.407   130778593.976       -2775.789          33.000                                                                  
C37  24038375.918   125174127.584        3061.907          42.000                                                                  
> 2025 10 27 02 15 39.5960000  0 21                     
G12  21339701.515   112140931.117        1991.370          44.000    21339690.480    87382490.542        1551.887          40.000  
G15  21994714.053   115582987.019       -3035.436          40.000    21994705.226    90064639.297       -2365.326          38.000  
G18  22101732.889   116145374.639       -3646.979          42.000    22101723.952    90502861.522       -2841.759          42.000  
G23  18677236.305    98149538.801        -838.590          47.000    18677224.090    76480099.612        -653.491          50.000  
G24  19706240.685   103556986.873       -2755.695          40.000    19706229.883    80693703.212       -2146.765          37.000  
G32  21538014.659   113183039.166        1681.636          44.000    21538004.909    88194535.671        1310.242          41.000  
C08  34636970.093   180363787.002         -54.132          45.000    34636952.621   139468651.709         -41.846          50.000  
C13  34746792.589   180935666.964         188.440          46.000    34746783.500   139910895.866         145.679          47.000  
C16  35721492.513   186011184.781         239.379          48.000    35721481.610   143835603.798         185.138          47.000  
C25  21401268.566   111442014.016       -1677.088          44.000                                                                  
C32  21494574.819   111927889.628        1284.070          46.000                                                                  
C06  35487055.645   184790409.149         418.636          43.000    35487039.038   142891604.014         323.743          45.000  
G25  21651417.884   113778987.524        3144.229          40.000    21651411.827    88658927.982        2450.083          40.000  
G10  20134047.121   105805128.794        1991.322          48.000    20134035.565    82445519.359        1551.732          43.000  
G28  23172651.195   121773119.507        3076.282          38.000    23172644.645    94888087.724        2397.307          42.000  
C23  21054818.445   109637966.558        1333.697          50.000                                                                  
C09  36992302.852   192628631.803         500.174          40.000    36992290.959   148952622.751         387.078          46.000  
C33  24990994.398   130134652.874       -2662.246          35.000                                                                  
C30  24652308.180   128371021.807       -2092.384          40.000                                                                  
C27  25114672.721   130778704.995       -2775.533          33.000                                                                  
C37  24038352.393   125174005.115        3061.766          42.000                                                                  
> 2025 10 27 02 15 39.6360000  0 21                     
G12  21339686.343   112140851.459        1991.321          44.000    21339675.323    87382428.484        1551.602          40.000  
G15  21994737.159   115583108.459       -3035.847          40.000    21994728.317    90064733.917       -2365.426          38.000  
G18  22101760.657   116145520.525       -3647.116          42.000    22101751.719    90502975.197       -2841.829          42.000  
G23  18677242.680    98149572.345        -838.620          47.000    18677230.474    76480125.754        -653.584          50.000  
G24  19706261.663   103557097.101       -2755.835          40.000    19706250.853    80693789.098       -2146.991          37.000  
G32  21538001.875   113182971.904        1681.572          44.000    21537992.102    88194483.251        1310.375          41.000  
C08  34636970.496   180363789.168         -54.187          45.000    34636953.013   139468653.385         -41.913          50.000  
C13  34746791.140   180935659.430         188.348          46.000    34746782.037   139910890.041         145.581          47.000  
C16  35721490.678   186011175.205         239.354          48.000    35721479.771   143835596.397         185.035          47.000  
C25  21401281.442   111442081.109       -1677.299          44.000                                                                  
C32  21494564.939   111927838.264        1284.020          46.000                                                                  
C06  35487052.431   184790392.389         418.815          43.000    35487035.788   142891591.058         323.818          45.000  
G25  21651393.958   113778861.764        3144.022          40.000    21651387.889    88658829.982        2450.034          40.000  
G10  20134031.963   105805049.142        1991.245          48.000    20134020.396    82445457.289        1551.680          43.000  
G28  23172627.772   121772996.435        3076.535          38.000    23172621.231    94887991.829        2397.360          42.000  
C23  21054808.223   109637913.209        1333.685          50.000                                                                  
C09  36992299.010   192628611.770         500.583          40.000    36992287.104   148952607.270         387.022          46.000  
C33  24991014.848   130134759.357       -2662.192          35.000                                                                  
C30  24652324.242   128371105.499       -2092.368          40.000                                                                  
C27  25114694.055   130778816.023       -2775.552          33.000                                                                  
C37  24038328.870   125173882.630        3061.992          42.000                                                                  
> 2025 10 27 02 15 39.6760000  0 21                     
G12  21339671.196   112140771.800        1991.357          44.000    21339660.150    87382366.411        1551.680          40.000  
G15  21994760.268   115583229.901       -3036.087          40.000    21994751.424    90064828.550       -2365.806          38.000  
G18  22101788.425   116145666.411       -3647.184          42.000    22101779.475    90503088.876       -2841.946          42.000  
G23  18677249.067    98149605.892        -838.702          47.000    18677236.858    76480151.894        -653.582          50.000  
G24  19706282.639   103557207.327       -2755.823          40.000    19706271.843    80693874.983       -2147.125          37.000  
G32  21537989.086   113182904.652        1681.342          44.000    21537979.287    88194430.838        1310.317          41.000  
C08  34636970.893   180363791.335         -54.224          45.000    34636953.446   139468655.063         -41.968          50.000  
C13  34746789.703   180935651.899         188.239          46.000    34746780.595   139910884.219         145.502          47.000  
C16  35721488.882   186011165.630         239.322          48.000    35721477.941   143835588.993         185.025          47.000  
C25  21401294.327   111442148.208       -1677.472          44.000                                                                  
C32  21494555.078   111927786.910        1283.831          46.000                                                                  
C06  35487049.178   184790375.640         418.750          43.000    35487032.572   142891578.104         323.790          45.000  
G25  21651370.039   113778736.011        3143.824          40.000    21651363.956    88658731.990        2449.794          40.000  
G10  20134016.801   105804969.484        1991.349          48.000    20134005.243    82445395.228        1551.523          43.000  
G28  23172604.340   121772873.386        3076.292          38.000    23172597.798    94887895.937        2397.310          42.000  
C23  21054797.973   109637859.865        1333.571          50.000                                                                  
C09  36992295.152   192628591.753         500.481          40.000    36992283.223   148952591.788         387.022          46.000  
C33  24991035.317   130134865.847       -2662.240          35.000                                                                  
C30  24652340.332   128371189.187       -2092.247          40.000                                                                  
C27  25114715.382   130778927.071       -2775.926          33.000                                                                  
C37  24038305.328   125173760.158        3061.861          42.000                                                                  
> 2025 10 27 02 15 39.7160000  0 21                     
G12  21339656.023   112140692.148        1991.263          44.000    21339644.996    87382304.338        1551.725          40.000  
G15  21994783.379   115583351.336       -3036.065          40.000    21994774.538    90064923.168       -2365.736          38.000  
G18  22101816.180   116145812.302       -3647.308          42.000    22101807.245    90503202.553       -2841.958          42.000  
G23  18677255.471    98149639.441        -838.801          47.000    18677243.244    76480178.037        -653.625          50.000  
G24  19706303.619   103557317.542       -2755.573          40.000    19706292.826    80693960.889       -2147.541          37.000  
G32  21537976.290   113182837.395        1681.340          44.000    21537966.494    88194378.447        1309.906          41.000  
C08  34636971.327   180363793.502         -54.218          45.000    34636953.868   139468656.739         -41.949          50.000  
C13  34746788.257   180935644.366         188.257          46.000    34746779.159   139910878.392         145.581          47.000  
C16  35721487.083   186011156.058         239.259          48.000    35721476.127   143835581.596         184.910          47.000  
C25  21401307.227   111442215.305       -1677.506          44.000                                                                  
C32  21494545.210   111927735.546        1283.963          46.000                                                                  
C06  35487045.953   184790358.908         418.371          43.000    35487029.354   142891565.163         323.571          45.000  
G25  21651346.116   113778610.246        3143.960          40.000    21651340.030    88658633.978        2450.120          40.000  
G10  20134001.653   105804889.838        1991.204          48.000    20133990.097    82445333.173        1551.353          43.000  
G28  23172580.920   121772750.326        3076.312          38.000    23172574.381    94887800.062        2397.009          42.000  
C23  21054787.706   109637806.530        1333.388          50.000                                                                  
C09  36992291.300   192628571.734         500.469          40.000    36992279.343   148952576.304         387.034          46.000  
C33  24991055.760   130134972.334       -2662.170          35.000                                                                  
C30  24652356.417   128371272.882       -2092.311          40.000                                                                  
C27  25114736.699   130779038.097       -2775.794          33.000                                                                  
C37  24038281.825   125173637.694        3061.651          42.000                                                                  
> 2025 10 27 02 15 39.7560000  0 21                     
G12  21339640.867   112140612.493        1991.278          44.000    21339629.825    87382242.270        1551.661          40.000  
G15  21994806.483   115583472.762       -3035.776          40.000    21994797.659    90065017.793       -2365.720          38.000  
G18  22101843.931   116145958.194       -3647.400          42.000    22101835.003    90503316.235       -2842.032          42.000  
G23  18677261.873    98149672.999        -838.981          47.000    18677249.638    76480204.182        -653.693          50.000  
G24  19706324.597   103557427.758       -2755.426          40.000    19706313.793    80694046.775       -2147.345          37.000  
G32  21537963.478   113182770.134        1681.418          44.000    21537953.678    88194326.036        1310.098          41.000  
C08  34636971.719   180363795.683         -54.468          45.000    34636954.264   139468658.421         -42.065          50.000  
C13  34746786.790   180935636.840         188.123          46.000    34746777.721   139910872.570         145.538          47.000  
C16  35721485.232   186011146.489         239.178          48.000    35721474.283   143835574.198         184.876          47.000  
C25  21401320.120   111442282.405       -1677.534          44.000                                                                  
C32  21494535.376   111927684.187        1283.950          46.000                                                                  
C06  35487042.763   184790342.158         418.517          43.000    35487026.152   142891552.220         323.513          45.000  
G25  21651322.173   113778484.449        3144.555          40.000    21651316.090    88658535.980        2450.010          40.000  
G10  20133986.490   105804810.194        1991.075          48.000    20133974.947    82445271.098        1551.638          43.000  
G28  23172557.509   121772627.271        3076.290          38.000    23172550.966    94887704.175        2397.029          42.000  
C23  21054777.438   109637753.196        1333.253          50.000                                                                  
C09  36992287.461   192628551.720         500.382          40.000    36992275.498   148952560.838         386.718          46.000  
C33  24991076.219   130135078.821       -2662.145          35.000                                                                  
C30  24652372.483   128371356.578       -2092.400          40.000                                                                  
C27  25114758.023   130779149.164       -2776.518          33.000                                                                  
C37  24038258.333   125173515.236        3061.410          42.000                                                                  
> 2025 10 27 02 15 39.7960000  0 21                     
G12  21339625.719   112140532.837        1991.344          44.000    21339614.668    87382180.204        1551.578          40.000  
G15  21994829.592   115583594.183       -3035.534          40.000    21994820.764    90065112.420       -2365.744          38.000  
G18  22101871.706   116146104.087       -3647.429          42.000    22101862.747    90503429.921       -2842.149          42.000  
G23  18677268.271    98149706.561        -839.097          47.000    18677256.046    76480230.333        -653.810          50.000  
G24  19706345.560   103557537.976       -2755.426          40.000    19706334.771    80694132.665       -2147.272          37.000  
G32  21537950.670   113182702.882        1681.297          44.000    21537940.888    88194273.630        1310.118          41.000  
C08  34636972.092   180363797.855         -54.425          45.000    34636954.665   139468660.101         -42.084          50.000  
C13  34746785.338   180935629.308         188.184          46.000    34746776.294   139910866.747         145.520          47.000  
C16  35721483.403   186011136.929         239.001          48.000    35721472.459   143835566.798         184.931          47.000  
C25  21401333.010   111442349.504       -1677.539          44.000                                                                  
C32  21494525.531   111927632.828        1283.932          46.000                                                                  
C06  35487039.543   184790325.414         418.542          43.000    35487022.942   142891539.273         323.591          45.000  
G25  21651298.221   113778358.676        3144.377          40.000    21651292.158    88658437.996        2449.716          40.000  
G10  20133971.351   105804730.544        1991.169          48.000    20133959.788    82445209.036        1551.576          43.000  
G28  23172534.076   121772504.234        3076.000          38.000    23172527.557    94887608.292        2397.001          42.000  
C23  21054767.239   109637699.859        1333.297          50.000                                                                  
C09  36992283.605   192628531.713         500.177          40.000    36992271.682   148952545.361         386.763          46.000  
C33  24991096.690   130135185.311       -2662.240          35.000                                                                  
C30  24652388.543   128371440.283       -2092.618          40.000                                                                  
C27  25114779.346   130779260.210       -2776.431          33.000                                                                  
C37  24038234.798   125173392.771        3061.469          42.000                                                                  
> 2025 10 27 02 15 39.8360000  0 21                     
G12  21339610.573   112140453.189        1991.230          44.000    21339599.510    87382118.143        1551.479          40.000  
G15  21994852.702   115583715.623       -3035.818          40.000    21994843.858    90065207.030       -2365.484          38.000  
G18  22101899.472   116146249.985       -3647.528          42.000    22101890.494    90503543.604       -2842.116          42.000  
G23  18677274.624    98149740.116        -839.005          47.000    18677262.426    76480256.481        -653.795          50.000  
G24  19706366.551   103557648.203       -2755.609          40.000    19706355.748    80694218.575       -2147.644          37.000  
G32  21537937.871   113182635.629        1681.241          44.000    21537928.089    88194221.226        1310.105          41.000  
C08  34636972.524   180363800.028         -54.395          45.000    34636955.071   139468661.782         -42.084          50.000  
C13  34746783.879   180935621.777         188.196          46.000    34746774.837   139910860.923         145.551          47.000  
C16  35721481.580   186011127.359         239.117          48.000    35721470.616   143835559.397         184.991          47.000  
C25  21401345.860   111442416.601       -1677.479          44.000                                                                  
C32  21494515.660   111927581.475        1283.824          46.000                                                                  
C06  35487036.337   184790308.676         418.499          43.000    35487019.710   142891526.319         323.747          45.000  
G25  21651274.289   113778232.928        3143.855          40.000    21651268.225    88658339.988        2449.982          40.000  
G10  20133956.187   105804650.898        1991.136          48.000    20133944.637    82445146.979        1551.479          43.000  
G28  23172510.646   121772381.167        3076.351          38.000    23172504.140    94887512.398        2397.216          42.000  
C23  21054757.043   109637646.521        1333.359          50.000                                                                  
C09  36992279.762   192628511.696         500.266          40.000    36992267.821   148952529.885         386.827          46.000  
C33  24991117.124   130135291.802       -2662.391          35.000                                                                  
C30  24652404.636   128371523.983       -2092.609          40.000                                                                  
C27  25114800.669   130779371.224       -2775.719          33.000                                                                  
C37  24038211.318   125173270.302        3061.595          42.000                                                                  
> 2025 10 27 02 15 39.8760000  0 21                     
G12  21339595.423   112140373.549        1991.029          44.000    21339584.356    87382056.091        1551.253          40.000  
G15  21994875.807   115583837.061       -3035.967          40.000    21994866.967    90065301.658       -2365.685          38.000  
G18  22101927.231   116146395.875       -3647.364          42.000    22101918.262    90503657.291       -2842.184          42.000  
G23  18677280.996    98149773.673        -838.966          47.000    18677268.777    76480282.627        -653.731          50.000  
G24  19706387.544   103557758.465       -2756.366          40.000    19706376.715    80694304.470       -2147.583          37.000  
G32  21537925.070   113182568.385        1681.086          44.000    21537915.291    88194168.815        1310.220          41.000  
C08  34636972.914   180363802.211         -54.553          45.000    34636955.480   139468663.465         -42.102          50.000  
C13  34746782.432   180935614.252         188.129          46.000    34746773.381   139910855.104         145.471          47.000  
C16  35721479.733   186011117.796         239.053          48.000    35721468.787   143835551.998         184.964          47.000  
C25  21401358.748   111442483.713       -1677.727          44.000                                                                  
C32  21494505.813   111927530.126        1283.713          46.000                                                                  
C06  35487033.089   184790291.941         418.376          43.000    35487016.462   142891513.371         323.710          45.000  
G25  21651250.356   113778107.177        3143.679          40.000    21651244.322    88658242.016        2449.479          40.000  
G10  20133941.035   105804571.259        1990.980          48.000    20133929.481    82445084.922        1551.395          43.000  
G28  23172487.232   121772258.110        3076.378          38.000    23172480.739    94887416.522        2396.989          42.000  
C23  21054746.825   109637593.185        1333.365          50.000                                                                  
C09  36992275.906   192628491.689         500.161          40.000    36992263.963   148952514.418         386.709          46.000  
C33  24991137.581   130135398.310       -2662.731          35.000                                                                  
C30  24652420.701   128371607.691       -2092.732          40.000                                                                  
C27  25114821.982   130779482.260       -2775.747          33.000                                                                  
C37  24038187.793   125173147.843        3061.485          42.000                                                                  
> 2025 10 27 02 15 39.9160000  0 21                     
G12  21339580.270   112140293.905        1991.021          44.000    21339569.190    87381994.027        1551.392          40.000  
G15  21994898.907   115583958.498       -3035.997          40.000    21994890.063    90065396.267       -2365.441          38.000  
G18  22101954.991   116146541.772       -3647.439          42.000    22101946.010    90503770.964       -2841.928          42.000  
G23  18677287.422    98149807.236        -839.073          47.000    18677275.171    76480308.778        -653.775          50.000  
G24  19706408.564   103557868.715       -2756.384          40.000    19706397.694    80694390.365       -2147.473          37.000  
G32  21537912.276   113182501.142        1681.033          44.000    21537902.507    88194116.412        1310.149          41.000  
C08  34636973.338   180363804.387         -54.498          45.000    34636955.872   139468665.149         -42.133          50.000  
C13  34746781.001   180935606.724         188.147          46.000    34746771.964   139910849.289         145.355          47.000  
C16  35721477.892   186011108.232         239.044          48.000    35721466.931   143835544.604         184.880          47.000  
C25  21401371.638   111442550.823       -1677.792          44.000                                                                  
C32  21494495.969   111927478.775        1283.722          46.000                                                                  
C06  35487029.862   184790275.199         418.467          43.000    35487013.264   142891500.435         323.481          45.000  
G25  21651226.426   113777981.425        3143.628          40.000    21651220.399    88658144.014        2449.785          40.000  
G10  20133925.882   105804491.631        1990.737          48.000    20133914.336    82445022.857        1551.526          43.000  
G28  23172463.819   121772135.069        3076.120          38.000    23172457.320    94887320.641        2396.959          42.000  
C23  21054736.548   109637539.854        1333.308          50.000                                                                  
C09  36992272.108   192628471.662         500.485          40.000    36992260.116   148952498.945         386.741          46.000  
C33  24991158.042   130135504.799       -2662.433          35.000                                                                  
C30  24652436.820   128371691.400       -2092.760          40.000                                                                  
C27  25114843.313   130779593.288       -2775.712          33.000                                                                  
C37  24038164.303   125173025.385        3061.383          42.000                                                                  
> 2025 10 27 02 15 39.9560000  0 21                     
G12  21339565.100   112140214.258        1991.105          44.000    21339554.029    87381931.953        1551.697          40.000  
G15  21994922.003   115584079.947       -3036.226          40.000    21994913.168    90065490.917       -2366.052          38.000  
G18  22101982.756   116146687.665       -3647.364          42.000    22101973.793    90503884.651       -2842.104          42.000  
G23  18677293.784    98149840.794        -839.022          47.000    18677281.568    76480334.932        -653.869          50.000  
G24  19706429.531   103557978.932       -2755.780          40.000    19706418.659    80694476.238       -2146.936          37.000  
G32  21537899.469   113182433.876        1681.429          44.000    21537889.717    88194064.011        1310.047          41.000  
C08  34636973.748   180363806.555         -54.315          45.000    34636956.286   139468666.833         -42.120          50.000  
C13  34746779.570   180935599.197         188.165          46.000    34746770.529   139910843.468         145.453          47.000  
C16  35721476.058   186011098.663         239.169          48.000    35721465.090   143835537.211         184.798          47.000  
C25  21401384.529   111442617.917       -1677.537          44.000                                                                  
C32  21494486.128   111927427.414        1283.888          46.000                                                                  
C06  35487026.658   184790258.450         418.657          43.000    35487010.053   142891487.494         323.466          45.000  
G25  21651202.507   113777855.663        3143.820          40.000    21651196.464    88658046.017        2449.840          40.000  
G10  20133910.715   105804411.987        1990.919          48.000    20133899.198    82444960.813        1551.244          43.000  
G28  23172440.395   121772012.015        3076.212          38.000    23172433.908    94887224.761        2396.927          42.000  
C23  21054726.296   109637486.522        1333.271          50.000                                                                  
C09  36992268.269   192628451.658         500.222          40.000    36992256.288   148952483.467         386.859          46.000  
C33  24991178.466   130135611.280       -2662.135          35.000                                                                  
C30  24652452.908   128371775.096       -2092.565          40.000                                                                  
C27  25114864.633   130779704.311       -2775.678          33.000                                                                  
C37  24038140.777   125172902.910        3061.681          42.000                                                                  
> 2025 10 27 02 15 39.9960000  0 21                     
G12  21339549.912   112140134.596        1991.403          44.000    21339538.875    87381869.887        1551.713          40.000  
G15  21994945.094   115584201.384       -3036.080          40.000    21994936.277    90065585.552       -2366.105          38.000  
G18  22102010.504   116146833.544       -3647.147          42.000    22102001.570    90503998.341       -2842.247          42.000  
G23  18677300.161    98149874.358        -839.097          47.000    18677287.938    76480361.084        -653.855          50.000  
G24  19706450.490   103558089.141       -2755.304          40.000    19706439.650    80694562.137       -2147.229          37.000  
G32  21537886.670   113182366.617        1681.514          44.000    21537876.910    88194011.608        1310.043          41.000  
C08  34636974.152   180363808.723         -54.236          45.000    34636956.699   139468668.511         -42.017          50.000  
C13  34746778.142   180935591.661         188.318          46.000    34746769.072   139910837.643         145.575          47.000  
C16  35721474.217   186011089.093         239.238          48.000    35721463.231   143835529.813         184.858          47.000  
C25  21401397.414   111442685.019       -1677.512          44.000                                                                  
C32  21494476.251   111927376.061        1283.829          46.000                                                                  
C06  35487023.482   184790241.710         418.566          43.000    35487006.856   142891474.545         323.595          45.000  
G25  21651178.586   113777729.892        3144.141          40.000    21651172.523    88657948.009        2450.078          40.000  
G10  20133895.545   105804332.338        1991.129          48.000    20133884.033    82444898.742        1551.587          43.000  
G28  23172416.986   121771888.974        3076.021          38.000    23172410.476    94887128.868        2397.134          42.000  
C23  21054716.064   109637433.183        1333.374          50.000                                                                  
C09  36992264.427   192628431.648         500.243          40.000    36992252.462   148952467.989         386.890          46.000  
C33  24991198.925   130135717.798       -2662.691          35.000                                                                  
C30  24652469.003   128371858.792       -2092.448          40.000                                                                  
C27  25114885.977   130779815.382       -2776.448          33.000                                                                  
C37  24038117.243   125172780.447        3061.613          42.000                                                                  
> 2025 10 27 02 15 40.0360000  0 21                     
G12  21339534.769   112140054.955        1991.170          44.000    21339523.735    87381807.827        1551.557          40.000  
G15  21994968.198   115584322.813       -3035.849          40.000    21994959.389    90065680.191       -2366.120          38.000  
G18  22102038.290   116146979.443       -3647.410          42.000    22102029.328    90504112.016       -2841.997          42.000  
G23  18677306.534    98149907.917        -839.053          47.000    18677294.317    76480387.238        -653.873          50.000  
G24  19706471.464   103558199.380       -2755.713          40.000    19706460.627    80694648.037       -2147.485          37.000  
G32  21537873.858   113182299.356        1681.580          44.000    21537864.119    88193959.199        1310.151          41.000  
C08  34636974.562   180363810.900         -54.395          45.000    34636957.098   139468670.191         -42.004          50.000  
C13  34746776.694   180935584.139         188.123          46.000    34746767.619   139910831.822         145.557          47.000  
C16  35721472.394   186011079.532         239.085          48.000    35721461.382   143835522.416         184.858          47.000  
C25  21401410.279   111442752.138       -1677.838          44.000                                                                  
C32  21494466.374   111927324.710        1283.772          46.000                                                                  
C06  35487020.239   184790224.979         418.349          43.000    35487003.631   142891461.599         323.612          45.000  
G25  21651154.628   113777604.135        3143.979          40.000    21651148.567    88657850.006        2450.107          40.000  
G10  20133880.387   105804252.686        1991.254          48.000    20133868.884    82444836.685        1551.509          43.000  
G28  23172393.586   121771765.936        3075.903          38.000    23172387.073    94887032.989        2397.032          42.000  
C23  21054705.795   109637379.857        1333.213          50.000                                                                  
C09  36992260.584   192628411.638         500.236          40.000    36992248.612   148952452.525         386.665          46.000  
C33  24991219.404   130135824.273       -2662.178          35.000                                                                  
C30  24652485.071   128371942.493       -2092.500          40.000                                                                  
C27  25114907.300   130779926.423       -2776.383          33.000                                                                  
C37  24038093.765   125172657.980        3061.645          42.000                                                                  
> 2025 10 27 02 15 40.0760000  0 21                     
G12  21339519.625   112139975.319        1990.916          44.000    21339508.591    87381745.772        1551.354          40.000  
G15  21994991.309   115584444.260       -3036.088          40.000    21994982.485    90065774.795       -2365.472          38.000  
G18  22102066.050   116147125.346       -3647.545          42.000    22102057.089    90504225.702       -2842.104          42.000  
G23  18677312.931    98149941.486        -839.197          47.000    18677300.709    76480413.395        -653.935          50.000  
G24  19706492.439   103558309.621       -2755.975          40.000    19706481.605    80694733.944       -2147.760          37.000  
G32  21537861.078   113182232.107        1681.362          44.000    21537851.320    88193906.797        1310.086          41.000  
C08  34636974.965   180363813.088         -54.669          45.000    34636957.524   139468671.875         -42.102          50.000  
C13  34746775.244   180935576.618         187.988          46.000    34746766.161   139910826.005         145.459          47.000  
C16  35721470.541   186011069.975         238.917          48.000    35721459.555   143835515.023         184.799          47.000  
C25  21401423.159   111442819.242       -1677.771          44.000                                                                  
C32  21494456.521   111927273.356        1283.746          46.000                                                                  
C06  35487017.032   184790208.245         418.295          43.000    35487000.408   142891448.657         323.588          45.000  
G25  21651130.684   113777478.369        3144.099          40.000    21651124.635    88657752.034        2449.521          40.000  
G10  20133865.248   105804173.049        1991.049          48.000    20133853.730    82444774.638        1551.278          43.000  
G28  23172370.168   121771642.874        3076.229          38.000    23172363.668    94886937.108        2397.002          42.000  
C23  21054695.503   109637326.534        1333.055          50.000                                                                  
C09  36992256.756   192628391.633         500.137          40.000    36992244.774   148952437.060         386.567          46.000  
C33  24991239.859   130135930.760       -2662.125          35.000                                                                  
C30  24652501.153   128372026.202       -2092.695          40.000                                                                  
C27  25114928.619   130780037.490       -2776.760          33.000                                                                  
C37  24038070.244   125172535.525        3061.446          42.000                                                                  
> 2025 10 27 02 15 40.1160000  0 21                     
G12  21339504.477   112139895.691        1990.680          44.000    21339493.465    87381683.730        1551.048          40.000  
G15  21995014.407   115584565.701       -3036.080          40.000    21995005.581    90065869.428       -2365.662          38.000  
G18  22102093.823   116147271.246       -3647.556          42.000    22102084.865    90504339.395       -2842.284          42.000  
G23  18677319.329    98149975.060        -839.332          47.000    18677307.091    76480439.555        -654.010          50.000  
G24  19706513.403   103558419.865       -2756.122          40.000    19706502.572    80694819.832       -2147.394          37.000  
G32  21537848.279   113182164.874        1680.977          44.000    21537838.539    88193854.399        1309.980          41.000  
C08  34636975.387   180363815.274         -54.761          45.000    34636957.917   139468673.567         -42.297          50.000  
C13  34746773.799   180935569.099         187.921          46.000    34746764.726   139910820.184         145.496          47.000  
C16  35721468.722   186011060.419         238.826          48.000    35721457.733   143835507.630         184.790          47.000  
C25  21401436.039   111442886.353       -1677.814          44.000                                                                  
C32  21494446.643   111927222.017        1283.526          46.000                                                                  
C06  35487013.795   184790191.506         418.366          43.000    35486997.193   142891435.721         323.451          45.000  
G25  21651106.740   113777352.612        3143.973          40.000    21651100.699    88657654.047        2449.468          40.000  
G10  20133850.099   105804093.428        1990.657          48.000    20133838.588    82444712.595        1551.063          43.000  
G28  23172346.761   121771519.818        3076.452          38.000    23172340.266    94886841.233        2396.857          42.000  
C23  21054685.270   109637273.212        1332.996          50.000                                                                  
C09  36992252.913   192628371.633         499.982          40.000    36992240.936   148952421.592         386.625          46.000  
C33  24991260.279   130136037.287       -2662.961          35.000                                                                  
C30  24652517.231   128372109.913       -2092.825          40.000                                                                  
C27  25114949.961   130780148.515       -2776.013          33.000                                                                  
C37  24038046.725   125172413.071        3061.307          42.000                                                                  
> 2025 10 27 02 15 40.1560000  0 21                     
G12  21339489.315   112139816.054        1990.737          44.000    21339478.314    87381621.677        1551.112          40.000  
G15  21995037.522   115584687.151       -3036.273          40.000    21995028.712    90065964.069       -2365.885          38.000  
G18  22102121.602   116147417.140       -3647.443          42.000    22102112.638    90504453.092       -2842.444          42.000  
G23  18677325.733    98150008.632        -839.368          47.000    18677313.484    76480465.713        -654.040          50.000  
G24  19706534.371   103558530.100       -2756.055          40.000    19706523.540    80694905.736       -2147.510          37.000  
G32  21537835.472   113182097.633        1680.920          44.000    21537825.721    88193801.993        1310.082          41.000  
C08  34636975.806   180363817.460         -54.767          45.000    34636958.325   139468675.259         -42.371          50.000  
C13  34746772.380   180935561.575         188.000          46.000    34746763.266   139910814.376         145.245          47.000  
C16  35721466.886   186011050.863         238.798          48.000    35721455.897   143835500.242         184.694          47.000  
C25  21401448.904   111442953.469       -1677.913          44.000                                                                  
C32  21494436.796   111927170.674        1283.486          46.000                                                                  
C06  35487010.576   184790174.780         418.225          43.000    35486993.966   142891422.781         323.426          45.000  
G25  21651082.825   113777226.866        3143.755          40.000    21651076.761    88657556.048        2449.711          40.000  
G10  20133834.948   105804013.798        1990.616          48.000    20133823.429    82444650.530        1551.354          43.000  
G28  23172323.362   121771396.784        3076.130          38.000    23172316.865    94886745.356        2396.835          42.000  
C23  21054675.083   109637219.887        1333.038          50.000                                                                  
C09  36992249.097   192628351.625         500.052          40.000    36992237.078   148952406.120         386.693          46.000  
C33  24991280.706   130136143.778       -2662.606          35.000                                                                  
C30  24652533.289   128372193.633       -2093.069          40.000                                                                  
C27  25114971.278   130780259.558       -2776.054          33.000                                                                  
C37  24038023.211   125172290.613        3061.344          42.000                                                                  
> 2025 10 27 02 15 40.1960000  0 21                     
G12  21339474.175   112139736.415        1990.828          44.000    21339463.154    87381559.624        1551.211          40.000  
G15  21995060.629   115584808.596       -3036.214          40.000    21995051.826    90066058.693       -2365.767          38.000  
G18  22102149.363   116147563.041       -3647.518          42.000    22102140.411    90504566.788       -2842.485          42.000  
G23  18677332.128    98150042.211        -839.511          47.000    18677319.871    76480491.874        -654.076          50.000  
G24  19706555.337   103558640.348       -2756.219          40.000    19706544.507    80694991.648       -2147.766          37.000  
G32  21537822.682   113182030.393        1680.859          44.000    21537812.931    88193749.605        1309.790          41.000  
C08  34636976.242   180363819.643         -54.681          45.000    34636958.727   139468676.951         -42.395          50.000  
C13  34746770.914   180935554.059         187.903          46.000    34746761.844   139910808.562         145.276          47.000  
C16  35721465.048   186011041.304         238.861          48.000    35721454.079   143835492.857         184.601          47.000  
C25  21401461.777   111443020.601       -1678.247          44.000                                                                  
C32  21494426.946   111927119.330        1283.509          46.000                                                                  
C06  35487007.368   184790158.046         418.248          43.000    35486990.766   142891409.844         323.377          45.000  
G25  21651058.893   113777101.123        3143.569          40.000    21651052.839    88657458.066        2449.579          40.000  
G10  20133819.780   105803934.170        1990.579          48.000    20133808.271    82444588.492        1551.036          43.000  
G28  23172299.962   121771273.760        3075.735          38.000    23172293.467    94886649.486        2396.699          42.000  
C23  21054664.824   109637166.569        1332.924          50.000                                                                  
C09  36992245.256   192628331.615         500.196          40.000    36992233.227   148952390.655         386.605          46.000  
C33  24991301.149   130136250.286       -2662.674          35.000                                                                  
C30  24652549.396   128372277.348       -2093.071          40.000                                                                  
C27  25114992.600   130780370.592       -2775.825          33.000                                                                  
C37  24037999.728   125172168.154        3061.397          42.000                                                                  
> 2025 10 27 02 15 40.2360000  0 21                     
G12  21339459.017   112139656.783        1990.785          44.000    21339447.996    87381497.560        1551.471          40.000  
G15  21995083.739   115584930.052       -3036.357          40.000    21995074.948    90066153.324       -2365.811          38.000  
G18  22102177.123   116147708.959       -3647.885          42.000    22102168.160    90504680.478       -2842.334          42.000  
G23  18677338.522    98150075.791        -839.565          47.000    18677326.283    76480518.042        -654.207          50.000  
G24  19706576.306   103558750.593       -2756.232          40.000    19706565.498    80695077.545       -2147.571          37.000  
G32  21537809.888   113181963.152        1680.914          44.000    21537800.135    88193697.215        1309.674          41.000  
C08  34636976.622   180363821.831         -54.712          45.000    34636959.124   139468678.636         -42.249          50.000  
C13  34746769.453   180935546.543         187.860          46.000    34746760.392   139910802.750         145.239          47.000  
C16  35721463.192   186011031.751         238.790          48.000    35721452.273   143835485.467         184.669          47.000  
C25  21401474.651   111443087.715       -1678.063          44.000                                                                  
C32  21494417.101   111927067.987        1283.490          46.000                                                                  
C06  35487004.162   184790141.313         418.247          43.000    35486987.544   142891396.911         323.296          45.000  
G25  21651034.944   113776975.378        3143.535          40.000    21651028.891    88657360.079        2449.541          40.000  
G10  20133804.609   105803854.541        1990.619          48.000    20133793.102    82444526.435        1551.250          43.000  
G28  23172276.556   121771150.729        3075.664          38.000    23172270.044    94886553.626        2396.498          42.000  
C23  21054654.562   109637113.256        1332.792          50.000                                                                  
C09  36992241.429   192628311.636         499.622          40.000    36992229.419   148952375.189         386.587          46.000  
C33  24991321.602   130136356.783       -2662.563          35.000                                                                  
C30  24652565.463   128372361.057       -2092.917          40.000                                                                  
C27  25115013.921   130780481.658       -2776.330          33.000                                                                  
C37  24037976.235   125172045.707        3061.166          42.000                                                                  
> 2025 10 27 02 15 40.2760000  0 21                     
G12  21339443.854   112139577.154        1990.723          44.000    21339432.822    87381435.500        1551.492          40.000  
G15  21995106.861   115585051.493       -3036.220          40.000    21995098.050    90066247.963       -2365.985          38.000  
G18  22102204.912   116147854.868       -3647.863          42.000    22102195.921    90504794.166       -2842.273          42.000  
G23  18677344.917    98150109.365        -839.475          47.000    18677332.649    76480544.207        -654.192          50.000  
G24  19706597.292   103558860.836       -2756.134          40.000    19706586.475    80695163.444       -2147.485          37.000  
G32  21537797.094   113181895.908        1681.030          44.000    21537787.334    88193644.814        1309.862          41.000  
C08  34636977.055   180363824.010         -54.565          45.000    34636959.556   139468680.328         -42.297          50.000  
C13  34746768.009   180935539.024         187.903          46.000    34746758.964   139910796.937         145.288          47.000  
C16  35721461.340   186011022.200         238.728          48.000    35721450.453   143835478.075         184.742          47.000  
C25  21401487.571   111443154.834       -1678.023          44.000                                                                  
C32  21494407.246   111927016.646        1283.485          46.000                                                                  
C06  35487000.950   184790124.585         418.184          43.000    35486984.337   142891383.974         323.360          45.000  
G25  21651011.017   113776849.628        3143.644          40.000    21651004.957    88657262.087        2449.733          40.000  
G10  20133789.451   105803774.911        1990.674          48.000    20133777.939    82444464.387        1551.208          43.000  
G28  23172253.139   121771027.679        3076.017          38.000    23172246.624    94886457.751        2396.646          42.000  
C23  21054644.333   109637059.935        1332.893          50.000                                                                  
C09  36992237.621   192628291.638         499.700          40.000    36992225.581   148952359.724         386.582          46.000  
C33  24991342.063   130136463.295       -2662.774          35.000                                                                  
C30  24652581.542   128372444.773       -2092.942          40.000                                                                  
C27  25115035.246   130780592.685       -2775.874          33.000                                                                  
C37  24037952.722   125171923.257        3061.159          42.000                                                                  
> 2025 10 27 02 15 40.3160000  0 21                     
G12  21339428.713   112139497.513        1990.928          44.000    21339417.677    87381373.458        1551.166          40.000  
G15  21995129.948   115585172.931       -3036.033          40.000    21995121.174    90066342.592       -2365.795          38.000  
G18  22102232.666   116148000.766       -3647.656          42.000    22102223.703    90504907.852       -2842.148          42.000  
G23  18677351.291    98150142.936        -839.374          47.000    18677339.034    76480570.369        -654.153          50.000  
G24  19706618.261   103558971.086       -2756.268          40.000    19706607.437    80695249.347       -2147.522          37.000  
G32  21537784.292   113181828.665        1681.035          44.000    21537774.527    88193592.416        1309.905          41.000  
C08  34636977.468   180363826.195         -54.590          45.000    34636959.942   139468682.015         -42.212          50.000  
C13  34746766.584   180935531.499         188.055          46.000    34746757.515   139910791.115         145.471          47.000  
C16  35721459.506   186011012.638         238.906          48.000    35721448.587   143835470.685         184.726          47.000  
C25  21401500.473   111443221.947       -1677.871          44.000                                                                  
C32  21494397.408   111926965.301        1283.543          46.000                                                                  
C06  35486997.733   184790107.851         418.245          43.000    35486981.091   142891371.038         323.381          45.000  
G25  21650987.072   113776723.866        3143.940          40.000    21650981.024    88657164.109        2449.499          40.000  
G10  20133774.292   105803695.284        1990.608          48.000    20133762.795    82444402.344        1551.069          43.000  
G28  23172229.717   121770904.613        3076.527          38.000    23172223.210    94886361.871        2396.871          42.000  
C23  21054634.112   109637006.617        1332.933          50.000                                                                  
C09  36992233.778   192628271.622         500.138          40.000    36992221.695   148952344.259         386.595          46.000  
C33  24991362.502   130136569.787       -2662.493          35.000                                                                  
C30  24652597.651   128372528.480       -2092.772          40.000                                                                  
C27  25115056.561   130780703.732       -2776.057          33.000                                                                  
C37  24037929.215   125171800.804        3061.233          42.000                                                                  
> 2025 10 27 02 15 40.3560000  0 21                     
G12  21339413.544   112139417.876        1990.944          44.000    21339402.516    87381311.414        1551.057          40.000  
G15  21995153.070   115585294.383       -3036.253          40.000    21995144.293    90066437.225       -2365.802          38.000  
G18  22102260.407   116148146.652       -3647.296          42.000    22102251.480    90505021.540       -2842.181          42.000  
G23  18677357.674    98150176.511        -839.387          47.000    18677345.436    76480596.529        -654.071          50.000  
G24  19706639.251   103559081.323       -2756.073          40.000    19706628.423    80695335.262       -2147.754          37.000  
G32  21537771.489   113181761.413        1681.226          44.000    21537761.724    88193540.026        1309.790          41.000  
C08  34636977.857   180363828.374         -54.523          45.000    34636960.361   139468683.695         -42.065          50.000  
C13  34746765.119   180935523.980         188.019          46.000    34746756.084   139910785.298         145.459          47.000  
C16  35721457.657   186011003.074         239.059          48.000    35721446.748   143835463.293         184.778          47.000  
C25  21401513.389   111443289.059       -1677.811          44.000                                                                  
C32  21494387.560   111926913.949        1283.713          46.000                                                                  
C06  35486994.534   184790091.121         418.260          43.000    35486977.860   142891358.100         323.413          45.000  
G25  21650963.143   113776598.122        3143.722          40.000    21650957.096    88657066.121        2449.640          40.000  
G10  20133759.157   105803615.653        1990.709          48.000    20133747.640    82444340.289        1551.226          43.000  
G28  23172206.302   121770781.576        3076.224          38.000    23172199.783    94886265.995        2396.912          42.000  
C23  21054623.873   109636953.298        1332.945          50.000                                                                  
C09  36992229.938   192628251.609         500.323          40.000    36992217.846   148952328.786         386.751          46.000  
C33  24991382.936   130136676.267       -2662.171          35.000                                                                  
C30  24652613.730   128372612.194       -2092.836          40.000                                                                  
C27  25115077.868   130780814.758       -2775.803          33.000                                                                  
C37  24037905.703   125171678.344        3061.419          42.000                                                                  
> 2025 10 27 02 15 40.3960000  0 21                     
G12  21339398.397   112139338.246        1990.816          44.000    21339387.365    87381249.367        1551.060          40.000  
G15  21995176.179   115585415.812       -3035.897          40.000    21995167.395    90066531.861       -2365.915          38.000  
G18  22102288.171   116148292.556       -3647.448          42.000    22102279.257    90505135.234       -2842.319          42.000  
G23  18677364.082    98150210.089        -839.451          47.000    18677351.815    76480622.694        -654.110          50.000  
G24  19706660.239   103559191.573       -2756.152          40.000    19706649.401    80695421.186       -2148.083          37.000  
G32  21537758.701   113181694.167        1681.216          44.000    21537748.938    88193487.620        1310.060          41.000  
C08  34636978.264   180363830.556         -54.553          45.000    34636960.771   139468685.382         -42.126          50.000  
C13  34746763.660   180935516.457         188.062          46.000    34746754.653   139910779.482         145.428          47.000  
C16  35721455.821   186010993.515         239.021          48.000    35721444.912   143835455.905         184.713          47.000  
C25  21401526.257   111443356.177       -1677.915          44.000                                                                  
C32  21494377.690   111926862.600        1283.730          46.000                                                                  
C06  35486991.345   184790074.391         418.205          43.000    35486974.628   142891345.162         323.430          45.000  
G25  21650939.223   113776472.360        3143.917          40.000    21650933.163    88656968.139        2449.512          40.000  
G10  20133743.997   105803536.026        1990.670          48.000    20133732.474    82444278.254        1550.989          43.000  
G28  23172182.890   121770658.552        3075.809          38.000    23172176.380    94886170.110        2397.100          42.000  
C23  21054613.668   109636899.975        1333.014          50.000                                                                  
C09  36992226.071   192628231.605         500.240          40.000    36992214.021   148952313.323         386.650          46.000  
C33  24991403.417   130136782.789       -2662.746          35.000                                                                  
C30  24652629.795   128372695.892       -2092.585          40.000                                                                  
C27  25115099.195   130780925.804       -2776.015          33.000                                                                  
C37  24037882.201   125171555.883        3061.531          42.000                                                                  
> 2025 10 27 02 15 40.4360000  0 21                     
G12  21339383.233   112139258.611        1990.817          44.000    21339372.209    87381187.306        1551.321          40.000  
G15  21995199.293   115585537.257       -3035.992          40.000    21995190.508    90066626.495       -2365.914          38.000  
G18  22102315.948   116148438.467       -3647.710          42.000    22102307.031    90505248.924       -2842.312          42.000  
G23  18677370.477    98150243.666        -839.456          47.000    18677358.203    76480648.859        -654.135          50.000  
G24  19706681.217   103559301.811       -2756.012          40.000    19706670.384    80695507.087       -2147.748          37.000  
G32  21537745.897   113181626.929        1680.997          44.000    21537736.138    88193435.214        1310.157          41.000  
C08  34636978.685   180363832.732         -54.468          45.000    34636961.188   139468687.072         -42.218          50.000  
C13  34746762.218   180935508.936         188.062          46.000    34746753.204   139910773.673         145.258          47.000  
C16  35721453.983   186010983.954         239.019          48.000    35721443.070   143835448.511         184.810          47.000  
C25  21401539.185   111443423.298       -1677.976          44.000                                                                  
C32  21494367.783   111926811.254        1283.684          46.000                                                                  
C06  35486988.123   184790057.650         418.429          43.000    35486971.436   142891332.226         323.404          45.000  
G25  21650915.288   113776346.598        3144.015          40.000    21650909.222    88656870.129        2449.996          40.000  
G10  20133728.817   105803456.392        1990.787          48.000    20133717.313    82444216.198        1551.211          43.000  
G28  23172159.479   121770535.501        3076.040          38.000    23172152.984    94886074.229        2397.085          42.000  
C23  21054603.404   109636846.656        1332.967          50.000                                                                  
C09  36992222.226   192628211.602         500.152          40.000    36992210.185   148952297.853         386.706          46.000  
C33  24991423.871   130136889.309       -2662.985          35.000                                                                  
C30  24652645.864   128372779.604       -2092.707          40.000                                                                  
C27  25115120.537   130781036.855       -2776.213          33.000                                                                  
C37  24037858.673   125171433.420        3061.577          42.000                                                                  
> 2025 10 27 02 15 40.4760000  0 21                     
G12  21339368.082   112139178.985        1990.679          44.000    21339357.075    87381125.258        1551.237          40.000  
G15  21995222.399   115585658.694       -3035.892          40.000    21995213.617    90066721.127       -2365.788          38.000  
G18  22102343.739   116148584.376       -3647.815          42.000    22102334.772    90505362.603       -2842.132          42.000  
G23  18677376.879    98150277.245        -839.506          47.000    18677364.596    76480675.025        -654.185          50.000  
G24  19706702.196   103559412.053       -2756.012          40.000    19706691.357    80695592.971       -2147.278          37.000  
G32  21537733.081   113181559.687        1680.967          44.000    21537723.346    88193382.819        1309.949          41.000  
C08  34636979.099   180363834.917         -54.626          45.000    34636961.592   139468688.765         -42.328          50.000  
C13  34746760.756   180935501.418         187.988          46.000    34746751.769   139910767.860         145.227          47.000  
C16  35721452.167   186010974.404         238.823          48.000    35721441.233   143835441.121         184.763          47.000  
C25  21401552.080   111443490.422       -1678.088          44.000                                                                  
C32  21494357.942   111926759.908        1283.639          46.000                                                                  
C06  35486984.925   184790040.924         418.270          43.000    35486968.217   142891319.280         323.567          45.000  
G25  21650891.367   113776220.855        3143.744          40.000    21650885.291    88656772.134        2450.000          40.000  
G10  20133713.656   105803376.757        1990.828          48.000    20133702.166    82444154.153        1551.135          43.000  
G28  23172136.075   121770412.474        3075.764          38.000    23172129.579    94885978.342        2397.185          42.000  
C23  21054593.152   109636793.340        1332.896          50.000                                                                  
C09  36992218.409   192628191.602         500.065          40.000    36992206.344   148952282.383         386.718          46.000  
C33  24991444.319   130136995.807       -2662.708          35.000                                                                  
C30  24652661.925   128372863.325       -2092.971          40.000                                                                  
C27  25115141.826   130781147.913       -2776.474          33.000                                                                  
C37  24037835.174   125171310.962        3061.463          42.000                                                                  
> 2025 10 27 02 15 40.5160000  0 21                     
G12  21339352.924   112139099.352        1990.757          44.000    21339341.913    87381063.206        1551.261          40.000  
G15  21995245.517   115585780.149       -3036.204          40.000    21995236.725    90066815.756       -2365.638          38.000  
G18  22102371.494   116148730.266       -3647.446          42.000    22102362.545    90505476.298       -2842.282          42.000  
G23  18677383.260    98150310.821        -839.467          47.000    18677370.980    76480701.191        -654.184          50.000  
G24  19706723.190   103559522.300       -2756.116          40.000    19706712.335    80695678.884       -2147.620          37.000  
G32  21537720.294   113181492.441        1681.078          44.000    21537710.557    88193330.432        1309.742          41.000  
C08  34636979.518   180363837.101         -54.645          45.000    34636961.996   139468690.451         -42.212          50.000  
C13  34746759.294   180935493.890         188.129          46.000    34746750.303   139910762.046         145.270          47.000  
C16  35721450.351   186010964.845         238.892          48.000    35721439.402   143835433.730         184.764          47.000  
C25  21401564.973   111443557.540       -1677.997          44.000                                                                  
C32  21494348.068   111926708.563        1283.601          46.000                                                                  
C06  35486981.700   184790024.192         418.292          43.000    35486965.014   142891306.342         323.518          45.000  
G25  21650867.430   113776095.112        3143.596          40.000    21650861.359    88656674.158        2449.594          40.000  
G10  20133698.512   105803297.134        1990.641          48.000    20133687.020    82444092.103        1551.145          43.000  
G28  23172112.672   121770289.459        3075.430          38.000    23172106.155    94885882.471        2396.924          42.000  
C23  21054582.922   109636740.024        1332.860          50.000                                                                  
C09  36992214.596   192628171.607         499.942          40.000    36992202.491   148952266.917         386.650          46.000  
C33  24991464.739   130137102.304       -2662.573          35.000                                                                  
C30  24652677.984   128372947.046       -2093.102          40.000                                                                  
C27  25115163.170   130781258.946       -2776.097          33.000                                                                  
C37  24037811.669   125171188.515        3061.214          42.000                                                                  
