     3.04           OBSERVATION DATA    M: Mixed            RINEX VERSION / TYPE
RTKCONV 2.4.3 b34                       20251027 032436 UTC PGM / RUN BY / DATE 
format: u-blox UBX                                          COMMENT             
log: D:\GPdata\10_27\fingure_110_10_27_2.ubx                COMMENT             
                                                            MARKER NAME         
                                                            MARKER NUMBER       
                                                            MARKER TYPE         
                                                            OBSERVER / AGENCY   
                                                            REC # / TYPE / VERS 
                                                            ANT # / TYPE        
        0.0000        0.0000        0.0000                  APPROX POSITION XYZ 
        0.0000        0.0000        0.0000                  ANTENNA: DELTA H/E/N
G    8 C1C L1C D1C S1C C2L L2L D2L S2L                      SYS / # / OBS TYPES 
C    8 C2I L2I D2I S2I C7I L7I D7I S7I                      SYS / # / OBS TYPES 
  2025    10    27    02    46   30.7160000     GPS         TIME OF FIRST OBS   
  2025    10    27    02    46   55.7560000     GPS         TIME OF LAST OBS    
G L1C                                                       SYS / PHASE SHIFT   
G L2L  0.00000                                              SYS / PHASE SHIFT   
C L2I                                                       SYS / PHASE SHIFT   
C L7I                                                       SYS / PHASE SHIFT   
  0                                                         GLONASS SLOT / FRQ #
 C1C    0.000 C1P    0.000 C2C    0.000 C2P    0.000        GLONASS COD/PHS/BIS 
                                                            END OF HEADER       
> 2025 10 27 02 46 30.7160000  0 19                     
G12  20795712.057   109282206.8961       1038.325          45.000    20795700.389    85154913.6721        809.099          41.000  
G15  23097434.160   121377832.9171      -3222.438          37.000    23097425.682    94580091.6431      -2510.583          33.000  
G18  23405554.959   122997021.9061      -3694.615          38.000    23405548.904    95841802.7531      -2878.463          37.000  
G23  19164999.585   100712751.6091      -1930.631          45.000    19164987.586    78477394.6251      -1504.349          47.000  
G24  20782934.307                1      -3307.742          28.000    20782924.220    85102601.0661      -2578.381          32.000  
G32  20970263.000   110199477.8691       1535.109          45.000    20970252.671    85869668.3951       1196.158          42.000  
C08  34695981.398   180671078.5211       -292.621          45.000    34695964.622   139706259.4611       -226.239          49.000  
C13  34710947.208   180749007.9471         -2.216          47.000    34710938.039   139766552.2881         -1.801          48.000  
C16  35672786.019   185757557.3411         36.268          45.000    35672776.155   143639486.5751         28.028          48.000  
C25  22141223.992   115295157.9061      -2451.831          37.000                                                                  
C32  21093404.596   109838896.8691        942.436          49.000                                                                  
C06  35374184.478   184202662.1661        216.136          44.000    35374168.826   142437119.0711        167.074          47.000  
G25  20616364.333   108339734.5221       2658.696          45.000    20616355.144    84420529.9211       2071.617          41.000  
G10  19564388.120   102811549.2831       1187.500          49.000    19564376.260    80112851.8661        925.330          44.000  
G28  22156374.770   116432543.8531       2662.746          41.000    22156364.189    90726637.5911       2074.436          41.000  
C23  20742528.252   108011784.4031        403.689          51.000                                                                  
C09  36847084.659   191872442.2401        313.609          41.000    36847072.573   148367890.3581        242.672          47.000  
C33  25978459.633                       -2891.016          30.000                                                                  
C37  22996207.893   119747300.8831       2756.265          44.000                                                                  
> 2025 10 27 02 46 30.7560000  0 19                     
G12  20795704.145   109282165.361        1038.347          45.000    20795692.471    85154881.319         808.841          41.000  
G15  23097458.683   121377961.773       -3221.759          37.000    23097450.221    94580192.088       -2510.919          33.000  
G18  23405583.090   122997169.676       -3694.380          38.000    23405577.022    95841917.939       -2879.320          37.000  
G23  19165014.307   100712828.846       -1930.844          45.000    19165002.280    78477454.811       -1504.581          47.000  
G24  20782959.224                       -3307.579          28.000    20782949.388    85102704.186       -2578.488          32.000  
G32  20970251.299   110199416.469        1535.089          45.000    20970241.001    85869620.562        1195.916          42.000  
C08  34695983.627   180671090.228        -292.670          45.000    34695966.870   139706268.515        -226.318          49.000  
C13  34710947.216   180749008.037          -2.228          47.000    34710938.067   139766552.356          -1.764          48.000  
C16  35672785.747   185757555.899          36.144          45.000    35672775.921   143639485.466          27.827          48.000  
C25  22141242.829   115295255.998       -2452.057          37.000                                                                  
C32  21093397.327   109838859.184         942.229          49.000                                                                  
C06  35374182.799   184202653.528         216.030          44.000    35374167.147   142437112.393         166.954          47.000  
G25  20616344.090   108339628.171        2658.747          45.000    20616334.908    84420447.053        2071.600          41.000  
G10  19564379.094   102811501.783        1187.500          49.000    19564367.221    80112814.847         925.439          44.000  
G28  22156354.503   116432437.352        2662.674          41.000    22156343.903    90726554.609        2074.493          41.000  
C23  20742525.102   108011768.263         403.550          51.000                                                                  
C09  36847082.257   191872429.680         313.866          41.000    36847070.148   148367880.663         242.456          47.000  
C33  25978481.894                       -2891.955          30.000                                                                  
C37  22996186.735   119747190.622        2756.419          44.000                                                                  
> 2025 10 27 02 46 30.7960000  0 19                     
G12  20795696.237   109282123.822        1038.438          45.000    20795684.591    85154848.955         808.925          41.000  
G15  23097483.205   121378090.670       -3222.174          37.000    23097474.723    94580292.503       -2510.675          33.000  
G18  23405611.198   122997317.462       -3694.517          38.000    23405605.149    95842033.080       -2878.954          37.000  
G23  19165029.024   100712906.080       -1930.893          45.000    19165016.993    78477514.990       -1504.531          47.000  
G24  20782984.243                       -3307.271          28.000    20782974.547    85102807.252       -2577.379          32.000  
G32  20970239.636   110199355.077        1534.912          45.000    20970229.315    85869572.715        1196.063          42.000  
C08  34695985.884   180671101.935        -292.694          45.000    34695969.153   139706277.565        -226.294          49.000  
C13  34710947.240   180749008.124          -2.216          47.000    34710938.061   139766552.424          -1.733          48.000  
C16  35672785.459   185757554.460          36.011          45.000    35672775.659   143639484.351          27.805          48.000  
C25  22141261.655   115295354.103       -2452.448          37.000                                                                  
C32  21093390.090   109838821.495         942.180          49.000                                                                  
C06  35374181.135   184202644.896         215.846          44.000    35374165.468   142437105.713         166.945          47.000  
G25  20616323.857   108339521.825        2658.688          45.000    20616314.668    84420364.188        2071.600          41.000  
G10  19564370.059   102811454.295        1187.250          49.000    19564358.228    80112777.838         925.293          44.000  
G28  22156334.247   116432330.855        2662.460          41.000    22156323.635    90726471.618        2074.717          41.000  
C23  20742521.996   108011752.125         403.443          51.000                                                                  
C09  36847079.879   191872417.134         313.718          41.000    36847067.737   148367870.962         242.458          47.000  
C33  25978504.078                       -2892.296          30.000                                                                  
C37  22996165.520   119747080.372        2756.297          44.000                                                                  
> 2025 10 27 02 46 30.8360000  0 19                     
G12  20795688.343   109282082.288        1038.424          45.000    20795676.688    85154816.594         808.934          41.000  
G15  23097507.746   121378219.564       -3222.376          37.000    23097499.249    94580392.943       -2510.935          33.000  
G18  23405639.308   122997465.238       -3694.430          38.000    23405633.242    95842148.221       -2878.712          37.000  
G23  19165043.695   100712983.315       -1930.911          45.000    19165031.688    78477575.173       -1504.586          47.000  
G24  20783009.526                       -3307.439          28.000    20782999.720    85102910.366       -2577.493          32.000  
G32  20970227.944   110199293.678        1534.932          45.000    20970217.627    85869524.883        1195.881          42.000  
C08  34695988.140   180671113.643        -292.725          45.000    34695971.426   139706286.616        -226.276          49.000  
C13  34710947.277   180749008.218          -2.338          47.000    34710938.095   139766552.492          -1.703          48.000  
C16  35672785.148   185757553.020          35.956          45.000    35672775.431   143639483.240          27.762          48.000  
C25  22141280.507   115295452.212       -2452.630          37.000                                                                  
C32  21093382.873   109838783.803         942.233          49.000                                                                  
C06  35374179.483   184202636.247         216.091          44.000    35374163.827   142437099.030         167.007          47.000  
G25  20616303.631   108339415.480        2658.643          45.000    20616294.444    84420281.311        2071.844          41.000  
G10  19564361.027   102811406.803        1187.244          49.000    19564349.203    80112740.835         925.098          44.000  
G28  22156314.002   116432224.363        2662.286          41.000    22156303.339    90726388.628        2074.777          41.000  
C23  20742518.912   108011735.987         403.388          51.000                                                                  
C09  36847077.434   191872404.593         313.530          41.000    36847065.315   148367861.256         242.572          47.000  
C33  25978526.303                       -2891.284          30.000                                                                  
C37  22996144.358   119746970.114        2756.369          44.000                                                                  
> 2025 10 27 02 46 30.8760000  0 19                     
G12  20795680.456   109282040.763        1038.208          45.000    20795668.787    85154784.219         809.240          41.000  
G15  23097532.280   121378348.456       -3222.423          37.000    23097523.761    94580493.416       -2511.766          33.000  
G18  23405667.433   122997613.016       -3694.454          38.000    23405661.349    95842263.370       -2878.751          37.000  
G23  19165058.373   100713060.551       -1930.941          45.000    19165046.376    78477635.357       -1504.655          47.000  
G24  20783034.743                       -3307.595          28.000    20783024.906    85103013.453       -2577.218          32.000  
G32  20970216.263   110199232.288        1534.778          45.000    20970205.935    85869477.045        1195.844          42.000  
C08  34695990.397   180671125.349        -292.694          45.000    34695973.706   139706295.659        -226.141          49.000  
C13  34710947.296   180749008.313          -2.429          47.000    34710938.115   139766552.561          -1.746          48.000  
C16  35672784.866   185757551.578          35.992          45.000    35672775.172   143639482.122          27.848          48.000  
C25  22141299.357   115295550.312       -2452.585          37.000                                                                  
C32  21093375.645   109838746.111         942.265          49.000                                                                  
C06  35374177.812   184202627.598         216.189          44.000    35374162.180   142437092.347         167.054          47.000  
G25  20616283.373   108339309.133        2658.657          45.000    20616274.185    84420198.445        2071.713          41.000  
G10  19564351.984   102811359.307        1187.323          49.000    19564340.181    80112703.834         924.994          44.000  
G28  22156293.743   116432117.891        2661.840          41.000    22156283.077    90726305.652        2074.488          41.000  
C23  20742515.841   108011719.847         403.417          51.000                                                                  
C09  36847075.024   191872392.044         313.607          41.000    36847062.934   148367851.555         242.508          47.000  
C33  25978548.484                       -2890.898          30.000                                                                  
C37  22996123.196   119746859.862        2756.330          44.000                                                                  
> 2025 10 27 02 46 30.9160000  0 19                     
G12  20795672.559   109281999.234        1038.152          45.000    20795660.858    85154751.849         809.320          41.000  
G15  23097556.806   121378477.354       -3222.564          37.000    23097548.277    94580593.823       -2510.826          33.000  
G18  23405695.555   122997760.791       -3694.415          38.000    23405689.461    95842378.528       -2878.886          37.000  
G23  19165073.069   100713137.791       -1931.009          45.000    19165061.060    78477695.545       -1504.760          47.000  
G24  20783060.159                       -3307.733          28.000    20783050.106    85103116.541       -2577.172          32.000  
G32  20970204.580   110199170.895        1534.749          45.000    20970194.259    85869429.202        1195.937          42.000  
C08  34695992.690   180671137.050        -292.603          45.000    34695975.954   139706304.719        -226.385          49.000  
C13  34710947.316   180749008.407          -2.417          47.000    34710938.150   139766552.637          -1.892          48.000  
C16  35672784.572   185757550.146          35.844          45.000    35672774.927   143639481.012          27.755          48.000  
C25  22141318.209   115295648.380       -2451.968          37.000                                                                  
C32  21093368.409   109838708.421         942.226          49.000                                                                  
C06  35374176.148   184202618.957         216.105          44.000    35374160.506   142437085.664         167.050          47.000  
G25  20616263.141   108339202.798        2658.423          45.000    20616253.929    84420115.593        2071.400          41.000  
G10  19564342.929   102811311.817        1187.225          49.000    19564331.146    80112666.829         925.055          44.000  
G28  22156273.491   116432011.413        2661.770          41.000    22156262.810    90726222.678        2074.309          41.000  
C23  20742512.730   108011703.709         403.405          51.000                                                                  
C09  36847072.618   191872379.501         313.564          41.000    36847060.529   148367841.856         242.451          47.000  
C33  25978570.672                       -2890.776          30.000                                                                  
C37  22996102.001   119746749.615        2756.176          44.000                                                                  
> 2025 10 27 02 46 30.9560000  0 19                     
G12  20795664.662   109281957.709        1038.045          45.000    20795652.946    85154719.497         808.936          41.000  
G15  23097581.339   121378606.249       -3222.521          37.000    23097572.788    94580694.243       -2510.583          33.000  
G18  23405723.690   122997908.590       -3694.842          38.000    23405717.574    95842493.684       -2878.928          37.000  
G23  19165087.747   100713215.032       -1931.064          45.000    19165075.759    78477755.733       -1504.777          47.000  
G24  20783085.062                       -3307.631          28.000    20783075.297    85103219.658       -2577.656          32.000  
G32  20970192.892   110199109.505        1534.708          45.000    20970182.579    85869381.365        1195.905          42.000  
C08  34695994.930   180671148.756        -292.621          45.000    34695978.164   139706313.777        -226.483          49.000  
C13  34710947.327   180749008.501          -2.405          47.000    34710938.160   139766552.712          -1.935          48.000  
C16  35672784.288   185757548.704          35.905          45.000    35672774.679   143639479.895          27.829          48.000  
C25  22141337.056   115295746.490       -2452.357          37.000                                                                  
C32  21093361.187   109838670.731         942.221          49.000                                                                  
C06  35374174.495   184202610.322         215.940          44.000    35374158.886   142437078.986         166.978          47.000  
G25  20616242.912   108339096.461        2658.357          45.000    20616233.709    84420032.742        2071.260          41.000  
G10  19564333.885   102811264.327        1187.213          49.000    19564322.074    80112629.819         925.177          44.000  
G28  22156253.228   116431904.909        2662.290          41.000    22156242.561    90726139.689        2074.561          41.000  
C23  20742509.580   108011687.573         403.375          51.000                                                                  
C09  36847070.207   191872366.963         313.419          41.000    36847058.127   148367832.161         242.352          46.000  
C33  25978592.883                       -2891.396          30.000                                                                  
C37  22996080.819   119746639.380        2755.923          44.000                                                                  
> 2025 10 27 02 46 30.9960000  0 19                     
G12  20795656.760   109281916.186        1038.026          45.000    20795645.061    85154687.155         808.593          41.000  
G15  23097605.851   121378735.147       -3222.522          37.000    23097597.284    94580794.685       -2510.836          33.000  
G18  23405751.828   122998056.382       -3694.930          38.000    23405745.699    95842608.854       -2879.192          37.000  
G23  19165102.473   100713292.274       -1931.094          45.000    19165090.442    78477815.926       -1504.844          47.000  
G24  20783109.606                       -3307.739          28.000    20783100.487    85103322.723       -2577.047          32.000  
G32  20970181.201   110199048.113        1534.729          45.000    20970170.910    85869333.524        1195.991          42.000  
C08  34695997.160   180671160.475        -292.889          45.000    34695980.422   139706322.831        -226.447          49.000  
C13  34710947.339   180749008.595          -2.411          47.000    34710938.196   139766552.785          -1.892          48.000  
C16  35672783.995   185757547.266          35.906          45.000    35672774.405   143639478.784          27.777          48.000  
C25  22141355.888   115295844.596       -2452.536          37.000                                                                  
C32  21093353.944   109838633.048         942.106          49.000                                                                  
C06  35374172.859   184202601.693         215.732          44.000    35374157.259   142437072.311         166.874          47.000  
G25  20616222.683   108338990.122        2658.390          45.000    20616213.451    84419949.868        2071.608          41.000  
G10  19564324.852   102811216.839        1187.164          49.000    19564313.042    80112592.821         925.000          44.000  
G28  22156232.957   116431798.406        2662.568          41.000    22156222.296    90726056.706        2074.604          41.000  
C23  20742506.505   108011671.438         403.350          51.000                                                                  
C09  36847067.820   191872354.420         313.492          41.000    36847055.728   148367822.464         242.360          46.000  
C33  25978615.103                       -2892.263          30.000                                                                  
C37  22996059.660   119746529.131        2756.056          44.000                                                                  
> 2025 10 27 02 46 31.0360000  0 19                     
G12  20795648.852   109281874.653        1038.198          45.000    20795637.155    85154654.796         808.747          41.000  
G15  23097630.348   121378864.022       -3222.205          37.000    23097621.830    94580895.136       -2511.208          33.000  
G18  23405779.961   122998204.150       -3694.477          38.000    23405773.810    95842724.001       -2878.878          37.000  
G23  19165117.163   100713369.515       -1931.087          45.000    19165105.129    78477876.118       -1504.843          47.000  
G24  20783134.678                       -3308.173          28.000    20783125.704    85103425.858       -2577.864          32.000  
G32  20970169.539   110198986.719        1534.781          45.000    20970159.220    85869285.690        1195.891          42.000  
C08  34695999.410   180671172.193        -293.005          45.000    34695982.676   139706331.887        -226.422          49.000  
C13  34710947.352   180749008.688          -2.368          47.000    34710938.224   139766552.857          -1.825          48.000  
C16  35672783.711   185757545.836          35.771          45.000    35672774.133   143639477.675          27.693          48.000  
C25  22141374.714   115295942.705       -2452.627          37.000                                                                  
C32  21093346.707   109838595.368         941.993          49.000                                                                  
C06  35374171.220   184202593.050         215.886          44.000    35374155.612   142437065.635         166.852          47.000  
G25  20616202.455   108338883.788        2658.319          45.000    20616193.218    84419867.000        2071.680          41.000  
G10  19564315.816   102811169.352        1187.128          49.000    19564304.005    80112555.821         924.915          44.000  
G28  22156212.697   116431691.899        2662.708          41.000    22156202.017    90725973.735        2074.361          41.000  
C23  20742503.375   108011655.307         403.254          51.000                                                                  
C09  36847065.421   191872341.870         313.688          41.000    36847053.316   148367812.769         242.336          46.000  
C33  25978637.334                       -2892.418          30.000                                                                  
C37  22996038.522   119746418.877        2756.229          44.000                                                                  
> 2025 10 27 02 46 31.0760000  0 19                     
G12  20795640.952   109281833.128        1038.143          45.000    20795629.256    85154622.430         809.004          41.000  
G15  23097654.890   121378992.919       -3222.383          37.000    23097646.352    94580995.552       -2510.629          33.000  
G18  23405808.077   122998351.920       -3694.315          38.000    23405801.936    95842839.164       -2879.004          37.000  
G23  19165131.848   100713446.757       -1931.068          45.000    19165119.809    78477936.302       -1504.699          47.000  
G24  20783159.944                       -3307.947          28.000    20783150.900    85103528.978       -2578.043          32.000  
G32  20970157.871   110198925.330        1534.764          45.000    20970147.551    85869237.857        1195.755          42.000  
C08  34696001.670   180671183.902        -292.877          45.000    34695984.910   139706340.942        -226.416          49.000  
C13  34710947.366   180749008.783          -2.411          47.000    34710938.251   139766552.927          -1.794          48.000  
C16  35672783.442   185757544.400          35.808          45.000    35672773.885   143639476.571          27.604          48.000  
C25  22141393.544   115296040.803       -2452.490          37.000                                                                  
C32  21093339.465   109838557.681         942.047          49.000                                                                  
C06  35374169.571   184202584.425         215.692          44.000    35374153.969   142437058.958         166.848          47.000  
G25  20616182.212   108338777.442        2658.519          45.000    20616172.995    84419784.141        2071.531          41.000  
G10  19564306.800   102811121.870        1187.036          49.000    19564294.978    80112518.818         924.994          44.000  
G28  22156192.414   116431585.410        2662.367          41.000    22156181.729    90725890.754        2074.462          41.000  
C23  20742500.277   108011639.177         403.192          51.000                                                                  
C09  36847062.999   191872329.333         313.529          41.000    36847050.913   148367803.071         242.388          46.000  
C33  25978659.509                       -2891.073          30.000                                                                  
C37  22996017.331   119746308.618        2756.405          44.000                                                                  
> 2025 10 27 02 46 31.1160000  0 19                     
G12  20795633.030   109281791.604        1038.077          45.000    20795621.327    85154590.075         808.894          41.000  
G15  23097679.413   121379121.795       -3222.053          37.000    23097670.853    94581095.980       -2510.561          33.000  
G18  23405836.203   122998499.703       -3694.426          38.000    23405830.040    95842954.294       -2878.523          37.000  
G23  19165146.537   100713524.002       -1931.150          45.000    19165134.528    78477996.496       -1504.831          47.000  
G24  20783185.206                       -3308.186          28.000    20783176.066    85103632.056       -2577.313          32.000  
G32  20970146.181   110198863.932        1534.906          45.000    20970135.880    85869190.021        1195.813          42.000  
C08  34696003.949   180671195.612        -292.810          45.000    34695987.182   139706349.998        -226.410          49.000  
C13  34710947.379   180749008.883          -2.496          47.000    34710938.262   139766553.007          -1.947          48.000  
C16  35672783.132   185757542.959          35.938          45.000    35672773.615   143639475.461          27.656          48.000  
C25  22141412.385   115296138.898       -2452.467          37.000                                                                  
C32  21093332.218   109838519.993         942.125          49.000                                                                  
C06  35374167.911   184202575.778         215.989          44.000    35374152.354   142437052.280         166.890          47.000  
G25  20616161.944   108338671.094        2658.658          45.000    20616152.769    84419701.280        2071.501          41.000  
G10  19564297.751   102811074.378        1187.183          49.000    19564285.946    80112481.812         925.079          44.000  
G28  22156172.168   116431478.941        2661.865          41.000    22156161.487    90725807.777        2074.406          41.000  
C23  20742497.200   108011623.043         403.261          51.000                                                                  
C09  36847060.586   191872316.798         313.378          41.000    36847048.508   148367793.374         242.406          46.000  
C33  25978681.682                       -2890.448          30.000                                                                  
C37  22995996.144   119746198.386        2756.034          44.000                                                                  
> 2025 10 27 02 46 31.1560000  0 19                     
G12  20795625.148   109281750.095        1037.768          45.000    20795613.417    85154557.722         808.830          41.000  
G15  23097703.942   121379250.696       -3222.375          37.000    23097695.362    94581196.407       -2510.565          33.000  
G18  23405864.361   122998647.501       -3694.799          38.000    23405858.150    95843069.459       -2878.865          37.000  
G23  19165161.205   100713601.252       -1931.273          45.000    19165149.265    78478056.691       -1504.911          47.000  
G24  20783210.220                       -3307.943          28.000    20783201.262    85103735.188       -2577.835          32.000  
G32  20970134.494   110198802.546        1534.762          45.000    20970124.195    85869142.180        1195.957          42.000  
C08  34696006.211   180671207.329        -292.902          45.000    34695989.459   139706359.052        -226.385          49.000  
C13  34710947.402   180749008.984          -2.563          47.000    34710938.311   139766553.087          -2.020          48.000  
C16  35672782.845   185757541.530          35.801          45.000    35672773.361   143639474.353          27.656          48.000  
C25  22141431.234   115296237.003       -2452.584          37.000                                                                  
C32  21093324.970   109838482.312         942.027          49.000                                                                  
C06  35374166.243   184202567.143         215.909          44.000    35374150.690   142437045.594         167.054          47.000  
G25  20616141.714   108338564.747        2658.692          45.000    20616132.542    84419618.416        2071.564          41.000  
G10  19564288.701   102811026.894        1187.097          49.000    19564276.922    80112444.812         924.982          44.000  
G28  22156151.918   116431372.475        2661.584          41.000    22156141.255    90725724.805        2074.313          41.000  
C23  20742494.095   108011606.917         403.144          51.000                                                                  
C09  36847058.161   191872304.263         313.271          41.000    36847046.100   148367783.674         242.468          46.000  
C33  25978703.929                       -2891.948          30.000                                                                  
C37  22995975.024   119746088.140        2756.083          44.000                                                                  
> 2025 10 27 02 46 31.1960000  0 19                     
G12  20795617.222   109281708.566        1038.011          45.000    20795605.541    85154525.378         808.611          41.000  
G15  23097728.472   121379379.586       -3222.278          37.000    23097719.891    94581296.827       -2510.594          33.000  
G18  23405892.488   122998795.277       -3694.554          38.000    23405886.279    95843184.613       -2878.959          37.000  
G23  19165175.911   100713678.507       -1931.421          45.000    19165163.934    78478116.886       -1504.923          47.000  
G24  20783235.493                       -3307.873          28.000    20783226.435    85103838.260       -2577.184          32.000  
G32  20970122.829   110198741.163        1534.600          45.000    20970112.516    85869094.337        1196.051          42.000  
C08  34696008.478   180671219.036        -292.755          45.000    34695991.709   139706368.113        -226.508          48.000  
C13  34710947.406   180749009.086          -2.612          47.000    34710938.313   139766553.162          -1.941          47.000  
C16  35672782.554   185757540.092          35.868          45.000    35672773.090   143639473.242          27.707          47.000  
C25  22141450.079   115296335.100       -2452.503          37.000                                                                  
C32  21093317.739   109838444.632         941.971          49.000                                                                  
C06  35374164.562   184202558.514         215.757          44.000    35374149.018   142437038.918         166.958          47.000  
G25  20616121.495   108338458.423        2658.276          45.000    20616112.322    84419535.579        2071.114          41.000  
G10  19564279.689   102810979.413        1187.012          49.000    19564267.898    80112407.812         924.957          44.000  
G28  22156131.655   116431265.995        2661.820          41.000    22156120.987    90725641.837        2074.183          41.000  
C23  20742490.981   108011590.791         403.083          51.000                                                                  
C09  36847055.783   191872291.716         313.489          41.000    36847043.666   148367773.980         242.354          46.000  
C33  25978726.116                       -2892.629          30.000                                                                  
C37  22995953.882   119745977.903        2755.915          44.000                                                                  
> 2025 10 27 02 46 31.2360000  0 19                     
G12  20795609.322   109281667.052        1037.914          45.000    20795597.649    85154493.032         808.545          41.000  
G15  23097752.987   121379508.489       -3222.477          37.000    23097744.423    94581397.293       -2511.392          33.000  
G18  23405920.614   122998943.071       -3694.785          38.000    23405914.398    95843299.747       -2878.612          37.000  
G23  19165190.617   100713755.757       -1931.351          45.000    19165178.649    78478177.076       -1504.828          47.000  
G24  20783260.758                       -3308.197          28.000    20783251.618    85103941.393       -2577.869          32.000  
G32  20970111.142   110198679.775        1534.603          45.000    20970100.842    85869046.503        1195.944          42.000  
C08  34696010.775   180671230.746        -292.767          45.000    34695993.975   139706377.173        -226.526          48.000  
C13  34710947.425   180749009.182          -2.509          47.000    34710938.356   139766553.236          -1.874          47.000  
C16  35672782.258   185757538.658          35.848          45.000    35672772.803   143639472.126          27.851          47.000  
C25  22141468.953   115296433.218       -2452.845          37.000                                                                  
C32  21093310.504   109838406.954         941.917          49.000                                                                  
C06  35374162.881   184202549.879         215.815          44.000    35374147.355   142437032.251         166.741          47.000  
G25  20616101.269   108338352.103        2658.004          45.000    20616092.085    84419452.714        2071.364          41.000  
G10  19564270.665   102810931.938        1186.865          49.000    19564258.877    80112370.819         924.835          44.000  
G28  22156111.381   116431159.486        2662.455          41.000    22156100.739    90725558.849        2074.470          41.000  
C23  20742487.914   108011574.660         403.163          51.000                                                                  
C09  36847053.382   191872279.181         313.406          41.000    36847041.259   148367764.282         242.379          46.000  
C33  25978748.336                       -2890.436          31.000                                                                  
C37  22995932.714   119745867.670        2755.755          44.000                                                                  
> 2025 10 27 02 46 31.2760000  0 19                     
G12  20795601.440   109281625.538        1037.846          45.000    20795589.781    85154460.678         808.646          41.000  
G15  23097777.511   121379637.384       -3222.488          37.000    23097768.965    94581497.754       -2511.657          33.000  
G18  23405948.734   122999090.854       -3694.747          38.000    23405942.528    95843414.926       -2879.161          37.000  
G23  19165205.322   100713833.011       -1931.394          45.000    19165193.370    78478237.269       -1504.828          47.000  
G24  20783285.927                       -3308.107          28.000    20783276.823    85104044.521       -2578.199          32.000  
G32  20970099.465   110198618.382        1534.708          45.000    20970089.154    85868998.669        1195.846          42.000  
C08  34696012.993   180671242.453        -292.676          45.000    34695996.211   139706386.233        -226.526          48.000  
C13  34710947.433   180749009.283          -2.551          47.000    34710938.350   139766553.312          -1.904          47.000  
C16  35672781.965   185757537.221          35.867          45.000    35672772.490   143639471.014          27.828          47.000  
C25  22141487.813   115296531.333       -2452.980          37.000                                                                  
C32  21093303.296   109838369.265         942.099          49.000                                                                  
C06  35374161.194   184202541.250         215.723          44.000    35374145.674   142437025.579         166.721          46.000  
G25  20616081.013   108338245.778        2657.958          45.000    20616071.860    84419369.863        2071.272          41.000  
G10  19564261.604   102810884.457        1186.932          49.000    19564249.858    80112333.821         924.854          44.000  
G28  22156091.115   116431052.993        2662.463          41.000    22156080.477    90725475.884        2074.233          41.000  
C23  20742484.798   108011558.535         403.112          51.000                                                                  
C09  36847050.998   191872266.642         313.439          41.000    36847038.854   148367754.585         242.360          46.000  
C33  25978770.551                       -2891.489          31.000                                                                  
C37  22995911.573   119745757.435        2755.737          44.000                                                                  
> 2025 10 27 02 46 31.3160000  0 19                     
G12  20795593.510   109281584.026        1037.757          45.000    20795581.857    85154428.323         808.778          41.000  
G15  23097802.050   121379766.290       -3222.683          37.000    23097793.467    94581598.173       -2511.052          33.000  
G18  23405976.859   122999238.620       -3694.400          38.000    23405970.657    95843530.092       -2879.205          37.000  
G23  19165220.034   100713910.264       -1931.399          45.000    19165208.056    78478297.466       -1504.865          47.000  
G24  20783310.968                       -3308.459          28.000    20783302.015    85104147.628       -2577.936          32.000  
G32  20970087.794   110198556.996        1534.656          45.000    20970077.469    85868950.836        1195.771          42.000  
C08  34696015.268   180671254.176        -292.981          45.000    34695998.451   139706395.286        -226.404          48.000  
C13  34710947.445   180749009.379          -2.454          47.000    34710938.339   139766553.387          -1.904          47.000  
C16  35672781.647   185757535.796          35.699          45.000    35672772.213   143639469.905          27.760          47.000  
C25  22141506.655   115296629.437       -2452.835          37.000                                                                  
C32  21093296.070   109838331.586         942.020          49.000                                                                  
C06  35374159.512   184202532.616         215.765          44.000    35374143.997   142437018.902         166.804          46.000  
G25  20616060.791   108338139.440        2658.262          45.000    20616051.627    84419287.010        2071.227          41.000  
G10  19564252.541   102810836.977        1186.963          49.000    19564240.845    80112296.831         924.762          44.000  
G28  22156070.848   116430946.509        2662.198          41.000    22156060.234    90725392.915        2074.172          41.000  
C23  20742481.691   108011542.412         403.062          51.000                                                                  
C09  36847048.545   191872254.104         313.406          41.000    36847036.429   148367744.885         242.418          46.000  
C33  25978792.814                       -2892.487          31.000                                                                  
C37  22995890.438   119745647.181        2756.096          44.000                                                                  
> 2025 10 27 02 46 31.3560000  0 19                     
G12  20795585.614   109281542.507        1037.884          45.000    20795573.961    85154395.971         808.776          41.000  
G15  23097826.580   121379895.178       -3222.388          37.000    23097817.972    94581698.631       -2511.481          33.000  
G18  23406004.985   122999386.405       -3694.471          38.000    23405998.789    95843645.246       -2878.906          37.000  
G23  19165234.729   100713987.516       -1931.336          45.000    19165222.764    78478357.668       -1505.021          47.000  
G24  20783336.361                       -3308.322          28.000    20783327.167    85104250.734       -2577.961          32.000  
G32  20970076.125   110198495.606        1534.703          45.000    20970065.786    85868902.992        1195.927          42.000  
C08  34696017.525   180671265.893        -292.987          45.000    34696000.661   139706404.341        -226.373          48.000  
C13  34710947.474   180749009.473          -2.380          47.000    34710938.357   139766553.462          -1.880          47.000  
C16  35672781.382   185757534.356          35.838          45.000    35672771.916   143639468.799          27.670          47.000  
C25  22141525.497   115296727.537       -2452.642          37.000                                                                  
C32  21093288.842   109838293.908         941.964          49.000                                                                  
C06  35374157.843   184202523.976         215.947          44.000    35374142.328   142437012.221         166.957          46.000  
G25  20616040.548   108338033.105        2658.350          45.000    20616031.392    84419204.145        2071.417          41.000  
G10  19564243.499   102810789.499        1186.932          49.000    19564231.790    80112259.833         924.847          44.000  
G28  22156050.601   116430840.034        2661.932          41.000    22156039.970    90725309.937        2074.303          41.000  
C23  20742478.582   108011526.291         403.005          51.000                                                                  
C09  36847046.108   191872241.563         313.437          41.000    36847034.024   148367735.194         242.305          46.000  
C33  25978815.025                       -2891.573          31.000                                                                  
C37  22995869.247   119745536.923        2756.411          44.000                                                                  
> 2025 10 27 02 46 31.3960000  0 19                     
G12  20795577.721   109281500.985        1037.999          45.000    20795566.066    85154363.625         808.671          41.000  
G15  23097851.130   121380024.058       -3222.025          37.000    23097842.517    94581799.054       -2510.914          33.000  
G18  23406033.102   122999534.193       -3694.630          38.000    23406026.891    95843760.390       -2878.667          37.000  
G23  19165249.455   100714064.761       -1931.193          45.000    19165237.472    78478417.863       -1504.970          47.000  
G24  20783361.561                       -3308.585          28.000    20783352.354    85104353.821       -2577.498          32.000  
G32  20970064.459   110198434.215        1534.734          45.000    20970054.080    85868855.158        1195.861          42.000  
C08  34696019.778   180671277.604        -292.877          45.000    34696002.902   139706413.399        -226.404          48.000  
C13  34710947.512   180749009.573          -2.490          47.000    34710938.359   139766553.544          -2.026          47.000  
C16  35672781.112   185757532.921          35.850          45.000    35672771.660   143639467.697          27.556          47.000  
C25  22141544.329   115296825.638       -2452.594          37.000                                                                  
C32  21093281.639   109838256.226         942.002          49.000                                                                  
C06  35374156.196   184202515.350         215.770          44.000    35374140.684   142437005.538         167.063          46.000  
G25  20616020.311   108337926.756        2658.638          45.000    20616011.175    84419121.285        2071.461          41.000  
G10  19564234.456   102810742.025        1186.853          49.000    19564222.745    80112222.834         924.939          44.000  
G28  22156030.334   116430733.563        2661.754          41.000    22156019.697    90725226.959        2074.409          41.000  
C23  20742475.501   108011510.162         403.112          51.000                                                                  
C09  36847043.690   191872229.021         313.513          41.000    36847031.640   148367725.505         242.231          46.000  
C33  25978837.240                       -2892.154          31.000                                                                  
C37  22995848.057   119745426.679        2756.292          44.000                                                                  
> 2025 10 27 02 46 31.4360000  0 19                     
G12  20795569.828   109281459.475        1037.828          45.000    20795558.162    85154331.274         808.670          41.000  
G15  23097875.672   121380152.971       -3222.444          37.000    23097867.045    94581899.486       -2510.778          33.000  
G18  23406061.213   122999681.986       -3694.820          38.000    23406055.010    95843875.541       -2878.690          37.000  
G23  19165264.169   100714142.020       -1931.400          45.000    19165252.179    78478478.064       -1505.064          47.000  
G24  20783386.746                       -3308.020          28.000    20783377.558    85104456.899       -2577.022          32.000  
G32  20970052.767   110198372.821        1534.791          45.000    20970042.405    85868807.320        1195.881          42.000  
C08  34696022.034   180671289.315        -292.816          45.000    34696005.164   139706422.458        -226.489          48.000  
C13  34710947.526   180749009.675          -2.582          47.000    34710938.361   139766553.618          -1.953          47.000  
C16  35672780.823   185757531.490          35.769          45.000    35672771.369   143639466.585          27.677          47.000  
C25  22141563.174   115296923.748       -2452.758          37.000                                                                  
C32  21093274.400   109838218.549         941.925          49.000                                                                  
C06  35374154.570   184202506.722         215.679          44.000    35374139.061   142436998.861         166.986          46.000  
G25  20616000.093   108337820.422        2658.498          45.000    20615990.921    84419038.427        2071.472          41.000  
G10  19564225.400   102810694.543        1186.981          49.000    19564213.688    80112185.841         924.847          44.000  
G28  22156010.067   116430627.085        2661.781          41.000    22155999.429    90725143.976        2074.539          41.000  
C23  20742472.351   108011494.040         403.046          51.000                                                                  
C09  36847041.295   191872216.486         313.406          41.000    36847029.238   148367715.808         242.314          46.000  
C33  25978859.478                       -2891.771          31.000                                                                  
C37  22995826.887   119745316.457        2755.802          44.000                                                                  
> 2025 10 27 02 46 31.4760000  0 19                     
G12  20795561.933   109281417.968        1037.667          45.000    20795550.273    85154298.928         808.601          41.000  
G15  23097900.187   121380281.873       -3222.706          37.000    23097891.590    94581999.922       -2510.772          33.000  
G18  23406089.329   122999829.762       -3694.604          38.000    23406083.126    95843990.693       -2878.819          37.000  
G23  19165278.880   100714219.276       -1931.493          45.000    19165266.874    78478538.259       -1504.976          47.000  
G24  20783411.414                       -3307.730          28.000    20783402.695    85104560.004       -2577.363          32.000  
G32  20970041.088   110198311.435        1534.684          45.000    20970030.727    85868759.501        1195.546          42.000  
C08  34696024.283   180671301.032        -292.902          45.000    34696007.397   139706431.519        -226.563          48.000  
C13  34710947.554   180749009.776          -2.588          47.000    34710938.384   139766553.691          -1.855          47.000  
C16  35672780.576   185757530.054          35.803          45.000    35672771.100   143639465.477          27.683          47.000  
C25  22141582.034   115297021.862       -2452.886          37.000                                                                  
C32  21093267.170   109838180.869         941.958          49.000                                                                  
C06  35374152.903   184202498.091         215.709          44.000    35374137.421   142436992.191         166.833          46.000  
G25  20615979.864   108337714.095        2658.269          45.000    20615970.678    84418955.572        2071.358          41.000  
G10  19564216.367   102810647.066        1186.926          49.000    19564204.641    80112148.841         924.902          44.000  
G28  22155989.817   116430520.600        2661.981          41.000    22155979.177    90725061.013        2074.220          41.000  
C23  20742469.253   108011477.921         402.975          51.000                                                                  
C09  36847038.903   191872203.953         313.312          41.000    36847026.850   148367706.111         242.377          46.000  
C33  25978881.720                       -2891.381          31.000                                                                  
C37  22995805.721   119745206.226        2755.701          44.000                                                                  
> 2025 10 27 02 46 31.5160000  0 19                     
G12  20795554.060   109281376.465        1037.552          45.000    20795542.369    85154266.584         808.533          41.000  
G15  23097924.729   121380410.776       -3222.754          37.000    23097916.113    94582100.346       -2510.648          33.000  
G18  23406117.449   122999977.547       -3694.667          38.000    23406111.268    95844105.834       -2878.722          37.000  
G23  19165293.569   100714296.535       -1931.535          45.000    19165281.578    78478598.465       -1505.138          47.000  
G24  20783436.289                       -3307.853          28.000    20783427.871    85104663.115       -2577.696          32.000  
G32  20970029.410   110198250.049        1534.616          45.000    20970019.048    85868711.668        1195.658          42.000  
C08  34696026.524   180671312.748        -292.914          45.000    34696009.661   139706440.583        -226.624          48.000  
C13  34710947.606   180749009.872          -2.478          47.000    34710938.392   139766553.771          -1.971          47.000  
C16  35672780.301   185757528.620          35.812          45.000    35672770.800   143639464.367          27.708          47.000  
C25  22141600.892   115297119.961       -2452.648          37.000                                                                  
C32  21093259.939   109838143.192         941.895          49.000                                                                  
C06  35374151.225   184202489.455         215.809          44.000    35374135.753   142436985.522         166.711          46.000  
G25  20615959.664   108337607.779        2657.945          45.000    20615950.444    84418872.723        2071.230          41.000  
G10  19564207.374   102810599.595        1186.798          49.000    19564195.612    80112111.849         924.799          44.000  
G28  22155969.553   116430414.103        2662.279          41.000    22155958.921    90724978.044        2074.166          41.000  
C23  20742466.156   108011461.799         402.983          51.000                                                                  
C09  36847036.491   191872191.414         313.422          41.000    36847024.454   148367696.412         242.426          46.000  
C33  25978903.911                       -2890.656          31.000                                                                  
C37  22995784.563   119745095.980        2755.916          44.000                                                                  
> 2025 10 27 02 46 31.5560000  0 19                     
G12  20795546.138   109281334.950        1037.753          45.000    20795534.465    85154234.252         808.277          41.000  
G15  23097949.270   121380539.671       -3222.592          37.000    23097940.661    94582200.808       -2511.370          33.000  
G18  23406145.558   123000125.326       -3694.521          38.000    23406139.385    95844220.992       -2878.891          37.000  
G23  19165308.259   100714373.791       -1931.522          45.000    19165296.268    78478658.662       -1505.062          47.000  
G24  20783461.483                       -3307.861          28.000    20783453.061    85104766.251       -2578.384          32.000  
G32  20970017.736   110198188.669        1534.495          45.000    20970007.372    85868663.825        1195.959          42.000  
C08  34696028.786   180671324.461        -292.883          45.000    34696011.928   139706449.642        -226.550          48.000  
C13  34710947.629   180749009.971          -2.466          47.000    34710938.403   139766553.849          -1.971          47.000  
C16  35672780.030   185757527.186          35.840          45.000    35672770.539   143639463.258          27.727          47.000  
C25  22141619.725   115297218.076       -2452.811          37.000                                                                  
C32  21093252.704   109838105.515         941.889          49.000                                                                  
C06  35374149.543   184202480.828         215.693          44.000    35374134.108   142436978.849         166.752          46.000  
G25  20615939.431   108337501.456        2657.905          45.000    20615930.231    84418789.866        2071.320          41.000  
G10  19564198.338   102810552.128        1186.664          49.000    19564186.583    80112074.863         924.634          44.000  
G28  22155949.313   116430307.609        2662.350          41.000    22155938.663    90724895.071        2074.248          41.000  
C23  20742463.011   108011445.685         402.856          51.000                                                                  
C09  36847034.040   191872178.878         313.416          41.000    36847022.046   148367686.723         242.261          46.000  
C33  25978926.141                       -2890.747          31.000                                                                  
C37  22995763.400   119744985.744        2755.940          44.000                                                                  
> 2025 10 27 02 46 31.5960000  0 19                     
G12  20795538.217   109281293.442        1037.738          45.000    20795526.574    85154201.892         808.691          41.000  
G15  23097973.795   121380668.556       -3222.280          37.000    23097965.192    94582301.251       -2511.438          32.000  
G18  23406173.660   123000273.092       -3694.228          38.000    23406167.506    95844336.156       -2879.102          37.000  
G23  19165322.947   100714451.053       -1931.577          45.000    19165310.993    78478718.861       -1505.012          47.000  
G24  20783486.467                       -3307.884          28.000    20783478.260    85104869.374       -2578.381          32.000  
G32  20970006.037   110198127.277        1534.634          45.000    20969995.691    85868615.976        1196.206          42.000  
C08  34696031.041   180671336.183        -293.018          45.000    34696014.195   139706458.702        -226.532          48.000  
C13  34710947.663   180749010.066          -2.411          47.000    34710938.406   139766553.922          -1.880          47.000  
C16  35672779.724   185757525.752          35.871          45.000    35672770.250   143639462.150          27.726          47.000  
C25  22141638.562   115297316.191       -2452.859          37.000                                                                  
C32  21093245.511   109838067.840         941.859          49.000                                                                  
C06  35374147.895   184202472.186         215.906          44.000    35374132.461   142436972.170         166.864          46.000  
G25  20615919.181   108337395.125        2658.094          45.000    20615910.004    84418707.013        2071.337          41.000  
G10  19564189.290   102810504.652        1186.780          49.000    19564177.542    80112037.864         924.854          44.000  
G28  22155929.058   116430201.131        2662.049          41.000    22155918.374    90724812.102        2074.223          41.000  
C23  20742459.988   108011429.563         402.950          51.000                                                                  
C09  36847031.652   191872166.331         313.636          41.000    36847019.641   148367677.024         242.363          46.000  
C33  25978948.417                       -2891.602          31.000                                                                  
C37  22995742.228   119744875.495        2756.122          44.000                                                                  
> 2025 10 27 02 46 31.6360000  0 19                     
G12  20795530.333   109281251.934        1037.704          45.000    20795518.679    85154169.540         808.742          41.000  
G15  23097998.322   121380797.457       -3222.406          37.000    23097989.747    94582401.706       -2511.637          32.000  
G18  23406201.784   123000420.872       -3694.294          38.000    23406195.634    95844451.336       -2879.465          37.000  
G23  19165337.668   100714528.310       -1931.520          45.000    19165325.690    78478779.064       -1505.074          47.000  
G24  20783511.568                       -3307.574          28.000    20783503.445    85104972.473       -2577.657          32.000  
G32  20969994.367   110198065.893        1534.575          45.000    20969984.033    85868568.151        1195.881          42.000  
C08  34696033.295   180671347.901        -293.011          45.000    34696016.393   139706467.763        -226.520          48.000  
C13  34710947.690   180749010.161          -2.399          47.000    34710938.420   139766554.000          -1.917          47.000  
C16  35672779.484   185757524.317          35.862          45.000    35672769.982   143639461.051          27.502          47.000  
C25  22141657.414   115297414.293       -2452.666          37.000                                                                  
C32  21093238.296   109838030.162         941.898          49.000                                                                  
C06  35374146.213   184202463.552         215.869          44.000    35374130.773   142436965.490         166.954          46.000  
G25  20615898.948   108337288.787        2658.337          45.000    20615889.779    84418624.157        2071.389          41.000  
G10  19564180.234   102810457.174        1186.890          49.000    19564168.514    80112000.870         924.878          44.000  
G28  22155908.816   116430094.662        2661.714          41.000    22155898.087    90724729.129        2074.229          41.000  
C23  20742456.890   108011413.445         402.918          51.000                                                                  
C09  36847029.246   191872153.797         313.437          41.000    36847017.225   148367667.330         242.331          46.000  
C33  25978970.658                       -2892.642          31.000                                                                  
C37  22995721.044   119744765.262        2755.934          44.000                                                                  
> 2025 10 27 02 46 31.6760000  0 19                     
G12  20795522.458   109281210.431        1037.594          45.000    20795510.786    85154137.214         808.306          41.000  
G15  23098022.855   121380926.381       -3222.902          37.000    23098014.264    94582502.154       -2511.494          32.000  
G18  23406229.906   123000568.657       -3694.503          38.000    23406223.731    95844566.478       -2878.949          37.000  
G23  19165352.361   100714605.568       -1931.476          45.000    19165340.404    78478839.273       -1505.223          47.000  
G24  20783536.868                       -3307.950          28.000    20783528.655    85105075.569       -2577.298          32.000  
G32  20969982.691   110198004.514        1534.473          45.000    20969972.352    85868520.323        1195.741          42.000  
C08  34696035.529   180671359.622        -293.060          45.000    34696018.614   139706476.825        -226.556          48.000  
C13  34710947.715   180749010.276          -2.771          47.000    34710938.427   139766554.079          -1.978          47.000  
C16  35672779.232   185757522.890          35.682          45.000    35672769.698   143639459.948          27.495          47.000  
C25  22141676.240   115297512.403       -2452.717          37.000                                                                  
C32  21093231.093   109837992.480         941.994          49.000                                                                  
C06  35374144.527   184202454.917         215.889          44.000    35374129.110   142436958.819         166.844          46.000  
G25  20615878.710   108337182.458        2658.270          45.000    20615869.551    84418541.307        2071.303          41.000  
G10  19564171.235   102810409.703        1186.829          49.000    19564159.472    80111963.889         924.628          44.000  
G28  22155888.568   116429988.210        2661.314          41.000    22155877.818    90724646.159        2074.204          41.000  
C23  20742453.780   108011397.329         402.873          51.000                                                                  
C09  36847026.815   191872141.264         313.324          41.000    36847014.800   148367657.637         242.320          46.000  
C33  25978992.895                       -2892.058          31.000                                                                  
C37  22995699.878   119744655.024        2755.902          44.000                                                                  
> 2025 10 27 02 46 31.7160000  0 19                     
G12  20795514.553   109281168.931        1037.467          45.000    20795502.878    85154104.882         808.179          41.000  
G15  23098047.390   121381055.262       -3222.395          37.000    23098038.747    94582602.565       -2510.773          32.000  
G18  23406258.002   123000716.467       -3695.076          38.000    23406251.851    95844681.635       -2878.885          37.000  
G23  19165367.057   100714682.827       -1931.451          45.000    19165355.102    78478899.479       -1505.222          47.000  
G24  20783561.873                       -3307.956          28.000    20783553.869    85105178.654       -2577.053          32.000  
G32  20969970.994   110197943.125        1534.605          45.000    20969960.646    85868472.494        1195.687          42.000  
C08  34696037.770   180671371.340        -292.999          45.000    34696020.838   139706485.882        -226.495          48.000  
C13  34710947.723   180749010.380          -2.753          47.000    34710938.417   139766554.161          -2.063          47.000  
C16  35672778.959   185757521.458          35.694          45.000    35672769.420   143639458.840          27.576          47.000  
C25  22141695.080   115297610.515       -2452.779          37.000                                                                  
C32  21093223.837   109837954.806         941.916          49.000                                                                  
C06  35374142.853   184202446.293         215.668          44.000    35374127.457   142436952.150         166.726          46.000  
G25  20615858.504   108337076.135        2658.124          45.000    20615849.298    84418458.457        2071.252          41.000  
G10  19564162.181   102810362.232        1186.780          49.000    19564150.433    80111926.896         924.738          44.000  
G28  22155868.311   116429881.731        2661.630          41.000    22155857.573    90724563.189        2074.211          41.000  
C23  20742450.672   108011381.214         402.849          51.000                                                                  
C09  36847024.410   191872128.733         313.238          41.000    36847012.394   148367647.941         242.338          46.000  
C33  25979015.108                       -2891.307          31.000                                                                  
C37  22995678.716   119744544.788        2755.888          44.000                                                                  
> 2025 10 27 02 46 31.7560000  0 19                     
G12  20795506.662   109281127.429        1037.458          45.000    20795494.959    85154072.531         808.475          41.000  
G15  23098071.920   121381184.157       -3222.328          37.000    23098063.271    94582702.995       -2510.734          32.000  
G18  23406286.123   123000864.245       -3694.821          38.000    23406279.953    95844796.771       -2878.484          37.000  
G23  19165381.793   100714760.096       -1931.663          45.000    19165369.814    78478959.682       -1505.152          47.000  
G24  20783586.728                       -3308.246          28.000    20783579.048    85105281.770       -2577.458          32.000  
G32  20969959.341   110197881.743        1534.581          45.000    20969948.975    85868424.660        1195.782          42.000  
C08  34696040.017   180671383.049        -292.804          45.000    34696023.094   139706494.943        -226.520          48.000  
C13  34710947.798   180749010.478          -2.594          47.000    34710938.445   139766554.242          -2.069          47.000  
C16  35672778.714   185757520.028          35.684          45.000    35672769.160   143639457.727          27.732          48.000  
C25  22141713.898   115297708.649       -2453.239          37.000                                                                  
C32  21093216.575   109837917.133         941.820          49.000                                                                  
C06  35374141.194   184202437.660         215.732          44.000    35374125.770   142436945.477         166.731          46.000  
G25  20615838.294   108336969.819        2657.857          45.000    20615829.079    84418375.614        2071.118          41.000  
G10  19564153.156   102810314.768        1186.597          49.000    19564141.401    80111889.907         924.738          44.000  
G28  22155848.036   116429775.236        2662.135          41.000    22155837.323    90724480.219        2074.205          41.000  
C23  20742447.576   108011365.101         402.813          51.000                                                                  
C09  36847022.022   191872116.203         313.190          41.000    36847010.005   148367638.251         242.237          46.000  
C33  25979037.309                       -2891.532          31.000                                                                  
C37  22995657.558   119744434.560        2755.738          44.000                                                                  
> 2025 10 27 02 46 31.7960000  0 19                     
G12  20795498.734   109281085.926        1037.493          45.000    20795487.057    85154040.193         808.463          41.000  
G15  23098096.458   121381313.057       -3222.440          37.000    23098087.823    94582803.474       -2511.482          33.000  
G18  23406314.273   123001012.027       -3694.763          38.000    23406308.076    95844911.918       -2878.574          37.000  
G23  19165396.518   100714837.368       -1931.811          45.000    19165384.513    78479019.887       -1505.153          47.000  
G24  20783611.754                       -3308.047          28.000    20783604.255    85105384.901       -2577.971          32.000  
G32  20969947.625   110197820.353        1534.683          45.000    20969937.287    85868376.836        1195.672          42.000  
C08  34696042.257   180671394.771        -292.938          45.000    34696025.381   139706504.003        -226.508          48.000  
C13  34710947.805   180749010.584          -2.631          47.000    34710938.450   139766554.325          -2.124          47.000  
C16  35672778.447   185757518.600          35.659          45.000    35672768.861   143639456.620          27.711          48.000  
C25  22141732.743   115297806.757       -2452.969          37.000                                                                  
C32  21093209.294   109837879.461         941.751          49.000                                                                  
C06  35374139.552   184202429.034         215.657          44.000    35374124.083   142436938.804         166.769          47.000  
G25  20615818.074   108336863.500        2657.855          45.000    20615808.839    84418292.765        2071.141          41.000  
G10  19564144.133   102810267.306        1186.487          49.000    19564132.372    80111852.922         924.603          44.000  
G28  22155827.761   116429668.745        2662.368          41.000    22155817.056    90724397.247        2074.236          41.000  
C23  20742444.525   108011348.988         402.776          51.000                                                                  
C09  36847019.600   191872103.666         313.311          41.000    36847007.600   148367628.567         242.106          46.000  
C33  25979059.512                       -2891.635          31.000                                                                  
C37  22995636.383   119744324.323        2755.817          44.000                                                                  
> 2025 10 27 02 46 31.8360000  0 19                     
G12  20795490.828   109281044.419        1037.620          45.000    20795479.155    85154007.856         808.444          41.000  
G15  23098120.990   121381441.952       -3222.466          37.000    23098112.350    94582903.909       -2511.050          32.000  
G18  23406342.401   123001159.798       -3694.439          38.000    23406336.204    95845027.084       -2878.964          37.000  
G23  19165411.224   100714914.628       -1931.660          45.000    19165399.230    78479080.091       -1505.146          47.000  
G24  20783636.653                       -3308.539          28.000    20783629.405    85105487.980       -2577.358          32.000  
G32  20969935.951   110197758.966        1534.681          45.000    20969925.630    85868328.992        1195.944          42.000  
C08  34696044.505   180671406.493        -293.085          45.000    34696027.643   139706513.067        -226.575          48.000  
C13  34710947.830   180749010.683          -2.527          47.000    34710938.468   139766554.403          -2.026          47.000  
C16  35672778.178   185757517.174          35.638          45.000    35672768.563   143639455.512          27.716          48.000  
C25  22141751.583   115297904.870       -2452.861          37.000                                                                  
C32  21093202.063   109837841.788         941.761          49.000                                                                  
C06  35374137.917   184202420.414         215.524          44.000    35374122.428   142436932.129         166.833          47.000  
G25  20615797.836   108336757.179        2657.928          45.000    20615788.599    84418209.903        2071.411          41.000  
G10  19564135.101   102810219.848        1186.395          49.000    19564123.321    80111815.941         924.506          44.000  
G28  22155807.493   116429562.265        2662.127          41.000    22155796.814    90724314.281        2074.206          41.000  
C23  20742441.431   108011332.878         402.718          51.000                                                                  
C09  36847017.201   191872091.129         313.399          41.000    36847005.201   148367618.870         242.266          46.000  
C33  25979081.742                       -2890.762          31.000                                                                  
C37  22995615.204   119744214.087        2755.843          44.000                                                                  
> 2025 10 27 02 46 31.8760000  0 19                     
G12  20795482.934   109281002.921        1037.548          45.000    20795471.255    85153975.522         808.367          41.000  
G15  23098145.516   121381570.847       -3222.464          37.000    23098136.830    94583004.313       -2510.293          33.000  
G18  23406370.541   123001307.585       -3694.568          38.000    23406364.360    95845142.252       -2879.231          37.000  
G23  19165425.928   100714991.894       -1931.685          45.000    19165413.961    78479140.309       -1505.408          47.000  
G24  20783661.776                       -3308.844          28.000    20783654.572    85105591.095       -2577.600          32.000  
G32  20969924.279   110197697.578        1534.684          45.000    20969913.946    85868281.158        1195.893          42.000  
C08  34696046.772   180671418.212        -293.085          45.000    34696029.918   139706522.130        -226.605          48.000  
C13  34710947.861   180749010.786          -2.557          47.000    34710938.500   139766554.477          -1.910          47.000  
C16  35672777.913   185757515.748          35.646          45.000    35672768.277   143639454.407          27.642          47.000  
C25  22141770.439   115298002.996       -2453.023          37.000                                                                  
C32  21093194.833   109837804.110         941.884          49.000                                                                  
C06  35374136.296   184202411.781         215.699          44.000    35374120.774   142436925.449         166.951          47.000  
G25  20615777.615   108336650.852        2658.094          45.000    20615768.366    84418127.066        2071.098          41.000  
G10  19564126.089   102810172.382        1186.511          49.000    19564114.303    80111778.956         924.542          44.000  
G28  22155787.241   116429455.805        2661.623          41.000    22155776.575    90724231.313        2074.238          41.000  
C23  20742438.345   108011316.767         402.715          51.000                                                                  
C09  36847014.798   191872078.587         313.510          41.000    36847002.808   148367609.175         242.347          46.000  
C33  25979103.952                       -2892.265          31.000                                                                  
C37  22995594.031   119744103.849        2755.895          44.000                                                                  
> 2025 10 27 02 46 31.9160000  0 19                     
G12  20795475.023   109280961.427        1037.392          45.000    20795463.373    85153943.180         808.445          41.000  
G15  23098170.036   121381699.762       -3222.798          37.000    23098161.326    94583104.768       -2510.916          33.000  
G18  23406398.656   123001455.378       -3694.758          38.000    23406392.502    95845257.416       -2879.218          37.000  
G23  19165440.659   100715069.173       -1931.947          45.000    19165428.669    78479200.517       -1505.338          47.000  
G24  20783687.244                       -3308.269          28.000    20783679.765    85105694.231       -2578.198          32.000  
G32  20969912.609   110197636.194        1534.606          45.000    20969902.262    85868233.324        1195.805          42.000  
C08  34696049.057   180671429.933        -293.079          45.000    34696032.164   139706531.196        -226.678          48.000  
C13  34710947.867   180749010.897          -2.747          47.000    34710938.529   139766554.561          -2.045          47.000  
C16  35672777.653   185757514.319          35.685          45.000    35672767.982   143639453.308          27.466          47.000  
C25  22141789.303   115298101.104       -2452.875          37.000                                                                  
C32  21093187.551   109837766.441         941.768          49.000                                                                  
C06  35374134.648   184202403.142         215.902          44.000    35374119.124   142436918.783         166.755          47.000  
G25  20615757.400   108336544.532        2658.029          45.000    20615748.136    84418044.217        2071.141          41.000  
G10  19564117.049   102810124.919        1186.536          49.000    19564105.270    80111741.971         924.555          44.000  
G28  22155766.971   116429349.335        2661.602          41.000    22155756.317    90724148.352        2074.075          41.000  
C23  20742435.231   108011300.660         402.652          51.000                                                                  
C09  36847012.363   191872066.057         313.333          41.000    36847000.385   148367599.486         242.258          46.000  
C33  25979126.189                       -2893.444          31.000                                                                  
C37  22995572.872   119743993.618        2755.792          44.000                                                                  
> 2025 10 27 02 46 31.9560000  0 19                     
G12  20795467.121   109280919.933        1037.318          45.000    20795455.472    85153910.842         808.425          41.000  
G15  23098194.543   121381828.661       -3222.655          37.000    23098185.851    94583205.259       -2511.907          33.000  
G18  23406426.782   123001603.166       -3694.768          38.000    23406420.560    95845372.568       -2879.075          37.000  
G23  19165455.378   100715146.450       -1932.019          45.000    19165443.384    78479260.726       -1505.300          47.000  
G24  20783712.448                       -3307.948          28.000    20783704.942    85105797.356       -2578.268          32.000  
G32  20969900.926   110197574.819        1534.380          45.000    20969890.591    85868185.511        1195.446          42.000  
C08  34696051.327   180671441.656        -293.134          45.000    34696034.380   139706540.266        -226.770          48.000  
C13  34710947.857   180749011.013          -2.924          47.000    34710938.544   139766554.644          -2.112          47.000  
C16  35672777.382   185757512.891          35.677          45.000    35672767.673   143639452.213          27.334          47.000  
C25  22141808.122   115298199.240       -2453.274          37.000                                                                  
C32  21093180.282   109837728.776         941.633          49.000                                                                  
C06  35374133.000   184202394.520         215.682          44.000    35374117.494   142436912.122         166.589          47.000  
G25  20615737.162   108336438.216        2657.910          45.000    20615727.915    84417961.382        2070.920          41.000  
G10  19564108.021   102810077.462        1186.444          49.000    19564096.238    80111704.988         924.542          44.000  
G28  22155746.699   116429242.863        2661.584          41.000    22155736.068    90724065.394        2073.908          41.000  
C23  20742432.118   108011284.556         402.564          51.000                                                                  
C09  36847009.959   191872053.540         313.000          41.000    36846997.976   148367589.798         242.183          46.000  
C33  25979148.399                       -2892.188          31.000                                                                  
C37  22995551.720   119743883.378        2755.909          44.000                                                                  
> 2025 10 27 02 46 31.9960000  0 19                     
G12  20795459.231   109280878.444        1037.233          45.000    20795447.561    85153878.517         808.186          41.000  
G15  23098219.065   121381957.570       -3222.760          37.000    23098210.409    94583305.696       -2511.364          33.000  
G18  23406454.895   123001750.949       -3694.646          38.000    23406448.679    95845487.716       -2878.831          37.000  
G23  19165470.077   100715223.722       -1931.936          45.000    19165458.083    78479320.939       -1505.318          47.000  
G24  20783737.602                       -3308.343          28.000    20783730.152    85105900.455       -2577.876          32.000  
G32  20969889.244   110197513.454        1534.122          45.000    20969878.922    85868137.687        1195.502          42.000  
C08  34696053.570   180671453.382        -293.207          45.000    34696036.634   139706549.331        -226.703          48.000  
C13  34710947.883   180749011.119          -2.795          47.000    34710938.550   139766554.731          -2.167          47.000  
C16  35672777.086   185757511.468          35.614          45.000    35672767.393   143639451.113          27.368          47.000  
C25  22141826.960   115298297.372       -2453.389          37.000                                                                  
C32  21093173.050   109837691.114         941.548          49.000                                                                  
C06  35374131.356   184202385.904         215.427          44.000    35374115.841   142436905.454         166.617          47.000  
G25  20615716.950   108336331.905        2657.770          45.000    20615707.693    84417878.534        2071.060          41.000  
G10  19564099.002   102810030.003        1186.444          49.000    19564087.209    80111668.007         924.469          44.000  
G28  22155726.443   116429136.391        2661.692          41.000    22155715.798    90723982.435        2073.904          41.000  
C23  20742429.026   108011268.457         402.478          51.000                                                                  
C09  36847007.578   191872041.015         312.972          41.000    36846995.584   148367580.118         242.021          46.000  
C33  25979170.599                       -2890.898          31.000                                                                  
C37  22995530.541   119743773.155        2755.683          44.000                                                                  
> 2025 10 27 02 46 32.0360000  0 19                     
G12  20795451.341   109280836.948        1037.307          45.000    20795439.664    85153846.194         808.009          41.000  
G15  23098243.603   121382086.481       -3222.799          37.000    23098234.912    94583406.094       -2510.428          33.000  
G18  23406483.008   123001898.737       -3694.708          38.000    23406476.771    95845602.864       -2878.732          37.000  
G23  19165484.758   100715300.984       -1931.661          45.000    19165472.765    78479381.144       -1505.174          47.000  
G24  20783762.635                       -3308.431          28.000    20783755.351    85106003.569       -2577.547          32.000  
G32  20969877.570   110197452.063        1534.479          45.000    20969867.230    85868089.847        1195.809          42.000  
C08  34696055.801   180671465.101        -293.030          45.000    34696038.853   139706558.390        -226.538          48.000  
C13  34710947.924   180749011.218          -2.563          47.000    34710938.611   139766554.811          -2.063          47.000  
C16  35672776.848   185757510.036          35.691          45.000    35672767.126   143639449.999          27.685          47.000  
C25  22141845.798   115298395.482       -2453.033          37.000                                                                  
C32  21093165.830   109837653.437         941.762          49.000                                                                  
C06  35374129.714   184202377.273         215.609          44.000    35374114.187   142436898.779         166.783          47.000  
G25  20615696.705   108336225.580        2657.973          45.000    20615687.435    84417795.682        2071.259          41.000  
G10  19564089.949   102809982.536        1186.584          49.000    19564078.164    80111631.025         924.475          44.000  
G28  22155706.181   116429029.921        2661.737          41.000    22155695.530    90723899.461        2074.210          41.000  
C23  20742425.956   108011252.346         402.631          51.000                                                                  
C09  36847005.173   191872028.480         313.170          41.000    36846993.168   148367570.422         242.218          46.000  
C33  25979192.782                       -2890.981          31.000                                                                  
C37  22995509.377   119743662.924        2755.724          44.000                                                                  
> 2025 10 27 02 46 32.0760000  0 19                     
G12  20795443.427   109280795.450        1037.378          45.000    20795431.771    85153813.860         808.165          41.000  
G15  23098268.136   121382215.371       -3222.531          37.000    23098259.427    94583506.512       -2510.276          33.000  
G18  23406511.155   123002046.517       -3694.563          38.000    23406504.903    95845718.036       -2879.115          37.000  
G23  19165499.462   100715378.252       -1931.645          45.000    19165487.471    78479441.350       -1505.138          47.000  
G24  20783788.035                       -3308.417          28.000    20783780.499    85106106.715       -2578.159          32.000  
G32  20969865.882   110197390.667        1534.801          45.000    20969855.564    85868042.003        1196.016          42.000  
C08  34696058.053   180671476.813        -292.859          45.000    34696041.118   139706567.445        -226.392          48.000  
C13  34710947.952   180749011.314          -2.423          47.000    34710938.627   139766554.883          -1.849          47.000  
C16  35672776.556   185757508.605          35.764          45.000    35672766.849   143639448.889          27.762          47.000  
C25  22141864.658   115298493.590       -2452.817          37.000                                                                  
C32  21093158.588   109837615.755         941.952          49.000                                                                  
C06  35374128.049   184202368.641         215.735          44.000    35374112.555   142436892.097         166.956          47.000  
G25  20615676.469   108336119.250        2658.179          45.000    20615667.198    84417712.841        2071.135          41.000  
G10  19564080.905   102809935.067        1186.694          49.000    19564069.124    80111594.037         924.603          44.000  
G28  22155685.931   116428923.445        2661.867          41.000    22155675.254    90723816.481        2074.425          41.000  
C23  20742422.888   108011236.232         402.784          51.000                                                                  
C09  36847002.775   191872015.939         313.427          41.000    36846990.782   148367560.725         242.387          46.000  
C33  25979214.991                       -2891.746          31.000                                                                  
C37  22995488.236   119743552.687        2755.838          44.000                                                                  
> 2025 10 27 02 46 32.1160000  0 19                     
G12  20795435.537   109280753.945        1037.572          45.000    20795423.865    85153781.511         808.522          41.000  
G15  23098292.665   121382344.250       -3222.177          37.000    23098283.955    94583606.956       -2510.693          33.000  
G18  23406539.280   123002194.290       -3694.363          38.000    23406533.041    95845833.191       -2878.977          37.000  
G23  19165514.169   100715455.519       -1931.640          45.000    19165502.178    78479501.565       -1505.281          47.000  
G24  20783813.497                       -3308.289          28.000    20783805.643    85106209.826       -2577.891          32.000  
G32  20969854.181   110197329.274        1534.878          45.000    20969843.862    85867994.171        1195.905          42.000  
C08  34696060.285   180671488.535        -292.993          45.000    34696043.364   139706576.505        -226.428          48.000  
C13  34710947.963   180749011.411          -2.386          47.000    34710938.645   139766554.959          -1.843          47.000  
C16  35672776.265   185757507.177          35.716          45.000    35672766.560   143639447.780          27.757          47.000  
C25  22141883.502   115298591.714       -2452.999          37.000                                                                  
C32  21093151.333   109837578.082         941.923          49.000                                                                  
C06  35374126.389   184202360.005         215.875          44.000    35374110.892   142436885.423         166.902          47.000  
G25  20615656.240   108336012.928        2658.107          45.000    20615646.991    84417629.991        2071.240          41.000  
G10  19564071.869   102809887.603        1186.652          50.000    19564060.111    80111557.046         924.756          44.000  
G28  22155665.650   116428816.965        2661.990          41.000    22155655.022    90723733.515        2074.267          41.000  
C23  20742419.802   108011220.119         402.824          51.000                                                                  
C09  36847000.376   191872003.392         313.624          41.000    36846988.364   148367551.027         242.466          46.000  
C33  25979237.240                       -2891.567          31.000                                                                  
C37  22995467.047   119743442.447        2755.938          44.000                                                                  
> 2025 10 27 02 46 32.1560000  0 19                     
G12  20795427.636   109280712.454        1037.406          45.000    20795415.991    85153749.186         808.297          41.000  
G15  23098317.177   121382473.139       -3222.112          37.000    23098308.526    94583707.447       -2511.813          33.000  
G18  23406567.399   123002342.057       -3694.126          38.000    23406561.158    95845948.338       -2878.886          37.000  
G23  19165528.863   100715532.786       -1931.678          45.000    19165516.886    78479561.780       -1505.349          47.000  
G24  20783838.426                       -3307.903          28.000    20783830.816                       -2576.961          32.000  
G32  20969842.505   110197267.888        1534.772          45.000    20969832.188    85867946.332        1195.955          42.000  
C08  34696062.562   180671500.251        -292.963          45.000    34696045.633   139706585.571        -226.587          48.000  
C13  34710947.998   180749011.520          -2.618          47.000    34710938.683   139766555.040          -1.965          47.000  
C16  35672775.997   185757505.742          35.805          45.000    35672766.260   143639446.671          27.741          47.000  
C25  22141902.336   115298689.830       -2452.937          37.000                                                                  
C32  21093144.097   109837540.407         941.881          49.000                                                                  
C06  35374124.733   184202351.370         215.908          44.000    35374109.231   142436878.746         166.906          47.000  
G25  20615636.005   108335906.611        2657.995          45.000    20615626.753    84417547.132        2071.431          41.000  
G10  19564062.843   102809840.143        1186.517          50.000    19564051.097    80111520.073         924.445          44.000  
G28  22155645.390   116428710.491        2661.920          41.000    22155634.753    90723650.557        2074.011          41.000  
C23  20742416.662   108011204.012         402.743          51.000                                                                  
C09  36846997.935   191871990.857         313.475          41.000    36846985.949   148367541.328         242.476          46.000  
C33  25979259.458                       -2890.963          31.000                                                                  
C37  22995445.858   119743332.211        2755.907          44.000                                                                  
> 2025 10 27 02 46 32.1960000  0 19                     
G12  20795419.754   109280670.963        1037.310          45.000    20795408.084    85153716.837         808.601          41.000  
G15  23098341.711   121382602.059       -3222.723          37.000    23098333.065    94583807.915       -2512.035          33.000  
G18  23406595.533   123002489.849       -3694.531          38.000    23406589.278    95846063.477       -2878.578          36.000  
G23  19165543.589   100715610.067       -1931.946          45.000    19165531.606    78479621.993       -1505.374          47.000  
G24  20783863.841                       -3307.975          28.000    20783855.984                       -2577.743          32.000  
G32  20969830.829   110197206.503        1534.647          45.000    20969820.497    85867898.508        1195.715          42.000  
C08  34696064.795   180671511.977        -293.115          45.000    34696047.900   139706594.640        -226.733          48.000  
C13  34710948.023   180749011.627          -2.716          47.000    34710938.722   139766555.127          -2.142          47.000  
C16  35672775.730   185757504.309          35.809          45.000    35672765.945   143639445.565          27.654          47.000  
C25  22141921.164   115298787.926       -2452.589          37.000                                                                  
C32  21093136.836   109837502.738         941.772          49.000                                                                  
C06  35374123.076   184202342.741         215.841          44.000    35374107.588   142436872.079         166.755          47.000  
G25  20615615.796   108335800.304        2657.763          45.000    20615606.520    84417464.295        2071.097          41.000  
G10  19564053.839   102809792.693        1186.273          50.000    19564042.064    80111483.085         924.609          44.000  
G28  22155625.152   116428604.003        2662.094          41.000    22155614.477    90723567.589        2074.063          41.000  
C23  20742413.561   108011187.911         402.562          51.000                                                                  
C09  36846995.546   191871978.312         313.570          41.000    36846983.538   148367531.636         242.343          46.000  
C33  25979281.674                       -2893.130          31.000                                                                  
C37  22995424.680   119743221.970        2756.014          44.000                                                                  
> 2025 10 27 02 46 32.2360000  0 19                     
G12  20795411.856   109280629.469        1037.298          45.000    20795400.195    85153684.512         808.325          41.000  
G15  23098366.225   121382730.966       -3222.837          37.000    23098357.598    94583908.332       -2511.100          33.000  
G18  23406623.649   123002637.625       -3694.454          38.000    23406617.384    95846178.633       -2878.743          36.000  
G23  19165558.299   100715687.345       -1932.012          45.000    19165546.292    78479682.212       -1505.504          47.000  
G24  20783888.755                       -3307.958          28.000    20783881.158                       -2577.523          32.000  
G32  20969819.175   110197145.120        1534.560          45.000    20969808.794    85867850.669        1195.855          42.000  
C08  34696067.028   180671523.701        -293.127          45.000    34696050.172   139706603.697        -226.563          48.000  
C13  34710948.033   180749011.732          -2.716          47.000    34710938.742   139766555.212          -2.179          47.000  
C16  35672775.484   185757502.882          35.709          45.000    35672765.636   143639444.465          27.511          47.000  
C25  22141939.987   115298886.056       -2453.052          37.000                                                                  
C32  21093129.585   109837465.071         941.664          49.000                                                                  
C06  35374121.401   184202334.113         215.740          44.000    35374105.905   142436865.412         166.675          47.000  
G25  20615595.582   108335693.989        2657.805          45.000    20615586.282    84417381.457        2070.940          41.000  
G10  19564044.788   102809745.234        1186.346          50.000    19564033.011    80111446.105         924.530          44.000  
G28  22155604.916   116428497.530        2661.918          41.000    22155594.210    90723484.621        2074.101          41.000  
C23  20742410.465   108011171.808         402.515          51.000                                                                  
C09  36846993.161   191871965.786         313.286          41.000    36846981.132   148367521.946         242.236          46.000  
C33  25979303.911                       -2892.168          31.000                                                                  
C37  22995403.527   119743111.744        2755.777          44.000                                                                  
> 2025 10 27 02 46 32.2760000  0 19                     
G12  20795403.967   109280587.986        1037.112          45.000    20795392.318    85153652.187         808.186          41.000  
G15  23098390.763   121382859.877       -3222.889          37.000    23098382.100    94584008.749       -2510.736          32.000  
G18  23406651.780   123002785.411       -3694.632          38.000    23406645.505    95846293.791       -2878.816          36.000  
G23  19165572.974   100715764.622       -1932.010          45.000    19165560.984    78479742.429       -1505.509          47.000  
G24  20783914.036                       -3308.333          28.000    20783906.321    85106622.251       -2577.887          32.000  
G32  20969807.511   110197083.748        1534.344          45.000    20969797.119    85867802.856        1195.501          42.000  
C08  34696069.272   180671535.426        -293.164          45.000    34696052.407   139706612.762        -226.630          48.000  
C13  34710948.060   180749011.842          -2.753          47.000    34710938.749   139766555.295          -2.136          47.000  
C16  35672775.174   185757501.467          35.445          45.000    35672765.348   143639443.363          27.490          47.000  
C25  22141958.820   115298984.186       -2453.274          37.000                                                                  
C32  21093122.341   109837427.406         941.577          49.000                                                                  
C06  35374119.731   184202325.497         215.442          44.000    35374104.272   142436858.744         166.652          47.000  
G25  20615575.365   108335587.674        2657.806          45.000    20615566.061    84417298.628        2070.740          41.000  
G10  19564035.742   102809697.776        1186.389          50.000    19564024.002    80111409.130         924.390          44.000  
G28  22155584.646   116428391.071        2661.526          41.000    22155573.974    90723401.654        2074.177          41.000  
C23  20742407.357   108011155.708         402.448          51.000                                                                  
C09  36846990.746   191871953.267         312.968          41.000    36846978.714   148367512.262         242.067          46.000  
C33  25979326.120                       -2891.955          31.000                                                                  
C37  22995382.361   119743001.520        2755.615          44.000                                                                  
> 2025 10 27 02 46 32.3160000  0 19                     
G12  20795396.068   109280546.501        1037.046          45.000    20795384.433    85153619.866         808.001          41.000  
G15  23098415.307   121382988.784       -3222.743          37.000    23098406.645    94584109.202       -2511.053          32.000  
G18  23406679.917   123002933.202       -3694.797          38.000    23406673.620    95846408.950       -2878.898          36.000  
G23  19165587.705   100715841.906       -1932.121          45.000    19165575.681    78479802.651       -1505.570          47.000  
G24  20783939.340                       -3308.490          28.000    20783931.510                       -2577.551          32.000  
G32  20969795.826   110197022.370        1534.371          45.000    20969785.435    85867755.029        1195.518          42.000  
C08  34696071.507   180671547.147        -293.073          45.000    34696054.655   139706621.833        -226.764          48.000  
C13  34710948.107   180749011.949          -2.747          47.000    34710938.760   139766555.373          -2.002          47.000  
C16  35672774.894   185757500.043          35.478          45.000    35672765.042   143639442.264          27.443          47.000  
C25  22141977.671   115299082.320       -2453.426          37.000                                                                  
C32  21093115.150   109837389.741         941.549          49.000                                                                  
C06  35374118.085   184202316.880         215.341          44.000    35374102.619   142436852.075         166.653          47.000  
G25  20615555.123   108335481.354        2657.952          45.000    20615545.805    84417215.788        2070.782          41.000  
G10  19564026.713   102809650.317        1186.420          50.000    19564014.969    80111372.159         924.237          44.000  
G28  22155564.393   116428284.610        2661.398          41.000    22155553.735    90723318.694        2074.083          41.000  
C23  20742404.262   108011139.611         402.387          51.000                                                                  
C09  36846988.334   191871940.731         313.180          41.000    36846976.322   148367502.578         241.995          46.000  
C33  25979348.349                       -2891.285          31.000                                                                  
C37  22995361.178   119742891.299        2755.498          44.000                                                                  
> 2025 10 27 02 46 32.3560000  0 19                     
G12  20795388.162   109280505.017        1037.045          45.000    20795376.549    85153587.546         807.910          41.000  
G15  23098439.834   121383117.693       -3222.788          37.000    23098431.185    94584209.668       -2511.421          33.000  
G18  23406708.058   123003080.996       -3694.894          38.000    23406701.746    95846524.115       -2879.067          36.000  
G23  19165602.405   100715919.185       -1932.083          45.000    19165590.363    78479862.866       -1505.494          47.000  
G24  20783964.733                       -3308.373          28.000    20783956.698                       -2578.293          32.000  
G32  20969784.117   110196960.988        1534.458          45.000    20969773.735    85867707.200        1195.600          42.000  
C08  34696073.744   180671558.875        -293.170          45.000    34696056.895   139706630.896        -226.672          48.000  
C13  34710948.120   180749012.058          -2.753          47.000    34710938.778   139766555.455          -2.014          47.000  
C16  35672774.646   185757498.616          35.568          45.000    35672764.787   143639441.161          27.511          47.000  
C25  22141996.523   115299180.449       -2453.304          37.000                                                                  
C32  21093107.959   109837352.074         941.610          49.000                                                                  
C06  35374116.447   184202308.262         215.325          44.000    35374100.988   142436845.409         166.602          47.000  
G25  20615534.884   108335375.040        2657.890          45.000    20615525.579    84417132.946        2070.891          41.000  
G10  19564017.726   102809602.868        1186.267          50.000    19564005.940    80111335.183         924.286          44.000  
G28  22155544.124   116428178.152        2661.321          41.000    22155533.474    90723235.743        2073.879          41.000  
C23  20742401.152   108011123.516         402.325          51.000                                                                  
C09  36846985.941   191871928.214         312.948          41.000    36846973.931   148367492.890         242.060          46.000  
C33  25979370.513                       -2891.894          31.000                                                                  
C37  22995340.005   119742781.077        2755.451          44.000                                                                  
> 2025 10 27 02 46 32.3960000  0 19                     
G12  20795380.265   109280463.536        1036.982          45.000    20795368.648    85153555.208         808.211          41.000  
G15  23098464.325   121383246.582       -3222.446          37.000    23098455.732    94584310.096       -2510.984          33.000  
G18  23406736.180   123003228.770       -3694.567          38.000    23406729.874    95846639.277       -2879.101          36.000  
G23  19165617.112   100715996.467       -1932.070          45.000    19165605.060    78479923.086       -1505.513          47.000  
G24  20783990.059                       -3308.700          28.000    20783981.867                       -2578.163          32.000  
G32  20969772.437   110196899.596        1534.697          45.000    20969762.047    85867659.358        1195.919          42.000  
C08  34696075.977   180671570.600        -293.164          45.000    34696059.167   139706639.971        -226.855          48.000  
C13  34710948.142   180749012.169          -2.765          47.000    34710938.810   139766555.541          -2.124          47.000  
C16  35672774.388   185757497.184          35.739          45.000    35672764.527   143639440.064          27.447          47.000  
C25  22142015.355   115299278.565       -2453.017          37.000                                                                  
C32  21093100.747   109837314.406         941.656          49.000                                                                  
C06  35374114.801   184202299.621         215.773          44.000    35374099.329   142436838.738         166.677          47.000  
G25  20615514.659   108335268.729        2657.786          45.000    20615505.342    84417050.103        2070.984          41.000  
G10  19564008.710   102809555.423        1186.115          50.000    19563996.886    80111298.199         924.506          44.000  
G28  22155523.838   116428071.671        2661.765          41.000    22155513.203    90723152.778        2074.030          41.000  
C23  20742398.046   108011107.415         402.414          51.000                                                                  
C09  36846983.546   191871915.678         313.208          41.000    36846971.514   148367483.197         242.225          46.000  
C33  25979392.744                       -2891.820          31.000                                                                  
C37  22995318.856   119742670.847        2755.606          44.000                                                                  
> 2025 10 27 02 46 32.4360000  0 19                     
G12  20795372.354   109280422.038        1037.284          45.000    20795360.764    85153522.876         808.302          41.000  
G15  23098488.868   121383375.479       -3222.339          37.000    23098480.275    94584410.527       -2510.781          33.000  
G18  23406764.303   123003376.543       -3694.329          38.000    23406758.005    95846754.411       -2878.602          36.000  
G23  19165631.833   100716073.744       -1931.976          45.000    19165619.744    78479983.301       -1505.458          47.000  
G24  20784015.212                       -3308.881          28.000    20784007.044                       -2577.426          32.000  
G32  20969760.748   110196838.212        1534.692          45.000    20969750.338    85867611.529        1195.861          42.000  
C08  34696078.254   180671582.315        -292.969          45.000    34696061.422   139706649.031        -226.648          48.000  
C13  34710948.199   180749012.270          -2.612          47.000    34710938.830   139766555.630          -2.234          47.000  
C16  35672774.111   185757495.753          35.765          45.000    35672764.226   143639438.962          27.507          47.000  
C25  22142034.196   115299376.677       -2452.789          37.000                                                                  
C32  21093093.540   109837276.737         941.700          49.000                                                                  
C06  35374113.138   184202290.984         215.961          44.000    35374097.654   142436832.061         166.848          47.000  
G25  20615494.410   108335162.421        2657.661          45.000    20615485.107    84416967.257        2071.106          41.000  
G10  19563999.674   102809507.971        1186.188          50.000    19563987.867    80111261.228         924.341          44.000  
G28  22155503.578   116427965.188        2662.043          41.000    22155492.939    90723069.811        2074.116          41.000  
C23  20742394.963   108011091.309         402.575          51.000                                                                  
C09  36846981.110   191871903.146         313.257          41.000    36846969.101   148367473.506         242.236          46.000  
C33  25979414.999                       -2892.392          31.000                                                                  
C37  22995297.684   119742560.605        2755.924          44.000                                                                  
> 2025 10 27 02 46 32.4760000  0 19                     
G12  20795364.472   109280380.555        1037.189          45.000    20795352.856    85153490.549         808.259          41.000  
G15  23098513.410   121383504.398       -3222.765          37.000    23098504.801    94584510.985       -2511.309          33.000  
G18  23406792.414   123003524.311       -3694.147          38.000    23406786.128    95846869.568       -2878.687          36.000  
G23  19165646.522   100716151.024       -1932.001          45.000    19165634.449    78480043.515       -1505.389          47.000  
G24  20784040.489                       -3308.579          28.000    20784032.238    85107137.859       -2578.306          32.000  
G32  20969749.081   110196776.835        1534.514          45.000    20969738.657    85867563.696        1195.837          42.000  
C08  34696080.523   180671594.039        -293.066          45.000    34696063.679   139706658.095        -226.593          48.000  
C13  34710948.202   180749012.373          -2.557          47.000    34710938.843   139766555.709          -2.069          47.000  
C16  35672773.847   185757494.324          35.754          45.000    35672763.909   143639437.849          27.708          47.000  
C25  22142053.025   115299474.793       -2452.772          37.000                                                                  
C32  21093086.324   109837239.065         941.762          49.000                                                                  
C06  35374111.453   184202282.357         215.809          44.000    35374095.995   142436825.388         166.869          47.000  
G25  20615474.164   108335056.095        2657.994          45.000    20615464.869    84416884.399        2071.328          41.000  
G10  19563990.632   102809460.516        1186.298          50.000    19563978.859    80111224.256         924.268          44.000  
G28  22155483.310   116427858.718        2661.852          41.000    22155472.673    90722986.847        2074.095          41.000  
C23  20742391.831   108011075.208         402.559          51.000                                                                  
C09  36846978.725   191871890.614         313.300          41.000    36846966.724   148367463.821         242.141          46.000  
C33  25979437.226                       -2892.000          31.000                                                                  
C37  22995276.517   119742450.374        2755.873          44.000                                                                  
> 2025 10 27 02 46 32.5160000  0 19                     
G12  20795356.597   109280339.081        1036.929          45.000    20795344.958    85153458.241         807.823          41.000  
G15  23098537.942   121383633.301       -3222.783          37.000    23098529.306    94584611.446       -2511.615          33.000  
G18  23406820.525   123003672.098       -3694.402          38.000    23406814.241    95846984.740       -2879.147          36.000  
G23  19165661.226   100716228.312       -1932.182          45.000    19165649.158    78480103.744       -1505.657          47.000  
G24  20784065.341                       -3308.148          28.000    20784057.401    85107240.972       -2578.146          32.000  
G32  20969737.393   110196715.456        1534.450          45.000    20969726.977    85867515.864        1195.810          42.000  
C08  34696082.785   180671605.769        -293.213          45.000    34696065.939   139706667.159        -226.611          49.000  
C13  34710948.243   180749012.489          -2.802          47.000    34710938.874   139766555.792          -2.094          47.000  
C16  35672773.564   185757492.905          35.550          45.000    35672763.614   143639436.750          27.572          47.000  
C25  22142071.884   115299572.930       -2453.268          37.000                                                                  
C32  21093079.046   109837201.402         941.632          49.000                                                                  
C06  35374109.782   184202273.762         215.101          44.000    35374094.330   142436818.722         166.726          47.000  
G25  20615453.931   108334949.785        2657.838          45.000    20615444.647    84416801.566        2071.007          41.000  
G10  19563981.627   102809413.067        1186.218          50.000    19563969.833    80111187.281         924.286          44.000  
G28  22155463.044   116427752.264        2661.473          41.000    22155452.420    90722903.884        2074.065          41.000  
C23  20742388.708   108011059.119         402.298          51.000                                                                  
C09  36846976.318   191871878.085         313.249          41.000    36846964.300   148367454.133         242.180          46.000  
C33  25979459.432                       -2891.102          31.000                                                                  
C37  22995255.325   119742340.158        2755.542          44.000                                                                  
> 2025 10 27 02 46 32.5560000  0 19                     
G12  20795348.712   109280297.610        1036.746          45.000    20795337.078    85153425.924         807.752          41.000  
G15  23098562.465   121383762.216       -3222.892          37.000    23098553.816    94584711.893       -2511.487          33.000  
G18  23406848.663   123003819.918       -3695.187          38.000    23406842.361    95847099.899       -2879.188          36.000  
G23  19165675.948   100716305.601       -1932.268          45.000    19165663.841    78480163.969       -1505.712          47.000  
G24  20784090.628                       -3308.157          28.000    20784082.587    85107344.085       -2578.028          32.000  
G32  20969725.710   110196654.088        1534.192          45.000    20969715.298    85867468.047        1195.505          42.000  
C08  34696085.057   180671617.499        -293.298          45.000    34696068.173   139706676.233        -226.794          48.000  
C13  34710948.267   180749012.610          -3.009          47.000    34710938.881   139766555.881          -2.203          47.000  
C16  35672773.270   185757491.490          35.338          45.000    35672763.339   143639435.663          27.272          47.000  
C25  22142090.721   115299671.093       -2453.993          37.000                                                                  
C32  21093071.794   109837163.749         941.371          49.000                                                                  
C06  35374108.109   184202265.147         215.112          44.000    35374092.660   142436812.066         166.437          47.000  
G25  20615433.701   108334843.489        2657.499          45.000    20615424.429    84416718.737        2070.801          41.000  
G10  19563972.588   102809365.622        1186.139          50.000    19563960.823    80111150.316         924.109          44.000  
G28  22155442.778   116427645.807        2661.326          41.000    22155432.198    90722820.948        2073.586          41.000  
C23  20742385.626   108011043.039         402.018          51.000                                                                  
C09  36846973.911   191871865.569         312.947          41.000    36846961.874   148367444.444         242.199          46.000  
C33  25979481.667                       -2891.563          31.000                                                                  
C37  22995234.137   119742229.948        2755.258          44.000                                                                  
> 2025 10 27 02 46 32.5960000  0 19                     
G12  20795340.821   109280256.128        1036.855          45.000    20795329.193    85153393.614         807.643          41.000  
G15  23098586.994   121383891.121       -3222.731          37.000    23098578.334    94584812.323       -2510.980          33.000  
G18  23406876.802   123003967.705       -3694.962          38.000    23406870.474    95847215.054       -2879.105          36.000  
G23  19165690.640   100716382.899       -1932.434          45.000    19165678.538    78480224.195       -1505.710          47.000  
G24  20784115.930                       -3308.197          28.000    20784107.792    85107447.203       -2578.069          32.000  
G32  20969714.027   110196592.714        1534.207          45.000    20969703.629    85867420.232        1195.304          42.000  
C08  34696087.283   180671629.224        -293.225          45.000    34696070.415   139706685.306        -226.862          48.000  
C13  34710948.275   180749012.725          -2.997          47.000    34710938.885   139766555.971          -2.258          47.000  
C16  35672773.001   185757490.075          35.254          45.000    35672763.078   143639434.566          27.291          47.000  
C25  22142109.580   115299769.242       -2454.010          37.000                                                                  
C32  21093064.569   109837126.096         941.261          49.000                                                                  
C06  35374106.480   184202256.527         215.262          44.000    35374090.982   142436805.402         166.454          47.000  
G25  20615413.488   108334737.194        2657.299          45.000    20615404.188    84416635.895        2070.933          41.000  
G10  19563963.569   102809318.182        1186.011          50.000    19563951.785    80111113.349         924.066          44.000  
G28  22155422.517   116427539.346        2661.328          41.000    22155411.958    90722737.984        2073.826          41.000  
C23  20742382.513   108011026.959         401.893          51.000                                                                  
C09  36846971.497   191871853.037         313.107          41.000    36846959.464   148367434.762         242.066          46.000  
C33  25979503.880                       -2892.338          31.000                                                                  
C37  22995212.974   119742119.732        2755.252          44.000                                                                  
> 2025 10 27 02 46 32.6360000  0 19                     
G12  20795332.921   109280214.646        1036.956          45.000    20795321.297    85153361.288         807.901          41.000  
G15  23098611.530   121384020.035       -3222.829          37.000    23098602.874    94584912.754       -2510.812          33.000  
G18  23406904.911   123004115.486       -3694.719          38.000    23406898.611    95847330.201       -2878.852          36.000  
G23  19165705.329   100716460.186       -1932.314          45.000    19165693.251    78480284.421       -1505.703          47.000  
G24  20784141.317                       -3308.571          28.000    20784132.955    85107550.284       -2577.282          32.000  
G32  20969702.353   110196531.332        1534.385          45.000    20969691.959    85867372.399        1195.572          42.000  
C08  34696089.527   180671640.955        -293.256          45.000    34696072.670   139706694.374        -226.782          48.000  
C13  34710948.341   180749012.831          -2.783          47.000    34710938.932   139766556.062          -2.332          47.000  
C16  35672772.750   185757488.658          35.296          45.000    35672762.806   143639433.463          27.413          47.000  
C25  22142128.434   115299867.354       -2453.208          37.000                                                                  
C32  21093057.360   109837088.432         941.420          49.000                                                                  
C06  35374104.817   184202247.901         215.504          44.000    35374089.327   142436798.733         166.580          47.000  
G25  20615393.278   108334630.892        2657.382          45.000    20615383.981    84416553.064        2070.814          41.000  
G10  19563954.524   102809270.736        1186.035          50.000    19563942.761    80111076.371         924.310          44.000  
G28  22155402.243   116427432.863        2661.790          41.000    22155391.698    90722655.020        2073.969          41.000  
C23  20742379.433   108011010.865         402.146          51.000                                                                  
C09  36846969.084   191871840.505         313.240          41.000    36846957.051   148367425.069         242.179          46.000  
C33  25979526.108                       -2893.006          31.000                                                                  
C37  22995191.807   119742009.494        2755.639          44.000                                                                  
> 2025 10 27 02 46 32.6760000  0 19                     
G12  20795325.023   109280173.163        1037.053          45.000    20795313.396    85153328.958         808.126          41.000  
G15  23098636.096   121384148.945       -3222.751          37.000    23098627.405    94585013.202       -2510.919          32.000  
G18  23406933.027   123004263.265       -3694.518          38.000    23406926.742    95847445.354       -2878.830          36.000  
G23  19165720.002   100716537.469       -1932.164          45.000    19165707.978    78480344.642       -1505.597          47.000  
G24  20784166.121                       -3308.292          28.000    20784158.181    85107653.435       -2578.241          32.000  
G32  20969690.682   110196469.955        1534.446          45.000    20969680.249    85867324.577        1195.573          42.000  
C08  34696091.776   180671652.676        -293.091          45.000    34696074.941   139706703.436        -226.611          49.000  
C13  34710948.347   180749012.942          -2.777          47.000    34710938.995   139766556.147          -2.197          47.000  
C16  35672772.481   185757487.237          35.424          45.000    35672762.535   143639432.359          27.536          47.000  
C25  22142147.295   115299965.475       -2452.988          37.000                                                                  
C32  21093050.193   109837050.763         941.633          49.000                                                                  
C06  35374103.161   184202239.275         215.610          44.000    35374087.632   142436792.062         166.682          47.000  
G25  20615373.043   108334524.569        2657.838          45.000    20615363.756    84416470.229        2070.796          41.000  
G10  19563945.489   102809223.287        1186.157          50.000    19563933.743    80111039.392         924.481          44.000  
G28  22155381.993   116427326.403        2661.670          41.000    22155371.459    90722572.056        2074.131          41.000  
C23  20742376.340   108010994.762         402.437          51.000                                                                  
C09  36846966.675   191871827.982         313.146          41.000    36846954.642   148367415.382         242.141          46.000  
C33  25979548.287                       -2891.830          31.000                                                                  
C37  22995170.633   119741899.260        2755.831          44.000                                                                  
> 2025 10 27 02 46 32.7160000  0 19                     
G12  20795317.153   109280131.690        1036.916          45.000    20795305.493    85153296.626         808.243          41.000  
G15  23098660.636   121384277.842       -3222.540          37.000    23098651.947    94585113.651       -2511.040          32.000  
G18  23406961.152   123004411.041       -3694.344          38.000    23406954.848    95847560.509       -2878.887          36.000  
G23  19165734.703   100716614.754       -1932.115          45.000    19165722.690    78480404.862       -1505.523          47.000  
G24  20784191.636                       -3308.630          28.000    20784183.355    85107756.554       -2578.268          32.000  
G32  20969679.001   110196408.566        1534.636          45.000    20969668.565    85867276.742        1195.751          42.000  
C08  34696094.035   180671664.402        -293.097          45.000    34696077.178   139706712.502        -226.624          49.000  
C13  34710948.375   180749013.046          -2.637          47.000    34710938.994   139766556.230          -2.118          47.000  
C16  35672772.230   185757485.806          35.677          45.000    35672762.240   143639431.255          27.572          47.000  
C25  22142166.117   115300063.593       -2453.008          37.000                                                                  
C32  21093042.989   109837013.090         941.807          49.000                                                                  
C06  35374101.498   184202230.642         215.781          44.000    35374085.960   142436785.386         166.824          47.000  
G25  20615352.792   108334418.251        2658.007          45.000    20615343.528    84416387.396        2070.794          41.000  
G10  19563936.441   102809175.835        1186.255          50.000    19563924.723    80111002.417         924.432          44.000  
G28  22155361.727   116427219.950        2661.453          41.000    22155351.174    90722489.085        2074.278          41.000  
C23  20742373.253   108010978.662         402.533          51.000                                                                  
C09  36846964.289   191871815.455         313.184          41.000    36846952.236   148367405.692         242.199          46.000  
C33  25979570.498                       -2891.415          31.000                                                                  
C37  22995149.473   119741789.031        2755.800          44.000                                                                  
> 2025 10 27 02 46 32.7560000  0 19                     
G12  20795309.250   109280090.209        1036.968          45.000    20795297.622    85153264.315         807.920          41.000  
G15  23098685.150   121384406.728       -3222.297          37.000    23098676.471    94585214.086       -2510.979          32.000  
G18  23406989.266   123004558.816       -3694.277          38.000    23406982.961    95847675.673       -2879.084          36.000  
G23  19165749.440   100716692.045       -1932.216          45.000    19165737.390    78480465.085       -1505.573          47.000  
G24  20784216.534                       -3308.817          28.000    20784208.536    85107859.685       -2578.279          32.000  
G32  20969667.322   110196347.185        1534.584          45.000    20969656.897    85867228.914        1195.742          42.000  
C08  34696096.298   180671676.133        -293.237          45.000    34696079.433   139706721.567        -226.624          49.000  
C13  34710948.409   180749013.159          -2.771          47.000    34710939.011   139766556.310          -2.026          47.000  
C16  35672771.964   185757484.372          35.853          45.000    35672761.958   143639430.161          27.419          47.000  
C25  22142184.965   115300161.718       -2453.096          37.000                                                                  
C32  21093035.760   109836975.423         941.731          49.000                                                                  
C06  35374099.870   184202222.018         215.685          44.000    35374084.316   142436778.722         166.687          47.000  
G25  20615332.550   108334311.941        2657.884          45.000    20615323.290    84416304.559        2070.867          41.000  
G10  19563927.432   102809128.385        1186.261          50.000    19563915.703    80110965.449         924.237          44.000  
G28  22155341.467   116427113.488        2661.460          41.000    22155330.920    90722406.135        2073.883          41.000  
C23  20742370.166   108010962.570         402.416          51.000                                                                  
C09  36846961.866   191871802.928         313.151          41.000    36846949.856   148367396.006         242.122          46.000  
C33  25979592.740                       -2891.675          31.000                                                                  
C37  22995128.314   119741678.802        2755.748          44.000                                                                  
> 2025 10 27 02 46 32.7960000  0 19                     
G12  20795301.380   109280048.734        1036.909          45.000    20795289.723    85153231.992         807.970          41.000  
G15  23098709.690   121384535.655       -3222.878          37.000    23098701.000    94585314.550       -2511.344          32.000  
G18  23407017.401   123004706.609       -3694.645          38.000    23407011.091    95847790.821       -2878.840          36.000  
G23  19165764.149   100716769.331       -1932.203          45.000    19165752.095    78480525.313       -1505.673          47.000  
G24  20784241.708                       -3308.277          28.000    20784233.692    85107962.806       -2578.083          32.000  
G32  20969655.635   110196285.811        1534.415          45.000    20969645.197    85867181.075        1195.921          42.000  
C08  34696098.562   180671687.856        -293.134          45.000    34696081.687   139706730.638        -226.727          49.000  
C13  34710948.406   180749013.273          -2.832          47.000    34710939.006   139766556.397          -2.112          47.000  
C16  35672771.691   185757482.946          35.772          45.000    35672761.669   143639429.062          27.401          47.000  
C25  22142203.817   115300259.850       -2453.232          37.000                                                                  
C32  21093028.513   109836937.764         941.537          49.000                                                                  
C06  35374098.227   184202213.391         215.649          44.000    35374082.721   142436772.052         166.736          47.000  
G25  20615312.336   108334205.648        2657.503          45.000    20615303.044    84416221.704        2071.176          41.000  
G10  19563918.415   102809080.943        1186.096          50.000    19563906.672    80110928.484         924.115          44.000  
G28  22155321.208   116427007.014        2661.690          41.000    22155310.655    90722323.178        2073.816          41.000  
C23  20742367.071   108010946.485         402.196          51.000                                                                  
C09  36846959.446   191871790.395         313.213          41.000    36846947.436   148367386.319         242.117          46.000  
C33  25979614.935                       -2892.265          31.000                                                                  
C37  22995107.162   119741568.588        2755.467          44.000                                                                  
> 2025 10 27 02 46 32.8360000  0 19                     
G12  20795293.486   109280007.259        1036.858          45.000    20795281.847    85153199.684         807.759          41.000  
G15  23098734.226   121384664.553       -3222.655          37.000    23098725.514    94585414.993       -2511.169          32.000  
G18  23407045.517   123004854.394       -3694.691          38.000    23407039.198    95847905.976       -2878.955          36.000  
G23  19165778.875   100716846.620       -1932.234          45.000    19165766.777    78480585.543       -1505.791          47.000  
G24  20784266.943                       -3308.208          28.000    20784258.842    85108065.905       -2577.650          32.000  
G32  20969643.971   110196224.435        1534.386          45.000    20969633.527    85867133.250        1195.748          42.000  
C08  34696100.853   180671699.586        -293.225          45.000    34696083.954   139706739.710        -226.801          49.000  
C13  34710948.437   180749013.387          -2.887          47.000    34710939.035   139766556.482          -2.148          47.000  
C16  35672771.412   185757481.519          35.730          45.000    35672761.396   143639427.953          27.599          47.000  
C25  22142222.657   115300357.975       -2453.181          37.000                                                                  
C32  21093021.269   109836900.107         941.385          49.000                                                                  
C06  35374096.589   184202204.769         215.537          44.000    35374081.048   142436765.382         166.721          47.000  
G25  20615292.111   108334099.349        2657.406          46.000    20615282.824    84416138.874        2070.913          41.000  
G10  19563909.387   102809033.501        1186.017          50.000    19563897.647    80110891.513         924.188          44.000  
G28  22155300.934   116426900.533        2661.938          41.000    22155290.410    90722240.220        2073.811          41.000  
C23  20742363.981   108010930.398         402.143          51.000                                                                  
C09  36846957.025   191871777.862         313.301          41.000    36846945.046   148367376.622         242.325          46.000  
C33  25979637.142                       -2892.217          31.000                                                                  
C37  22995085.984   119741458.365        2755.490          44.000                                                                  
> 2025 10 27 02 46 32.8760000  0 19                     
G12  20795285.578   109279965.790        1036.717          45.000    20795273.945    85153167.368         807.770          41.000  
G15  23098758.753   121384793.460       -3222.645          37.000    23098750.036    94585515.444       -2511.285          32.000  
G18  23407073.612   123005002.162       -3694.409          38.000    23407067.323    95848021.137       -2879.078          36.000  
G23  19165793.573   100716923.911       -1932.259          45.000    19165781.464    78480645.767       -1505.703          47.000  
G24  20784292.202                       -3308.324          28.000    20784284.002    85108169.014       -2577.671          32.000  
G32  20969632.272   110196163.057        1534.413          45.000    20969621.857    85867085.417        1195.773          42.000  
C08  34696103.147   180671711.311        -293.182          45.000    34696086.194   139706748.776        -226.746          49.000  
C13  34710948.476   180749013.492          -2.722          47.000    34710939.072   139766556.566          -2.155          47.000  
C16  35672771.131   185757480.091          35.709          45.000    35672761.128   143639426.848          27.635          47.000  
C25  22142241.494   115300456.117       -2453.442          37.000                                                                  
C32  21093014.042   109836862.447         941.402          49.000                                                                  
C06  35374094.951   184202196.146         215.515          44.000    35374079.394   142436758.712         166.733          47.000  
G25  20615271.871   108333993.049        2657.408          46.000    20615262.605    84416056.053        2070.590          41.000  
G10  19563900.340   102808986.055        1186.072          50.000    19563888.612    80110854.545         924.170          44.000  
G28  22155280.685   116426794.074        2661.648          41.000    22155270.125    90722157.259        2073.925          41.000  
C23  20742360.889   108010914.311         402.108          51.000                                                                  
C09  36846954.629   191871765.328         313.369          41.000    36846942.656   148367366.935         242.249          46.000  
C33  25979659.311                       -2891.963          31.000                                                                  
C37  22995064.826   119741348.148        2755.423          44.000                                                                  
> 2025 10 27 02 46 32.9160000  0 19                     
G12  20795277.684   109279924.318        1036.708          45.000    20795266.056    85153135.059         807.670          41.000  
G15  23098783.283   121384922.368       -3222.728          37.000    23098774.525    94585615.866       -2510.773          32.000  
G18  23407101.738   123005149.964       -3694.828          38.000    23407095.447    95848136.300       -2879.173          36.000  
G23  19165808.274   100717001.211       -1932.464          45.000    19165796.167    78480705.995       -1505.746          47.000  
G24  20784316.962                       -3308.653          28.000    20784309.219                       -2579.395          32.000  
G32  20969620.615   110196101.673        1534.516          45.000    20969610.163    85867037.598        1195.568          42.000  
C08  34696105.399   180671723.044        -293.304          45.000    34696088.455   139706757.841        -226.642          49.000  
C13  34710948.500   180749013.599          -2.704          47.000    34710939.098   139766556.651          -2.167          47.000  
C16  35672770.849   185757478.676          35.434          45.000    35672760.873   143639425.743          27.631          47.000  
C25  22142260.352   115300554.258       -2453.578          37.000                                                                  
C32  21093006.853   109836824.783         941.482          49.000                                                                  
C06  35374093.322   184202187.531         215.387          44.000    35374077.719   142436752.048         166.606          47.000  
G25  20615251.639   108333886.733        2657.692          46.000    20615242.371    84415973.205        2070.968          41.000  
G10  19563891.298   102808938.615        1185.974          50.000    19563879.609    80110817.577         924.158          44.000  
G28  22155260.444   116426687.632        2661.165          41.000    22155249.839    90722074.304        2073.882          41.000  
C23  20742357.795   108010898.225         402.097          51.000                                                                  
C09  36846952.202   191871752.800         313.241          41.000    36846940.237   148367357.251         242.122          46.000  
C33  25979681.501                       -2891.757          31.000                                                                  
C37  22995043.663   119741237.923        2755.513          44.000                                                                  
> 2025 10 27 02 46 32.9560000  0 19                     
G12  20795269.805   109279882.856        1036.542          45.000    20795258.155    85153102.745         807.751          41.000  
G15  23098807.823   121385051.272       -3222.693          37.000    23098799.062    94585716.321       -2511.116          32.000  
G18  23407129.886   123005297.748       -3694.769          38.000    23407123.554    95848251.449       -2878.980          36.000  
G23  19165822.972   100717078.506       -1932.462          45.000    19165810.877    78480766.228       -1505.820          47.000  
G24  20784342.138                       -3308.727          28.000    20784334.378                       -2578.160          32.000  
G32  20969608.928   110196040.293        1534.501          45.000    20969598.488    85866989.776        1195.460          42.000  
C08  34696107.637   180671734.773        -293.292          45.000    34696090.688   139706766.911        -226.715          49.000  
C13  34710948.512   180749013.713          -2.814          47.000    34710939.126   139766556.738          -2.209          47.000  
C16  35672770.595   185757477.261          35.330          45.000    35672760.607   143639424.653          27.369          47.000  
C25  22142279.202   115300652.392       -2453.519          37.000                                                                  
C32  21092999.606   109836787.128         941.400          49.000                                                                  
C06  35374091.681   184202178.913         215.374          44.000    35374076.055   142436745.391         166.445          47.000  
G25  20615231.410   108333780.423        2657.781          46.000    20615222.158    84415890.378        2070.809          41.000  
G10  19563882.287   102808891.181        1185.840          50.000    19563870.579    80110780.614         924.066          44.000  
G28  22155240.194   116426581.180        2661.131          41.000    22155229.592    90721991.359        2073.689          41.000  
C23  20742354.706   108010882.140         402.066          51.000                                                                  
C09  36846949.795   191871740.291         312.847          41.000    36846937.841   148367347.571         241.979          46.000  
C33  25979703.747                       -2891.165          31.000                                                                  
C37  22995022.493   119741127.711        2755.319          44.000                                                                  
> 2025 10 27 02 46 32.9960000  0 19                     
G12  20795261.908   109279841.387        1036.613          45.000    20795250.263    85153070.414         808.089          41.000  
G15  23098832.368   121385180.181       -3222.682          37.000    23098823.589    94585816.779       -2511.321          32.000  
G18  23407158.009   123005445.522       -3694.498          38.000    23407151.677    95848366.622       -2879.267          36.000  
G23  19165837.674   100717155.806       -1932.510          45.000    19165825.599    78480826.459       -1505.863          47.000  
G24  20784367.438                       -3308.327          28.000    20784359.568                       -2578.437          32.000  
G32  20969597.251   110195978.922        1534.313          45.000    20969586.807    85866941.944        1195.620          42.000  
C08  34696109.886   180671746.503        -293.280          45.000    34696092.910   139706775.984        -226.813          49.000  
C13  34710948.535   180749013.835          -3.040          47.000    34710939.150   139766556.828          -2.271          47.000  
C16  35672770.312   185757475.843          35.317          45.000    35672760.329   143639423.558          27.289          47.000  
C25  22142298.064   115300750.543       -2453.748          37.000                                                                  
C32  21092992.410   109836749.468         941.426          49.000                                                                  
C06  35374090.015   184202170.297         215.344          44.000    35374074.378   142436738.725         166.498          47.000  
G25  20615211.176   108333674.121        2657.652          46.000    20615201.914    84415807.539        2070.955          41.000  
G10  19563873.228   102808843.743        1185.852          50.000    19563861.527    80110743.651         924.023          44.000  
G28  22155219.938   116426474.725        2661.138          41.000    22155209.335    90721908.400        2073.852          41.000  
C23  20742351.582   108010866.059         401.985          51.000                                                                  
C09  36846947.400   191871727.777         312.751          41.000    36846935.396   148367337.888         241.987          46.000  
C33  25979725.995                       -2892.873          31.000                                                                  
C37  22995001.344   119741017.483        2755.532          44.000                                                                  
> 2025 10 27 02 46 33.0360000  0 19                     
G12  20795254.027   109279799.914        1036.725          45.000    20795242.379    85153038.113         807.747          41.000  
G15  23098856.904   121385309.099       -3222.922          37.000    23098848.120    94585917.259       -2511.812          32.000  
G18  23407186.157   123005593.304       -3694.502          38.000    23407179.778    95848481.752       -2878.675          36.000  
G23  19165852.374   100717233.106       -1932.547          45.000    19165840.300    78480886.692       -1505.881          47.000  
G24  20784392.414                       -3308.606          28.000    20784384.762                       -2577.802          32.000  
G32  20969585.567   110195917.545        1534.349          45.000    20969575.117    85866894.116        1195.672          42.000  
C08  34696112.108   180671758.231        -293.225          45.000    34696095.137   139706785.061        -226.935          49.000  
C13  34710948.537   180749013.953          -3.040          47.000    34710939.147   139766556.921          -2.350          47.000  
C16  35672770.062   185757474.419          35.480          45.000    35672760.079   143639422.461          27.300          47.000  
C25  22142316.904   115300848.669       -2453.417          37.000                                                                  
C32  21092985.187   109836711.810         941.427          49.000                                                                  
C06  35374088.348   184202161.677         215.420          44.000    35374072.705   142436732.057         166.599          47.000  
G25  20615190.964   108333567.829        2657.382          46.000    20615181.682    84415724.718        2070.642          41.000  
G10  19563864.178   102808796.307        1185.846          50.000    19563852.506    80110706.685         924.109          44.000  
G28  22155199.680   116426368.252        2661.557          41.000    22155189.074    90721825.439        2073.945          41.000  
C23  20742348.500   108010849.978         401.967          51.000                                                                  
C09  36846945.015   191871715.252         312.957          41.000    36846933.008   148367328.207         241.989          46.000  
C33  25979748.262                       -2892.706          31.000                                                                  
C37  22994980.175   119740907.269        2755.410          44.000                                                                  
> 2025 10 27 02 46 33.0760000  0 19                     
G12  20795246.148   109279758.446        1036.698          45.000    20795234.497    85153005.815         807.506          41.000  
G15  23098881.417   121385438.004       -3222.770          37.000    23098872.634    94586017.730       -2512.007          32.000  
G18  23407214.282   123005741.095       -3694.674          38.000    23407207.909    95848596.917       -2878.917          36.000  
G23  19165867.081   100717310.403       -1932.515          45.000    19165855.046    78480946.934       -1506.023          47.000  
G24  20784417.630                       -3308.625          28.000    20784409.938                       -2577.583          32.000  
G32  20969573.876   110195856.174        1534.261          45.000    20969563.451    85866846.300        1195.442          42.000  
C08  34696114.364   180671769.960        -293.225          45.000    34696097.394   139706794.132        -226.874          49.000  
C13  34710948.547   180749014.066          -2.942          47.000    34710939.186   139766557.015          -2.368          47.000  
C16  35672769.772   185757473.000          35.471          45.000    35672759.834   143639421.366          27.310          47.000  
C25  22142335.744   115300946.789       -2453.114          37.000                                                                  
C32  21092977.951   109836674.155         941.350          49.000                                                                  
C06  35374086.684   184202153.051         215.579          44.000    35374071.043   142436725.396         166.531          47.000  
G25  20615170.740   108333461.528        2657.409          46.000    20615161.479    84415641.896        2070.476          41.000  
G10  19563855.153   102808748.872        1185.852          50.000    19563843.495    80110669.724         924.060          44.000  
G28  22155179.434   116426261.803        2661.331          41.000    22155168.820    90721742.495        2073.689          41.000  
C23  20742345.451   108010833.899         401.931          51.000                                                                  
C09  36846942.618   191871702.712         313.372          41.000    36846930.607   148367318.519         242.108          46.000  
C33  25979770.482                       -2892.682          30.000                                                                  
C37  22994958.995   119740797.051        2755.404          44.000                                                                  
> 2025 10 27 02 46 33.1160000  0 19                     
G12  20795238.279   109279716.990        1036.477          45.000    20795226.608    85152973.495         807.784          41.000  
G15  23098905.938   121385566.909       -3222.628          37.000    23098897.160    94586118.153       -2511.206          32.000  
G18  23407242.402   123005888.892       -3694.853          38.000    23407236.044    95848712.084       -2879.118          36.000  
G23  19165881.807   100717387.706       -1932.565          45.000    19165869.726    78481007.170       -1506.015          47.000  
G24  20784442.711                       -3308.744          28.000    20784435.153                       -2578.076          32.000  
G32  20969562.182   110195794.790        1534.458          45.000    20969551.766    85866798.471        1195.584          42.000  
C08  34696116.629   180671781.696        -293.347          45.000    34696099.668   139706803.205        -226.868          49.000  
C13  34710948.556   180749014.184          -2.954          47.000    34710939.225   139766557.109          -2.380          47.000  
C16  35672769.504   185757471.584          35.399          45.000    35672759.555   143639420.265          27.436          47.000  
C25  22142354.571   115301044.934       -2453.535          37.000                                                                  
C32  21092970.702   109836636.495         941.421          49.000                                                                  
C06  35374085.029   184202144.431         215.541          44.000    35374069.399   142436718.736         166.451          47.000  
G25  20615150.482   108333355.230        2657.407          46.000    20615141.233    84415559.068        2070.515          41.000  
G10  19563846.132   102808701.442        1185.760          50.000    19563834.462    80110632.771         923.871          44.000  
G28  22155159.186   116426155.351        2661.295          40.000    22155148.559    90721659.542        2073.690          41.000  
C23  20742342.391   108010817.818         401.953          51.000                                                                  
C09  36846940.194   191871690.188         313.285          41.000    36846928.211   148367308.834         242.088          46.000  
C33  25979792.684                       -2892.382          30.000                                                                  
C37  22994937.832   119740686.838        2755.348          44.000                                                                  
> 2025 10 27 02 46 33.1560000  0 19                     
G12  20795230.406   109279675.529        1036.443          45.000    20795218.714    85152941.182         807.807          41.000  
G15  23098930.481   121385695.827       -3222.810          37.000    23098921.680    94586218.583       -2510.856          32.000  
G18  23407270.510   123006036.676       -3694.695          38.000    23407264.169    95848827.240       -2878.910          36.000  
G23  19165896.539   100717465.009       -1932.614          45.000    19165884.435    78481067.401       -1505.871          47.000  
G24  20784468.228                       -3308.660          28.000    20784460.374                       -2578.989          32.000  
G32  20969550.484   110195733.419        1534.340          45.000    20969540.084    85866750.655        1195.436          42.000  
C08  34696118.879   180671793.434        -293.451          45.000    34696101.931   139706812.280        -226.898          49.000  
C13  34710948.565   180749014.301          -2.960          47.000    34710939.235   139766557.195          -2.240          47.000  
C16  35672769.261   185757470.163          35.446          45.000    35672759.302   143639419.165          27.500          47.000  
C25  22142373.447   115301143.097       -2454.075          37.000                                                                  
C32  21092963.429   109836598.844         941.288          49.000                                                                  
C06  35374083.357   184202135.823         215.324          44.000    35374067.763   142436712.071         166.508          47.000  
G25  20615130.273   108333248.938        2657.286          46.000    20615121.015    84415476.227        2070.840          41.000  
G10  19563837.108   102808654.013        1185.681          50.000    19563825.440    80110595.817         923.767          44.000  
G28  22155138.930   116426048.884        2661.608          40.000    22155128.307    90721576.591        2073.722          41.000  
C23  20742339.300   108010801.742         401.883          51.000                                                                  
C09  36846937.813   191871677.673         313.020          41.000    36846925.802   148367299.157         241.949          46.000  
C33  25979814.926                       -2892.226          30.000                                                                  
C37  22994916.664   119740576.620        2755.384          44.000                                                                  
> 2025 10 27 02 46 33.1960000  0 19                     
G12  20795222.531   109279634.079        1036.227          45.000    20795210.838    85152908.881         807.611          41.000  
G15  23098955.002   121385824.733       -3222.688          37.000    23098946.234    94586319.013       -2510.667          32.000  
G18  23407298.643   123006184.471       -3694.828          38.000    23407292.283    95848942.367       -2878.283          36.000  
G23  19165911.276   100717542.322       -1932.781          45.000    19165899.151    78481127.639       -1505.934          47.000  
G24  20784493.426                       -3308.761          28.000    20784485.563                       -2578.569          32.000  
G32  20969538.804   110195672.057        1534.113          45.000    20969528.399    85866702.824        1195.619          42.000  
C08  34696121.131   180671805.175        -293.518          45.000    34696104.208   139706821.351        -226.831          49.000  
C13  34710948.565   180749014.424          -3.070          47.000    34710939.263   139766557.280          -2.142          47.000  
C16  35672768.953   185757468.750          35.335          45.000    35672759.040   143639418.074          27.347          47.000  
C25  22142392.288   115301241.253       -2454.137          37.000                                                                  
C32  21092956.171   109836561.198         941.143          49.000                                                                  
C06  35374081.707   184202127.211         215.269          44.000    35374066.117   142436705.403         166.608          47.000  
G25  20615110.060   108333142.656        2657.095          46.000    20615100.789    84415393.406        2070.619          41.000  
G10  19563828.081   102808606.589        1185.583          50.000    19563816.428    80110558.859         923.828          44.000  
G28  22155118.654   116425942.416        2661.679          40.000    22155108.049    90721493.643        2073.660          41.000  
C23  20742336.214   108010785.671         401.755          51.000                                                                  
C09  36846935.435   191871665.165         312.790          41.000    36846923.393   148367289.477         241.939          46.000  
C33  25979837.151                       -2892.480          30.000                                                                  
C37  22994895.505   119740466.402        2755.411          44.000                                                                  
> 2025 10 27 02 46 33.2360000  0 19                     
G12  20795214.623   109279592.622        1036.273          45.000    20795202.973    85152876.586         807.423          41.000  
G15  23098979.548   121385953.644       -3222.781          37.000    23098970.771    94586419.503       -2511.643          32.000  
G18  23407326.745   123006332.256       -3694.756          38.000    23407320.415    95849057.541       -2878.850          36.000  
G23  19165925.970   100717619.628       -1932.742          45.000    19165913.867    78481187.879       -1506.015          47.000  
G24  20784518.599                       -3308.569          28.000    20784510.729                       -2578.009          32.000  
G32  20969527.122   110195610.686        1534.152          45.000    20969516.751    85866655.008        1195.462          42.000  
C08  34696123.393   180671816.917        -293.622          45.000    34696106.453   139706830.424        -226.825          49.000  
C13  34710948.609   180749014.538          -2.960          47.000    34710939.275   139766557.372          -2.252          47.000  
C16  35672768.673   185757467.329          35.463          45.000    35672758.761   143639416.982          27.265          47.000  
C25  22142411.144   115301339.386       -2453.679          37.000                                                                  
C32  21092948.952   109836523.543         941.250          49.000                                                                  
C06  35374080.083   184202118.592         215.359          44.000    35374064.480   142436698.744         166.521          47.000  
G25  20615089.830   108333036.359        2657.246          46.000    20615080.560    84415310.580        2070.631          41.000  
G10  19563819.043   102808559.162        1185.608          50.000    19563807.411    80110521.895         923.993          44.000  
G28  22155098.373   116425835.953        2661.558          40.000    22155087.783    90721410.685        2073.816          41.000  
C23  20742333.136   108010769.598         401.748          51.000                                                                  
C09  36846933.002   191871652.647         312.844          41.000    36846921.007   148367279.802         241.839          46.000  
C33  25979859.401                       -2892.185          30.000                                                                  
C37  22994874.319   119740356.190        2755.340          44.000                                                                  
> 2025 10 27 02 46 33.2760000  0 19                     
G12  20795206.730   109279551.156        1036.483          45.000    20795195.088    85152844.279         807.533          41.000  
G15  23099004.093   121386082.585       -3223.359          37.000    23098995.273    94586519.983       -2512.098          32.000  
G18  23407354.860   123006480.032       -3694.522          38.000    23407348.557    95849172.719       -2879.327          36.000  
G23  19165940.671   100717696.938       -1932.772          45.000    19165928.592    78481248.118       -1506.033          47.000  
G24  20784543.763                       -3308.833          28.000    20784535.941                       -2577.460          32.000  
G32  20969515.433   110195549.311        1534.283          45.000    20969505.084    85866607.190        1195.413          42.000  
C08  34696125.647   180671828.646        -293.420          46.000    34696108.685   139706839.502        -226.941          49.000  
C13  34710948.627   180749014.656          -2.960          47.000    34710939.273   139766557.465          -2.307          47.000  
C16  35672768.413   185757465.918          35.325          45.000    35672758.513   143639415.888          27.303          47.000  
C25  22142430.002   115301437.529       -2453.586          37.000                                                                  
C32  21092941.752   109836485.888         941.307          49.000                                                                  
C06  35374078.410   184202109.984         215.227          44.000    35374062.838   142436692.087         166.417          47.000  
G25  20615069.603   108332930.070        2657.220          46.000    20615060.347    84415227.761        2070.502          41.000  
G10  19563810.011   102808511.736        1185.602          50.000    19563798.390    80110484.941         923.901          44.000  
G28  22155078.123   116425729.524        2660.860          40.000    22155067.515    90721327.732        2073.789          41.000  
C23  20742330.077   108010753.524         401.796          51.000                                                                  
C09  36846930.612   191871640.118         313.083          41.000    36846918.591   148367270.116         241.997          46.000  
C33  25979881.573                       -2891.600          30.000                                                                  
C37  22994853.133   119740245.980        2755.269          44.000                                                                  
> 2025 10 27 02 46 33.3160000  0 19                     
G12  20795198.858   109279509.705        1036.290          45.000    20795187.192    85152811.971         807.650          41.000  
G15  23099028.605   121386211.494       -3223.100          37.000    23099019.805    94586620.428       -2511.655          32.000  
G18  23407382.977   123006627.823       -3694.748          38.000    23407376.693    95849287.889       -2879.342          36.000  
G23  19165955.373   100717774.249       -1932.815          45.000    19165943.317    78481308.363       -1506.138          47.000  
G24  20784568.898                       -3308.863          28.000    20784561.102                       -2578.006          32.000  
G32  20969503.759   110195487.952        1534.070          45.000    20969493.393    85866559.379        1195.266          42.000  
C08  34696127.899   180671840.385        -293.475          46.000    34696110.935   139706848.591        -227.179          49.000  
C13  34710948.620   180749014.780          -3.064          47.000    34710939.295   139766557.565          -2.509          47.000  
C16  35672768.113   185757464.519          35.053          45.000    35672758.231   143639414.793          27.335          47.000  
C25  22142448.829   115301535.683       -2453.674          37.000                                                                  
C32  21092934.535   109836448.243         941.200          49.000                                                                  
C06  35374076.765   184202101.371         215.244          44.000    35374061.196   142436685.431         166.340          47.000  
G25  20615049.356   108332823.774        2657.340          46.000    20615040.126    84415144.940        2070.464          41.000  
G10  19563800.970   102808464.313        1185.571          50.000    19563789.352    80110447.999         923.651          44.000  
G28  22155057.876   116425623.107        2660.280          41.000    22155047.277    90721244.798        2073.410          41.000  
C23  20742326.982   108010737.456         401.700          51.000                                                                  
C09  36846928.227   191871627.615         312.730          41.000    36846916.163   148367260.441         241.884          46.000  
C33  25979903.792                       -2891.876          30.000                                                                  
C37  22994831.956   119740135.774        2755.122          44.000                                                                  
> 2025 10 27 02 46 33.3560000  0 19                     
G12  20795190.954   109279468.249        1036.307          45.000    20795179.286    85152779.670         807.584          41.000  
G15  23099053.126   121386340.415       -3223.074          37.000    23099044.307    94586720.864       -2511.178          32.000  
G18  23407411.125   123006775.631       -3695.170          38.000    23407404.822    95849403.029       -2878.766          36.000  
G23  19165970.074   100717851.563       -1932.865          45.000    19165958.057    78481368.603       -1506.062          47.000  
G24  20784594.022                       -3309.109          28.000    20784586.310                       -2578.650          32.000  
G32  20969492.098   110195426.587        1534.088          45.000    20969481.728    85866511.563        1195.291          42.000  
C08  34696130.151   180671852.122        -293.445          46.000    34696113.157   139706857.663        -226.971          49.000  
C13  34710948.641   180749014.899          -3.027          47.000    34710939.332   139766557.665          -2.551          47.000  
C16  35672767.829   185757463.104          35.200          45.000    35672757.973   143639413.699          27.315          47.000  
C25  22142467.664   115301633.814       -2453.383          37.000                                                                  
C32  21092927.303   109836410.596         941.163          49.000                                                                  
C06  35374075.103   184202092.757         215.308          44.000    35374059.531   142436678.763         166.542          47.000  
G25  20615029.127   108332717.479        2657.356          46.000    20615019.895    84415062.113        2070.567          41.000  
G10  19563791.926   102808416.888        1185.596          50.000    19563780.318    80110411.041         923.804          44.000  
G28  22155037.630   116425516.653        2660.900          40.000    22155027.020    90721161.855        2073.457          41.000  
C23  20742323.908   108010721.384         401.755          51.000                                                                  
C09  36846925.796   191871615.086         313.027          41.000    36846913.755   148367250.767         241.803          46.000  
C33  25979926.019                       -2891.975          30.000                                                                  
C37  22994810.781   119740025.559        2755.251          44.000                                                                  
> 2025 10 27 02 46 33.3960000  0 19                     
G12  20795183.058   109279426.787        1036.425          45.000    20795171.423    85152747.359         807.686          41.000  
G15  23099077.683   121386469.323       -3222.800          37.000    23099068.839    94586821.324       -2511.382          32.000  
G18  23407439.252   123006923.420       -3695.006          38.000    23407432.943    95849518.182       -2878.724          36.000  
G23  19165984.777   100717928.867       -1932.708          45.000    19165972.758    78481428.849       -1506.156          47.000  
G24  20784618.996                       -3308.668          28.000    20784611.530                       -2579.313          32.000  
G32  20969480.394   110195365.204        1534.426          45.000    20969470.027    85866463.735        1195.531          42.000  
C08  34696132.413   180671863.853        -293.329          46.000    34696115.420   139706866.733        -226.825          49.000  
C13  34710948.702   180749015.016          -2.960          47.000    34710939.349   139766557.752          -2.313          47.000  
C16  35672767.553   185757461.686          35.376          45.000    35672757.727   143639412.609          27.263          47.000  
C25  22142486.517   115301731.965       -2453.678          37.000                                                                  
C32  21092920.084   109836372.942         941.267          49.000                                                                  
C06  35374073.430   184202084.131         215.541          44.000    35374057.845   142436672.100         166.545          47.000  
G25  20615008.917   108332611.191        2657.229          46.000    20614999.644    84414979.281        2070.695          41.000  
G10  19563782.892   102808369.461        1185.632          50.000    19563771.291    80110374.081         923.944          44.000  
G28  22155017.369   116425410.182        2661.566          40.000    22155006.750    90721078.898        2073.776          41.000  
C23  20742320.819   108010705.314         401.750          51.000                                                                  
C09  36846923.390   191871602.566         313.019          41.000    36846911.351   148367241.078         242.088          46.000  
C33  25979948.216                       -2891.937          30.000                                                                  
C37  22994789.602   119739915.349        2755.230          44.000                                                                  
> 2025 10 27 02 46 33.4360000  0 19                     
G12  20795175.181   109279385.339        1036.262          45.000    20795163.539    85152715.059         807.595          41.000  
G15  23099102.199   121386598.216       -3222.412          37.000    23099093.365    94586921.728       -2510.388          32.000  
G18  23407467.358   123007071.185       -3694.426          38.000    23407461.074    95849633.347       -2879.031          36.000  
G23  19165999.482   100718006.180       -1932.790          45.000    19165987.474    78481489.090       -1506.093          47.000  
G24  20784644.511                       -3308.758          28.000    20784636.698                       -2578.069          32.000  
G32  20969468.712   110195303.833        1534.387          45.000    20969458.341    85866415.896        1195.856          42.000  
C08  34696134.631   180671875.588        -293.372          46.000    34696117.694   139706875.804        -226.782          49.000  
C13  34710948.716   180749015.135          -3.009          47.000    34710939.376   139766557.837          -2.185          47.000  
C16  35672767.267   185757460.262          35.513          45.000    35672757.472   143639411.515          27.297          47.000  
C25  22142505.367   115301830.114       -2453.809          37.000                                                                  
C32  21092912.859   109836335.282         941.411          49.000                                                                  
C06  35374071.800   184202075.513         215.486          44.000    35374056.213   142436665.441         166.484          47.000  
G25  20614988.684   108332504.902        2657.186          46.000    20614979.419    84414896.464        2070.489          41.000  
G10  19563773.843   102808322.036        1185.608          50.000    19563762.264    80110337.128         923.828          44.000  
G28  22154997.072   116425303.699        2662.134          40.000    22154986.506    90720995.948        2073.800          41.000  
C23  20742317.740   108010689.236         401.884          51.000                                                                  
C09  36846920.997   191871590.045         313.005          41.000    36846908.929   148367231.397         242.079          46.000  
C33  25979970.429                       -2892.587          30.000                                                                  
C37  22994768.453   119739805.126        2755.427          44.000                                                                  
> 2025 10 27 02 46 33.4760000  0 19                     
G12  20795167.292   109279343.889        1036.201          45.000    20795155.644    85152682.762         807.440          41.000  
G15  23099126.751   121386727.135       -3222.745          37.000    23099117.871    94587022.183       -2510.837          32.000  
G18  23407495.496   123007218.966       -3694.398          38.000    23407489.209    95849748.497       -2878.876          36.000  
G23  19166014.202   100718083.498       -1932.939          45.000    19166002.172    78481549.334       -1506.111          47.000  
G24  20784669.962                       -3308.378          28.000    20784661.863                       -2577.712          32.000  
G32  20969457.030   110195242.464        1534.281          45.000    20969446.644    85866368.077        1195.654          42.000  
C08  34696136.899   180671887.335        -293.622          46.000    34696119.969   139706884.880        -226.880          49.000  
C13  34710948.743   180749015.263          -3.168          47.000    34710939.424   139766557.930          -2.271          47.000  
C16  35672767.001   185757458.850          35.389          45.000    35672757.201   143639410.424          27.271          47.000  
C25  22142524.217   115301928.274       -2454.050          37.000                                                                  
C32  21092905.621   109836297.641         941.145          49.000                                                                  
C06  35374070.158   184202066.909         215.214          44.000    35374054.519   142436658.783         166.440          47.000  
G25  20614968.453   108332398.619        2657.119          46.000    20614959.185    84414813.639        2070.531          41.000  
G10  19563764.839   102808274.615        1185.504          50.000    19563753.256    80110300.178         923.730          44.000  
G28  22154976.812   116425197.257        2661.510          40.000    22154966.257    90720912.997        2073.823          41.000  
C23  20742314.621   108010673.174         401.636          51.000                                                                  
C09  36846918.592   191871577.529         312.930          41.000    36846906.519   148367221.720         241.933          46.000  
C33  25979992.613                       -2892.512          30.000                                                                  
C37  22994747.258   119739694.924        2755.169          44.000                                                                  
> 2025 10 27 02 46 33.5160000  0 19                     
G12  20795159.391   109279302.440        1036.178          45.000    20795147.781    85152650.467         807.334          41.000  
G15  23099151.276   121386856.037       -3222.549          37.000    23099142.407    94587122.645       -2511.368          32.000  
G18  23407523.616   123007366.759       -3694.592          38.000    23407517.329    95849863.662       -2879.080          36.000  
G23  19166028.919   100718160.811       -1932.913          45.000    19166016.865    78481609.580       -1506.154          47.000  
G24  20784695.215                       -3308.533          28.000    20784687.040    85109819.035       -2577.627          32.000  
G32  20969445.371   110195181.103        1534.073          45.000    20969434.975    85866320.269        1195.317          42.000  
C08  34696139.160   180671899.071        -293.542          46.000    34696122.232   139706893.959        -226.971          49.000  
C13  34710948.765   180749015.386          -3.137          47.000    34710939.448   139766558.027          -2.405          47.000  
C16  35672766.719   185757457.438          35.320          45.000    35672756.942   143639409.335          27.199          47.000  
C25  22142543.071   115302026.408       -2453.585          37.000                                                                  
C32  21092898.376   109836259.997         941.033          49.000                                                                  
C06  35374068.480   184202058.302         215.109          44.000    35374052.846   142436652.125         166.388          47.000  
G25  20614948.221   108332292.333        2657.102          46.000    20614938.963    84414730.823        2070.423          41.000  
G10  19563755.817   102808227.198        1185.406          50.000    19563744.230    80110263.222         923.773          44.000  
G28  22154956.571   116425090.816        2661.111          40.000    22154946.006    90720830.058        2073.535          41.000  
C23  20742311.488   108010657.110         401.561          51.000                                                                  
C09  36846916.186   191871565.021         312.736          41.000    36846904.112   148367212.045         241.846          46.000  
C33  25980014.826                       -2891.615          30.000                                                                  
C37  22994726.067   119739584.712        2755.209          44.000                                                                  
> 2025 10 27 02 46 33.5560000  0 19                     
G12  20795151.499   109279260.986        1036.277          45.000    20795139.884    85152618.174         807.255          41.000  
G15  23099175.826   121386984.987       -3223.344          37.000    23099166.967    94587223.114       -2511.719          33.000  
G18  23407551.723   123007514.563       -3694.964          38.000    23407545.479    95849978.835       -2879.254          36.000  
G23  19166043.612   100718238.126       -1932.931          45.000    19166031.582    78481669.824       -1506.141          47.000  
G24  20784720.520                       -3309.154          28.000    20784712.238                       -2579.095          32.000  
G32  20969433.694   110195119.735        1534.082          45.000    20969423.287    85866272.446        1195.441          42.000  
C08  34696141.430   180671910.812        -293.536          46.000    34696124.502   139706903.040        -227.039          49.000  
C13  34710948.813   180749015.505          -3.064          47.000    34710939.492   139766558.118          -2.319          47.000  
C16  35672766.430   185757456.021          35.380          45.000    35672756.709   143639408.241          27.267          47.000  
C25  22142561.928   115302124.557       -2453.656          37.000                                                                  
C32  21092891.143   109836222.347         941.153          49.000                                                                  
C06  35374066.826   184202049.695         215.090          44.000    35374051.169   142436645.463         166.449          47.000  
G25  20614927.985   108332186.034        2657.359          46.000    20614918.742    84414648.007        2070.368          41.000  
G10  19563746.784   102808179.777        1185.443          50.000    19563735.211    80110226.275         923.645          44.000  
G28  22154936.339   116424984.392        2660.636          40.000    22154925.755    90720747.110        2073.625          41.000  
C23  20742308.392   108010641.046         401.527          51.000                                                                  
C09  36846913.799   191871552.506         312.731          41.000    36846901.699   148367202.361         241.992          46.000  
C33  25980037.073                       -2891.489          30.000                                                                  
C37  22994704.906   119739474.508        2755.148          44.000                                                                  
> 2025 10 27 02 46 33.5960000  0 19                     
G12  20795143.587   109279219.531        1036.335          45.000    20795132.002    85152585.875         807.315          41.000  
G15  23099200.373   121387113.918       -3223.396          37.000    23099191.503    94587323.576       -2511.803          33.000  
G18  23407579.841   123007662.349       -3694.798          38.000    23407573.593    95850093.994       -2879.125          36.000  
G23  19166058.324   100718315.433       -1932.800          45.000    19166046.316    78481730.069       -1506.123          47.000  
G24  20784746.048                       -3309.208          28.000    20784737.426                       -2578.770          32.000  
G32  20969422.004   110195058.362        1534.215          45.000    20969411.619    85866224.630        1195.383          42.000  
C08  34696143.679   180671922.543        -293.372          46.000    34696126.740   139706912.118        -227.008          49.000  
C13  34710948.858   180749015.618          -2.893          47.000    34710939.529   139766558.206          -2.234          47.000  
C16  35672766.155   185757454.606          35.388          45.000    35672756.482   143639407.141          27.432          47.000  
C25  22142580.780   115302222.715       -2453.811          37.000                                                                  
C32  21092883.963   109836184.690         941.353          49.000                                                                  
C06  35374065.201   184202041.079         215.259          44.000    35374049.505   142436638.804         166.449          47.000  
G25  20614907.743   108332079.738        2657.425          46.000    20614898.516    84414565.181        2070.534          41.000  
G10  19563737.747   102808132.344        1185.681          50.000    19563726.176    80110189.317         923.779          44.000  
G28  22154916.086   116424877.946        2660.821          40.000    22154905.507    90720664.164        2073.632          41.000  
C23  20742305.337   108010624.979         401.602          51.000                                                                  
C09  36846911.411   191871539.978         313.003          41.000    36846899.284   148367192.680         242.003          46.000  
C33  25980059.284                       -2891.432          30.000                                                                  
C37  22994683.759   119739364.293        2755.282          44.000                                                                  
> 2025 10 27 02 46 33.6360000  0 19                     
G12  20795135.718   109279178.083        1036.223          45.000    20795124.112    85152553.567         807.522          41.000  
G15  23099224.898   121387242.810       -3222.650          37.000    23099216.012    94587424.012       -2511.239          33.000  
G18  23407607.961   123007810.127       -3694.578          38.000    23407601.691    95850209.145       -2878.925          36.000  
G23  19166073.050   100718392.750       -1932.894          45.000    19166061.010    78481790.311       -1506.067          47.000  
G24  20784771.535                       -3308.659          28.000    20784762.595                       -2577.758          32.000  
G32  20969410.338   110194996.985        1534.364          45.000    20969399.941    85866176.803        1195.526          42.000  
C08  34696145.922   180671934.276        -293.311          46.000    34696128.984   139706921.189        -226.843          49.000  
C13  34710948.876   180749015.729          -2.759          47.000    34710939.547   139766558.297          -2.264          47.000  
C16  35672765.905   185757453.187          35.451          45.000    35672756.226   143639406.039          27.531          47.000  
C25  22142599.636   115302320.872       -2453.865          37.000                                                                  
C32  21092876.703   109836147.036         941.381          49.000                                                                  
C06  35374063.535   184202032.454         215.520          44.000    35374047.838   142436632.129         166.733          47.000  
G25  20614887.529   108331973.447        2657.369          46.000    20614878.270    84414482.347        2070.739          41.000  
G10  19563728.734   102808084.925        1185.529          50.000    19563717.147    80110152.359         923.883          44.000  
G28  22154895.841   116424771.493        2661.059          40.000    22154885.223    90720581.206        2073.837          41.000  
C23  20742302.263   108010608.907         401.739          51.000                                                                  
C09  36846909.015   191871527.451         313.120          41.000    36846896.871   148367182.995         242.072          46.000  
C33  25980081.523                       -2891.519          30.000                                                                  
C37  22994662.588   119739254.080        2755.319          44.000                                                                  
> 2025 10 27 02 46 33.6760000  0 19                     
G12  20795127.833   109279136.623        1036.380          45.000    20795116.211    85152521.267         807.513          41.000  
G15  23099249.394   121387371.709       -3222.389          37.000    23099240.512    94587524.472       -2511.371          33.000  
G18  23407636.103   123007957.910       -3694.550          38.000    23407629.819    95850324.286       -2878.594          36.000  
G23  19166087.780   100718470.058       -1932.769          45.000    19166075.720    78481850.554       -1506.073          47.000  
G24  20784796.830                       -3308.453          28.000    20784787.775                       -2577.756          32.000  
G32  20969398.652   110194935.602        1534.553          45.000    20969388.282    85866128.976        1195.614          42.000  
C08  34696148.154   180671946.011        -293.353          46.000    34696131.235   139706930.258        -226.746          49.000  
C13  34710948.872   180749015.845          -2.832          47.000    34710939.552   139766558.388          -2.264          47.000  
C16  35672765.631   185757451.769          35.469          45.000    35672755.965   143639404.944          27.466          47.000  
C25  22142618.482   115302419.011       -2453.661          37.000                                                                  
C32  21092869.430   109836109.385         941.320          49.000                                                                  
C06  35374061.857   184202023.836         215.503          44.000    35374046.206   142436625.470         166.608          47.000  
G25  20614867.303   108331867.159        2657.269          46.000    20614858.015    84414399.515        2070.783          41.000  
G10  19563719.716   102808037.503        1185.510          50.000    19563708.125    80110115.410         923.767          44.000  
G28  22154875.572   116424665.031        2661.444          40.000    22154864.970    90720498.258        2073.767          41.000  
C23  20742299.194   108010592.834         401.826          51.000                                                                  
C09  36846906.626   191871514.935         313.005          41.000    36846894.471   148367173.314         242.059          46.000  
C33  25980103.750                       -2892.618          30.000                                                                  
C37  22994641.418   119739143.861        2755.428          44.000                                                                  
> 2025 10 27 02 46 33.7160000  0 19                     
G12  20795119.956   109279095.173        1036.273          45.000    20795108.319    85152488.955         807.698          41.000  
G15  23099273.907   121387500.607       -3222.202          37.000    23099265.033    94587624.921       -2511.225          33.000  
G18  23407664.227   123008105.682       -3694.373          38.000    23407657.938    95850439.453       -2878.862          36.000  
G23  19166102.503   100718547.372       -1932.839          45.000    19166090.437    78481910.800       -1506.142          47.000  
G24  20784822.222                       -3308.950          28.000    20784812.946    85110334.698       -2578.118          32.000  
G32  20969386.974   110194874.229        1534.437          45.000    20969376.599    85866081.149        1195.643          42.000  
C08  34696150.398   180671957.749        -293.451          46.000    34696133.468   139706939.332        -226.807          49.000  
C13  34710948.873   180749015.964          -2.930          47.000    34710939.576   139766558.477          -2.258          47.000  
C16  35672765.363   185757450.349          35.500          45.000    35672755.709   143639403.847          27.433          47.000  
C25  22142637.328   115302517.152       -2453.601          37.000                                                                  
C32  21092862.165   109836071.736         941.249          49.000                                                                  
C06  35374060.210   184202015.210         215.638          44.000    35374044.571   142436618.813         166.467          47.000  
G25  20614847.095   108331760.878        2657.055          46.000    20614837.817    84414316.695        2070.625          41.000  
G10  19563710.671   102807990.074        1185.645          50.000    19563699.125    80110078.456         923.804          44.000  
G28  22154855.319   116424558.598        2661.024          41.000    22154844.736    90720415.320        2073.486          41.000  
C23  20742296.085   108010576.766         401.757          51.000                                                                  
C09  36846904.221   191871502.418         312.904          41.000    36846892.078   148367163.633         242.047          46.000  
C33  25980125.962                       -2893.128          30.000                                                                  
C37  22994620.225   119739033.654        2755.280          44.000                                                                  
> 2025 10 27 02 46 33.7560000  0 19                     
G12  20795112.066   109279053.730        1036.087          45.000    20795100.437    85152456.667         807.377          41.000  
G15  23099298.415   121387629.516       -3222.408          37.000    23099289.553    94587725.377       -2511.388          33.000  
G18  23407692.331   123008253.462       -3694.444          38.000    23407686.064    95850554.619       -2879.045          36.000  
G23  19166117.225   100718624.683       -1932.813          45.000    19166105.127    78481971.043       -1506.104          47.000  
G24  20784847.532                       -3308.765          28.000    20784838.153    85110437.791       -2577.596          32.000  
G32  20969375.308   110194812.856        1534.329          45.000    20969364.919    85866033.325        1195.631          42.000  
C08  34696152.664   180671969.472        -293.201          46.000    34696135.732   139706948.406        -226.855          49.000  
C13  34710948.889   180749016.084          -3.027          47.000    34710939.596   139766558.566          -2.240          47.000  
C16  35672765.101   185757448.926          35.576          45.000    35672755.470   143639402.755          27.342          47.000  
C25  22142656.164   115302615.303       -2453.701          37.000                                                                  
C32  21092854.902   109836034.089         941.173          49.000                                                                  
C06  35374058.564   184202006.589         215.583          44.000    35374042.917   142436612.145         166.588          47.000  
G25  20614826.857   108331654.590        2657.100          45.000    20614817.614    84414233.885        2070.345          41.000  
G10  19563701.667   102807942.650        1185.608          50.000    19563690.108    80110041.505         923.792          44.000  
G28  22154835.064   116424452.142        2661.231          40.000    22154824.490    90720332.378        2073.476          41.000  
C23  20742292.958   108010560.702         401.634          51.000                                                                  
C09  36846901.826   191871489.893         313.012          41.000    36846889.695   148367153.949         242.058          46.000  
C33  25980148.155                       -2892.846          30.000                                                                  
C37  22994599.049   119738923.442        2755.301          44.000                                                                  
> 2025 10 27 02 46 33.7960000  0 19                     
G12  20795104.202   109279012.289        1035.954          45.000    20795092.541    85152424.371         807.303          41.000  
G15  23099322.950   121387758.435       -3222.773          37.000    23099314.049    94587825.804       -2511.025          33.000  
G18  23407720.468   123008401.247       -3694.569          38.000    23407714.164    95850669.746       -2878.476          36.000  
G23  19166131.953   100718702.003       -1932.963          45.000    19166119.857    78482031.293       -1506.241          47.000  
G24  20784871.650                       -3307.652          29.000    20784863.322    85110540.932       -2578.147          32.000  
G32  20969363.644   110194751.488        1534.208          45.000    20969353.271    85865985.498        1195.675          42.000  
C08  34696154.917   180671981.210        -293.378          46.000    34696137.993   139706957.481        -226.892          49.000  
C13  34710948.923   180749016.200          -2.985          47.000    34710939.601   139766558.656          -2.246          47.000  
C16  35672764.783   185757447.519          35.298          45.000    35672755.201   143639401.655          27.400          47.000  
C25  22142675.024   115302713.447       -2453.733          37.000                                                                  
C32  21092847.703   109835996.431         941.342          49.000                                                                  
C06  35374056.906   184201997.974         215.444          44.000    35374041.268   142436605.477         166.674          47.000  
G25  20614806.621   108331548.304        2657.105          45.000    20614797.396    84414151.062        2070.425          41.000  
G10  19563692.691   102807895.235        1185.406          50.000    19563681.077    80110004.558         923.688          44.000  
G28  22154814.776   116424345.677        2661.529          40.000    22154804.233    90720249.429        2073.582          41.000  
C23  20742289.853   108010544.638         401.564          51.000                                                                  
C09  36846899.419   191871477.363         313.194          41.000    36846887.290   148367144.269         241.963          46.000  
C33  25980170.405                       -2892.357          30.000                                                                  
C37  22994577.875   119738813.228        2755.343          44.000                                                                  
> 2025 10 27 02 46 33.8360000  0 19                     
G12  20795096.311   109278970.835        1036.160          45.000    20795084.662    85152392.073         807.347          41.000  
G15  23099347.478   121387887.367       -3223.123          37.000    23099338.608    94587926.283       -2511.638          33.000  
G18  23407748.583   123008549.031       -3694.578          38.000    23407742.285    95850784.899       -2878.654          36.000  
G23  19166146.679   100718779.333       -1933.242          45.000    19166134.579    78482091.546       -1506.353          47.000  
G24  20784897.918                       -3310.185          29.000    20784888.497    85110644.102       -2579.021          32.000  
G32  20969351.948   110194690.122        1534.124          45.000    20969341.566    85865937.679        1195.578          42.000  
C08  34696157.180   180671992.947        -293.469          46.000    34696140.289   139706966.560        -226.971          49.000  
C13  34710948.956   180749016.317          -2.966          47.000    34710939.658   139766558.750          -2.362          47.000  
C16  35672764.512   185757446.104          35.291          45.000    35672754.938   143639400.561          27.349          47.000  
C25  22142693.859   115302811.586       -2453.589          37.000                                                                  
C32  21092840.456   109835958.781         941.295          49.000                                                                  
C06  35374055.258   184201989.365         215.262          44.000    35374039.622   142436598.822         166.466          47.000  
G25  20614786.370   108331442.012        2657.222          45.000    20614777.162    84414068.241        2070.431          41.000  
G10  19563683.679   102807847.821        1185.297          50.000    19563672.040    80109967.612         923.608          44.000  
G28  22154794.511   116424239.217        2661.500          40.000    22154783.968    90720166.484        2073.544          41.000  
C23  20742286.793   108010528.571         401.599          51.000                                                                  
C09  36846897.008   191871464.850         312.940          41.000    36846884.879   148367134.590         241.958          46.000  
C33  25980192.596                       -2891.451          30.000                                                                  
C37  22994556.709   119738703.016        2755.334          44.000                                                                  
> 2025 10 27 02 46 33.8760000  0 19                     
G12  20795088.416   109278929.391        1036.116          45.000    20795076.770    85152359.782         807.278          41.000  
G15  23099371.999   121388016.278       -3223.000          37.000    23099363.131    94588026.708       -2511.035          33.000  
G18  23407776.690   123008696.814       -3694.605          38.000    23407770.425    95850900.075       -2879.135          36.000  
G23  19166161.398   100718856.651       -1933.121          45.000    19166149.278    78482151.796       -1506.320          47.000  
G24  20784923.619                       -3309.646          29.000    20784913.691    85110747.246       -2579.050          32.000  
G32  20969340.263   110194628.757        1534.090          45.000    20969329.902    85865889.863        1195.375          42.000  
C08  34696159.446   180672004.691        -293.616          46.000    34696142.579   139706975.633        -226.880          49.000  
C13  34710948.984   180749016.437          -3.027          47.000    34710939.676   139766558.845          -2.411          47.000  
C16  35672764.235   185757444.685          35.384          45.000    35672754.665   143639399.471          27.267          47.000  
C25  22142712.678   115302909.739       -2453.725          37.000                                                                  
C32  21092833.187   109835921.138         941.122          49.000                                                                  
C06  35374053.593   184201980.746         215.370          44.000    35374037.959   142436592.166         166.378          47.000  
G25  20614766.155   108331335.728        2657.136          45.000    20614756.933    84413985.425        2070.327          41.000  
G10  19563674.639   102807800.403        1185.345          50.000    19563663.017    80109930.662         923.663          44.000  
G28  22154774.285   116424132.767        2661.268          40.000    22154763.715    90720083.528        2073.769          41.000  
C23  20742283.695   108010512.510         401.536          51.000                                                                  
C09  36846894.603   191871452.334         312.821          41.000    36846882.478   148367124.908         241.990          46.000  
C33  25980214.861                       -2891.637          30.000                                                                  
C37  22994535.541   119738592.806        2755.288          44.000                                                                  
> 2025 10 27 02 46 33.9160000  0 19                     
G12  20795080.540   109278887.940        1036.215          45.000    20795068.863    85152327.487         807.299          41.000  
G15  23099396.538   121388145.217       -3223.412          37.000    23099387.665    94588127.167       -2511.173          33.000  
G18  23407804.812   123008844.584       -3694.382          38.000    23407798.554    95851015.237       -2879.269          36.000  
G23  19166176.105   100718933.967       -1932.983          45.000    19166163.999    78482212.045       -1506.282          47.000  
G24  20784949.061                       -3307.907          29.000    20784938.885    85110850.374       -2578.585          32.000  
G32  20969328.572   110194567.381        1534.294          45.000    20969318.220    85865842.042        1195.452          42.000  
C08  34696161.707   180672016.433        -293.610          46.000    34696144.861   139706984.703        -226.819          49.000  
C13  34710948.982   180749016.557          -3.033          47.000    34710939.692   139766558.939          -2.435          47.000  
C16  35672763.954   185757443.271          35.332          45.000    35672754.401   143639398.379          27.257          47.000  
C25  22142731.511   115303007.921       -2454.340          37.000                                                                  
C32  21092826.000   109835883.487         941.190          49.000                                                                  
C06  35374051.943   184201972.139         215.226          44.000    35374036.270   142436585.504         166.414          47.000  
G25  20614745.926   108331229.441        2657.149          46.000    20614736.709    84413902.593        2070.590          41.000  
G10  19563665.585   102807752.982        1185.443          50.000    19563653.987    80109893.707         923.834          44.000  
G28  22154754.060   116424026.324        2660.994          40.000    22154743.471    90720000.589        2073.537          41.000  
C23  20742280.591   108010496.450         401.467          51.000                                                                  
C09  36846892.213   191871439.812         312.930          41.000    36846880.057   148367115.222         242.109          46.000  
C33  25980237.067                       -2891.455          30.000                                                                  
C37  22994514.382   119738482.601        2755.171          44.000                                                                  
> 2025 10 27 02 46 33.9560000  0 19                     
G12  20795072.630   109278846.494        1036.174          45.000    20795060.995    85152295.185         807.463          41.000  
G15  23099421.102   121388274.101       -3222.687          37.000    23099412.200    94588227.666       -2511.874          33.000  
G18  23407832.954   123008992.375       -3694.676          38.000    23407826.684    95851130.366       -2878.659          36.000  
G23  19166190.809   100719011.287       -1932.983          45.000    19166178.688    78482272.292       -1506.213          47.000  
G24  20784974.318                       -3308.400          29.000    20784964.041    85110953.462       -2577.619          32.000  
G32  20969316.884   110194506.006        1534.368          45.000    20969306.528    85865794.230        1195.298          42.000  
C08  34696163.959   180672028.168        -293.475          46.000    34696147.095   139706993.779        -226.886          49.000  
C13  34710949.031   180749016.677          -3.046          47.000    34710939.736   139766559.029          -2.368          47.000  
C16  35672763.690   185757441.860          35.270          45.000    35672754.119   143639397.283          27.330          47.000  
C25  22142750.352   115303106.066       -2454.026          37.000                                                                  
C32  21092818.771   109835845.840         941.164          49.000                                                                  
C06  35374050.296   184201963.518         215.381          44.000    35374034.618   142436578.846         166.416          47.000  
G25  20614725.698   108331123.151        2657.188          46.000    20614716.513    84413819.791        2070.183          41.000  
G10  19563656.535   102807705.563        1185.468          50.000    19563644.973    80109856.760         923.730          44.000  
G28  22154733.821   116423919.908        2660.426          40.000    22154723.197    90719917.643        2073.556          41.000  
C23  20742277.532   108010480.390         401.444          51.000                                                                  
C09  36846889.811   191871427.299         312.811          41.000    36846877.664   148367105.537         242.114          46.000  
C33  25980259.312                       -2891.623          30.000                                                                  
C37  22994493.237   119738372.384        2755.307          44.000                                                                  
> 2025 10 27 02 46 33.9960000  0 19                     
G12  20795064.749   109278805.048        1036.147          45.000    20795053.110    85152262.891         807.457          41.000  
G15  23099445.625   121388403.022       -3222.916          37.000    23099436.705    94588328.071       -2510.696          33.000  
G18  23407861.086   123009140.149       -3694.480          38.000    23407854.800    95851245.529       -2878.937          36.000  
G23  19166205.514   100719088.607       -1932.989          45.000    19166193.404    78482332.542       -1506.251          47.000  
G24  20784999.402                       -3308.729          29.000    20784989.225    85111056.563       -2577.410          32.000  
G32  20969305.206   110194444.622        1534.538          45.000    20969294.846    85865746.401        1195.508          42.000  
C08  34696166.206   180672039.902        -293.384          46.000    34696149.339   139707002.861        -227.008          49.000  
C13  34710949.045   180749016.800          -3.113          47.000    34710939.757   139766559.122          -2.350          47.000  
C16  35672763.381   185757440.444          35.324          45.000    35672753.836   143639396.188          27.340          47.000  
C25  22142769.187   115303204.204       -2453.608          37.000                                                                  
C32  21092811.523   109835808.191         941.197          49.000                                                                  
C06  35374048.632   184201954.908         215.287          44.000    35374032.957   142436572.178         166.588          47.000  
G25  20614705.473   108331016.868        2657.094          45.000    20614696.294    84413736.974        2070.255          41.000  
G10  19563647.524   102807658.148        1185.388          50.000    19563635.957    80109819.814         923.682          44.000  
G28  22154713.563   116423813.447        2661.055          40.000    22154702.977    90719834.706        2073.395          41.000  
C23  20742274.459   108010464.329         401.465          51.000                                                                  
C09  36846887.396   191871414.790         312.694          41.000    36846875.257   148367095.858         241.994          46.000  
C33  25980281.529                       -2892.238          30.000                                                                  
C37  22994472.070   119738262.178        2755.183          44.000                                                                  
> 2025 10 27 02 46 34.0360000  0 19                     
G12  20795056.878   109278763.606        1036.063          45.000    20795045.228    85152230.605         807.212          41.000  
G15  23099470.155   121388531.932       -3222.859          37.000    23099461.248    94588428.528       -2510.990          33.000  
G18  23407889.203   123009287.938       -3694.612          38.000    23407882.910    95851360.677       -2878.824          36.000  
G23  19166220.215   100719165.926       -1932.990          45.000    19166208.109    78482392.787       -1506.183          47.000  
G24  20785024.914                       -3308.697          29.000    20785014.431    85111159.706       -2578.124          32.000  
G32  20969293.528   110194383.249        1534.430          45.000    20969283.159    85865698.569        1195.718          42.000  
C08  34696168.448   180672051.629        -293.274          46.000    34696151.607   139707011.941        -227.057          49.000  
C13  34710949.099   180749016.916          -2.972          47.000    34710939.804   139766559.212          -2.301          47.000  
C16  35672763.095   185757439.027          35.389          45.000    35672753.542   143639395.090          27.412          47.000  
C25  22142788.023   115303302.345       -2453.511          37.000                                                                  
C32  21092804.293   109835770.537         941.306          49.000                                                                  
C06  35374046.961   184201946.293         215.337          44.000    35374031.309   142436565.516         166.558          47.000  
G25  20614685.259   108330910.586        2657.033          46.000    20614676.066    84413654.149        2070.467          41.000  
G10  19563638.493   102807610.731        1185.400          50.000    19563626.932    80109782.864         923.712          44.000  
G28  22154693.291   116423706.978        2661.525          40.000    22154682.714    90719751.756        2073.609          41.000  
C23  20742271.395   108010448.264         401.537          51.000                                                                  
C09  36846884.999   191871402.261         313.048          41.000    36846872.836   148367086.177         241.976          46.000  
C33  25980303.734                       -2892.617          30.000                                                                  
C37  22994450.890   119738151.962        2755.347          44.000                                                                  
> 2025 10 27 02 46 34.0760000  0 19                     
G12  20795048.989   109278722.159        1036.092          45.000    20795037.330    85152198.300         807.414          41.000  
G15  23099494.659   121388660.838       -3222.803          37.000    23099485.775    94588528.972       -2510.935          33.000  
G18  23407917.332   123009435.722       -3694.657          38.000    23407911.028    95851475.816       -2878.582          36.000  
G23  19166234.918   100719243.242       -1932.941          45.000    19166222.848    78482453.040       -1506.283          47.000  
G24  20785049.844                3      -3304.696          29.000    20785039.605    85111262.847       -2578.419          32.000  
G32  20969281.842   110194321.879        1534.300          45.000    20969271.489    85865650.742        1195.733          42.000  
C08  34696170.703   180672063.364        -293.323          46.000    34696153.863   139707021.014        -226.941          49.000  
C13  34710949.145   180749017.028          -2.832          47.000    34710939.823   139766559.296          -2.155          47.000  
C16  35672762.800   185757437.605          35.510          45.000    35672753.238   143639393.989          27.481          47.000  
C25  22142806.871   115303400.494       -2453.670          37.000                                                                  
C32  21092797.069   109835732.883         941.368          49.000                                                                  
C06  35374045.333   184201937.670         215.479          44.000    35374029.665   142436558.846         166.688          47.000  
G25  20614665.010   108330804.294        2657.170          46.000    20614655.822    84413571.322        2070.601          41.000  
G10  19563629.459   102807563.311        1185.443          50.000    19563617.886    80109745.916         923.669          44.000  
G28  22154673.048   116423600.525        2661.479          40.000    22154662.440    90719668.798        2073.863          41.000  
C23  20742268.325   108010432.197         401.640          51.000                                                                  
C09  36846882.610   191871389.728         313.258          41.000    36846870.418   148367076.496         241.983          46.000  
C33  25980325.979                       -2892.077          31.000                                                                  
C37  22994429.718   119738041.753        2755.298          44.000                                                                  
> 2025 10 27 02 46 34.1160000  0 19                     
G12  20795041.113   109278680.718        1036.020          45.000    20795029.448    85152166.011         807.271          41.000  
G15  23099519.182   121388789.748       -3222.810          37.000    23099510.291    94588629.428       -2511.187          33.000  
G18  23407945.444   123009583.498       -3694.560          38.000    23407939.166    95851590.971       -2878.795          36.000  
G23  19166249.656   100719320.572       -1933.184          45.000    19166237.550    78482513.288       -1506.283          47.000  
G24  20785075.302                3      -3310.492          29.000    20785064.786    85111365.986       -2578.469          32.000  
G32  20969270.171   110194260.507        1534.248          45.000    20969259.808    85865602.908        1195.826          42.000  
C08  34696172.954   180672075.099        -293.384          46.000    34696156.131   139707030.080        -226.733          49.000  
C13  34710949.180   180749017.135          -2.710          47.000    34710939.810   139766559.386          -2.222          47.000  
C16  35672762.525   185757436.184          35.526          45.000    35672752.949   143639392.891          27.452          47.000  
C25  22142825.721   115303498.648       -2453.863          37.000                                                                  
C32  21092789.820   109835695.236         941.244          49.000                                                                  
C06  35374043.688   184201929.048         215.554          44.000    35374028.001   142436552.179         166.683          47.000  
G25  20614644.783   108330698.017        2656.988          46.000    20614635.576    84413488.492        2070.747          41.000  
G10  19563620.459   102807515.899        1185.315          50.000    19563608.882    80109708.968         923.651          44.000  
G28  22154652.789   116423494.073        2661.364          40.000    22154642.157    90719585.841        2073.960          41.000  
C23  20742265.194   108010416.135         401.598          51.000                                                                  
C09  36846880.206   191871377.210         313.040          41.000    36846867.997   148367066.819         241.921          46.000  
C33  25980348.184                       -2891.944          30.000                                                                  
C37  22994408.535   119737931.541        2755.266          44.000                                                                  
> 2025 10 27 02 46 34.1560000  0 19                     
G12  20795033.203   109278639.273        1036.062          45.000    20795021.558    85152133.721         807.210          41.000  
G15  23099543.707   121388918.654       -3222.701          37.000    23099534.808    94588729.840       -2510.585          32.000  
G18  23407973.548   123009731.272       -3694.423          38.000    23407967.300    95851706.141       -2879.220          36.000  
G23  19166264.378   100719397.893       -1933.126          45.000    19166252.291    78482573.542       -1506.351          47.000  
G24  20785100.872                3      -3310.153          29.000    20785089.984    85111469.110       -2578.299          32.000  
G32  20969258.494   110194199.130        1534.336          45.000    20969248.136    85865555.097        1195.482          42.000  
C08  34696175.199   180672086.842        -293.585          46.000    34696158.397   139707039.147        -226.666          49.000  
C13  34710949.191   180749017.254          -2.893          47.000    34710939.820   139766559.478          -2.289          47.000  
C16  35672762.247   185757434.767          35.456          45.000    35672752.650   143639391.796          27.406          47.000  
C25  22142844.579   115303596.803       -2453.954          37.000                                                                  
C32  21092782.552   109835657.585         941.231          49.000                                                                  
C06  35374042.057   184201920.429         215.522          44.000    35374026.358   142436545.520         166.534          47.000  
G25  20614624.551   108330591.724        2657.200          46.000    20614615.351    84413405.665        2070.717          41.000  
G10  19563611.490   102807468.489        1185.217          50.000    19563599.852    80109672.023         923.584          44.000  
G28  22154632.527   116423387.637        2660.952          40.000    22154621.892    90719502.895        2073.791          41.000  
C23  20742262.084   108010400.075         401.500          51.000                                                                  
C09  36846877.810   191871364.685         313.065          41.000    36846865.569   148367057.137         241.985          46.000  
C33  25980370.399                       -2891.437          30.000                                                                  
C37  22994387.388   119737821.333        2755.171          44.000                                                                  
> 2025 10 27 02 46 34.1960000  0 19                     
G12  20795025.318   109278597.833        1035.991          45.000    20795013.678    85152101.436         807.103          41.000  
G15  23099568.240   121389047.566       -3222.785          37.000    23099559.337    94588830.356       -2512.125          33.000  
G18  23408001.662   123009879.051       -3694.487          38.000    23407995.419    95851821.282       -2878.883          36.000  
G23  19166279.091   100719475.216       -1933.113          45.000    19166266.997    78482633.794       -1506.331          47.000  
G24  20785125.825                3      -3309.086          29.000    20785115.164    85111572.211       -2577.661          32.000  
G32  20969246.807   110194137.754        1534.388          45.000    20969236.479    85865507.277        1195.447          42.000  
C08  34696177.468   180672098.578        -293.488          46.000    34696160.642   139707048.220        -226.758          49.000  
C13  34710949.225   180749017.374          -3.027          47.000    34710939.868   139766559.568          -2.313          47.000  
C16  35672761.954   185757433.353          35.366          45.000    35672752.356   143639390.707          27.236          47.000  
C25  22142863.415   115303694.968       -2454.152          37.000                                                                  
C32  21092775.320   109835619.940         941.135          49.000                                                                  
C06  35374040.403   184201911.817         215.341          44.000    35374024.713   142436538.857         166.525          47.000  
G25  20614604.321   108330485.433        2657.243          46.000    20614595.114    84413322.855        2070.362          41.000  
G10  19563602.476   102807421.076        1185.242          49.000    19563590.845    80109635.074         923.657          44.000  
G28  22154612.289   116423281.192        2660.962          40.000    22154601.622    90719419.938        2073.877          41.000  
C23  20742258.973   108010384.016         401.450          51.000                                                                  
C09  36846875.413   191871352.166         312.952          41.000    36846863.162   148367047.450         242.097          46.000  
C33  25980392.616                       -2891.503          30.000                                                                  
C37  22994366.258   119737711.118        2755.271          44.000                                                                  
> 2025 10 27 02 46 34.2360000  0 19                     
G12  20795017.425   109278556.398        1035.856          45.000    20795005.783    85152069.145         807.151          41.000  
G15  23099592.771   121389176.476       -3222.870          37.000    23099583.837    94588930.785       -2511.446          33.000  
G18  23408029.782   123010026.829       -3694.432          38.000    23408023.514    95851936.423       -2878.625          36.000  
G23  19166293.825   100719552.540       -1933.132          45.000    19166281.698    78482694.046       -1506.318          47.000  
G24  20785150.891                3      -3308.456          29.000    20785140.333    85111675.373       -2578.509          32.000  
G32  20969235.117   110194076.379        1534.386          45.000    20969224.803    85865459.452        1195.535          42.000  
C08  34696179.737   180672110.313        -293.433          46.000    34696162.902   139707057.299        -226.947          49.000  
C13  34710949.231   180749017.495          -3.101          47.000    34710939.898   139766559.659          -2.319          47.000  
C16  35672761.683   185757431.936          35.341          45.000    35672752.072   143639389.615          27.235          47.000  
C25  22142882.256   115303793.101       -2453.722          37.000                                                                  
C32  21092768.118   109835582.291         941.151          49.000                                                                  
C06  35374038.739   184201903.206         215.219          44.000    35374023.071   142436532.197         166.461          47.000  
G25  20614584.093   108330379.149        2657.135          46.000    20614574.884    84413240.037        2070.366          41.000  
G10  19563593.451   102807373.666        1185.217          49.000    19563581.821    80109598.126         923.700          44.000  
G28  22154592.018   116423174.751        2660.958          40.000    22154581.374    90719337.002        2073.510          41.000  
C23  20742255.885   108010367.964         401.323          51.000                                                                  
C09  36846872.990   191871339.646         312.941          41.000    36846860.741   148367037.767         242.090          46.000  
C33  25980414.814                       -2893.062          30.000                                                                  
C37  22994345.098   119737600.911        2755.197          44.000                                                                  
> 2025 10 27 02 46 34.2760000  0 19                     
G12  20795009.565   109278514.972        1035.633          45.000    20794997.915    85152036.848         807.334          41.000  
G15  23099617.324   121389305.431       -3223.689          37.000    23099608.374    94589031.226       -2511.177          33.000  
G18  23408057.896   123010174.620       -3694.682          38.000    23408051.634    95852051.578       -2878.790          36.000  
G23  19166308.545   100719629.874       -1933.344          45.000    19166296.408    78482754.299       -1506.337          47.000  
G24  20785176.604                3      -3309.172          29.000    20785165.512    85111778.495       -2578.310          32.000  
G32  20969223.430   110194015.009        1534.283          45.000    20969213.124    85865411.627        1195.574          42.000  
C08  34696182.008   180672122.045        -293.341          46.000    34696165.137   139707066.384        -227.148          49.000  
C13  34710949.264   180749017.620          -3.156          47.000    34710939.924   139766559.754          -2.393          47.000  
C16  35672761.410   185757430.525          35.231          45.000    35672751.776   143639388.521          27.291          47.000  
C25  22142901.131   115303891.254       -2453.741          37.000                                                                  
C32  21092760.858   109835544.649         941.049          49.000                                                                  
C06  35374037.074   184201894.597         215.179          44.000    35374021.443   142436525.543         166.339          47.000  
G25  20614563.883   108330272.870        2656.971          46.000    20614554.648    84413157.226        2070.273          41.000  
G10  19563584.434   102807326.253        1185.248          49.000    19563572.807    80109561.188         923.517          44.000  
G28  22154571.760   116423068.304        2661.084          40.000    22154561.132    90719254.067        2073.313          41.000  
C23  20742252.775   108010351.916         401.160          51.000                                                                  
C09  36846870.575   191871327.122         313.062          41.000    36846858.334   148367028.085         242.051          46.000  
C33  25980437.055                       -2893.784          30.000                                                                  
C37  22994323.933   119737490.705        2755.095          44.000                                                                  
> 2025 10 27 02 46 34.3160000  0 19                     
G12  20795001.698   109278473.535        1035.744          45.000    20794990.041    85152004.565         807.116          41.000  
G15  23099641.864   121389434.354       -3223.468          37.000    23099632.926    94589131.654       -2510.743          33.000  
G18  23408086.011   123010322.407       -3694.737          38.000    23408079.731    95852166.746       -2879.090          36.000  
G23  19166323.267   100719707.201       -1933.304          45.000    19166311.146    78482814.562       -1506.530          47.000  
G24  20785202.263                2      -3309.174          29.000    20785190.749    85111881.664       -2578.884          32.000  
G32  20969211.757   110193953.659        1533.864          45.000    20969201.441    85865363.818        1195.301          42.000  
C08  34696184.256   180672133.785        -293.457          45.000    34696167.382   139707075.470        -227.209          49.000  
C13  34710949.293   180749017.737          -3.040          47.000    34710939.970   139766559.851          -2.484          47.000  
C16  35672761.122   185757429.120          35.093          45.000    35672751.488   143639387.431          27.224          47.000  
C25  22142919.990   115303989.435       -2454.339          37.000                                                                  
C32  21092753.643   109835507.010         940.942          49.000                                                                  
C06  35374035.439   184201885.988         215.133          44.000    35374019.777   142436518.888         166.290          47.000  
G25  20614543.658   108330166.588        2656.970          46.000    20614534.453    84413074.417        2070.152          41.000  
G10  19563575.415   102807278.845        1185.181          49.000    19563563.766    80109524.244         923.517          44.000  
G28  22154551.475   116422961.861        2661.032          40.000    22154540.873    90719171.128        2073.284          41.000  
C23  20742249.703   108010335.864         401.185          51.000                                                                  
C09  36846868.167   191871314.616         312.747          41.000    36846855.944   148367018.414         241.844          46.000  
C33  25980459.238                       -2892.514          30.000                                                                  
C37  22994302.749   119737380.497        2755.128          44.000                                                                  
> 2025 10 27 02 46 34.3560000  0 19                     
G12  20794993.801   109278432.102        1035.747          45.000    20794982.141    85151972.282         807.016          41.000  
G15  23099666.380   121389563.244       -3222.681          37.000    23099657.477    94589232.130       -2511.604          33.000  
G18  23408114.139   123010470.203       -3694.872          38.000    23408107.852    95852281.905       -2879.136          36.000  
G23  19166337.996   100719784.541       -1933.503          45.000    19166325.864    78482874.818       -1506.509          47.000  
G24  20785227.732                2      -3309.863          29.000    20785215.921    85111984.777       -2578.147          32.000  
G32  20969200.079   110193892.287        1534.090          45.000    20969189.763    85865316.009        1195.157          42.000  
C08  34696186.471   180672145.537        -293.732          45.000    34696169.617   139707084.550        -227.118          49.000  
C13  34710949.300   180749017.860          -3.070          47.000    34710940.006   139766559.948          -2.502          47.000  
C16  35672760.853   185757427.713          35.100          45.000    35672751.191   143639386.340          27.212          47.000  
C25  22142938.827   115304087.605       -2454.466          37.000                                                                  
C32  21092746.412   109835469.372         940.889          49.000                                                                  
C06  35374033.775   184201877.383         215.084          44.000    35374018.112   142436512.226         166.428          47.000  
G25  20614523.444   108330060.317        2656.771          46.000    20614514.225    84412991.604        2070.217          41.000  
G10  19563566.416   102807231.441        1185.065          49.000    19563554.757    80109487.308         923.401          44.000  
G28  22154531.225   116422855.419        2661.052          40.000    22154520.626    90719088.185        2073.391          41.000  
C23  20742246.653   108010319.810         401.259          51.000                                                                  
C09  36846865.785   191871302.106         312.688          41.000    36846853.562   148367008.743         241.721          46.000  
C33  25980481.423                       -2891.586          30.000                                                                  
C37  22994281.543   119737270.312        2754.754          44.000                                                                  
> 2025 10 27 02 46 34.3960000  0 19                     
G12  20794985.909   109278390.668        1035.801          45.000    20794974.282    85151940.007         806.894          41.000  
G15  23099690.900   121389692.152       -3222.634          37.000    23099682.027    94589332.574       -2511.438          33.000  
G18  23408142.243   123010617.969       -3694.417          38.000    23408135.974    95852397.070       -2879.191          36.000  
G23  19166352.717   100719861.878       -1933.526          45.000    19166340.600    78482935.076       -1506.496          47.000  
G24  20785252.500                2      -3309.597          29.000    20785241.088    85112087.930       -2578.541          32.000  
G32  20969188.400   110193830.924        1534.046          45.000    20969178.082    85865268.187        1195.352          42.000  
C08  34696188.728   180672157.291        -293.890          45.000    34696171.861   139707093.628        -227.020          49.000  
C13  34710949.342   180749017.985          -3.162          47.000    34710940.050   139766560.042          -2.423          47.000  
C16  35672760.613   185757426.301          35.188          45.000    35672750.911   143639385.255          27.104          47.000  
C25  22142957.689   115304185.759       -2454.089          37.000                                                                  
C32  21092739.203   109835431.731         940.957          49.000                                                                  
C06  35374032.126   184201868.777         215.068          44.000    35374016.450   142436505.568         166.448          47.000  
G25  20614503.233   108329954.059        2656.473          46.000    20614494.001    84412908.798        2070.107          41.000  
G10  19563557.389   102807184.043        1184.924          49.000    19563545.750    80109450.380         923.206          44.000  
G28  22154510.973   116422748.990        2660.804          40.000    22154500.387    90719005.244        2073.423          42.000  
C23  20742243.552   108010303.763         401.162          51.000                                                                  
C09  36846863.385   191871289.594         312.709          41.000    36846851.153   148366999.065         241.818          46.000  
C33  25980503.625                       -2891.438          30.000                                                                  
C37  22994260.374   119737160.112        2754.828          44.000                                                                  
> 2025 10 27 02 46 34.4360000  0 19                     
G12  20794978.041   109278349.239        1035.749          45.000    20794966.401    85151907.718         807.095          41.000  
G15  23099715.462   121389821.077       -3222.935          37.000    23099706.575    94589433.079       -2512.521          33.000  
G18  23408170.365   123010765.754       -3694.475          38.000    23408164.095    95852512.230       -2879.193          36.000  
G23  19166367.427   100719939.215       -1933.531          45.000    19166355.312    78482995.344       -1506.689          47.000  
G24  20785277.756                2      -3309.078          29.000    20785266.274    85112191.045       -2578.040          32.000  
G32  20969176.712   110193769.550        1534.240          45.000    20969166.390    85865220.372        1195.344          42.000  
C08  34696190.994   180672169.037        -293.823          45.000    34696174.123   139707102.706        -226.984          49.000  
C13  34710949.396   180749018.112          -3.217          47.000    34710940.085   139766560.136          -2.374          47.000  
C16  35672760.364   185757424.894          35.149          45.000    35672750.629   143639384.162          27.234          47.000  
C25  22142976.538   115304283.914       -2453.927          37.000                                                                  
C32  21092731.993   109835394.092         940.932          49.000                                                                  
C06  35374030.453   184201860.160         215.276          44.000    35374014.790   142436498.908         166.472          47.000  
G25  20614483.018   108329847.796        2656.417          46.000    20614473.787    84412825.990        2070.111          41.000  
G10  19563548.403   102807136.651        1184.741          49.000    19563536.728    80109413.452         923.126          44.000  
G28  22154490.702   116422642.542        2661.049          40.000    22154480.136    90718922.319        2073.143          41.000  
C23  20742240.488   108010287.712         401.203          51.000                                                                  
C09  36846860.976   191871277.081         312.786          41.000    36846848.759   148366989.396         241.724          46.000  
C33  25980525.802                       -2891.489          30.000                                                                  
C37  22994239.209   119737049.916        2754.820          44.000                                                                  
> 2025 10 27 02 46 34.4760000  0 19                     
G12  20794970.166   109278307.822        1035.478          45.000    20794958.520    85151875.445         806.870          41.000  
G15  23099739.981   121389949.994       -3222.916          37.000    23099731.095    94589533.522       -2511.795          33.000  
G18  23408198.482   123010913.536       -3694.562          38.000    23408192.205    95852627.377       -2878.838          36.000  
G23  19166382.153   100720016.548       -1933.430          45.000    19166370.046    78483055.610       -1506.743          47.000  
G24  20785302.707                2      -3308.910          29.000    20785291.465    85112294.194       -2578.438          32.000  
G32  20969165.044   110193708.184        1534.212          45.000    20969154.718    85865172.544        1195.584          42.000  
C08  34696193.251   180672180.780        -293.677          46.000    34696176.397   139707111.785        -226.971          49.000  
C13  34710949.450   180749018.239          -3.210          47.000    34710940.122   139766560.231          -2.393          47.000  
C16  35672760.083   185757423.482          35.215          45.000    35672750.338   143639383.073          27.233          47.000  
C25  22142995.371   115304382.104       -2454.476          37.000                                                                  
C32  21092724.790   109835356.450         940.990          49.000                                                                  
C06  35374028.810   184201851.550         215.243          44.000    35374013.161   142436492.254         166.378          47.000  
G25  20614462.784   108329741.505        2656.943          46.000    20614453.574    84412743.172        2070.311          41.000  
G10  19563539.363   102807089.244        1184.955          49.000    19563527.715    80109376.515         923.303          44.000  
G28  22154470.470   116422536.115        2660.806          40.000    22154459.885    90718839.397        2072.952          41.000  
C23  20742237.391   108010271.676         400.951          51.000                                                                  
C09  36846858.563   191871264.570         312.721          41.000    36846846.373   148366979.723         241.757          46.000  
C33  25980547.958                       -2891.432          30.000                                                                  
C37  22994218.051   119736939.705        2755.103          44.000                                                                  
> 2025 10 27 02 46 34.5160000  0 19                     
G12  20794962.285   109278266.396        1035.551          45.000    20794950.647    85151843.162         806.938          41.000  
G15  23099764.493   121390078.893       -3222.505          37.000    23099755.630    94589633.999       -2511.886          33.000  
G18  23408226.596   123011061.327       -3694.717          38.000    23408220.318    95852742.549       -2879.043          36.000  
G23  19166396.864   100720093.881       -1933.368          45.000    19166384.764    78483115.877       -1506.722          47.000  
G24  20785327.226                2      -3308.655          28.000    20785316.639    85112397.336       -2578.559          32.000  
G32  20969153.360   110193646.823        1534.081          45.000    20969143.046    85865124.724        1195.560          42.000  
C08  34696195.533   180672192.525        -293.652          45.000    34696178.641   139707120.868        -227.069          49.000  
C13  34710949.503   180749018.360          -3.107          47.000    34710940.161   139766560.327          -2.380          47.000  
C16  35672759.814   185757422.071          35.248          45.000    35672750.072   143639381.973          27.401          47.000  
C25  22143014.248   115304480.259       -2454.055          37.000                                                                  
C32  21092717.561   109835318.809         941.015          49.000                                                                  
C06  35374027.147   184201842.938         215.255          44.000    35374011.502   142436485.608         166.177          47.000  
G25  20614442.536   108329635.229        2656.981          46.000    20614433.364    84412660.370        2070.137          41.000  
G10  19563530.328   102807041.831        1185.223          49.000    19563518.706    80109339.574         923.517          44.000  
G28  22154450.228   116422429.673        2660.963          40.000    22154439.631    90718756.447        2073.434          41.000  
C23  20742234.316   108010255.630         401.043          51.000                                                                  
C09  36846856.184   191871252.058         312.747          41.000    36846843.952   148366970.051         241.777          46.000  
C33  25980570.211                       -2892.483          30.000                                                                  
C37  22994196.870   119736829.497        2755.225          44.000                                                                  
> 2025 10 27 02 46 34.5560000  0 19                     
G12  20794954.404   109278224.962        1035.753          45.000    20794942.766    85151810.878         807.017          41.000  
G15  23099789.015   121390207.844       -3223.262          37.000    23099780.186                       -2510.808          33.000  
G18  23408254.734   123011209.124       -3694.900          38.000    23408248.456    95852857.705       -2878.951          36.000  
G23  19166411.568   100720171.215       -1933.381          45.000    19166399.470    78483176.140       -1506.641          47.000  
G24  20785353.094                2      -3308.773          28.000    20785341.851    85112500.487       -2578.782          32.000  
G32  20969141.672   110193585.446        1534.297          45.000    20969131.348    85865076.897        1195.641          42.000  
C08  34696197.776   180672204.256        -293.384          45.000    34696180.911   139707129.948        -227.032          49.000  
C13  34710949.563   180749018.483          -3.076          47.000    34710940.220   139766560.421          -2.350          47.000  
C16  35672759.554   185757420.657          35.338          45.000    35672749.773   143639380.873          27.487          47.000  
C25  22143033.088   115304578.406       -2453.765          37.000                                                                  
C32  21092710.317   109835281.163         941.104          49.000                                                                  
C06  35374025.489   184201834.333         215.134          44.000    35374009.874   142436478.944         166.414          47.000  
G25  20614422.322   108329528.959        2656.880          46.000    20614413.155    84412577.551        2070.293          41.000  
G10  19563521.312   102806994.423        1185.223          49.000    19563509.682    80109302.619         923.846          44.000  
G28  22154429.943   116422323.203        2661.565          40.000    22154419.378    90718673.493        2073.737          41.000  
C23  20742231.235   108010239.577         401.212          51.000                                                                  
C09  36846853.769   191871239.530         313.049          41.000    36846841.532   148366960.362         242.072          46.000  
C33  25980592.446                       -2894.240          30.000                                                                  
C37  22994175.713   119736719.293        2755.154          44.000                                                                  
> 2025 10 27 02 46 34.5960000  0 19                     
G12  20794946.511   109278183.523        1035.931          45.000    20794934.890    85151778.586         807.210          41.000  
G15  23099813.552   121390336.745       -3222.849          37.000    23099804.731    94589834.862       -2511.127          33.000  
G18  23408282.858   123011356.888       -3694.383          38.000    23408276.579    95852972.836       -2878.481          36.000  
G23  19166426.270   100720248.547       -1933.363          45.000    19166414.179    78483236.390       -1506.362          47.000  
G24  20785378.406                2      -3309.023          29.000    20785367.058    85112603.620       -2578.521          32.000  
G32  20969129.975   110193524.078        1534.260          45.000    20969119.671    85865029.076        1195.593          42.000  
C08  34696200.036   180672215.992        -293.347          45.000    34696183.156   139707139.025        -226.978          49.000  
C13  34710949.596   180749018.605          -3.070          47.000    34710940.249   139766560.511          -2.271          47.000  
C16  35672759.286   185757419.239          35.426          45.000    35672749.467   143639379.786          27.265          47.000  
C25  22143051.917   115304676.552       -2453.721          37.000                                                                  
C32  21092703.071   109835243.517         941.147          49.000                                                                  
C06  35374023.870   184201825.721         215.198          44.000    35374008.199   142436472.273         166.652          47.000  
G25  20614402.125   108329422.687        2656.820          46.000    20614392.923    84412494.727        2070.472          41.000  
G10  19563512.315   102806947.023        1185.077          49.000    19563500.674    80109265.672         923.810          44.000  
G28  22154409.659   116422216.762        2661.178          40.000    22154399.108    90718590.542        2073.789          41.000  
C23  20742228.167   108010223.521         401.364          51.000                                                                  
C09  36846851.366   191871227.009         313.064          41.000    36846839.128   148366950.671         242.275          46.000  
C33  25980614.650                       -2891.836          30.000                                                                  
C37  22994154.569   119736609.090        2755.118          44.000                                                                  
> 2025 10 27 02 46 34.6360000  0 19                     
G12  20794938.636   109278142.093        1035.855          45.000    20794927.011    85151746.304         807.163          41.000  
G15  23099838.106   121390465.675       -3223.025          37.000    23099829.293    94589935.341       -2511.722          32.000  
G18  23408310.984   123011504.664       -3694.277          38.000    23408304.702    95853087.993       -2878.787          36.000  
G23  19166441.006   100720325.884       -1933.413          45.000    19166428.893    78483296.642       -1506.283          47.000  
G24  20785403.086                2      -3309.258          28.000    20785392.202    85112706.728       -2577.992          32.000  
G32  20969118.292   110193462.711        1534.207          45.000    20969107.992    85864981.253        1195.564          42.000  
C08  34696202.280   180672227.735        -293.506          45.000    34696185.436   139707148.101        -226.923          49.000  
C13  34710949.621   180749018.724          -3.046          47.000    34710940.264   139766560.606          -2.344          47.000  
C16  35672759.019   185757417.824          35.434          45.000    35672749.209   143639378.703          27.085          47.000  
C25  22143070.796   115304774.726       -2454.170          37.000                                                                  
C32  21092695.835   109835205.873         941.132          49.000                                                                  
C06  35374022.263   184201817.107         215.298          44.000    35374006.559   142436465.609         166.652          47.000  
G25  20614381.890   108329316.413        2656.839          46.000    20614372.694    84412411.921        2070.294          41.000  
G10  19563503.276   102806899.620        1185.065          49.000    19563491.663    80109228.734         923.560          44.000  
G28  22154389.415   116422110.334        2660.775          40.000    22154378.872    90718507.600        2073.656          41.000  
C23  20742225.076   108010207.465         401.403          51.000                                                                  
C09  36846848.956   191871214.489         313.018          41.000    36846836.753   148366940.984         242.265          46.000  
C33  25980636.884                       -2893.462          30.000                                                                  
C37  22994133.392   119736498.882        2755.105          44.000                                                                  
> 2025 10 27 02 46 34.6760000  0 19                     
G12  20794930.785   109278100.677        1035.529          45.000    20794919.143    85151714.031         806.922          41.000  
G15  23099862.651   121390594.576       -3222.684          37.000    23099853.822    94590035.817       -2511.878          32.000  
G18  23408339.103   123011652.434       -3694.163          38.000    23408332.837    95853203.156       -2879.025          36.000  
G23  19166455.720   100720403.221       -1933.469          45.000    19166443.613    78483356.904       -1506.441          47.000  
G24  20785428.369                2      -3309.218          29.000    20785417.396    85112809.876       -2578.465          32.000  
G32  20969106.607   110193401.346        1534.136          45.000    20969096.322    85864933.438        1195.384          42.000  
C08  34696204.486   180672239.480        -293.628          45.000    34696187.716   139707157.182        -227.008          49.000  
C13  34710949.638   180749018.845          -3.021          47.000    34710940.283   139766560.702          -2.429          47.000  
C16  35672758.757   185757416.410          35.373          45.000    35672748.924   143639377.614          27.091          47.000  
C25  22143089.657   115304872.879       -2454.032          37.000                                                                  
C32  21092688.599   109835168.233         941.035          49.000                                                                  
C06  35374020.620   184201808.498         215.226          44.000    35374004.920   142436458.956         166.409          47.000  
G25  20614361.651   108329210.128        2656.993          46.000    20614352.470    84412329.111        2070.209          41.000  
G10  19563494.243   102806852.216        1185.059          49.000    19563482.673    80109191.812         923.126          44.000  
G28  22154369.154   116422003.919        2660.368          40.000    22154358.636    90718424.663        2073.502          41.000  
C23  20742221.974   108010191.423         401.160          51.000                                                                  
C09  36846846.536   191871201.978         312.856          41.000    36846834.360   148366931.310         241.967          46.000  
C33  25980659.113                       -2892.947          30.000                                                                  
C37  22994112.203   119736388.685        2754.934          44.000                                                                  
> 2025 10 27 02 46 34.7160000  0 19                     
G12  20794922.914   109278059.252        1035.501          45.000    20794911.251    85151681.744         807.006          41.000  
G15  23099887.194   121390723.487       -3222.666          37.000    23099878.317    94590136.267       -2511.497          33.000  
G18  23408367.254   123011800.229       -3694.608          38.000    23408360.954    95853318.313       -2879.079          36.000  
G23  19166470.430   100720480.562       -1933.549          45.000    19166458.355    78483417.174       -1506.689          47.000  
G24  20785453.269                2      -3309.066          28.000    20785442.579    85112912.989       -2578.094          32.000  
G32  20969094.944   110193339.982        1534.106          45.000    20969084.640    85864885.634        1195.111          42.000  
C08  34696206.716   180672251.219        -293.591          45.000    34696189.947   139707166.264        -227.051          49.000  
C13  34710949.676   180749018.973          -3.162          47.000    34710940.304   139766560.795          -2.393          47.000  
C16  35672758.477   185757415.003          35.182          45.000    35672748.628   143639376.520          27.233          47.000  
C25  22143108.537   115304971.032       -2453.855          37.000                                                                  
C32  21092681.378   109835130.595         940.947          49.000                                                                  
C06  35374018.961   184201799.884         215.265          44.000    35374003.279   142436452.308         166.195          47.000  
G25  20614341.422   108329103.849        2656.982          46.000    20614332.234    84412246.296        2070.304          41.000  
G10  19563485.205   102806804.816        1184.985          49.000    19563473.648    80109154.884         923.059          44.000  
G28  22154348.891   116421897.484        2660.598          40.000    22154338.363    90718341.737        2073.217          41.000  
C23  20742218.890   108010175.382         401.002          51.000                                                                  
C09  36846844.111   191871189.459         312.907          41.000    36846831.944   148366921.642         241.698          46.000  
C33  25980681.300                       -2891.186          30.000                                                                  
C37  22994091.035   119736278.489        2754.906          44.000                                                                  
> 2025 10 27 02 46 34.7560000  0 19                     
G12  20794915.022   109278017.831        1035.448          45.000    20794903.338    85151649.468         806.869          41.000  
G15  23099911.729   121390852.414       -3223.019          37.000    23099902.816    94590236.700       -2510.988          33.000  
G18  23408395.397   123011948.017       -3694.706          38.000    23408389.065    95853433.464       -2878.930          36.000  
G23  19166485.160   100720557.903       -1933.598          45.000    19166473.086    78483477.446       -1506.849          47.000  
G24  20785478.634                2      -3308.522          28.000    20785467.746    85113016.121       -2578.233          32.000  
G32  20969083.250   110193278.609        1534.217          45.000    20969072.951    85864837.827        1195.047          42.000  
C08  34696208.964   180672262.967        -293.707          45.000    34696192.203   139707175.341        -226.990          49.000  
C13  34710949.727   180749019.096          -3.149          47.000    34710940.301   139766560.893          -2.448          47.000  
C16  35672758.180   185757413.606          34.926          45.000    35672748.363   143639375.426          27.310          47.000  
C25  22143127.419   115305069.200       -2454.112          37.000                                                                  
C32  21092674.163   109835092.956         940.937          49.000                                                                  
C06  35374017.319   184201791.277         215.173          44.000    35374001.631   142436445.648         166.323          47.000  
G25  20614321.191   108328997.589        2656.634          46.000    20614312.025    84412163.494        2070.157          41.000  
G10  19563476.198   102806757.417        1184.930          49.000    19563464.633    80109117.942         923.352          44.000  
G28  22154328.638   116421791.029        2661.179          40.000    22154318.121    90718258.792        2073.437          41.000  
C23  20742215.806   108010159.351         400.783          51.000                                                                  
C09  36846841.725   191871176.953         312.694          41.000    36846829.545   148366911.968         241.690          46.000  
C33  25980703.480                       -2890.694          30.000                                                                  
C37  22994069.897   119736168.287        2754.948          44.000                                                                  
> 2025 10 27 02 46 34.7960000  0 19                     
G12  20794907.102   109277976.404        1035.569          45.000    20794895.448    85151617.201         806.661          41.000  
G15  23099936.244   121390981.311       -3222.628          37.000    23099927.343    94590337.137       -2510.802          33.000  
G18  23408423.512   123012095.805       -3694.767          38.000    23408417.200    95853548.626       -2879.082          36.000  
G23  19166499.886   100720635.247       -1933.634          45.000    19166487.802    78483537.709       -1506.716          47.000  
G24  20785503.879                2      -3308.773          28.000    20785492.922    85113119.285       -2578.713          32.000  
G32  20969071.574   110193217.239        1534.227          45.000    20969061.260    85864789.992        1195.539          42.000  
C08  34696211.218   180672274.716        -293.756          45.000    34696194.456   139707184.426        -227.112          49.000  
C13  34710949.726   180749019.222          -3.192          47.000    34710940.337   139766560.993          -2.502          47.000  
C16  35672757.922   185757412.196          35.060          45.000    35672748.103   143639374.329          27.399          47.000  
C25  22143146.268   115305167.372       -2454.360          37.000                                                                  
C32  21092666.940   109835055.323         940.823          49.000                                                                  
C06  35374015.680   184201782.666         215.210          44.000    35373999.955   142436438.988         166.404          47.000  
G25  20614300.957   108328891.320        2656.611          46.000    20614291.799    84412080.704        2069.820          41.000  
G10  19563467.208   102806710.023        1184.827          49.000    19563455.615    80109081.009         923.340          44.000  
G28  22154308.383   116421684.591        2661.105          40.000    22154297.843    90718175.856        2073.412          41.000  
C23  20742212.747   108010143.307         400.907          51.000                                                                  
C09  36846839.320   191871164.442         312.696          41.000    36846827.123   148366902.291         241.793          46.000  
C33  25980725.695                       -2890.826          30.000                                                                  
C37  22994048.743   119736058.087        2754.963          44.000                                                                  
> 2025 10 27 02 46 34.8360000  0 19                     
G12  20794899.206   109277934.984        1035.504          45.000    20794887.560    85151584.935         806.552          41.000  
G15  23099960.781   121391110.231       -3222.823          36.000    23099951.848    94590437.558       -2510.538          33.000  
G18  23408451.641   123012243.575       -3694.448          38.000    23408445.339    95853663.779       -2878.896          36.000  
G23  19166514.602   100720712.590       -1933.639          45.000    19166502.530    78483597.977       -1506.728          47.000  
G24  20785528.370                2      -3309.351          28.000    20785518.077    85113222.386       -2577.916          32.000  
G32  20969059.908   110193155.871        1534.207          45.000    20969049.557    85864742.162        1195.759          42.000  
C08  34696213.468   180672286.462        -293.695          45.000    34696196.712   139707193.510        -227.136          49.000  
C13  34710949.735   180749019.344          -3.107          47.000    34710940.384   139766561.088          -2.466          47.000  
C16  35672757.680   185757410.785          35.194          45.000    35672747.816   143639373.248          27.119          47.000  
C25  22143165.114   115305265.544       -2454.458          37.000                                                                  
C32  21092659.732   109835017.682         940.922          49.000                                                                  
C06  35374014.012   184201774.048         215.336          44.000    35373998.287   142436432.329         166.436          47.000  
G25  20614280.719   108328785.055        2656.585          46.000    20614271.573    84411997.892        2070.099          41.000  
G10  19563458.196   102806662.631        1184.753          49.000    19563446.585    80109044.079         923.261          44.000  
G28  22154288.121   116421578.141        2661.209          40.000    22154277.570    90718092.915        2073.524          41.000  
C23  20742209.666   108010127.265         400.988          51.000                                                                  
C09  36846836.914   191871151.924         312.810          41.000    36846824.728   148366892.608         241.957          46.000  
C33  25980747.920                       -2890.464          30.000                                                                  
C37  22994027.584   119735947.881        2755.090          44.000                                                                  
> 2025 10 27 02 46 34.8760000  0 19                     
G12  20794891.327   109277893.561        1035.531          45.000    20794879.693    85151552.653         806.768          41.000  
G15  23099985.312   121391239.161       -3223.141          36.000    23099976.371    94590538.043       -2511.556          33.000  
G18  23408479.748   123012391.346       -3694.346          38.000    23408473.462    95853778.923       -2878.663          36.000  
G23  19166529.329   100720789.929       -1933.532          45.000    19166517.251    78483658.244       -1506.715          47.000  
G24  20785553.480                2      -3309.492          28.000    20785543.243    85113325.531       -2578.395          32.000  
G32  20969048.227   110193094.505        1534.148          45.000    20969037.894    85864694.343        1195.634          42.000  
C08  34696215.745   180672298.206        -293.652          45.000    34696198.952   139707202.590        -227.075          49.000  
C13  34710949.756   180749019.471          -3.180          47.000    34710940.444   139766561.187          -2.496          47.000  
C16  35672757.431   185757409.370          35.330          45.000    35672747.500   143639372.156          27.169          47.000  
C25  22143183.963   115305363.713       -2454.343          37.000                                                                  
C32  21092652.514   109834980.039         941.030          49.000                                                                  
C06  35374012.342   184201765.442         215.227          44.000    35373996.610   142436425.675         166.361          47.000  
G25  20614260.487   108328678.778        2656.791          46.000    20614251.318    84411915.074        2070.310          41.000  
G10  19563449.162   102806615.235        1184.796          49.000    19563437.563    80109007.136         923.486          44.000  
G28  22154267.899   116421471.714        2660.821          40.000    22154257.280    90718009.973        2073.491          41.000  
C23  20742206.568   108010111.219         401.102          51.000                                                                  
C09  36846834.513   191871139.408         312.892          41.000    36846822.320   148366882.927         242.012          46.000  
C33  25980770.149                       -2890.563          30.000                                                                  
C37  22994006.385   119735837.679        2755.045          44.000                                                                  
> 2025 10 27 02 46 34.9160000  0 19                     
G12  20794883.444   109277852.138        1035.558          45.000    20794871.821    85151520.375         806.894          41.000  
G15  23100009.840   121391368.102       -3223.508          36.000    23100000.906    94590638.509       -2511.881          33.000  
G18  23408507.859   123012539.109       -3694.089          38.000    23408501.570    95853894.045       -2878.163          36.000  
G23  19166544.023   100720867.268       -1933.496          45.000    19166531.972    78483718.510       -1506.665          47.000  
G24  20785578.469                2      -3309.014          28.000    20785568.449    85113428.696       -2578.985          32.000  
G32  20969036.545   110193033.140        1534.105          45.000    20969026.207    85864646.525        1195.495          42.000  
C08  34696217.990   180672309.940        -293.457          45.000    34696201.216   139707211.675        -227.124          49.000  
C13  34710949.787   180749019.597          -3.210          47.000    34710940.489   139766561.288          -2.539          47.000  
C16  35672757.152   185757407.959          35.338          45.000    35672747.197   143639371.070          27.140          47.000  
C25  22143202.803   115305461.886       -2454.334          37.000                                                                  
C32  21092645.260   109834942.397         941.048          49.000                                                                  
C06  35374010.688   184201756.835         215.155          44.000    35373994.961   142436419.020         166.343          47.000  
G25  20614240.263   108328572.499        2656.945          46.000    20614231.128    84411832.267        2070.211          41.000  
G10  19563440.131   102806567.839        1184.821          49.000    19563428.541    80108970.214         923.145          44.000  
G28  22154247.654   116421365.301        2660.325          40.000    22154237.041    90717927.032        2073.453          41.000  
C23  20742203.492   108010095.171         401.183          51.000                                                                  
C09  36846832.106   191871126.887         313.004          41.000    36846819.918   148366873.251         241.923          46.000  
C33  25980792.358                       -2891.258          30.000                                                                  
C37  22993985.208   119735727.477        2755.024          44.000                                                                  
> 2025 10 27 02 46 34.9560000  0 19                     
G12  20794875.587   109277810.715        1035.556          45.000    20794863.935    85151488.085         807.137          41.000  
G15  23100034.357   121391497.011       -3223.110          36.000    23100025.444    94590738.951       -2511.444          33.000  
G18  23408535.986   123012686.896       -3694.431          38.000    23408529.665    95854009.196       -2878.511          37.000  
G23  19166558.755   100720944.611       -1933.559          45.000    19166546.695    78483778.783       -1506.796          47.000  
G24  20785603.766                2      -3308.780          28.000    20785593.616    85113531.836       -2578.870          32.000  
G32  20969024.854   110192971.775        1534.095          45.000    20969014.545    85864598.711        1195.340          42.000  
C08  34696220.244   180672321.684        -293.524          45.000    34696203.466   139707220.757        -227.118          49.000  
C13  34710949.804   180749019.721          -3.168          47.000    34710940.532   139766561.383          -2.460          47.000  
C16  35672756.900   185757406.546          35.314          45.000    35672746.913   143639369.976          27.265          47.000  
C25  22143221.674   115305560.051       -2454.178          37.000                                                                  
C32  21092638.018   109834904.758         941.008          49.000                                                                  
C06  35374009.057   184201748.227         215.138          44.000    35373993.322   142436412.361         166.401          47.000  
G25  20614220.030   108328466.230        2656.824          46.000    20614210.906    84411749.454        2070.318          41.000  
G10  19563431.090   102806520.442        1184.888          49.000    19563419.531    80108933.284         923.169          44.000  
G28  22154227.403   116421258.872        2660.448          40.000    22154216.799    90717844.096        2073.417          41.000  
C23  20742200.386   108010079.132         401.044          51.000                                                                  
C09  36846829.707   191871114.376         312.916          41.000    36846817.521   148366863.575         241.885          46.000  
C33  25980814.608                       -2892.201          30.000                                                                  
C37  22993964.048   119735617.277        2754.990          44.000                                                                  
> 2025 10 27 02 46 34.9960000  0 19                     
G12  20794867.710   109277769.293        1035.543          45.000    20794856.028    85151455.805         807.124          41.000  
G15  23100058.882   121391625.915       -3222.799          36.000    23100049.958    94590839.390       -2511.120          33.000  
G18  23408564.125   123012834.700       -3694.978          38.000    23408557.785    95854124.380       -2879.273          37.000  
G23  19166573.488   100721021.961       -1933.733          45.000    19166561.429    78483839.051       -1506.764          47.000  
G24  20785628.791                2      -3309.002          28.000    20785618.793    85113634.979       -2578.746          32.000  
G32  20969013.165   110192910.404        1534.206          45.000    20969002.859    85864550.894        1195.379          42.000  
C08  34696222.501   180672333.427        -293.555          45.000    34696205.709   139707229.836        -227.045          49.000  
C13  34710949.876   180749019.840          -3.033          47.000    34710940.590   139766561.472          -2.295          47.000  
C16  35672756.626   185757405.140          35.197          45.000    35672746.648   143639368.878          27.401          47.000  
C25  22143240.498   115305658.206       -2453.912          37.000                                                                  
C32  21092630.743   109834867.120         940.970          49.000                                                                  
C06  35374007.462   184201739.604         215.417          44.000    35373991.676   142436405.707         166.364          47.000  
G25  20614199.818   108328359.961        2656.721          46.000    20614190.678    84411666.648        2070.196          41.000  
G10  19563422.069   102806473.038        1185.010          49.000    19563410.498    80108896.346         923.328          44.000  
G28  22154207.150   116421152.407        2661.298          40.000    22154196.550    90717761.165        2073.223          41.000  
C23  20742197.293   108010063.090         401.013          51.000                                                                  
C09  36846827.308   191871101.856         312.984          41.000    36846815.115   148366853.905         241.735          46.000  
C33  25980836.843                       -2892.963          30.000                                                                  
C37  22993942.883   119735507.069        2755.105          44.000                                                                  
> 2025 10 27 02 46 35.0360000  0 19                     
G12  20794859.837   109277727.875        1035.459          45.000    20794848.162    85151423.528         806.984          41.000  
G15  23100083.409   121391754.831       -3222.827          36.000    23100074.501    94590939.834       -2511.066          33.000  
G18  23408592.251   123012982.475       -3694.708          38.000    23408585.900    95854239.528       -2878.934          36.000  
G23  19166588.191   100721099.309       -1933.781          45.000    19166576.146    78483899.310       -1506.578          47.000  
G24  20785653.869                2      -3308.807          28.000    20785643.970    85113738.063       -2577.675          32.000  
G32  20969001.482   110192849.021        1534.475          45.000    20968991.154    85864503.067        1195.601          42.000  
C08  34696224.751   180672345.161        -293.408          45.000    34696207.965   139707238.910        -226.917          49.000  
C13  34710949.920   180749019.956          -2.936          47.000    34710940.644   139766561.557          -2.118          47.000  
C16  35672756.389   185757403.730          35.191          45.000    35672746.373   143639367.780          27.461          47.000  
C25  22143259.342   115305756.345       -2453.473          37.000                                                                  
C32  21092623.516   109834829.481         940.964          49.000                                                                  
C06  35374005.834   184201730.996         215.287          44.000    35373990.024   142436399.032         166.680          47.000  
G25  20614179.586   108328253.698        2656.567          46.000    20614170.448    84411583.837        2070.236          41.000  
G10  19563413.039   102806425.632        1185.120          49.000    19563401.478    80108859.407         923.419          44.000  
G28  22154186.872   116421045.952        2661.497          40.000    22154176.320    90717678.233        2073.232          41.000  
C23  20742194.197   108010047.051         400.948          51.000                                                                  
C09  36846824.912   191871089.334         313.052          41.000    36846812.705   148366844.222         241.931          46.000  
C33  25980859.098                       -2892.960          30.000                                                                  
C37  22993921.746   119735396.861        2755.160          44.000                                                                  
> 2025 10 27 02 46 35.0760000  0 19                     
G12  20794851.974   109277686.453        1035.507          45.000    20794840.279    85151391.236         807.163          41.000  
G15  23100107.906   121391883.745       -3222.891          36.000    23100099.020    94591040.277       -2511.008          33.000  
G18  23408620.402   123013130.241       -3694.324          38.000    23408614.010    95854354.705       -2879.244          36.000  
G23  19166602.889   100721176.649       -1933.637          45.000    19166590.865    78483959.577       -1506.604          47.000  
G24  20785678.957                2      -3309.025          28.000    20785669.146    85113841.228       -2578.568          32.000  
G32  20968989.799   110192787.647        1534.442          45.000    20968979.472    85864455.250        1195.487          42.000  
C08  34696227.017   180672356.900        -293.451          45.000    34696210.194   139707247.986        -226.886          49.000  
C13  34710949.968   180749020.071          -2.856          47.000    34710940.654   139766561.646          -2.161          47.000  
C16  35672756.162   185757402.301          35.530          45.000    35672746.084   143639366.687          27.400          47.000  
C25  22143278.180   115305854.496       -2453.578          37.000                                                                  
C32  21092616.324   109834791.833         941.110          49.000                                                                  
C06  35374004.189   184201722.374         215.477          44.000    35373988.426   142436392.363         166.749          47.000  
G25  20614159.347   108328147.419        2656.774          46.000    20614150.206    84411501.016        2070.423          41.000  
G10  19563404.035   102806378.229        1185.101          49.000    19563392.430    80108822.473         923.328          44.000  
G28  22154166.633   116420939.513        2661.232          40.000    22154156.062    90717595.284        2073.532          41.000  
C23  20742191.150   108010031.005         401.034          51.000                                                                  
C09  36846822.501   191871076.818         313.021          41.000    36846810.306   148366834.541         241.993          46.000  
C33  25980881.301                       -2892.709          30.000                                                                  
C37  22993900.575   119735286.654        2755.150          44.000                                                                  
> 2025 10 27 02 46 35.1160000  0 19                     
G12  20794844.079   109277645.031        1035.507          45.000    20794832.420    85151358.980         806.583          41.000  
G15  23100132.467   121392012.641       -3222.524          36.000    23100123.562    94591140.738       -2511.326          33.000  
G18  23408648.499   123013278.013       -3694.226          38.000    23408642.128    95854469.834       -2878.614          36.000  
G23  19166617.584   100721253.985       -1933.476          45.000    19166605.584    78484019.849       -1506.760          47.000  
G24  20785703.988                2      -3308.936          28.000    20785694.329    85113944.373       -2578.654          32.000  
G32  20968978.141   110192726.273        1534.434          45.000    20968967.779    85864407.419        1195.653          42.000  
C08  34696229.262   180672368.641        -293.530          45.000    34696212.481   139707257.059        -226.862          49.000  
C13  34710949.959   180749020.192          -2.954          47.000    34710940.682   139766561.741          -2.332          47.000  
C16  35672755.879   185757400.885          35.471          45.000    35672745.830   143639365.596          27.320          47.000  
C25  22143297.015   115305952.683       -2454.377          37.000                                                                  
C32  21092609.075   109834754.188         941.120          49.000                                                                  
C06  35374002.530   184201713.760         215.397          44.000    35373986.794   142436385.709         166.521          47.000  
G25  20614139.109   108328041.144        2656.858          45.000    20614129.991    84411418.214        2070.171          41.000  
G10  19563395.050   102806330.836        1184.900          49.000    19563383.442    80108785.534         923.389          44.000  
G28  22154146.378   116420833.076        2660.968          40.000    22154135.799    90717512.343        2073.593          41.000  
C23  20742188.102   108010014.961         401.074          51.000                                                                  
C09  36846820.110   191871064.304         312.926          41.000    36846807.888   148366824.859         242.017          46.000  
C33  25980903.502                       -2892.563          30.000                                                                  
C37  22993879.395   119735176.463        2754.853          44.000                                                                  
> 2025 10 27 02 46 35.1560000  0 19                     
G12  20794836.202   109277603.606        1035.564          45.000    20794824.549    85151326.724         806.310          41.000  
G15  23100156.990   121392141.558       -3222.701          36.000    23100148.066    94591241.202       -2511.541          33.000  
G18  23408676.614   123013425.806       -3694.629          38.000    23408670.268    95854584.968       -2878.345          36.000  
G23  19166632.317   100721331.328       -1933.539          45.000    19166620.310    78484080.114       -1506.690          47.000  
G24  20785728.691                2      -3308.778          28.000    20785719.500    85114047.472       -2577.950          32.000  
G32  20968966.454   110192664.904        1534.309          45.000    20968956.099    85864359.599        1195.532          42.000  
C08  34696231.535   180672380.377        -293.433          45.000    34696214.744   139707266.142        -227.026          49.000  
C13  34710949.961   180749020.309          -2.948          47.000    34710940.705   139766561.837          -2.417          47.000  
C16  35672755.601   185757399.475          35.331          45.000    35672745.547   143639364.499          27.385          47.000  
C25  22143315.854   115306050.860       -2454.635          37.000                                                                  
C32  21092601.825   109834716.546         941.074          49.000                                                                  
C06  35374000.868   184201705.140         215.469          44.000    35373985.163   142436379.059         166.298          47.000  
G25  20614118.885   108327934.869        2656.882          45.000    20614109.747    84411335.399        2070.245          41.000  
G10  19563386.047   102806283.446        1184.741          49.000    19563374.423    80108748.612         923.132          44.000  
G28  22154126.130   116420726.629        2661.051          40.000    22154115.545    90717429.405        2073.459          41.000  
C23  20742185.015   108009998.921         401.001          51.000                                                                  
C09  36846817.732   191871051.774         313.133          41.000    36846805.460   148366815.176         242.021          46.000  
C33  25980925.726                       -2892.218          30.000                                                                  
C37  22993858.236   119735066.248        2755.120          43.000                                                                  
> 2025 10 27 02 46 35.1960000  0 19                     
G12  20794828.325   109277562.181        1035.596          45.000    20794816.665    85151294.439         806.771          41.000  
G15  23100181.560   121392270.479       -3222.908          36.000    23100172.598    94591341.641       -2511.298          33.000  
G18  23408704.727   123013573.575       -3694.386          38.000    23408698.364    95854700.096       -2878.159          36.000  
G23  19166647.029   100721408.671       -1933.589          45.000    19166635.017    78484140.377       -1506.628          47.000  
G24  20785753.744                2      -3308.842          28.000    20785744.714    85114150.679       -2579.491          32.000  
G32  20968954.761   110192603.534        1534.252          45.000    20968944.426    85864311.773        1195.606          42.000  
C08  34696233.801   180672392.114        -293.414          45.000    34696217.001   139707275.225        -227.081          49.000  
C13  34710949.962   180749020.426          -2.966          47.000    34710940.728   139766561.932          -2.435          47.000  
C16  35672755.314   185757398.055          35.396          45.000    35672745.327   143639363.400          27.436          47.000  
C25  22143334.711   115306149.007       -2454.057          37.000                                                                  
C32  21092594.571   109834678.903         941.067          49.000                                                                  
C06  35373999.210   184201696.526         215.402          44.000    35373983.498   142436372.398         166.384          47.000  
G25  20614098.692   108327828.608        2656.645          45.000    20614089.546    84411252.597        2070.097          41.000  
G10  19563377.010   102806236.053        1184.735          49.000    19563365.404    80108711.680         923.218          44.000  
G28  22154105.861   116420620.196        2660.834          40.000    22154095.287    90717346.462        2073.497          41.000  
C23  20742181.917   108009982.880         401.010          51.000                                                                  
C09  36846815.320   191871039.261         312.936          41.000    36846803.059   148366805.498         241.932          46.000  
C33  25980947.888                       -2891.563          30.000                                                                  
C37  22993837.059   119734956.047        2755.083          43.000                                                                  
> 2025 10 27 02 46 35.2360000  0 19                     
G12  20794820.427   109277520.762        1035.525          45.000    20794808.774    85151262.146         807.183          41.000  
G15  23100206.078   121392399.394       -3222.929          36.000    23100197.141    94591442.119       -2511.827          33.000  
G18  23408732.835   123013721.334       -3694.084          38.000    23408726.480    95854815.273       -2879.022          37.000  
G23  19166661.745   100721486.013       -1933.577          45.000    19166649.730    78484200.641       -1506.610          47.000  
G24  20785778.893                2      -3308.930          28.000    20785769.872    85114253.770       -2578.178          32.000  
G32  20968943.089   110192542.167        1534.184          45.000    20968932.753    85864263.951        1195.552          42.000  
C08  34696236.055   180672403.853        -293.457          45.000    34696219.246   139707284.300        -226.959          49.000  
C13  34710949.989   180749020.538          -2.875          47.000    34710940.727   139766562.019          -2.289          47.000  
C16  35672755.026   185757396.638          35.390          45.000    35672745.070   143639362.303          27.407          47.000  
C25  22143353.559   115306247.179       -2454.207          37.000                                                                  
C32  21092587.367   109834641.255         941.138          49.000                                                                  
C06  35373997.546   184201687.913         215.342          44.000    35373981.831   142436365.731         166.584          47.000  
G25  20614078.444   108327722.328        2656.865          45.000    20614069.327    84411169.799        2069.925          41.000  
G10  19563367.972   102806188.655        1184.839          49.000    19563356.386    80108674.743         923.328          44.000  
G28  22154085.617   116420513.769        2660.674          40.000    22154075.048    90717263.521        2073.490          41.000  
C23  20742178.834   108009966.829         401.178          51.000                                                                  
C09  36846812.949   191871026.725         313.257          41.000    36846800.636   148366795.805         242.160          46.000  
C33  25980970.074                       -2891.894          30.000                                                                  
C37  22993815.919   119734845.849        2754.995          43.000                                                                  
> 2025 10 27 02 46 35.2760000  0 19                     
G12  20794812.544   109277479.341        1035.520          45.000    20794800.888    85151229.866         807.153          41.000  
G15  23100230.590   121392528.317       -3222.992          36.000    23100221.708    94591542.537       -2511.102          33.000  
G18  23408760.952   123013869.096       -3694.058          38.000    23408754.604    95854930.406       -2878.681          37.000  
G23  19166676.466   100721563.352       -1933.464          45.000    19166664.444    78484260.906       -1506.630          47.000  
G24  20785803.952                2      -3309.094          28.000    20785795.047    85114356.854       -2577.286          32.000  
G32  20968931.409   110192480.778        1534.548          45.000    20968921.071    85864216.130        1195.515          42.000  
C08  34696238.297   180672415.585        -293.353          45.000    34696221.473   139707293.366        -226.721          49.000  
C13  34710949.999   180749020.652          -2.838          47.000    34710940.750   139766562.106          -2.197          47.000  
C16  35672754.758   185757395.214          35.521          45.000    35672744.801   143639361.213          27.263          47.000  
C25  22143372.405   115306345.311       -2453.528          37.000                                                                  
C32  21092580.129   109834603.609         941.143          49.000                                                                  
C06  35373995.907   184201679.309         215.127          44.000    35373980.162   142436359.064         166.680          47.000  
G25  20614058.234   108327616.053        2656.908          45.000    20614049.095    84411086.968        2070.503          41.000  
G10  19563358.929   102806141.253        1184.991          49.000    19563347.365    80108637.808         923.352          44.000  
G28  22154065.345   116420407.317        2661.063          40.000    22154054.800    90717180.572        2073.653          41.000  
C23  20742175.700   108009950.787         401.111          51.000                                                                  
C09  36846810.560   191871014.200         313.203          41.000    36846798.261   148366786.116         242.240          46.000  
C33  25980992.310                       -2891.995          30.000                                                                  
C37  22993794.741   119734735.646        2755.054          43.000                                                                  
> 2025 10 27 02 46 35.3160000  0 19                     
G12  20794804.647   109277437.912        1035.661          45.000    20794792.989    85151197.597         806.862          41.000  
G15  23100255.109   121392657.219       -3222.682          36.000    23100246.215    94591642.976       -2510.963          33.000  
G18  23408789.079   123014016.871       -3694.338          38.000    23408782.720    95855045.551       -2878.666          37.000  
G23  19166691.176   100721640.696       -1933.552          45.000    19166679.170    78484321.174       -1506.686          47.000  
G24  20785829.424                2      -3308.607          28.000    20785820.214    85114459.984       -2577.740          32.000  
G32  20968919.717   110192419.395        1534.605          45.000    20968909.400    85864168.292        1195.847          42.000  
C08  34696240.533   180672427.325        -293.445          45.000    34696223.710   139707302.437        -226.746          49.000  
C13  34710950.061   180749020.770          -2.930          47.000    34710940.771   139766562.191          -2.112          47.000  
C16  35672754.497   185757393.787          35.607          45.000    35672744.535   143639360.122          27.207          47.000  
C25  22143391.254   115306443.483       -2453.988          37.000                                                                  
C32  21092572.886   109834565.965         941.104          49.000                                                                  
C06  35373994.248   184201670.686         215.370          44.000    35373978.487   142436352.393         166.758          47.000  
G25  20614037.990   108327509.771        2657.014          45.000    20614028.883    84411004.154        2070.479          41.000  
G10  19563349.879   102806093.848        1185.107          49.000    19563338.328    80108600.870         923.425          44.000  
G28  22154045.090   116420300.878        2661.062          40.000    22154034.565    90717097.623        2073.777          41.000  
C23  20742172.595   108009934.745         401.057          51.000                                                                  
C09  36846808.144   191871001.681         313.019          41.000    36846795.868   148366776.434         242.079          46.000  
C33  25981014.505                       -2892.131          30.000                                                                  
C37  22993773.585   119734625.430        2755.260          43.000                                                                  
