     3.04           OBSERVATION DATA    M: Mixed            RINEX VERSION / TYPE
RTKCONV 2.4.3 b34                       20251027 032530 UTC PGM / RUN BY / DATE 
format: u-blox UBX                                          COMMENT             
log: D:\GPdata\10_27\fingure_up_220_40_10_27_1.ubx          COMMENT             
                                                            MARKER NAME         
                                                            MARKER NUMBER       
                                                            MARKER TYPE         
                                                            OBSERVER / AGENCY   
                                                            REC # / TYPE / VERS 
                                                            ANT # / TYPE        
        0.0000        0.0000        0.0000                  APPROX POSITION XYZ 
        0.0000        0.0000        0.0000                  ANTENNA: DELTA H/E/N
G    8 C1C L1C D1C S1C C2L L2L D2L S2L                      SYS / # / OBS TYPES 
C    8 C2I L2I D2I S2I C7I L7I D7I S7I                      SYS / # / OBS TYPES 
  2025    10    27    02    11   46.4750000     GPS         TIME OF FIRST OBS   
  2025    10    27    02    12   40.7960000     GPS         TIME OF LAST OBS    
G L1C                                                       SYS / PHASE SHIFT   
G L2L  0.00000                                              SYS / PHASE SHIFT   
C L2I                                                       SYS / PHASE SHIFT   
C L7I                                                       SYS / PHASE SHIFT   
  0                                                         GLONASS SLOT / FRQ #
 C1C    0.000 C1P    0.000 C2C    0.000 C2P    0.000        GLONASS COD/PHS/BIS 
                                                            END OF HEADER       
> 2025 10 27 02 11 46.4750000  0 21                     
G15  21861380.192   114882317.0131      -3000.209          41.000    21861370.317    89518664.0221      -2337.812          39.000  
G18  21941426.800   115302968.4061      -3603.872          42.000    21941417.361    89846418.7301      -2808.162          41.000  
G23  18643820.504    97973938.2271       -692.781          48.000    18643807.632    76343268.3011       -539.883          49.000  
G24  19586794.166   102929295.1051      -2653.560          41.000    19586783.655    80204593.3001      -2067.419          39.000  
G32  21613754.921   113581056.4621       1708.314          45.000    21613745.618    88504678.7681       1331.113          43.000  
C08  34635866.856   180358042.1381        -19.990          46.000    34635849.322   139464209.5651        -15.365          50.000  
C13  34756407.545   180985735.0991        216.413          46.000    34756398.097   139949611.9111        167.271          46.000  
C16  35733577.008   186074113.0601        276.185          47.000    35733566.190   143884263.9921        213.471          47.000  
C25  21329436.214   111067966.3661      -1555.783          45.000                                                                  
C32  21553541.569   112234944.0911       1325.281          46.000                                                                  
C06  35507153.423   184895062.7101        454.706          44.000    35507136.996   142972528.8531        351.410          45.000  
G25  21792377.734   114519732.1171       3184.972          42.000    21792371.294    89236130.6411       2481.518          39.000  
G10  20224904.633   106282590.2971       2079.347          46.000    20224893.764    82817567.2251       1620.316          42.000  
G12  21430930.921   112620311.6871       2095.689          43.000    21430919.887    87756055.7061       1632.922          40.000  
G28  23310774.653   122498960.0331       3125.226          37.000    23310767.702    95453676.8041       2435.373          40.000  
C23  21117714.546   109965482.4031       1451.211          50.000                                                                  
C09  37015991.922   192751986.1361        533.126          41.000    37015980.077   149048008.1851        412.451          46.000  
C33  24873253.422   129521538.3621      -2622.085          36.000                                                                  
C30  24560619.877   127893585.8071      -2027.421          35.000                                                                  
C27  24990419.290   130131652.7601      -2798.617          37.000                                                                  
C37  24176655.884   125894185.7721       3091.442          41.000                                                                  
> 2025 10 27 02 11 46.5150000  0 21                     
G15  21861403.037   114882437.020       -3000.247          41.000    21861393.143    89518757.532       -2337.769          39.000  
G18  21941454.236   115303112.557       -3603.810          42.000    21941444.802    89846531.053       -2808.106          41.000  
G23  18643825.804    97973965.941        -692.837          48.000    18643812.876    76343289.894        -539.876          49.000  
G24  19586814.349   102929401.237       -2653.440          41.000    19586803.855    80204676.017       -2067.726          39.000  
G32  21613741.918   113580988.126        1708.303          45.000    21613732.612    88504625.511        1331.293          43.000  
C08  34635866.997   180358042.929         -19.900          46.000    34635849.466   139464210.174         -15.285          50.000  
C13  34756405.890   180985726.431         216.599          46.000    34756396.432   139949605.217         167.305          46.000  
C16  35733574.892   186074102.016         276.134          47.000    35733564.087   143884255.447         213.598          47.000  
C25  21329448.169   111068028.598       -1555.801          45.000                                                                  
C32  21553531.396   112234891.072        1325.384          46.000                                                                  
C06  35507149.930   184895044.523         454.685          44.000    35507133.502   142972514.786         351.548          45.000  
G25  21792353.501   114519604.717        3185.016          42.000    21792347.062    89236031.356        2481.874          39.000  
G10  20224888.783   106282507.120        2079.389          46.000    20224877.923    82817502.416        1620.238          42.000  
G12  21430914.965   112620227.847        2095.915          43.000    21430903.917    87755990.375        1633.112          40.000  
G28  23310750.837   122498834.997        3125.617          37.000    23310743.911    95453579.393        2435.282          40.000  
C23  21117703.410   109965424.350        1451.275          50.000                                                                  
C09  37015987.838   192751964.806         533.165          41.000    37015975.992   149047991.685         412.519          46.000  
C33  24873273.554   129521643.243       -2622.038          36.000                                                                  
C30  24560635.446   127893666.908       -2027.553          35.000                                                                  
C27  24990440.794   130131764.714       -2798.674          37.000                                                                  
C37  24176632.127   125894062.113        3091.383          41.000                                                                  
> 2025 10 27 02 11 46.5550000  0 21                     
G15  21861425.879   114882557.020       -3000.059          41.000    21861415.968    89518851.039       -2337.694          39.000  
G18  21941481.661   115303256.693       -3603.489          42.000    21941472.226    89846643.374       -2808.050          41.000  
G23  18643831.069    97973993.650        -692.812          48.000    18643818.148    76343311.484        -539.801          49.000  
G24  19586834.546   102929507.374       -2653.449          41.000    19586824.075    80204758.738       -2067.992          39.000  
G32  21613728.920   113580919.785        1708.448          45.000    21613719.606    88504572.259        1331.343          43.000  
C08  34635867.115   180358043.718         -19.791          46.000    34635849.572   139464210.784         -15.243          50.000  
C13  34756404.241   180985717.775         216.458          46.000    34756394.768   139949598.512         167.532          46.000  
C16  35733572.794   186074090.973         276.083          47.000    35733561.969   143884246.908         213.524          47.000  
C25  21329460.123   111068090.827       -1555.756          45.000                                                                  
C32  21553521.221   112234838.058        1325.346          46.000                                                                  
C06  35507146.447   184895026.336         454.699          44.000    35507130.012   142972500.720         351.626          45.000  
G25  21792329.239   114519477.312        3185.052          42.000    21792322.809    89235932.076        2482.017          39.000  
G10  20224872.977   106282423.947        2079.362          46.000    20224862.101    82817437.602        1620.305          42.000  
G12  21430899.013   112620144.012        2095.900          43.000    21430887.969    87755925.042        1633.293          40.000  
G28  23310727.070   122498710.003        3125.088          37.000    23310720.132    95453481.978        2435.332          40.000  
C23  21117692.248   109965366.299        1451.275          50.000                                                                  
C09  37015983.726   192751943.476         533.221          41.000    37015971.873   149047975.187         412.512          46.000  
C33  24873293.707   129521748.113       -2621.841          36.000                                                                  
C30  24560651.027   127893747.991       -2027.275          35.000                                                                  
C27  24990462.276   130131876.654       -2798.490          37.000                                                                  
C37  24176608.398   125893938.444        3091.550          41.000                                                                  
> 2025 10 27 02 11 46.5950000  0 21                     
G15  21861448.691   114882677.008       -2999.781          41.000    21861438.805    89518944.542       -2337.608          39.000  
G18  21941509.092   115303400.837       -3603.458          42.000    21941499.647    89846755.681       -2807.742          41.000  
G23  18643836.327    97974021.352        -692.663          48.000    18643823.400    76343333.073        -539.764          49.000  
G24  19586854.704   102929613.495       -2653.168          41.000    19586844.273    80204841.432       -2067.656          39.000  
G32  21613715.912   113580851.433        1708.696          45.000    21613706.599    88504518.994        1331.579          43.000  
C08  34635867.235   180358044.500         -19.593          46.000    34635849.716   139464211.395         -15.274          50.000  
C13  34756402.585   180985709.110         216.524          46.000    34756393.099   139949591.805         167.656          46.000  
C16  35733570.679   186074079.925         276.140          47.000    35733559.875   143884238.359         213.650          47.000  
C25  21329472.077   111068153.053       -1555.681          45.000                                                                  
C32  21553511.031   112234785.037        1325.465          46.000                                                                  
C06  35507142.944   184895008.140         454.854          44.000    35507126.514   142972486.649         351.755          45.000  
G25  21792304.981   114519349.908        3185.096          41.000    21792298.568    89235832.797        2482.090          39.000  
G10  20224857.134   106282340.767        2079.453          46.000    20224846.255    82817372.792        1620.238          42.000  
G12  21430883.060   112620060.190        2095.622          43.000    21430872.020    87755859.717        1633.209          40.000  
G28  23310703.284   122498584.959        3125.759          37.000    23310696.356    95453384.550        2435.585          40.000  
C23  21117681.084   109965308.245        1451.318          50.000                                                                  
C09  37015979.613   192751922.135         533.437          41.000    37015967.784   149047958.689         412.481          46.000  
C33  24873313.848   129521853.019       -2622.384          36.000                                                                  
C30  24560666.607   127893829.111       -2027.823          35.000                                                                  
C27  24990483.762   130131988.608       -2798.732          37.000                                                                  
C37  24176584.647   125893814.775        3091.632          41.000                                                                  
> 2025 10 27 02 11 46.6350000  0 21                     
G15  21861471.522   114882797.017       -3000.089          41.000    21861461.623    89519038.045       -2337.566          39.000  
G18  21941536.530   115303544.985       -3603.614          42.000    21941527.063    89846867.999       -2807.830          41.000  
G23  18643841.593    97974049.061        -692.701          48.000    18643828.671    76343354.667        -539.821          49.000  
G24  19586874.913   102929719.635       -2653.400          41.000    19586864.482    80204924.126       -2067.381          39.000  
G32  21613702.906   113580783.093        1708.607          45.000    21613693.586    88504465.745        1331.390          43.000  
C08  34635867.338   180358045.283         -19.542          46.000    34635849.843   139464212.005         -15.275          50.000  
C13  34756400.911   180985700.447         216.523          46.000    34756391.434   139949585.107         167.526          46.000  
C16  35733568.567   186074068.881         276.114          47.000    35733557.747   143884229.817         213.584          47.000  
C25  21329484.011   111068215.286       -1555.764          45.000                                                                  
C32  21553500.864   112234732.014        1325.533          46.000                                                                  
C06  35507139.427   184894989.946         454.889          44.000    35507122.997   142972472.589         351.587          45.000  
G25  21792280.757   114519222.510        3184.970          41.000    21792274.332    89235733.518        2482.026          39.000  
G10  20224841.297   106282257.587        2079.496          46.000    20224830.432    82817307.975        1620.344          42.000  
G12  21430867.114   112619976.359        2095.688          43.000    21430856.065    87755794.405        1632.985          40.000  
G28  23310679.485   122498459.923        3125.996          37.000    23310672.560    95453287.130        2435.564          40.000  
C23  21117669.903   109965250.193        1451.298          50.000                                                                  
C09  37015975.526   192751900.786         533.682          41.000    37015963.689   149047942.201         412.278          46.000  
C33  24873334.010   129521957.917       -2622.594          36.000                                                                  
C30  24560682.206   127893910.184       -2027.260          35.000                                                                  
C27  24990505.269   130132100.551       -2798.658          37.000                                                                  
C37  24176560.910   125893691.088        3092.024          41.000                                                                  
> 2025 10 27 02 11 46.6750000  0 21                     
G15  21861494.379   114882917.024       -3000.175          41.000    21861484.456    89519131.564       -2337.878          39.000  
G18  21941563.969   115303689.138       -3603.811          42.000    21941554.513    89846980.329       -2808.120          41.000  
G23  18643846.854    97974076.773        -692.769          48.000    18643833.939    76343376.260        -539.833          49.000  
G24  19586895.105   102929825.772       -2653.509          41.000    19586884.676    80205006.820       -2067.250          39.000  
G32  21613689.903   113580714.743        1708.724          45.000    21613680.601    88504412.490        1331.352          43.000  
C08  34635867.480   180358046.071         -19.608          46.000    34635849.962   139464212.617         -15.322          50.000  
C13  34756399.266   180985691.788         216.491          46.000    34756389.781   139949578.413         167.385          46.000  
C16  35733566.426   186074057.835         276.086          47.000    35733555.644   143884221.276         213.526          47.000  
C25  21329495.968   111068277.516       -1555.770          45.000                                                                  
C32  21553490.643   112234679.003        1325.362          46.000                                                                  
C06  35507135.916   184894971.757         454.802          44.000    35507119.490   142972458.515         351.762          45.000  
G25  21792256.507   114519095.102        3185.108          41.000    21792250.110    89235634.247        2481.820          39.000  
G10  20224825.473   106282174.408        2079.492          46.000    20224814.602    82817243.158        1620.421          42.000  
G12  21430851.164   112619892.531        2095.669          43.000    21430840.108    87755729.084        1632.987          40.000  
G28  23310655.695   122498334.894        3125.806          37.000    23310648.763    95453189.702        2435.670          40.000  
C23  21117658.738   109965192.143        1451.247          50.000                                                                  
C09  37015971.424   192751879.449         533.607          41.000    37015959.577   149047925.699         412.433          46.000  
C33  24873354.160   129522062.807       -2622.421          36.000                                                                  
C30  24560697.783   127893991.286       -2027.374          35.000                                                                  
C27  24990526.787   130132212.495       -2798.639          37.000                                                                  
C37  24176537.144   125893567.416        3091.962          41.000                                                                  
> 2025 10 27 02 11 46.7150000  0 21                     
G15  21861517.202   114883037.030       -3000.217          41.000    21861507.307    89519225.080       -2337.964          39.000  
G18  21941591.401   115303833.283       -3603.742          42.000    21941581.948    89847092.655       -2808.137          41.000  
G23  18643852.105    97974104.489        -692.881          48.000    18643839.216    76343397.855        -539.876          49.000  
G24  19586915.310   102929931.925       -2653.785          41.000    19586904.875    80205089.535       -2067.601          39.000  
G32  21613676.898   113580646.398        1708.698          45.000    21613667.587    88504359.231        1331.447          43.000  
C08  34635867.627   180358046.874         -19.930          46.000    34635850.095   139464213.225         -15.260          50.000  
C13  34756397.629   180985683.123         216.557          46.000    34756388.137   139949571.713         167.423          46.000  
C16  35733564.242   186074046.785         276.157          47.000    35733553.545   143884212.737         213.449          47.000  
C25  21329507.936   111068339.747       -1555.795          45.000                                                                  
C32  21553480.449   112234625.978        1325.533          46.000                                                                  
C06  35507132.438   184894953.571         454.691          44.000    35507115.996   142972444.452         351.649          45.000  
G25  21792232.266   114518967.703        3184.982          41.000    21792225.855    89235534.985        2481.553          39.000  
G10  20224809.660   106282091.227        2079.518          46.000    20224798.760    82817178.351        1620.290          42.000  
G12  21430835.190   112619808.695        2095.833          43.000    21430824.159    87755663.773        1632.838          40.000  
G28  23310631.909   122498209.889        3125.272          37.000    23310624.980    95453092.296        2435.314          40.000  
C23  21117647.618   109965134.092        1451.242          50.000                                                                  
C09  37015967.311   192751858.121         533.298          41.000    37015955.476   149047909.197         412.513          46.000  
C33  24873374.287   129522167.680       -2621.990          36.000                                                                  
C30  24560713.341   127894072.388       -2027.526          35.000                                                                  
C27  24990548.281   130132324.438       -2798.634          37.000                                                                  
C37  24176513.387   125893443.752        3091.703          41.000                                                                  
> 2025 10 27 02 11 46.7550000  0 21                     
G15  21861540.052   114883157.032       -3000.123          41.000    21861530.140    89519318.568       -2337.502          39.000  
G18  21941618.830   115303977.422       -3603.583          42.000    21941609.389    89847204.976       -2808.082          41.000  
G23  18643857.381    97974132.208        -693.023          48.000    18643844.484    76343419.449        -539.876          49.000  
G24  19586935.498   102930038.057       -2653.538          41.000    19586925.072    80205172.241       -2067.685          39.000  
G32  21613663.912   113580578.060        1708.511          45.000    21613654.578    88504305.992        1331.116          43.000  
C08  34635867.765   180358047.665         -19.866          46.000    34635850.218   139464213.837         -15.295          50.000  
C13  34756395.977   180985674.461         216.527          46.000    34756386.466   139949565.017         167.376          46.000  
C16  35733562.121   186074035.739         276.165          47.000    35733551.416   143884204.197         213.438          47.000  
C25  21329519.878   111068401.991       -1556.052          45.000                                                                  
C32  21553470.257   112234572.961        1325.482          46.000                                                                  
C06  35507128.959   184894935.385         454.588          44.000    35507112.500   142972430.394         351.509          45.000  
G25  21792208.009   114518840.305        3184.965          42.000    21792201.599    89235435.716        2481.549          39.000  
G10  20224793.830   106282008.059        2079.302          46.000    20224782.912    82817113.536        1620.308          42.000  
G12  21430819.224   112619724.864        2095.794          43.000    21430808.212    87755598.451        1632.965          40.000  
G28  23310608.138   122498084.884        3125.067          37.000    23310601.184    95452994.887        2435.189          40.000  
C23  21117636.448   109965076.046        1451.154          50.000                                                                  
C09  37015963.243   192751836.795         533.139          41.000    37015951.386   149047892.701         412.432          46.000  
C33  24873394.450   129522272.579       -2622.318          36.000                                                                  
C30  24560728.948   127894153.503       -2027.806          35.000                                                                  
C27  24990569.780   130132436.394       -2798.756          37.000                                                                  
C37  24176489.639   125893320.096        3091.420          41.000                                                                  
> 2025 10 27 02 11 46.7950000  0 21                     
G15  21861562.885   114883277.027       -3000.012          41.000    21861552.987    89519412.083       -2337.734          39.000  
G18  21941646.266   115304121.571       -3603.687          42.000    21941636.808    89847317.298       -2808.069          41.000  
G23  18643862.676    97974159.921        -692.928          48.000    18643849.770    76343441.048        -539.988          49.000  
G24  19586955.709   102930144.221       -2653.927          41.000    19586945.268    80205254.956       -2067.838          39.000  
G32  21613650.916   113580509.732        1708.257          45.000    21613641.578    88504252.732        1331.348          43.000  
C08  34635867.895   180358048.459         -19.896          46.000    34635850.339   139464214.455         -15.414          50.000  
C13  34756394.306   180985665.800         216.500          46.000    34756384.799   139949558.322         167.340          46.000  
C16  35733560.017   186074024.694         276.119          47.000    35733549.268   143884195.657         213.435          47.000  
C25  21329531.841   111068464.227       -1556.037          45.000                                                                  
C32  21553460.057   112234519.951        1325.299          46.000                                                                  
C06  35507125.441   184894917.204         454.490          44.000    35507109.026   142972416.333         351.494          45.000  
G25  21792183.738   114518712.904        3184.997          42.000    21792177.360    89235336.462        2481.333          39.000  
G10  20224778.009   106281924.885        2079.299          46.000    20224767.079    82817048.724        1620.297          42.000  
G12  21430803.285   112619641.030        2095.850          43.000    21430792.261    87755533.129        1633.002          40.000  
G28  23310584.358   122497959.876        3125.043          37.000    23310577.396    95452897.474        2435.202          40.000  
C23  21117625.281   109965018.001        1451.098          50.000                                                                  
C09  37015959.120   192751815.458         533.257          41.000    37015947.283   149047876.212         412.266          46.000  
C33  24873414.595   129522377.467       -2622.222          36.000                                                                  
C30  24560744.542   127894234.603       -2027.736          35.000                                                                  
C27  24990591.258   130132548.343       -2798.774          37.000                                                                  
C37  24176465.904   125893196.437        3091.357          41.000                                                                  
> 2025 10 27 02 11 46.8350000  0 21                     
G15  21861585.728   114883397.032       -3000.132          41.000    21861575.821    89519505.590       -2337.702          39.000  
G18  21941673.707   115304265.728       -3603.891          42.000    21941664.241    89847429.618       -2807.989          41.000  
G23  18643867.943    97974187.638        -692.977          48.000    18643855.073    76343462.653        -540.130          49.000  
G24  19586975.916   102930250.363       -2653.735          41.000    19586965.474    80205337.663       -2067.813          39.000  
G32  21613637.912   113580441.390        1708.409          45.000    21613628.580    88504199.477        1331.385          43.000  
C08  34635868.055   180358049.241         -19.668          46.000    34635850.481   139464215.065         -15.344          50.000  
C13  34756392.668   180985657.140         216.476          46.000    34756383.123   139949551.629         167.290          46.000  
C16  35733557.934   186074013.653         276.030          47.000    35733547.144   143884187.112         213.544          47.000  
C25  21329543.817   111068526.457       -1555.871          45.000                                                                  
C32  21553449.884   112234466.935        1325.332          46.000                                                                  
C06  35507121.955   184894899.011         454.675          44.000    35507105.506   142972402.272         351.457          45.000  
G25  21792159.493   114518585.501        3185.047          42.000    21792153.115    89235237.170        2482.003          39.000  
G10  20224762.192   106281841.713        2079.264          46.000    20224751.245    82816983.900        1620.479          42.000  
G12  21430787.332   112619557.212        2095.568          43.000    21430776.294    87755467.805        1633.044          40.000  
G28  23310560.565   122497834.858        3125.253          37.000    23310553.603    95452800.046        2435.534          40.000  
C23  21117614.160   109964959.952        1451.157          50.000                                                                  
C09  37015955.037   192751794.131         533.164          41.000    37015943.189   149047859.713         412.390          46.000  
C33  24873434.735   129522482.351       -2622.136          36.000                                                                  
C30  24560760.103   127894315.679       -2027.175          35.000                                                                  
C27  24990612.750   130132660.288       -2798.625          37.000                                                                  
C37  24176442.160   125893072.772        3091.482          41.000                                                                  
> 2025 10 27 02 11 46.8750000  0 21                     
G15  21861608.565   114883517.028       -3000.007          41.000    21861598.660    89519599.108       -2337.888          39.000  
G18  21941701.135   115304409.865       -3603.613          42.000    21941691.652    89847541.942       -2808.039          41.000  
G23  18643873.224    97974215.353        -692.933          48.000    18643860.330    76343484.243        -539.911          49.000  
G24  19586996.093   102930356.471       -2653.075          41.000    19586985.667    80205420.361       -2067.551          39.000  
G32  21613624.898   113580373.041        1708.665          45.000    21613615.548    88504146.221        1331.409          43.000  
C08  34635868.201   180358050.030         -19.665          46.000    34635850.632   139464215.673         -15.250          50.000  
C13  34756390.999   180985648.477         216.512          46.000    34756381.453   139949544.926         167.447          46.000  
C16  35733555.832   186074002.602         276.167          47.000    35733545.026   143884178.565         213.638          47.000  
C25  21329555.798   111068588.683       -1555.696          45.000                                                                  
C32  21553439.713   112234413.918        1325.390          46.000                                                                  
C06  35507118.489   184894880.820         454.752          44.000    35507102.008   142972388.200         351.658          45.000  
G25  21792135.263   114518458.100        3185.065          42.000    21792128.867    89235137.870        2482.485          39.000  
G10  20224746.351   106281758.527        2079.513          46.000    20224735.429    82816919.092        1620.332          42.000  
G12  21430771.364   112619473.385        2095.609          43.000    21430760.341    87755402.480        1633.126          40.000  
G28  23310536.785   122497709.840        3125.292          37.000    23310529.828    95452702.619        2435.741          40.000  
C23  21117603.002   109964901.901        1451.207          50.000                                                                  
C09  37015950.961   192751772.788         533.424          41.000    37015939.098   149047843.212         412.445          46.000  
C33  24873454.875   129522587.234       -2622.101          36.000                                                                  
C30  24560775.684   127894396.775       -2027.294          35.000                                                                  
C27  24990634.232   130132772.227       -2798.535          37.000                                                                  
C37  24176418.403   125892949.087        3091.886          41.000                                                                  
> 2025 10 27 02 11 46.9150000  0 21                     
G15  21861631.400   114883637.039       -3000.225          41.000    21861621.499    89519692.607       -2337.633          39.000  
G18  21941728.567   115304554.013       -3603.693          42.000    21941719.077    89847654.261       -2808.002          41.000  
G23  18643878.481    97974243.065        -692.872          48.000    18643865.611    76343505.836        -539.862          49.000  
G24  19587016.308   102930462.616       -2653.333          41.000    19587005.871    80205503.065       -2067.544          38.000  
G32  21613611.896   113580304.696        1708.644          45.000    21613602.547    88504092.975        1331.235          43.000  
C08  34635868.350   180358050.822         -19.733          46.000    34635850.785   139464216.280         -15.207          50.000  
C13  34756389.355   180985639.813         216.580          46.000    34756379.788   139949538.220         167.582          46.000  
C16  35733553.753   186073991.548         276.311          47.000    35733542.924   143884170.025         213.540          47.000  
C25  21329567.756   111068650.917       -1555.786          45.000                                                                  
C32  21553429.535   112234360.898        1325.458          46.000                                                                  
C06  35507115.011   184894862.635         454.679          44.000    35507098.515   142972374.133         351.681          45.000  
G25  21792110.994   114518330.699        3185.046          42.000    21792104.620    89235038.601        2482.112          39.000  
G10  20224730.539   106281675.353        2079.424          46.000    20224719.587    82816854.299        1619.919          42.000  
G12  21430755.400   112619389.557        2095.679          43.000    21430744.419    87755337.160        1633.075          40.000  
G28  23310513.019   122497584.814        3125.486          37.000    23310506.059    95452605.210        2435.472          40.000  
C23  21117591.879   109964843.851        1451.219          50.000                                                                  
C09  37015946.876   192751751.446         533.559          41.000    37015934.998   149047826.711         412.481          46.000  
C33  24873475.015   129522692.144       -2622.605          36.000                                                                  
C30  24560791.261   127894477.892       -2027.805          35.000                                                                  
C27  24990655.719   130132884.164       -2798.523          37.000                                                                  
C37  24176394.653   125892825.415        3091.829          41.000                                                                  
> 2025 10 27 02 11 46.9550000  0 21                     
G15  21861654.238   114883757.039       -3000.073          41.000    21861644.335    89519786.111       -2337.648          39.000  
G18  21941756.008   115304698.158       -3603.669          42.000    21941746.510    89847766.580       -2807.959          41.000  
G23  18643883.762    97974270.775        -692.785          48.000    18643870.914    76343527.430        -539.850          49.000  
G24  19587036.504   102930568.772       -2653.723          41.000    19587026.070    80205585.774       -2067.615          38.000  
G32  21613598.891   113580236.352        1708.605          45.000    21613589.553    88504039.725        1331.179          43.000  
C08  34635868.481   180358051.604         -19.566          46.000    34635850.911   139464216.885         -15.137          50.000  
C13  34756387.689   180985631.152         216.551          46.000    34756378.138   139949531.523         167.490          46.000  
C16  35733551.631   186073980.501         276.239          47.000    35733540.819   143884161.486         213.477          47.000  
C25  21329579.708   111068713.155       -1555.893          45.000                                                                  
C32  21553419.350   112234307.875        1325.577          46.000                                                                  
C06  35507111.544   184894844.444         454.750          44.000    35507095.034   142972360.057         351.833          45.000  
G25  21792086.747   114518203.301        3184.965          42.000    21792080.378    89234939.334        2481.825          39.000  
G10  20224714.702   106281592.182        2079.320          46.000    20224703.749    82816789.493        1619.964          42.000  
G12  21430739.438   112619305.721        2095.829          43.000    21430728.469    87755271.842        1632.993          40.000  
G28  23310489.245   122497459.771        3125.850          37.000    23310482.258    95452507.789        2435.505          40.000  
C23  21117580.725   109964785.804        1451.182          50.000                                                                  
C09  37015942.762   192751730.115         533.367          41.000    37015930.907   149047810.208         412.537          46.000  
C33  24873495.168   129522797.027       -2622.360          36.000                                                                  
C30  24560806.838   127894558.982       -2027.426          35.000                                                                  
C27  24990677.223   130132996.119       -2798.832          37.000                                                                  
C37  24176370.888   125892701.743        3091.841          41.000                                                                  
> 2025 10 27 02 11 46.9950000  0 21                     
G15  21861677.068   114883877.041       -3000.099          41.000    21861667.193    89519879.610       -2337.548          39.000  
G18  21941783.432   115304842.312       -3603.829          42.000    21941773.943    89847878.906       -2808.132          41.000  
G23  18643889.030    97974298.501        -693.053          48.000    18643876.199    76343549.030        -539.975          49.000  
G24  19587056.701   102930674.923       -2653.860          41.000    19587046.257    80205668.472       -2067.533          38.000  
G32  21613585.895   113580168.014        1708.487          45.000    21613576.560    88503986.469        1331.330          43.000  
C08  34635868.645   180358052.394         -19.681          46.000    34635851.062   139464217.500         -15.314          50.000  
C13  34756386.003   180985622.488         216.563          46.000    34756376.479   139949524.824         167.467          46.000  
C16  35733549.516   186073969.460         276.078          47.000    35733538.698   143884152.948         213.407          47.000  
C25  21329591.660   111068775.392       -1555.917          45.000                                                                  
C32  21553409.165   112234254.861        1325.443          46.000                                                                  
C06  35507108.038   184894826.252         454.760          44.000    35507091.560   142972345.999         351.578          45.000  
G25  21792062.514   114518075.898        3185.059          42.000    21792056.138    89234840.073        2481.547          39.000  
G10  20224698.902   106281509.021        2079.093          46.000    20224687.908    82816724.676        1620.224          42.000  
G12  21430723.495   112619221.893        2095.751          43.000    21430712.513    87755206.523        1632.962          40.000  
G28  23310465.480   122497334.743        3125.808          37.000    23310458.480    95452410.376        2435.450          40.000  
C23  21117569.536   109964727.765        1450.997          50.000                                                                  
C09  37015938.668   192751708.782         533.318          41.000    37015926.824   149047793.717         412.314          46.000  
C33  24873515.326   129522901.908       -2622.167          36.000                                                                  
C30  24560822.378   127894640.101       -2027.785          35.000                                                                  
C27  24990698.712   130133108.064       -2798.757          37.000                                                                  
C37  24176347.150   125892578.085        3091.600          41.000                                                                  
> 2025 10 27 02 11 47.0350000  0 21                     
G15  21861699.909   114883997.041       -3000.062          41.000    21861690.019    89519973.125       -2337.754          39.000  
G18  21941810.850   115304986.462       -3603.866          42.000    21941801.381    89847991.233       -2808.243          41.000  
G23  18643894.290    97974326.219        -693.033          48.000    18643881.481    76343570.633        -540.099          49.000  
G24  19587076.906   102930781.055       -2653.608          41.000    19587066.450    80205751.200       -2068.030          38.000  
G32  21613572.896   113580099.677        1708.419          45.000    21613563.548    88503933.213        1331.392          43.000  
C08  34635868.816   180358053.199         -20.015          46.000    34635851.192   139464218.112         -15.330          50.000  
C13  34756384.319   180985613.825         216.570          46.000    34756374.842   139949518.129         167.384          46.000  
C16  35733547.385   186073958.413         276.105          47.000    35733536.582   143884144.407         213.460          47.000  
C25  21329603.649   111068837.632       -1555.985          45.000                                                                  
C32  21553398.978   112234201.842        1325.438          46.000                                                                  
C06  35507104.556   184894808.057         454.829          44.000    35507088.054   142972331.938         351.524          45.000  
G25  21792038.278   114517948.496        3185.033          42.000    21792031.901    89234740.806        2481.525          39.000  
G10  20224683.065   106281425.855        2079.055          46.000    20224672.095    82816659.869        1620.168          42.000  
G12  21430707.556   112619138.071        2095.574          43.000    21430696.566    87755141.203        1632.924          40.000  
G28  23310441.685   122497209.729        3125.574          37.000    23310434.667    95452312.952        2435.545          40.000  
C23  21117558.399   109964669.722        1450.987          50.000                                                                  
C09  37015934.567   192751687.448         533.318          41.000    37015922.744   149047777.226         412.229          46.000  
C33  24873535.442   129523006.794       -2622.124          36.000                                                                  
C30  24560837.963   127894721.169       -2027.036          35.000                                                                  
C27  24990720.196   130133220.006       -2798.701          37.000                                                                  
C37  24176323.388   125892454.418        3091.622          41.000                                                                  
> 2025 10 27 02 11 47.0750000  0 21                     
G15  21861722.759   114884117.042       -3000.056          41.000    21861712.847    89520066.629       -2337.690          39.000  
G18  21941838.263   115305130.594       -3603.495          42.000    21941828.817    89848103.552       -2808.100          41.000  
G23  18643899.542    97974353.934        -692.958          48.000    18643886.764    76343592.229        -540.004          49.000  
G24  19587097.095   102930887.187       -2653.407          41.000    19587086.648    80205833.915       -2068.055          38.000  
G32  21613559.885   113580031.329        1708.607          45.000    21613550.537    88503879.949        1331.546          43.000  
C08  34635868.968   180358053.985         -19.858          46.000    34635851.321   139464218.719         -15.256          50.000  
C13  34756382.684   180985605.160         216.637          46.000    34756373.173   139949511.432         167.370          46.000  
C16  35733545.257   186073947.365         276.124          47.000    35733534.458   143884135.859         213.602          47.000  
C25  21329615.602   111068899.860       -1555.815          45.000                                                                  
C32  21553388.798   112234148.820        1325.520          46.000                                                                  
C06  35507101.046   184894789.868         454.749          44.000    35507084.568   142972317.869         351.643          45.000  
G25  21792014.032   114517821.087        3185.170          42.000    21792007.636    89234641.535        2481.677          39.000  
G10  20224667.220   106281342.677        2079.295          46.000    20224656.248    82816595.050        1620.354          42.000  
G12  21430691.607   112619054.239        2095.690          43.000    21430680.634    87755075.889        1632.817          40.000  
G28  23310417.907   122497084.727        3125.191          37.000    23310410.875    95452215.536        2435.479          40.000  
C23  21117547.270   109964611.666        1451.237          50.000                                                                  
C09  37015930.467   192751666.103         533.516          41.000    37015918.648   149047760.726         412.377          46.000  
C33  24873555.585   129523111.674       -2621.950          36.000                                                                  
C30  24560853.544   127894802.247       -2026.899          35.000                                                                  
C27  24990741.686   130133331.952       -2798.695          37.000                                                                  
C37  24176299.623   125892330.744        3091.755          41.000                                                                  
> 2025 10 27 02 11 47.1150000  0 21                     
G15  21861745.580   114884237.037       -2999.989          41.000    21861735.684    89520160.150       -2337.945          39.000  
G18  21941865.705   115305274.741       -3603.620          42.000    21941856.244    89848215.855       -2807.712          41.000  
G23  18643904.804    97974381.650        -692.914          48.000    18643892.034    76343613.823        -539.930          49.000  
G24  19587117.290   102930993.320       -2653.364          41.000    19587106.825    80205916.614       -2067.769          38.000  
G32  21613546.868   113579962.980        1708.681          45.000    21613537.545    88503826.692        1331.501          43.000  
C08  34635869.145   180358054.766         -19.651          46.000    34635851.483   139464219.332         -15.316          50.000  
C13  34756381.026   180985596.486         216.800          46.000    34756371.522   139949504.727         167.506          46.000  
C16  35733543.141   186073936.318         276.131          47.000    35733532.333   143884127.314         213.618          47.000  
C25  21329627.537   111068962.102       -1555.973          45.000                                                                  
C32  21553378.607   112234095.809        1325.363          46.000                                                                  
C06  35507097.539   184894771.676         454.750          44.000    35507081.064   142972303.800         351.671          45.000  
G25  21791989.782   114517693.685        3185.107          42.000    21791983.389    89234542.263        2481.719          39.000  
G10  20224651.380   106281259.485        2079.677          46.000    20224640.407    82816530.242        1620.302          42.000  
G12  21430675.660   112618970.414        2095.652          43.000    21430664.693    87755010.557        1633.134          40.000  
G28  23310394.136   122496959.720        3125.021          37.000    23310387.078    95452118.110        2435.574          40.000  
C23  21117536.127   109964553.616        1451.266          50.000                                                                  
C09  37015926.363   192751644.772         533.367          41.000    37015914.550   149047744.224         412.500          46.000  
C33  24873575.734   129523216.556       -2621.964          36.000                                                                  
C30  24560869.149   127894883.356       -2027.380          35.000                                                                  
C27  24990763.201   130133443.874       -2798.170          37.000                                                                  
C37  24176275.854   125892207.068        3091.895          41.000                                                                  
> 2025 10 27 02 11 47.1550000  0 21                     
G15  21861768.411   114884357.028       -2999.827          41.000    21861758.502    89520253.646       -2337.614          39.000  
G18  21941893.149   115305418.883       -3603.583          42.000    21941883.686    89848328.184       -2808.015          41.000  
G23  18643910.063    97974409.366        -692.914          48.000    18643897.305    76343635.416        -539.849          49.000  
G24  19587137.500   102931099.460       -2653.445          41.000    19587127.022    80205999.314       -2067.629          39.000  
G32  21613533.876   113579894.626        1708.848          45.000    21613524.543    88503773.437        1331.394          43.000  
C08  34635869.296   180358055.543         -19.465          46.000    34635851.623   139464219.932         -15.101          50.000  
C13  34756379.359   180985587.827         216.628          46.000    34756369.890   139949498.029         167.471          46.000  
C16  35733541.065   186073925.260         276.337          47.000    35733530.209   143884118.761         213.783          47.000  
C25  21329639.519   111069024.331       -1555.835          45.000                                                                  
C32  21553368.421   112234042.780        1325.590          46.000                                                                  
C06  35507094.031   184894753.484         454.770          44.000    35507077.569   142972289.723         351.844          45.000  
G25  21791965.538   114517566.275        3185.193          42.000    21791959.142    89234442.981        2481.930          39.000  
G10  20224635.551   106281176.311        2079.536          46.000    20224624.576    82816465.423        1620.408          42.000  
G12  21430659.699   112618886.577        2095.828          43.000    21430648.742    87754945.239        1633.019          40.000  
G28  23310370.352   122496834.691        3125.326          37.000    23310363.287    95452020.687        2435.564          40.000  
C23  21117524.986   109964495.568        1451.232          50.000                                                                  
C09  37015922.260   192751623.432         533.373          41.000    37015910.446   149047727.717         412.629          46.000  
C33  24873595.882   129523321.440       -2622.060          36.000                                                                  
C30  24560884.704   127894964.459       -2027.573          35.000                                                                  
C27  24990784.698   130133555.807       -2798.110          37.000                                                                  
C37  24176252.111   125892083.402        3091.759          41.000                                                                  
> 2025 10 27 02 11 47.1950000  0 21                     
G15  21861791.242   114884477.026       -2999.877          41.000    21861781.332    89520347.150       -2337.558          39.000  
G18  21941920.585   115305563.021       -3603.453          42.000    21941911.107    89848440.500       -2807.959          41.000  
G23  18643915.314    97974437.076        -692.790          48.000    18643902.578    76343657.014        -539.918          49.000  
G24  19587157.699   102931205.610       -2653.723          41.000    19587147.209    80206082.008       -2067.469          39.000  
G32  21613520.869   113579826.274        1708.852          45.000    21613511.539    88503720.179        1331.426          43.000  
C08  34635869.453   180358056.325         -19.495          46.000    34635851.771   139464220.532         -14.972          50.000  
C13  34756377.683   180985579.156         216.684          46.000    34756368.241   139949491.325         167.535          46.000  
C16  35733538.960   186073914.207         276.371          47.000    35733528.064   143884110.219         213.639          47.000  
C25  21329651.463   111069086.557       -1555.711          45.000                                                                  
C32  21553358.229   112233989.761        1325.537          46.000                                                                  
C06  35507090.532   184894735.286         454.865          44.000    35507074.088   142972275.651         351.834          45.000  
G25  21791941.277   114517438.869        3185.149          42.000    21791934.885    89234343.684        2482.269          39.000  
G10  20224619.720   106281093.128        2079.598          46.000    20224608.745    82816400.613        1620.281          42.000  
G12  21430643.716   112618802.735        2096.016          43.000    21430632.778    87754879.911        1633.112          40.000  
G28  23310346.546   122496709.642        3125.878          37.000    23310339.494    95451923.273        2435.476          40.000  
C23  21117513.817   109964437.516        1451.250          50.000                                                                  
C09  37015918.195   192751602.092         533.490          41.000    37015906.342   149047711.212         412.647          46.000  
C33  24873615.993   129523426.334       -2622.308          36.000                                                                  
C30  24560900.288   127895045.556       -2027.468          35.000                                                                  
C27  24990806.181   130133667.746       -2798.340          37.000                                                                  
C37  24176228.376   125891959.716        3092.031          41.000                                                                  
> 2025 10 27 02 11 47.2350000  0 21                     
G15  21861814.072   114884597.013       -2999.723          41.000    21861804.156    89520440.638       -2337.242          39.000  
G18  21941948.017   115305707.159       -3603.386          42.000    21941938.534    89848552.815       -2807.829          41.000  
G23  18643920.595    97974464.787        -692.766          48.000    18643907.854    76343678.608        -539.868          49.000  
G24  19587177.904   102931311.739       -2653.432          41.000    19587167.407    80206164.712       -2067.485          39.000  
G32  21613507.876   113579757.925        1708.783          45.000    21613498.528    88503666.911        1331.613          43.000  
C08  34635869.579   180358057.105         -19.507          46.000    34635851.912   139464221.136         -15.020          50.000  
C13  34756375.991   180985570.484         216.748          46.000    34756366.560   139949484.612         167.725          46.000  
C16  35733536.840   186073903.152         276.382          47.000    35733525.916   143884101.670         213.676          47.000  
C25  21329663.419   111069148.796       -1555.901          45.000                                                                  
C32  21553348.048   112233936.736        1325.606          46.000                                                                  
C06  35507087.056   184894717.079         455.082          44.000    35507070.586   142972261.583         351.741          45.000  
G25  21791917.024   114517311.459        3185.186          42.000    21791910.634    89234244.390        2482.372          39.000  
G10  20224603.879   106281009.953        2079.456          46.000    20224592.932    82816335.806        1620.214          42.000  
G12  21430627.762   112618718.909        2095.766          43.000    21430616.831    87754814.585        1633.123          40.000  
G28  23310322.747   122496584.602        3126.034          37.000    23310315.693    95451825.846        2435.636          40.000  
C23  21117502.685   109964379.462        1451.314          50.000                                                                  
C09  37015914.101   192751580.739         533.749          41.000    37015902.263   149047694.708         412.634          46.000  
C33  24873636.133   129523531.213       -2622.037          36.000                                                                  
C30  24560915.852   127895126.654       -2027.500          35.000                                                                  
C27  24990827.700   130133779.696       -2798.593          37.000                                                                  
C37  24176204.632   125891836.031        3092.134          41.000                                                                  
> 2025 10 27 02 11 47.2750000  0 21                     
G15  21861836.913   114884717.015       -2999.999          41.000    21861826.996    89520534.140       -2337.402          39.000  
G18  21941975.456   115305851.292       -3603.313          42.000    21941965.940    89848665.127       -2807.793          41.000  
G23  18643925.872    97974492.506        -692.910          48.000    18643913.133    76343700.206        -539.931          49.000  
G24  19587198.081   102931417.879       -2653.453          41.000    19587187.610    80206247.425       -2067.651          39.000  
G32  21613494.873   113579689.576        1708.745          45.000    21613485.533    88503613.660        1331.375          43.000  
C08  34635869.731   180358057.884         -19.484          46.000    34635852.059   139464221.743         -15.125          50.000  
C13  34756374.330   180985561.807         216.872          46.000    34756364.889   139949477.907         167.664          46.000  
C16  35733534.725   186073892.099         276.354          47.000    35733523.797   143884093.120         213.708          47.000  
C25  21329675.350   111069211.021       -1555.711          45.000                                                                  
C32  21553337.874   112233883.710        1325.648          46.000                                                                  
C06  35507083.572   184894698.881         455.033          44.000    35507067.051   142972247.516         351.689          45.000  
G25  21791892.784   114517184.048        3185.248          42.000    21791886.382    89234145.125        2481.834          39.000  
G10  20224588.036   106280926.783        2079.307          46.000    20224577.092    82816270.978        1620.472          42.000  
G12  21430611.809   112618635.082        2095.679          43.000    21430600.867    87754749.260        1633.110          40.000  
G28  23310298.974   122496459.569        3125.932          37.000    23310291.919    95451728.425        2435.626          40.000  
C23  21117491.511   109964321.411        1451.293          50.000                                                                  
C09  37015909.966   192751559.397         533.674          41.000    37015898.158   149047678.202         412.653          46.000  
C33  24873656.267   129523636.097       -2622.032          36.000                                                                  
C30  24560931.404   127895207.734       -2027.237          35.000                                                                  
C27  24990849.214   130133891.622       -2798.302          37.000                                                                  
C37  24176180.902   125891712.351        3092.100          41.000                                                                  
> 2025 10 27 02 11 47.3150000  0 21                     
G15  21861859.728   114884837.002       -2999.811          41.000    21861849.817    89520627.639       -2337.452          39.000  
G18  21942002.872   115305995.426       -3603.295          42.000    21941993.360    89848777.447       -2807.886          41.000  
G23  18643931.149    97974520.220        -692.891          48.000    18643918.385    76343721.802        -539.937          49.000  
G24  19587218.278   102931523.997       -2653.140          41.000    19587207.802    80206330.118       -2067.411          39.000  
G32  21613481.853   113579621.225        1708.752          45.000    21613472.514    88503560.396        1331.481          43.000  
C08  34635869.879   180358058.662         -19.485          46.000    34635852.187   139464222.343         -15.066          50.000  
C13  34756372.653   180985553.136         216.785          46.000    34756363.214   139949471.205         167.573          46.000  
C16  35733532.573   186073881.050         276.224          47.000    35733521.684   143884084.576         213.644          47.000  
C25  21329687.317   111069273.250       -1555.712          45.000                                                                  
C32  21553327.730   112233830.682        1325.684          46.000                                                                  
C06  35507080.041   184894680.694         454.805          44.000    35507063.534   142972233.444         351.737          45.000  
G25  21791868.553   114517056.644        3185.142          42.000    21791862.128    89234045.843        2481.931          39.000  
G10  20224572.195   106280843.601        2079.442          46.000    20224561.297    82816206.166        1620.370          42.000  
G12  21430595.847   112618551.254        2095.623          43.000    21430584.905    87754683.925        1633.324          40.000  
G28  23310275.156   122496334.553        3125.542          37.000    23310268.115    95451630.993        2435.688          40.000  
C23  21117480.386   109964263.361        1451.261          50.000                                                                  
C09  37015905.889   192751538.051         533.593          41.000    37015894.057   149047661.698         412.584          46.000  
C33  24873676.387   129523740.975       -2621.888          36.000                                                                  
C30  24560946.969   127895288.821       -2027.157          35.000                                                                  
C27  24990870.715   130134003.538       -2798.001          37.000                                                                  
C37  24176157.130   125891588.678        3091.927          41.000                                                                  
> 2025 10 27 02 11 47.3550000  0 21                     
G15  21861882.564   114884956.995       -2999.830          41.000    21861872.652    89520721.145       -2337.608          39.000  
G18  21942030.295   115306139.572       -3603.542          42.000    21942020.796    89848889.761       -2807.886          41.000  
G23  18643936.418    97974547.936        -692.916          48.000    18643923.663    76343743.399        -539.943          49.000  
G24  19587238.484   102931630.128       -2653.183          41.000    19587228.003    80206412.840       -2067.830          39.000  
G32  21613468.835   113579552.874        1708.783          45.000    21613459.523    88503507.137        1331.443          43.000  
C08  34635870.027   180358059.449         -19.641          46.000    34635852.330   139464222.950         -15.175          50.000  
C13  34756370.987   180985544.468         216.691          46.000    34756361.531   139949464.497         167.642          46.000  
C16  35733530.441   186073869.990         276.386          47.000    35733519.585   143884076.031         213.632          47.000  
C25  21329699.237   111069335.490       -1555.946          45.000                                                                  
C32  21553317.521   112233777.655        1325.683          46.000                                                                  
C06  35507076.537   184894662.495         454.871          44.000    35507060.043   142972219.364         351.918          45.000  
G25  21791844.313   114516929.230        3185.229          42.000    21791837.871    89233946.562        2481.988          39.000  
G10  20224556.368   106280760.417        2079.538          46.000    20224545.465    82816141.349        1620.361          42.000  
G12  21430579.904   112618467.413        2095.876          43.000    21430568.960    87754618.604        1633.165          40.000  
G28  23310251.348   122496209.539        3125.395          37.000    23310244.333    95451533.565        2435.714          40.000  
C23  21117469.239   109964205.312        1451.230          50.000                                                                  
C09  37015901.774   192751516.704         533.630          41.000    37015889.933   149047645.188         412.677          46.000  
C33  24873696.526   129523845.854       -2621.910          36.000                                                                  
C30  24560962.531   127895369.918       -2027.322          35.000                                                                  
C27  24990892.205   130134115.472       -2798.193          36.000                                                                  
C37  24176133.364   125891465.012        3091.725          41.000                                                                  
> 2025 10 27 02 11 47.3950000  0 21                     
G15  21861905.383   114885076.990       -2999.874          41.000    21861895.485    89520814.650       -2337.643          39.000  
G18  21942057.734   115306283.721       -3603.757          42.000    21942048.225    89849002.076       -2807.899          41.000  
G23  18643941.698    97974575.654        -692.971          48.000    18643928.960    76343764.999        -540.030          49.000  
G24  19587258.709   102931736.267       -2653.361          41.000    19587248.226    80206495.543       -2067.715          39.000  
G32  21613455.822   113579484.524        1708.764          45.000    21613446.518    88503453.883        1331.344          43.000  
C08  34635870.190   180358060.235         -19.705          46.000    34635852.440   139464223.559         -15.245          50.000  
C13  34756369.340   180985535.798         216.694          46.000    34756359.845   139949457.791         167.623          46.000  
C16  35733528.301   186073858.930         276.455          47.000    35733517.469   143884067.484         213.632          47.000  
C25  21329711.186   111069397.727       -1555.988          45.000                                                                  
C32  21553307.305   112233724.637        1325.507          46.000                                                                  
C06  35507073.051   184894644.292         455.003          44.000    35507056.554   142972205.299         351.698          45.000  
G25  21791820.069   114516801.822        3185.210          42.000    21791813.631    89233847.293        2481.782          39.000  
G10  20224540.553   106280677.237        2079.502          46.000    20224529.632    82816076.537        1620.324          42.000  
G12  21430563.954   112618383.574        2095.943          43.000    21430553.012    87754553.276        1633.165          40.000  
G28  23310227.553   122496084.495        3125.855          37.000    23310220.552    95451436.152        2435.409          40.000  
C23  21117458.057   109964147.267        1451.142          50.000                                                                  
C09  37015897.694   192751495.370         533.389          41.000    37015885.817   149047628.696         412.406          46.000  
C33  24873716.695   129523950.739       -2622.117          36.000                                                                  
C30  24560978.088   127895451.011       -2027.411          35.000                                                                  
C27  24990913.718   130134227.412       -2798.397          37.000                                                                  
C37  24176109.597   125891341.334        3091.830          41.000                                                                  
> 2025 10 27 02 11 47.4350000  0 21                     
G15  21861928.192   114885196.985       -2999.905          41.000    21861918.317    89520908.146       -2337.480          39.000  
G18  21942085.165   115306427.863       -3603.700          42.000    21942075.658    89849114.391       -2807.886          41.000  
G23  18643946.961    97974603.373        -692.983          48.000    18643934.221    76343786.597        -540.005          49.000  
G24  19587278.929   102931842.431       -2653.908          41.000    19587268.427    80206578.249       -2067.716          39.000  
G32  21613442.827   113579416.173        1708.783          45.000    21613433.521    88503400.630        1331.302          43.000  
C08  34635870.322   180358061.009         -19.512          46.000    34635852.590   139464224.160         -15.141          50.000  
C13  34756367.682   180985527.136         216.564          46.000    34756358.171   139949451.085         167.635          46.000  
C16  35733526.162   186073847.878         276.363          47.000    35733515.345   143884058.937         213.678          47.000  
C25  21329723.140   111069459.966       -1556.056          45.000                                                                  
C32  21553297.138   112233671.613        1325.515          46.000                                                                  
C06  35507069.563   184894626.096         454.962          44.000    35507053.065   142972191.223         351.799          45.000  
G25  21791795.838   114516674.412        3185.241          42.000    21791789.386    89233748.008        2481.964          39.000  
G10  20224524.738   106280594.063        2079.384          46.000    20224513.799    82816011.719        1620.392          42.000  
G12  21430547.990   112618299.750        2095.703          43.000    21430537.076    87754487.973        1632.764          40.000  
G28  23310203.784   122495959.454        3126.091          37.000    23310196.756    95451338.739        2435.288          40.000  
C23  21117446.945   109964089.215        1451.212          50.000                                                                  
C09  37015893.599   192751474.029         533.421          41.000    37015881.736   149047612.193         412.468          46.000  
C33  24873736.831   129524055.620       -2622.103          36.000                                                                  
C30  24560993.665   127895532.104       -2027.365          35.000                                                                  
C27  24990935.211   130134339.355       -2798.575          37.000                                                                  
C37  24176085.811   125891217.656        3091.855          41.000                                                                  
> 2025 10 27 02 11 47.4750000  0 21                     
G15  21861951.030   114885316.982       -2999.954          41.000    21861941.167    89521001.652       -2337.574          39.000  
G18  21942112.585   115306571.988       -3603.331          42.000    21942103.104    89849226.714       -2808.010          41.000  
G23  18643952.251    97974631.088        -692.952          48.000    18643939.489    76343808.193        -539.973          49.000  
G24  19587299.136   102931948.583       -2653.941          41.000    19587288.618    80206660.957       -2067.763          39.000  
G32  21613429.816   113579347.820        1708.813          45.000    21613420.504    88503347.364        1331.539          43.000  
C08  34635870.458   180358061.792         -19.531          46.000    34635852.702   139464224.759         -15.050          50.000  
C13  34756366.032   180985518.464         216.662          46.000    34756356.517   139949444.386         167.487          46.000  
C16  35733524.004   186073836.824         276.311          47.000    35733513.233   143884050.384         213.785          47.000  
C25  21329735.085   111069522.196       -1555.865          45.000                                                                  
C32  21553286.992   112233618.589        1325.528          46.000                                                                  
C06  35507066.074   184894607.895         454.993          44.000    35507049.572   142972177.155         351.707          45.000  
G25  21791771.579   114516547.003        3185.229          42.000    21791765.132    89233648.720        2482.156          39.000  
G10  20224508.910   106280510.884        2079.400          46.000    20224497.977    82815946.912        1620.247          42.000  
G12  21430532.033   112618215.925        2095.592          43.000    21430521.118    87754422.659        1632.756          40.000  
G28  23310180.004   122495834.462        3125.221          37.000    23310172.979    95451241.310        2435.473          40.000  
C23  21117435.778   109964031.172        1451.091          50.000                                                                  
C09  37015889.502   192751452.680         533.619          41.000    37015877.636   149047595.689         412.542          46.000  
C33  24873756.978   129524160.486       -2621.773          36.000                                                                  
C30  24561009.265   127895613.179       -2027.045          35.000                                                                  
C27  24990956.714   130134451.280       -2798.346          36.000                                                                  
C37  24176062.030   125891093.963        3092.198          41.000                                                                  
> 2025 10 27 02 11 47.5150000  0 21                     
G15  21861973.871   114885436.978       -2999.921          41.000    21861964.020    89521095.147       -2337.457          39.000  
G18  21942140.031   115306716.125       -3603.375          42.000    21942130.534    89849339.021       -2807.831          41.000  
G23  18643957.543    97974658.809        -693.026          48.000    18643944.755    76343829.794        -540.004          49.000  
G24  19587319.332   102932054.694       -2653.234          41.000    19587308.806    80206743.661       -2067.760          39.000  
G32  21613416.799   113579279.468        1708.788          45.000    21613407.490    88503294.083        1331.923          43.000  
C08  34635870.614   180358062.563         -19.354          46.000    34635852.844   139464225.367         -15.174          50.000  
C13  34756364.385   180985509.783         216.923          46.000    34756354.868   139949437.678         167.571          46.000  
C16  35733521.892   186073825.777         276.186          47.000    35733511.104   143884041.835         213.724          47.000  
C25  21329747.059   111069584.422       -1555.709          45.000                                                                  
C32  21553276.808   112233565.561        1325.603          46.000                                                                  
C06  35507062.547   184894589.697         454.972          44.000    35507046.039   142972163.083         351.748          45.000  
G25  21791747.344   114516419.592        3185.228          42.000    21791740.877    89233549.436        2482.167          39.000  
G10  20224493.087   106280427.710        2079.349          46.000    20224482.140    82815882.096        1620.329          42.000  
G12  21430516.068   112618132.095        2095.651          43.000    21430505.175    87754357.327        1633.098          40.000  
G28  23310156.179   122495709.435        3125.463          37.000    23310149.178    95451143.894        2435.426          40.000  
C23  21117424.635   109963973.123        1451.177          50.000                                                                  
C09  37015885.418   192751431.341         533.532          41.000    37015873.533   149047579.182         412.653          46.000  
C33  24873777.096   129524265.366       -2621.912          36.000                                                                  
C30  24561024.831   127895694.278       -2027.337          35.000                                                                  
C27  24990978.199   130134563.205       -2798.167          37.000                                                                  
C37  24176038.296   125890970.291        3091.985          41.000                                                                  
> 2025 10 27 02 11 47.5550000  0 21                     
G15  21861996.707   114885556.967       -2999.785          41.000    21861986.870    89521188.652       -2337.589          39.000  
G18  21942167.460   115306860.269       -3603.510          42.000    21942157.974    89849451.335       -2807.868          41.000  
G23  18643962.804    97974686.528        -693.013          48.000    18643950.019    76343851.394        -540.016          49.000  
G24  19587339.522   102932160.831       -2653.290          41.000    19587329.006    80206826.359       -2067.640          39.000  
G32  21613403.800   113579211.124        1708.645          45.000    21613394.480    88503240.824        1331.702          43.000  
C08  34635870.746   180358063.345         -19.455          46.000    34635852.973   139464225.970         -15.150          50.000  
C13  34756362.702   180985501.105         217.002          46.000    34756353.203   139949430.968         167.714          46.000  
C16  35733519.814   186073814.722         276.259          47.000    35733508.967   143884033.286         213.705          47.000  
C25  21329759.004   111069646.661       -1555.881          45.000                                                                  
C32  21553266.619   112233512.539        1325.559          46.000                                                                  
C06  35507059.030   184894571.507         454.784          44.000    35507042.543   142972149.012         351.721          45.000  
G25  21791723.081   114516292.175        3185.371          42.000    21791716.610    89233450.161        2481.935          39.000  
G10  20224477.264   106280344.536        2079.304          46.000    20224466.306    82815817.288        1620.190          42.000  
G12  21430500.122   112618048.263        2095.746          43.000    21430489.223    87754291.996        1633.310          40.000  
G28  23310132.357   122495584.422        3125.368          37.000    23310125.367    95451046.455        2435.790          40.000  
C23  21117413.486   109963915.075        1451.203          50.000                                                                  
C09  37015881.316   192751409.994         533.612          41.000    37015869.422   149047562.673         412.708          46.000  
C33  24873797.226   129524370.239       -2621.869          36.000                                                                  
C30  24561040.396   127895775.367       -2027.271          35.000                                                                  
C27  24990999.699   130134675.122       -2797.996          37.000                                                                  
C37  24176014.527   125890846.612        3091.985          41.000                                                                  
> 2025 10 27 02 11 47.5950000  0 21                     
G15  21862019.517   114885676.957       -2999.723          41.000    21862009.698    89521282.163       -2337.825          39.000  
G18  21942194.890   115307004.410       -3603.510          42.000    21942185.405    89849563.650       -2807.911          41.000  
G23  18643968.080    97974714.252        -693.106          48.000    18643955.283    76343872.991        -539.979          49.000  
G24  19587359.714   102932266.974       -2653.490          41.000    19587349.217    80206909.075       -2067.868          39.000  
G32  21613390.781   113579142.767        1708.782          45.000    21613381.474    88503187.577        1331.291          43.000  
C08  34635870.880   180358064.131         -19.607          46.000    34635853.094   139464226.572         -15.103          50.000  
C13  34756361.021   180985492.435         216.855          46.000    34756351.549   139949424.265         167.608          46.000  
C16  35733517.734   186073803.667         276.323          47.000    35733506.829   143884024.741         213.629          47.000  
C25  21329770.962   111069708.901       -1555.967          45.000                                                                  
C32  21553256.427   112233459.509        1325.653          46.000                                                                  
C06  35507055.565   184894553.305         454.931          44.000    35507039.065   142972134.937         351.821          45.000  
G25  21791698.823   114516164.760        3185.414          42.000    21791692.380    89233350.881        2481.937          39.000  
G10  20224461.446   106280261.357        2079.392          46.000    20224450.450    82815752.472        1620.271          42.000  
G12  21430484.179   112617964.433        2095.726          43.000    21430473.275    87754226.677        1633.117          40.000  
G28  23310108.553   122495459.358        3126.127          37.000    23310101.580    95450949.025        2435.794          40.000  
C23  21117402.335   109963857.028        1451.176          50.000                                                                  
C09  37015877.208   192751388.647         533.624          41.000    37015865.315   149047546.163         412.744          46.000  
C33  24873817.378   129524475.116       -2621.920          36.000                                                                  
C30  24561055.971   127895856.459       -2027.336          35.000                                                                  
C27  24991021.195   130134787.072       -2798.546          37.000                                                                  
C37  24175990.762   125890722.944        3091.776          41.000                                                                  
> 2025 10 27 02 11 47.6350000  0 21                     
G15  21862042.347   114885796.952       -2999.805          41.000    21862032.560    89521375.676       -2337.922          39.000  
G18  21942222.305   115307148.550       -3603.553          42.000    21942212.836    89849675.972       -2808.041          41.000  
G23  18643973.362    97974741.977        -693.168          48.000    18643960.559    76343894.590        -539.966          49.000  
G24  19587379.930   102932373.135       -2653.906          41.000    19587369.412    80206991.778       -2067.768          39.000  
G32  21613377.778   113579074.415        1708.807          45.000    21613368.480    88503134.321        1331.275          43.000  
C08  34635871.026   180358064.920         -19.736          46.000    34635853.248   139464227.177         -15.123          50.000  
C13  34756359.335   180985483.770         216.689          46.000    34756349.906   139949417.557         167.657          46.000  
C16  35733515.605   186073792.610         276.380          47.000    35733504.720   143884016.199         213.527          47.000  
C25  21329782.925   111069771.137       -1555.947          45.000                                                                  
C32  21553246.248   112233406.483        1325.639          46.000                                                                  
C06  35507052.083   184894535.114         454.799          44.000    35507035.579   142972120.868         351.754          45.000  
G25  21791674.595   114516037.357        3185.152          42.000    21791668.148    89233251.606        2481.831          39.000  
G10  20224445.621   106280178.180        2079.377          46.000    20224434.643    82815687.663        1620.226          42.000  
G12  21430468.215   112617880.614        2095.506          43.000    21430457.329    87754161.364        1632.897          40.000  
G28  23310084.776   122495334.334        3125.864          37.000    23310077.799    95450851.603        2435.651          40.000  
C23  21117391.186   109963798.986        1451.042          50.000                                                                  
C09  37015873.101   192751367.305         533.519          41.000    37015861.236   149047529.663         412.596          46.000  
C33  24873837.517   129524580.027       -2622.566          36.000                                                                  
C30  24561071.556   127895937.571       -2027.705          35.000                                                                  
C27  24991042.688   130134899.001       -2798.384          37.000                                                                  
C37  24175967.012   125890599.266        3091.828          41.000                                                                  
> 2025 10 27 02 11 47.6750000  0 21                     
G15  21862065.166   114885916.947       -2999.823          41.000    21862055.407    89521469.174       -2337.678          39.000  
G18  21942249.749   115307292.690       -3603.535          42.000    21942240.254    89849788.298       -2808.207          41.000  
G23  18643978.609    97974769.702        -693.173          48.000    18643965.840    76343916.198        -540.153          49.000  
G24  19587400.126   102932479.286       -2653.930          41.000    19587389.615    80207074.480       -2067.667          39.000  
G32  21613364.757   113579006.069        1708.707          45.000    21613355.478    88503081.067        1331.271          43.000  
C08  34635871.171   180358065.699         -19.625          46.000    34635853.418   139464227.782         -15.130          50.000  
C13  34756357.644   180985475.102         216.645          46.000    34756348.226   139949410.854         167.630          46.000  
C16  35733513.494   186073781.557         276.347          47.000    35733502.597   143884007.653         213.555          47.000  
C25  21329794.863   111069833.384       -1556.123          45.000                                                                  
C32  21553236.054   112233353.465        1325.469          46.000                                                                  
C06  35507048.578   184894516.916         454.880          44.000    35507032.096   142972106.798         351.736          45.000  
G25  21791650.344   114515909.951        3185.084          42.000    21791643.903    89233152.306        2482.268          39.000  
G10  20224429.794   106280095.005        2079.344          46.000    20224418.808    82815622.840        1620.435          42.000  
G12  21430452.248   112617796.784        2095.627          43.000    21430441.376    87754096.041        1632.974          40.000  
G28  23310060.999   122495209.317        3125.564          37.000    23310054.007    95450754.192        2435.366          40.000  
C23  21117380.050   109963740.941        1451.057          50.000                                                                  
C09  37015869.025   192751345.958         533.605          41.000    37015857.135   149047513.166         412.437          46.000  
C33  24873857.661   129524684.926       -2622.673          36.000                                                                  
C30  24561087.134   127896018.662       -2027.487          35.000                                                                  
C27  24991064.195   130135010.932       -2798.297          37.000                                                                  
C37  24175943.269   125890475.590        3091.842          41.000                                                                  
> 2025 10 27 02 11 47.7150000  0 21                     
G15  21862088.013   114886036.953       -3000.091          41.000    21862078.214    89521562.658       -2337.267          39.000  
G18  21942277.166   115307436.831       -3603.559          42.000    21942267.657    89849900.621       -2808.162          41.000  
G23  18643983.875    97974797.421        -693.085          48.000    18643971.089    76343937.800        -540.134          49.000  
G24  19587420.336   102932585.431       -2653.815          41.000    19587409.803    80207157.204       -2067.972          39.000  
G32  21613351.752   113578937.718        1708.707          45.000    21613342.490    88503027.802        1331.509          43.000  
C08  34635871.315   180358066.469         -19.379          46.000    34635853.548   139464228.386         -15.151          50.000  
C13  34756355.986   180985466.430         216.732          46.000    34756346.564   139949404.159         167.435          46.000  
C16  35733511.392   186073770.507         276.250          47.000    35733500.503   143883999.102         213.678          47.000  
C25  21329806.809   111069895.630       -1556.189          45.000                                                                  
C32  21553225.899   112233300.436        1325.591          46.000                                                                  
C06  35507045.073   184894498.719         454.879          44.000    35507028.592   142972092.722         351.845          45.000  
G25  21791626.083   114515782.546        3185.061          42.000    21791619.665    89233053.045        2481.781          39.000  
G10  20224413.956   106280011.829        2079.353          46.000    20224402.983    82815558.030        1620.320          42.000  
G12  21430436.302   112617712.953        2095.703          43.000    21430425.432    87754030.716        1633.050          40.000  
G28  23310037.218   122495084.286        3125.659          37.000    23310030.218    95450656.762        2435.610          40.000  
C23  21117368.915   109963682.896        1451.070          50.000                                                                  
C09  37015864.907   192751324.626         533.415          41.000    37015853.048   149047496.667         412.419          46.000  
C33  24873877.803   129524789.808       -2622.321          36.000                                                                  
C30  24561102.719   127896099.749       -2027.319          35.000                                                                  
C27  24991085.696   130135122.857       -2798.199          37.000                                                                  
C37  24175919.536   125890351.916        3091.830          41.000                                                                  
> 2025 10 27 02 11 47.7550000  0 21                     
G15  21862110.845   114886156.933       -2999.652          41.000    21862101.059    89521656.154       -2337.264          39.000  
G18  21942304.572   115307580.964       -3603.411          42.000    21942295.107    89850012.925       -2807.799          41.000  
G23  18643989.145    97974825.136        -692.943          48.000    18643976.346    76343959.400        -540.090          49.000  
G24  19587440.514   102932691.553       -2653.331          41.000    19587429.995    80207239.894       -2067.507          39.000  
G32  21613338.739   113578869.367        1708.733          45.000    21613329.466    88502974.532        1331.706          43.000  
C08  34635871.443   180358067.242         -19.313          46.000    34635853.723   139464228.983         -15.009          50.000  
C13  34756354.330   180985457.750         216.889          46.000    34756344.882   139949397.447         167.621          46.000  
C16  35733509.290   186073759.446         276.399          47.000    35733498.374   143883990.546         213.811          47.000  
C25  21329818.802   111069957.859       -1555.892          45.000                                                                  
C32  21553215.710   112233247.410        1325.615          46.000                                                                  
C06  35507041.564   184894480.513         455.067          44.000    35507025.066   142972078.647         351.841          45.000  
G25  21791601.835   114515655.128        3185.336          42.000    21791595.425    89232953.757        2482.038          39.000  
G10  20224398.124   106279928.654        2079.346          46.000    20224387.174    82815493.224        1620.155          42.000  
G12  21430420.355   112617629.123        2095.727          43.000    21430409.475    87753965.397        1633.013          40.000  
G28  23310013.443   122494959.265        3125.543          37.000    23310006.428    95450559.339        2435.596          40.000  
C23  21117357.770   109963624.846        1451.199          50.000                                                                  
C09  37015860.817   192751303.270         533.742          41.000    37015848.943   149047480.161         412.555          46.000  
C33  24873897.916   129524894.672       -2621.818          36.000                                                                  
C30  24561118.299   127896180.827       -2027.076          35.000                                                                  
C27  24991107.199   130135234.779       -2798.064          37.000                                                                  
C37  24175895.789   125890228.230        3092.034          41.000                                                                  
> 2025 10 27 02 11 47.7950000  0 21                     
G15  21862133.658   114886276.915       -2999.506          41.000    21862123.901    89521749.655       -2337.422          39.000  
G18  21942331.977   115307725.092       -3603.240          42.000    21942322.539    89850125.237       -2807.781          41.000  
G23  18643994.419    97974852.851        -692.875          48.000    18643981.589    76343980.999        -540.040          49.000  
G24  19587460.702   102932797.681       -2653.169          41.000    19587450.192    80207322.599       -2067.516          39.000  
G32  21613325.707   113578801.007        1708.894          45.000    21613316.440    88502921.255        1331.877          43.000  
C08  34635871.618   180358068.014         -19.294          46.000    34635853.880   139464229.578         -14.901          50.000  
C13  34756352.686   180985449.072         216.937          46.000    34756343.223   139949390.734         167.771          46.000  
C16  35733507.162   186073748.382         276.584          47.000    35733496.219   143883981.992         213.845          47.000  
C25  21329830.784   111070020.083       -1555.643          45.000                                                                  
C32  21553205.524   112233194.383        1325.627          46.000                                                                  
C06  35507038.093   184894462.303         455.266          44.000    35507021.547   142972064.569         351.865          45.000  
G25  21791577.556   114515527.706        3185.578          42.000    21791571.160    89232854.484        2481.907          39.000  
G10  20224382.284   106279845.477        2079.399          46.000    20224371.361    82815428.422        1620.031          42.000  
G12  21430404.395   112617545.292        2095.745          43.000    21430393.512    87753900.070        1633.171          40.000  
G28  23309989.647   122494834.223        3125.860          37.000    23309982.625    95450461.907        2435.739          40.000  
C23  21117346.658   109963566.795        1451.273          50.000                                                                  
C09  37015856.735   192751281.923         533.729          41.000    37015844.840   149047463.649         412.721          46.000  
C33  24873918.036   129524999.524       -2621.312          36.000                                                                  
C30  24561133.886   127896261.905       -2026.979          35.000                                                                  
C27  24991128.689   130135346.696       -2797.929          37.000                                                                  
C37  24175872.036   125890104.544        3092.132          41.000                                                                  
> 2025 10 27 02 11 47.8350000  0 21                     
G15  21862156.490   114886396.901       -2999.584          41.000    21862146.745    89521843.157       -2337.572          39.000  
G18  21942359.392   115307869.219       -3603.167          42.000    21942349.979    89850237.551       -2807.813          41.000  
G23  18643999.711    97974880.573        -693.001          48.000    18643986.851    76344002.595        -539.940          49.000  
G24  19587480.902   102932903.809       -2653.102          41.000    19587470.387    80207405.300       -2067.513          38.000  
G32  21613312.707   113578732.639        1709.148          45.000    21613303.419    88502867.985        1331.799          43.000  
C08  34635871.770   180358068.799         -19.487          46.000    34635854.038   139464230.178         -14.967          50.000  
C13  34756351.017   180985440.391         216.991          46.000    34756341.538   139949384.025         167.746          46.000  
C16  35733505.046   186073737.325         276.515          47.000    35733494.082   143883973.443         213.760          47.000  
C25  21329842.717   111070082.314       -1555.691          45.000                                                                  
C32  21553195.330   112233141.346        1325.815          46.000                                                                  
C06  35507034.606   184894444.102         455.176          44.000    35507018.054   142972050.499         351.755          45.000  
G25  21791553.304   114515400.290        3185.564          42.000    21791546.905    89232755.188        2482.186          39.000  
G10  20224366.449   106279762.295        2079.502          46.000    20224355.534    82815363.598        1620.363          42.000  
G12  21430388.435   112617461.451        2095.939          43.000    21430377.568    87753834.743        1633.220          40.000  
G28  23309965.883   122494709.203        3125.653          37.000    23309958.846    95450364.484        2435.650          40.000  
C23  21117335.501   109963508.748        1451.226          50.000                                                                  
C09  37015852.637   192751260.572         533.759          41.000    37015840.760   149047447.141         412.745          46.000  
C33  24873938.171   129525104.404       -2621.653          36.000                                                                  
C30  24561149.470   127896342.991       -2027.044          35.000                                                                  
C27  24991150.175   130135458.614       -2797.999          37.000                                                                  
C37  24175848.272   125889980.863        3092.065          41.000                                                                  
> 2025 10 27 02 11 47.8750000  0 21                     
G15  21862179.346   114886516.897       -2999.809          41.000    21862169.572    89521936.655       -2337.533          39.000  
G18  21942386.807   115308013.355       -3603.327          42.000    21942377.409    89850349.854       -2807.628          41.000  
G23  18644004.989    97974908.296        -693.088          48.000    18643992.128    76344024.194        -539.941          49.000  
G24  19587501.093   102933009.950       -2653.346          41.000    19587490.579    80207488.008       -2067.694          38.000  
G32  21613299.679   113578664.271        1709.252          45.000    21613290.424    88502814.726        1331.525          43.000  
C08  34635871.920   180358069.572         -19.411          46.000    34635854.184   139464230.775         -14.957          50.000  
C13  34756349.350   180985431.721         216.841          46.000    34756339.875   139949377.318         167.695          46.000  
C16  35733502.899   186073726.258         276.648          47.000    35733491.908   143883964.898         213.659          47.000  
C25  21329854.666   111070144.545       -1555.737          45.000                                                                  
C32  21553185.157   112233088.307        1325.964          46.000                                                                  
C06  35507031.114   184894425.891         455.255          44.000    35507014.597   142972036.431         351.666          45.000  
G25  21791529.055   114515272.876        3185.436          42.000    21791522.663    89232655.888        2482.458          39.000  
G10  20224350.610   106279679.112        2079.538          46.000    20224339.717    82815298.767        1620.719          42.000  
G12  21430372.479   112617377.622        2095.779          43.000    21430361.622    87753769.415        1633.262          40.000  
G28  23309942.089   122494584.162        3125.923          37.000    23309935.051    95450267.048        2435.824          40.000  
C23  21117324.389   109963450.690        1451.384          50.000                                                                  
C09  37015848.504   192751239.226         533.672          41.000    37015836.652   149047430.622         412.917          46.000  
C33  24873958.290   129525209.279       -2621.791          36.000                                                                  
C30  24561165.046   127896424.098       -2027.535          35.000                                                                  
C27  24991171.699   130135570.547       -2798.239          37.000                                                                  
C37  24175824.499   125889857.165        3092.337          41.000                                                                  
> 2025 10 27 02 11 47.9150000  0 21                     
G15  21862202.177   114886636.878       -2999.633          41.000    21862192.412    89522030.136       -2337.153          39.000  
G18  21942414.240   115308157.502       -3603.580          42.000    21942404.843    89850462.166       -2807.709          41.000  
G23  18644010.249    97974936.014        -693.038          48.000    18643997.403    76344045.792        -539.929          49.000  
G24  19587521.294   102933116.098       -2653.624          41.000    19587510.785    80207570.732       -2068.026          38.000  
G32  21613286.671   113578595.916        1709.025          45.000    21613277.412    88502761.467        1331.427          43.000  
C08  34635872.043   180358070.340         -19.244          46.000    34635854.363   139464231.373         -14.970          50.000  
C13  34756347.670   180985423.040         216.943          46.000    34756338.211   139949370.599         167.903          46.000  
C16  35733500.790   186073715.192         276.664          47.000    35733489.782   143883956.339         213.846          47.000  
C25  21329866.606   111070206.786       -1555.939          45.000                                                                  
C32  21553174.946   112233035.278        1325.810          46.000                                                                  
C06  35507027.610   184894407.693         455.078          44.000    35507011.083   142972022.349         351.890          45.000  
G25  21791504.802   114515145.459        3185.449          42.000    21791498.423    89232556.614        2482.083          39.000  
G10  20224334.769   106279595.928        2079.594          46.000    20224323.907    82815233.953        1620.522          42.000  
G12  21430356.528   112617293.788        2095.785          43.000    21430345.686    87753704.095        1633.090          40.000  
G28  23309918.290   122494459.145        3125.630          37.000    23309911.252    95450169.625        2435.628          40.000  
C23  21117313.224   109963392.644        1451.242          50.000                                                                  
C09  37015844.413   192751217.873         533.765          41.000    37015832.539   149047414.107         412.903          46.000  
C33  24873978.445   129525314.140       -2621.534          36.000                                                                  
C30  24561180.605   127896505.186       -2027.398          35.000                                                                  
C27  24991193.197   130135682.466       -2798.121          37.000                                                                  
C37  24175800.741   125889733.487        3092.092          41.000                                                                  
> 2025 10 27 02 11 47.9550000  0 21                     
G15  21862225.023   114886756.868       -2999.746          41.000    21862215.225    89522123.624       -2337.156          39.000  
G18  21942441.661   115308301.633       -3603.468          42.000    21942432.297    89850574.489       -2807.999          41.000  
G23  18644015.535    97974963.732        -693.006          48.000    18644002.676    76344067.389        -539.930          49.000  
G24  19587541.520   102933222.242       -2653.700          41.000    19587530.983    80207653.426       -2067.625          38.000  
G32  21613273.661   113578527.559        1708.932          45.000    21613264.384    88502708.201        1331.529          43.000  
C08  34635872.136   180358071.118         -19.362          46.000    34635854.483   139464231.977         -15.070          50.000  
C13  34756346.018   180985414.362         216.947          46.000    34756336.531   139949363.885         167.875          46.000  
C16  35733498.688   186073704.137         276.469          47.000    35733487.656   143883947.783         213.887          47.000  
C25  21329878.542   111070269.029       -1556.081          45.000                                                                  
C32  21553164.733   112232982.246        1325.804          46.000                                                                  
C06  35507024.118   184894389.495         454.963          44.000    35507007.575   142972008.267         352.008          45.000  
G25  21791480.570   114515018.047        3185.349          42.000    21791474.158    89232457.339        2481.891          39.000  
G10  20224318.940   106279512.747        2079.543          46.000    20224308.093    82815169.135        1620.467          42.000  
G12  21430340.579   112617209.956        2095.761          43.000    21430329.730    87753638.781        1632.858          40.000  
G28  23309894.496   122494334.099        3125.936          37.000    23309887.471    95450072.195        2435.634          40.000  
C23  21117302.019   109963334.601        1451.110          50.000                                                                  
C09  37015840.287   192751196.522         533.777          41.000    37015828.444   149047397.603         412.681          46.000  
C33  24873998.603   129525419.017       -2621.805          36.000                                                                  
C30  24561196.164   127896586.306       -2027.887          35.000                                                                  
C27  24991214.695   130135794.391       -2798.096          37.000                                                                  
C37  24175777.004   125889609.804        3092.015          41.000                                                                  
> 2025 10 27 02 11 47.9950000  0 21                     
G15  21862247.859   114886876.865       -2999.882          41.000    21862238.068    89522217.136       -2337.669          39.000  
G18  21942469.091   115308445.758       -3603.209          42.000    21942459.731    89850686.784       -2807.628          41.000  
G23  18644020.810    97974991.454        -693.050          48.000    18644007.966    76344088.993        -540.079          49.000  
G24  19587561.729   102933328.389       -2653.810          41.000    19587551.163    80207736.124       -2067.469          38.000  
G32  21613260.651   113578459.203        1708.890          45.000    21613251.362    88502654.927        1331.715          43.000  
C08  34635872.278   180358071.883         -19.212          46.000    34635854.639   139464232.574         -15.008          50.000  
C13  34756344.332   180985405.685         216.927          46.000    34756334.854   139949357.175         167.783          46.000  
C16  35733496.557   186073693.083         276.357          47.000    35733485.537   143883939.230         213.840          47.000  
C25  21329890.482   111070331.271       -1556.142          45.000                                                                  
C32  21553154.544   112232929.221        1325.653          46.000                                                                  
C06  35507020.647   184894371.291         455.012          44.000    35507004.077   142971994.193         351.901          45.000  
G25  21791456.321   114514890.627        3185.398          42.000    21791449.914    89232358.041        2482.292          39.000  
G10  20224303.132   106279429.571        2079.413          46.000    20224292.278    82815104.332        1620.147          42.000  
G12  21430324.635   112617126.124        2095.761          43.000    21430313.769    87753573.451        1633.061          40.000  
G28  23309870.701   122494209.071        3125.759          37.000    23309863.677    95449974.782        2435.369          40.000  
C23  21117290.879   109963276.555        1451.093          50.000                                                                  
C09  37015836.219   192751175.184         533.549          41.000    37015824.350   149047381.100         412.552          46.000  
C33  24874018.734   129525523.908       -2622.132          36.000                                                                  
C30  24561211.731   127896667.373       -2027.100          35.000                                                                  
C27  24991236.210   130135906.299       -2797.788          37.000                                                                  
C37  24175753.278   125889486.118        3092.087          41.000                                                                  
> 2025 10 27 02 11 48.0350000  0 21                     
G15  21862270.689   114886996.844       -2999.607          41.000    21862260.895    89522310.632       -2337.629          39.000  
G18  21942496.529   115308589.884       -3603.104          42.000    21942487.162    89850799.100       -2807.802          41.000  
G23  18644026.108    97975019.177        -693.106          48.000    18644013.252    76344110.599        -540.159          49.000  
G24  19587581.887   102933434.518       -2653.517          41.000    19587571.359    80207818.836       -2067.663          38.000  
G32  21613247.648   113578390.848        1708.866          45.000    21613238.365    88502601.658        1331.707          43.000  
C08  34635872.391   180358072.658         -19.289          46.000    34635854.794   139464233.170         -14.948          50.000  
C13  34756342.682   180985397.003         216.998          46.000    34756333.197   139949350.468         167.679          46.000  
C16  35733494.439   186073682.022         276.411          47.000    35733483.426   143883930.681         213.731          47.000  
C25  21329902.456   111070393.506       -1556.002          45.000                                                                  
C32  21553144.407   112232876.186        1325.774          46.000                                                                  
C06  35507017.151   184894353.077         455.252          44.000    35507000.559   142971980.107         352.048          45.000  
G25  21791432.084   114514763.220        3185.231          42.000    21791425.649    89232258.752        2482.391          39.000  
G10  20224287.301   106279346.392        2079.417          46.000    20224276.470    82815039.523        1620.081          42.000  
G12  21430308.687   112617042.297        2095.654          43.000    21430297.796    87753508.134        1632.910          40.000  
G28  23309846.927   122494084.034        3125.834          37.000    23309839.885    95449877.348        2435.625          40.000  
C23  21117279.753   109963218.512        1451.030          50.000                                                                  
C09  37015832.127   192751153.827         533.796          41.000    37015820.247   149047364.587         412.682          46.000  
C33  24874038.872   129525628.785       -2622.017          36.000                                                                  
C30  24561227.274   127896748.456       -2026.979          35.000                                                                  
C27  24991257.679   130136018.223       -2797.974          37.000                                                                  
C37  24175729.519   125889362.432        3092.099          41.000                                                                  
> 2025 10 27 02 11 48.0750000  0 21                     
G15  21862293.510   114887116.825       -2999.528          41.000    21862283.729    89522404.135       -2337.657          39.000  
G18  21942523.969   115308734.024       -3603.352          42.000    21942514.613    89850911.406       -2807.709          41.000  
G23  18644031.373    97975046.898        -693.068          48.000    18644018.502    76344132.204        -540.164          49.000  
G24  19587602.079   102933540.656       -2653.451          41.000    19587591.550    80207901.535       -2067.573          38.000  
G32  21613234.616   113578322.479        1709.128          45.000    21613225.354    88502548.387        1331.789          43.000  
C08  34635872.529   180358073.440         -19.475          46.000    34635854.923   139464233.770         -14.990          50.000  
C13  34756340.996   180985388.321         217.015          46.000    34756331.525   139949343.758         167.704          46.000  
C16  35733492.311   186073670.957         276.547          47.000    35733481.310   143883922.126         213.757          47.000  
C25  21329914.418   111070455.729       -1555.706          45.000                                                                  
C32  21553134.231   112232823.155        1325.775          46.000                                                                  
C06  35507013.646   184894334.866         455.286          44.000    35506997.073   142971966.036         351.879          45.000  
G25  21791407.824   114514635.798        3185.406          42.000    21791401.413    89232159.467        2482.277          39.000  
G10  20224271.480   106279263.212        2079.439          46.000    20224260.626    82814974.705        1620.266          42.000  
G12  21430292.699   112616958.469        2095.650          43.000    21430281.862    87753442.809        1632.980          40.000  
G28  23309823.143   122493958.997        3125.913          37.000    23309816.088    95449779.911        2435.825          40.000  
C23  21117268.635   109963160.463        1451.128          50.000                                                                  
C09  37015828.011   192751132.473         533.838          41.000    37015816.130   149047348.083         412.627          46.000  
C33  24874059.030   129525733.645       -2621.631          36.000                                                                  
C30  24561242.858   127896829.530       -2026.816          35.000                                                                  
C27  24991279.152   130136130.150       -2798.160          37.000                                                                  
C37  24175705.763   125889238.751        3092.017          41.000                                                                  
> 2025 10 27 02 11 48.1150000  0 21                     
G15  21862316.328   114887236.808       -2999.586          41.000    21862306.566    89522497.642       -2337.750          39.000  
G18  21942551.408   115308878.157       -3603.370          42.000    21942542.040    89851023.721       -2807.820          41.000  
G23  18644036.653    97975074.623        -693.130          48.000    18644023.789    76344153.805        -540.114          49.000  
G24  19587622.274   102933646.785       -2653.280          41.000    19587611.752    80207984.239       -2067.587          38.000  
G32  21613221.613   113578254.122        1708.990          45.000    21613212.363    88502495.128        1331.589          43.000  
C08  34635872.654   180358074.211         -19.360          46.000    34635855.070   139464234.370         -15.016          50.000  
C13  34756339.328   180985379.646         216.915          46.000    34756329.874   139949337.052         167.637          46.000  
C16  35733490.163   186073659.897         276.525          47.000    35733479.193   143883913.573         213.778          47.000  
C25  21329926.354   111070517.968       -1555.860          45.000                                                                  
C32  21553124.061   112232770.119        1325.849          46.000                                                                  
C06  35507010.125   184894316.667         455.088          44.000    35506993.571   142971951.965         351.777          45.000  
G25  21791383.610   114514508.387        3185.300          42.000    21791377.171    89232060.206        2481.735          39.000  
G10  20224255.650   106279180.037        2079.365          46.000    20224244.818    82814909.892        1620.321          42.000  
G12  21430276.736   112616874.641        2095.638          43.000    21430265.914    87753377.490        1632.969          40.000  
G28  23309799.330   122493833.950        3126.132          37.000    23309792.278    95449682.473        2435.950          40.000  
C23  21117257.500   109963102.413        1451.210          50.000                                                                  
C09  37015823.928   192751111.120         533.844          41.000    37015812.022   149047331.564         412.836          46.000  
C33  24874079.162   129525838.516       -2621.678          36.000                                                                  
C30  24561258.428   127896910.623       -2027.154          35.000                                                                  
C27  24991300.653   130136242.060       -2797.881          37.000                                                                  
C37  24175682.003   125889115.066        3092.023          41.000                                                                  
> 2025 10 27 02 11 48.1550000  0 21                     
G15  21862339.174   114887356.801       -2999.773          41.000    21862329.394    89522591.132       -2337.405          39.000  
G18  21942578.838   115309022.297       -3603.469          42.000    21942569.471    89851136.038       -2807.925          41.000  
G23  18644041.937    97975102.347        -693.136          48.000    18644029.069    76344175.407        -540.089          49.000  
G24  19587642.471   102933752.934       -2653.583          41.000    19587631.957    80208066.961       -2068.005          38.000  
G32  21613208.609   113578185.766        1708.934          45.000    21613199.351    88502441.862        1331.615          43.000  
C08  34635872.774   180358074.987         -19.382          46.000    34635855.197   139464234.968         -14.979          50.000  
C13  34756337.659   180985370.964         216.971          46.000    34756328.197   139949330.337         167.761          46.000  
C16  35733488.023   186073648.828         276.658          47.000    35733477.054   143883905.027         213.656          47.000  
C25  21329938.311   111070580.203       -1555.899          45.000                                                                  
C32  21553113.863   112232717.089        1325.747          46.000                                                                  
C06  35507006.590   184894298.471         454.936          44.000    35506990.077   142971937.888         351.833          45.000  
G25  21791359.345   114514380.962        3185.512          42.000    21791352.912    89231960.908        2482.155          39.000  
G10  20224239.829   106279096.859        2079.394          46.000    20224228.986    82814845.060        1620.670          42.000  
G12  21430260.760   112616790.802        2095.853          43.000    21430249.956    87753312.163        1633.121          40.000  
G28  23309775.555   122493708.925        3125.734          37.000    23309768.496    95449585.058        2435.571          40.000  
C23  21117246.321   109963044.366        1451.196          50.000                                                                  
C09  37015819.814   192751089.764         533.918          41.000    37015807.907   149047315.055         412.725          46.000  
C33  24874099.284   129525943.388       -2621.766          36.000                                                                  
C30  24561273.995   127896991.736       -2027.712          35.000                                                                  
C27  24991322.133   130136353.956       -2797.425          37.000                                                                  
C37  24175658.238   125888991.371        3092.227          41.000                                                                  
> 2025 10 27 02 11 48.1950000  0 21                     
G15  21862361.983   114887476.781       -2999.641          41.000    21862352.215    89522684.615       -2337.146          39.000  
G18  21942606.251   115309166.423       -3603.296          42.000    21942596.891    89851248.355       -2807.973          41.000  
G23  18644047.195    97975130.067        -693.060          48.000    18644034.347    76344197.009        -540.051          49.000  
G24  19587662.657   102933859.059       -2653.269          41.000    19587652.149    80208149.660       -2067.780          39.000  
G32  21613195.592   113578117.406        1708.978          45.000    21613186.345    88502388.603        1331.491          43.000  
C08  34635872.938   180358075.755         -19.242          46.000    34635855.313   139464235.564         -14.935          50.000  
C13  34756335.960   180985362.289         216.905          46.000    34756326.531   139949323.622         167.846          46.000  
C16  35733485.904   186073637.772         276.456          47.000    35733474.913   143883896.469         213.818          47.000  
C25  21329950.275   111070642.440       -1555.942          45.000                                                                  
C32  21553103.671   112232664.059        1325.729          46.000                                                                  
C06  35507003.109   184894280.260         455.135          44.000    35506986.561   142971923.800         352.079          45.000  
G25  21791335.121   114514253.539        3185.599          42.000    21791328.658    89231861.619        2482.222          39.000  
G10  20224223.982   106279013.676        2079.473          46.000    20224213.170    82814780.245        1620.534          42.000  
G12  21430244.821   112616706.974        2095.750          43.000    21430233.990    87753246.851        1632.886          40.000  
G28  23309751.772   122493583.898        3125.618          37.000    23309744.701    95449487.633        2435.559          40.000  
C23  21117235.163   109962986.321        1451.132          50.000                                                                  
C09  37015815.730   192751068.411         533.875          41.000    37015803.815   149047298.542         412.762          46.000  
C33  24874119.420   129526048.257       -2621.811          36.000                                                                  
C30  24561289.580   127897072.818       -2027.443          35.000                                                                  
C27  24991343.633   130136465.877       -2797.617          37.000                                                                  
C37  24175634.474   125888867.675        3092.410          41.000                                                                  
> 2025 10 27 02 11 48.2350000  0 21                     
G15  21862384.823   114887596.763       -2999.591          41.000    21862375.062    89522778.093       -2336.975          39.000  
G18  21942633.691   115309310.551       -3603.228          42.000    21942624.320    89851360.656       -2807.671          41.000  
G23  18644052.448    97975157.793        -693.110          48.000    18644039.626    76344218.606        -539.964          49.000  
G24  19587682.859   102933965.206       -2653.508          41.000    19587672.338    80208232.376       -2067.933          39.000  
G32  21613182.594   113578049.037        1709.133          45.000    21613173.340    88502335.328        1331.728          43.000  
C08  34635873.099   180358076.520         -19.148          46.000    34635855.438   139464236.158         -14.876          50.000  
C13  34756334.286   180985353.608         216.951          46.000    34756324.857   139949316.907         167.897          46.000  
C16  35733483.778   186073626.708         276.523          47.000    35733472.795   143883887.915         213.837          47.000  
C25  21329962.229   111070704.678       -1555.973          45.000                                                                  
C32  21553093.480   112232611.028        1325.755          46.000                                                                  
C06  35506999.626   184894262.057         455.115          44.000    35506983.085   142971909.723         352.023          45.000  
G25  21791310.869   114514126.111        3185.696          42.000    21791304.409    89231762.336        2482.095          39.000  
G10  20224208.140   106278930.491        2079.561          46.000    20224197.332    82814715.431        1620.381          42.000  
G12  21430228.856   112616623.137        2095.844          43.000    21430218.047    87753181.524        1633.038          40.000  
G28  23309727.989   122493458.864        3125.654          37.000    23309720.896    95449390.192        2435.871          40.000  
C23  21117224.042   109962928.271        1451.208          50.000                                                                  
C09  37015811.619   192751047.056         533.880          41.000    37015799.730   149047282.032         412.750          46.000  
C33  24874139.568   129526153.132       -2621.859          36.000                                                                  
C30  24561305.166   127897153.905       -2027.367          35.000                                                                  
C27  24991365.110   130136577.806       -2797.938          37.000                                                                  
C37  24175610.724   125888743.993        3092.216          41.000                                                                  
> 2025 10 27 02 11 48.2750000  0 21                     
G15  21862407.648   114887716.751       -2999.678          41.000    21862397.909    89522871.581       -2337.053          39.000  
G18  21942661.121   115309454.685       -3603.296          42.000    21942651.739    89851472.968       -2807.752          41.000  
G23  18644057.718    97975185.512        -693.029          48.000    18644044.896    76344240.209        -540.015          49.000  
G24  19587703.071   102934071.351       -2653.631          41.000    19587692.523    80208315.063       -2067.466          39.000  
G32  21613169.605   113577980.688        1708.845          45.000    21613160.329    88502282.055        1331.813          43.000  
C08  34635873.215   180358077.296         -19.308          46.000    34635855.596   139464236.757         -14.918          50.000  
C13  34756332.628   180985344.925         217.023          46.000    34756323.194   139949310.194         167.836          46.000  
C16  35733481.650   186073615.647         276.530          47.000    35733470.642   143883879.355         213.930          47.000  
C25  21329974.146   111070766.922       -1556.098          45.000                                                                  
C32  21553083.301   112232557.991        1325.875          46.000                                                                  
C06  35506996.128   184894243.844         455.261          44.000    35506979.617   142971895.648         351.938          45.000  
G25  21791286.639   114513998.708        3185.215          42.000    21791280.165    89231663.029        2482.494          39.000  
G10  20224192.334   106278847.308        2079.579          46.000    20224181.514    82814650.620        1620.247          42.000  
G12  21430212.913   112616539.311        2095.737          43.000    21430202.078    87753116.202        1633.102          40.000  
G28  23309704.190   122493333.833        3125.679          37.000    23309697.121    95449292.771        2435.682          40.000  
C23  21117212.884   109962870.227        1451.112          50.000                                                                  
C09  37015807.521   192751025.701         533.868          41.000    37015795.645   149047265.521         412.762          46.000  
C33  24874159.725   129526257.994       -2621.564          36.000                                                                  
C30  24561320.742   127897234.999       -2027.358          35.000                                                                  
C27  24991386.629   130136689.713       -2797.772          37.000                                                                  
C37  24175586.961   125888620.303        3092.229          41.000                                                                  
> 2025 10 27 02 11 48.3150000  0 21                     
G15  21862430.466   114887836.735       -2999.679          41.000    21862420.734    89522965.082       -2337.370          39.000  
G18  21942688.537   115309598.811       -3603.204          42.000    21942679.185    89851585.276       -2807.721          41.000  
G23  18644062.994    97975213.234        -693.017          48.000    18644050.169    76344261.813        -540.084          49.000  
G24  19587723.289   102934177.486       -2653.442          41.000    19587712.707    80208397.767       -2067.539          39.000  
G32  21613156.611   113577912.335        1708.734          45.000    21613147.320    88502228.785        1331.768          43.000  
C08  34635873.348   180358078.067         -19.291          46.000    34635855.733   139464237.352         -14.899          50.000  
C13  34756330.954   180985336.239         217.115          46.000    34756321.529   139949303.481         167.803          46.000  
C16  35733479.532   186073604.578         276.678          47.000    35733468.537   143883870.788         214.121          47.000  
C25  21329986.091   111070829.160       -1556.026          45.000                                                                  
C32  21553073.115   112232504.951        1325.974          46.000                                                                  
C06  35506992.652   184894225.632         455.289          44.000    35506976.118   142971881.563         352.061          45.000  
G25  21791262.404   114513871.287        3185.348          42.000    21791255.910    89231563.759        2481.982          39.000  
G10  20224176.497   106278764.126        2079.572          46.000    20224165.695    82814585.797        1620.428          42.000  
G12  21430196.964   112616455.482        2095.733          43.000    21430186.124    87753050.880        1633.069          40.000  
G28  23309680.375   122493208.784        3125.964          37.000    23309673.332    95449195.349        2435.566          40.000  
C23  21117201.724   109962812.184        1451.056          50.000                                                                  
C09  37015803.421   192751004.345         533.892          41.000    37015791.537   149047249.008         412.817          46.000  
C33  24874179.865   129526362.877       -2621.865          36.000                                                                  
C30  24561336.303   127897316.060       -2026.839          35.000                                                                  
C27  24991408.136   130136801.624       -2797.841          37.000                                                                  
C37  24175563.199   125888496.619        3092.107          41.000                                                                  
> 2025 10 27 02 11 48.3550000  0 21                     
G15  21862453.302   114887956.712       -2999.555          41.000    21862443.568    89523058.593       -2337.768          39.000  
G18  21942715.958   115309742.948       -3603.371          42.000    21942706.617    89851697.579       -2807.623          41.000  
G23  18644068.286    97975240.953        -692.987          48.000    18644055.441    76344283.416        -540.108          49.000  
G24  19587743.480   102934283.615       -2653.252          41.000    19587732.896    80208480.462       -2067.467          38.000  
G32  21613143.603   113577843.956        1709.240          45.000    21613134.310    88502175.511        1331.799          43.000  
C08  34635873.495   180358078.829         -19.104          46.000    34635855.881   139464237.944         -14.843          50.000  
C13  34756329.286   180985327.557         217.078          46.000    34756319.856   139949296.767         167.817          46.000  
C16  35733477.418   186073593.510         276.719          47.000    35733466.428   143883862.236         213.930          47.000  
C25  21329998.058   111070891.388       -1555.807          45.000                                                                  
C32  21553062.919   112232451.921        1325.821          46.000                                                                  
C06  35506989.152   184894207.418         455.344          44.000    35506972.625   142971867.479         352.111          45.000  
G25  21791238.157   114513743.865        3185.474          42.000    21791231.681    89231464.472        2482.039          39.000  
G10  20224160.676   106278680.939        2079.643          46.000    20224149.855    82814520.984        1620.350          42.000  
G12  21430180.997   112616371.640        2095.965          43.000    21430170.173    87752985.553        1633.182          40.000  
G28  23309656.579   122493083.756        3125.763          37.000    23309649.533    95449097.909        2435.829          40.000  
C23  21117190.594   109962754.134        1451.146          50.000                                                                  
C09  37015799.316   192750982.990         533.836          41.000    37015787.435   149047232.488         412.940          46.000  
C33  24874200.008   129526467.758       -2622.020          36.000                                                                  
C30  24561351.869   127897397.133       -2026.782          35.000                                                                  
C27  24991429.641   130136913.528       -2797.724          37.000                                                                  
C37  24175539.442   125888372.928        3092.166          41.000                                                                  
> 2025 10 27 02 11 48.3950000  0 21                     
G15  21862476.147   114888076.691       -2999.493          41.000    21862466.399    89523152.088       -2337.627          39.000  
G18  21942743.387   115309887.072       -3603.179          42.000    21942734.054    89851809.880       -2807.500          41.000  
G23  18644073.576    97975268.676        -693.049          48.000    18644060.733    76344305.020        -540.139          49.000  
G24  19587763.673   102934389.732       -2652.963          41.000    19587753.082    80208563.176       -2067.763          38.000  
G32  21613130.585   113577775.580        1709.412          45.000    21613121.293    88502122.236        1331.848          43.000  
C08  34635873.657   180358079.596         -19.129          46.000    34635856.043   139464238.527         -14.674          50.000  
C13  34756327.617   180985318.868         217.189          46.000    34756318.194   139949290.045         167.983          46.000  
C16  35733475.279   186073582.444         276.710          47.000    35733464.320   143883853.676         213.937          47.000  
C25  21330009.986   111070953.619       -1555.720          45.000                                                                  
C32  21553052.736   112232398.875        1326.028          46.000                                                                  
C06  35506985.633   184894189.215         455.132          44.000    35506969.122   142971853.396         352.115          45.000  
G25  21791213.904   114513616.439        3185.591          42.000    21791207.437    89231365.176        2482.278          39.000  
G10  20224144.841   106278597.756        2079.594          46.000    20224134.033    82814456.178        1620.188          42.000  
G12  21430165.036   112616287.804        2095.956          43.000    21430154.222    87752920.225        1633.192          40.000  
G28  23309632.805   122492958.728        3125.697          37.000    23309625.749    95449000.460        2436.110          40.000  
C23  21117179.491   109962696.079        1451.298          50.000                                                                  
C09  37015795.211   192750961.636         533.750          41.000    37015783.339   149047215.970         412.989          46.000  
C33  24874220.163   129526572.613       -2621.596          36.000                                                                  
C30  24561367.433   127897478.238       -2027.455          35.000                                                                  
C27  24991451.143   130137025.434       -2797.687          37.000                                                                  
C37  24175515.715   125888249.238        3092.238          41.000                                                                  
> 2025 10 27 02 11 48.4350000  0 21                     
G15  21862498.972   114888196.674       -2999.550          41.000    21862489.240    89523245.589       -2337.587          39.000  
G18  21942770.789   115310031.198       -3603.155          42.000    21942761.468    89851922.199       -2807.815          41.000  
G23  18644078.876    97975296.406        -693.224          48.000    18644066.016    76344326.623        -540.094          49.000  
G24  19587783.869   102934495.887       -2653.501          41.000    19587773.277    80208645.872       -2067.504          38.000  
G32  21613117.599   113577707.215        1709.278          45.000    21613108.257    88502068.964        1331.792          43.000  
C08  34635873.804   180358080.363         -19.132          46.000    34635856.149   139464239.124         -14.820          50.000  
C13  34756325.939   180985310.184         217.146          46.000    34756316.498   139949283.330         167.908          46.000  
C16  35733473.128   186073571.378         276.671          47.000    35733462.222   143883845.122         213.866          47.000  
C25  21330021.937   111071015.857       -1555.823          45.000                                                                  
C32  21553042.538   112232345.840        1325.919          46.000                                                                  
C06  35506982.157   184894171.011         455.047          44.000    35506965.628   142971839.318         352.001          45.000  
G25  21791189.647   114513489.011        3185.671          42.000    21791183.179    89231265.891        2482.164          39.000  
G10  20224129.025   106278514.576        2079.534          46.000    20224118.202    82814391.361        1620.316          42.000  
G12  21430149.103   112616203.974        2095.822          43.000    21430138.280    87752854.897        1633.203          40.000  
G28  23309609.020   122492833.677        3126.113          37.000    23309601.961    95448903.035        2435.827          40.000  
C23  21117168.335   109962638.040        1451.073          50.000                                                                  
C09  37015791.125   192750940.283         533.770          41.000    37015779.261   149047199.457         412.853          46.000  
C33  24874240.306   129526677.481       -2621.610          36.000                                                                  
C30  24561383.006   127897559.318       -2027.226          35.000                                                                  
C27  24991472.624   130137137.340       -2797.681          37.000                                                                  
C37  24175491.994   125888125.534        3092.535          41.000                                                                  
> 2025 10 27 02 11 48.4750000  0 21                     
G15  21862521.804   114888316.659       -2999.637          41.000    21862512.095    89523339.069       -2337.176          39.000  
G18  21942798.207   115310175.315       -3602.989          42.000    21942788.884    89852034.505       -2807.752          41.000  
G23  18644084.127    97975324.128        -693.160          48.000    18644071.269    76344348.222        -540.001          49.000  
G24  19587804.080   102934602.019       -2653.449          41.000    19587793.451    80208728.580       -2067.628          38.000  
G32  21613104.603   113577638.858        1708.997          45.000    21613095.250    88502015.697        1331.674          43.000  
C08  34635873.986   180358081.125         -19.062          46.000    34635856.284   139464239.720         -14.890          50.000  
C13  34756324.261   180985301.497         217.177          46.000    34756314.843   139949276.615         167.879          46.000  
C16  35733471.008   186073560.310         276.682          47.000    35733460.107   143883836.569         213.785          47.000  
C25  21330033.849   111071078.093       -1555.899          45.000                                                                  
C32  21553032.380   112232292.803        1325.927          46.000                                                                  
C06  35506978.687   184894152.790         455.342          44.000    35506962.163   142971825.241         351.906          45.000  
G25  21791165.377   114513361.583        3185.757          42.000    21791158.933    89231166.579        2482.650          39.000  
G10  20224113.206   106278431.388        2079.626          46.000    20224102.373    82814326.529        1620.642          42.000  
G12  21430133.149   112616120.147        2095.717          43.000    21430122.331    87752789.577        1633.072          40.000  
G28  23309585.241   122492708.634        3126.141          37.000    23309578.174    95448805.604        2435.735          40.000  
C23  21117157.227   109962579.988        1451.196          50.000                                                                  
C09  37015786.999   192750918.914         534.096          41.000    37015775.161   149047182.950         412.692          46.000  
C33  24874260.467   129526782.353       -2621.686          36.000                                                                  
C30  24561398.551   127897640.413       -2027.421          35.000                                                                  
C27  24991494.119   130137249.257       -2797.804          37.000                                                                  
C37  24175468.241   125888001.840        3092.493          41.000                                                                  
> 2025 10 27 02 11 48.5150000  0 21                     
G15  21862544.634   114888436.641       -2999.662          41.000    21862534.904    89523432.540       -2336.768          39.000  
G18  21942825.639   115310319.444       -3603.157          42.000    21942816.308    89852146.803       -2807.580          41.000  
G23  18644089.393    97975351.852        -693.141          48.000    18644076.555    76344369.820        -539.946          49.000  
G24  19587824.290   102934708.167       -2653.622          41.000    19587813.655    80208811.289       -2067.734          38.000  
G32  21613091.609   113577570.489        1709.105          45.000    21613082.230    88501962.417        1331.848          43.000  
C08  34635874.139   180358081.896         -19.219          46.000    34635856.426   139464240.316         -14.927          50.000  
C13  34756322.591   180985292.812         217.154          46.000    34756313.156   139949269.907         167.718          46.000  
C16  35733468.846   186073549.242         276.662          47.000    35733457.964   143883828.012         213.872          47.000  
C25  21330045.800   111071140.332       -1556.000          45.000                                                                  
C32  21553022.204   112232239.767        1325.908          46.000                                                                  
C06  35506975.200   184894134.580         455.292          44.000    35506958.678   142971811.157         351.998          45.000  
G25  21791141.132   114513234.164        3185.587          42.000    21791134.705    89231067.307        2482.092          39.000  
G10  20224097.382   106278348.209        2079.521          46.000    20224086.547    82814261.714        1620.516          42.000  
G12  21430117.213   112616036.313        2095.774          43.000    21430106.373    87752724.243        1633.268          40.000  
G28  23309561.471   122492583.586        3126.212          37.000    23309554.398    95448708.179        2435.572          40.000  
C23  21117146.108   109962521.939        1451.214          50.000                                                                  
C09  37015782.890   192750897.553         534.133          41.000    37015771.068   149047166.431         412.804          46.000  
C33  24874280.591   129526887.202       -2621.389          36.000                                                                  
C30  24561414.130   127897721.497       -2027.267          35.000                                                                  
C27  24991515.607   130137361.163       -2797.655          37.000                                                                  
C37  24175444.481   125887878.152        3092.293          41.000                                                                  
> 2025 10 27 02 11 48.5550000  0 21                     
G15  21862567.475   114888556.617       -2999.525          41.000    21862557.721    89523526.039       -2337.146          39.000  
G18  21942853.051   115310463.569       -3603.156          42.000    21942843.743    89852259.109       -2807.605          41.000  
G23  18644094.664    97975379.572        -693.035          48.000    18644081.842    76344391.420        -539.966          49.000  
G24  19587844.481   102934814.310       -2653.633          41.000    19587833.847    80208893.991       -2067.643          38.000  
G32  21613078.585   113577502.107        1709.409          45.000    21613069.231    88501909.142        1331.898          43.000  
C08  34635874.280   180358082.663         -19.201          46.000    34635856.560   139464240.908         -14.851          49.000  
C13  34756320.928   180985284.127         217.130          46.000    34756311.501   139949263.196         167.682          46.000  
C16  35733466.725   186073538.169         276.739          47.000    35733455.840   143883819.452         213.968          47.000  
C25  21330057.779   111071202.568       -1555.998          45.000                                                                  
C32  21553012.007   112232186.728        1325.933          46.000                                                                  
C06  35506971.669   184894116.362         455.386          44.000    35506955.163   142971797.071         352.090          45.000  
G25  21791116.874   114513106.733        3185.719          42.000    21791110.452    89230967.991        2482.636          39.000  
G10  20224081.560   106278265.027        2079.510          46.000    20224070.714    82814196.882        1620.715          42.000  
G12  21430101.269   112615952.479        2095.838          43.000    21430090.426    87752658.932        1632.946          40.000  
G28  23309537.701   122492458.555        3125.921          37.000    23309530.600    95448610.743        2435.752          40.000  
C23  21117134.968   109962463.890        1451.187          50.000                                                                  
C09  37015778.776   192750876.196         534.002          41.000    37015766.964   149047149.914         412.866          46.000  
C33  24874300.730   129526992.064       -2621.478          36.000                                                                  
C30  24561429.718   127897802.574       -2027.067          35.000                                                                  
C27  24991537.109   130137473.057       -2797.335          37.000                                                                  
C37  24175420.718   125887754.460        3092.215          41.000                                                                  
> 2025 10 27 02 11 48.5950000  0 21                     
G15  21862590.292   114888676.591       -2999.426          41.000    21862580.532    89523619.514       -2336.941          39.000  
G18  21942880.485   115310607.694       -3603.181          42.000    21942871.183    89852371.410       -2807.537          41.000  
G23  18644099.924    97975407.288        -692.930          48.000    18644087.116    76344413.022        -540.010          49.000  
G24  19587864.658   102934920.424       -2653.134          41.000    19587854.043    80208976.682       -2067.376          38.000  
G32  21613065.576   113577433.738        1709.333          45.000    21613056.234    88501855.870        1331.841          43.000  
C08  34635874.440   180358083.431         -19.207          46.000    34635856.705   139464241.491         -14.658          50.000  
C13  34756319.281   180985275.430         217.342          46.000    34756309.819   139949256.461         168.126          46.000  
C16  35733464.609   186073527.098         276.742          47.000    35733453.701   143883810.882         214.183          47.000  
C25  21330069.726   111071264.802       -1555.915          45.000                                                                  
C32  21553001.837   112232133.685        1326.040          46.000                                                                  
C06  35506968.163   184894098.141         455.488          44.000    35506951.646   142971782.986         352.125          45.000  
G25  21791092.624   114512979.319        3185.457          42.000    21791086.199    89230868.711        2482.272          39.000  
G10  20224065.732   106278181.841        2079.603          46.000    20224054.909    82814132.070        1620.490          42.000  
G12  21430085.325   112615868.638        2095.949          43.000    21430074.474    87752593.607        1633.056          40.000  
G28  23309513.910   122492333.503        3126.110          37.000    23309506.797    95448513.307        2435.835          40.000  
C23  21117123.838   109962405.838        1451.257          50.000                                                                  
C09  37015774.672   192750854.823         534.242          41.000    37015762.870   149047133.395         412.933          46.000  
C33  24874320.849   129527096.942       -2621.859          36.000                                                                  
C30  24561445.317   127897883.644       -2026.901          35.000                                                                  
C27  24991558.587   130137584.976       -2797.818          37.000                                                                  
C37  24175396.987   125887630.760        3092.363          41.000                                                                  
> 2025 10 27 02 11 48.6350000  0 21                     
G15  21862613.104   114888796.553       -2999.153          41.000    21862603.377    89523713.001       -2337.118          39.000  
G18  21942907.929   115310751.818       -3603.131          42.000    21942898.599    89852483.722       -2807.717          41.000  
G23  18644105.192    97975435.012        -693.031          48.000    18644092.407    76344434.626        -540.078          49.000  
G24  19587884.848   102935026.562       -2653.272          41.000    19587874.240    80209059.376       -2067.322          38.000  
G32  21613052.555   113577365.376        1709.095          45.000    21613043.215    88501802.583        1332.084          43.000  
C08  34635874.601   180358084.185         -18.962          46.000    34635856.814   139464242.081         -14.680          49.000  
C13  34756317.611   180985266.737         217.369          46.000    34756308.141   139949249.736         168.189          46.000  
C16  35733462.461   186073516.027         276.723          47.000    35733451.563   143883802.320         214.113          47.000  
C25  21330081.682   111071327.037       -1555.897          45.000                                                                  
C32  21552991.617   112232080.641        1326.121          46.000                                                                  
C06  35506964.655   184894079.925         455.465          44.000    35506948.149   142971768.895         352.234          45.000  
G25  21791068.370   114512851.885        3185.719          42.000    21791061.937    89230769.414        2482.354          39.000  
G10  20224049.906   106278098.660        2079.543          46.000    20224039.082    82814067.266        1620.164          42.000  
G12  21430069.392   112615784.807        2095.835          43.000    21430058.528    87752528.277        1633.214          40.000  
G28  23309490.111   122492208.469        3125.915          37.000    23309482.990    95448415.869        2435.905          40.000  
C23  21117112.650   109962347.790        1451.199          50.000                                                                  
C09  37015770.569   192750833.461         534.136          41.000    37015758.765   149047116.867         413.143          46.000  
C33  24874340.988   129527201.805       -2621.744          36.000                                                                  
C30  24561460.892   127897964.732       -2027.052          35.000                                                                  
C27  24991580.094   130137696.887       -2797.811          37.000                                                                  
C37  24175373.256   125887507.065        3092.363          41.000                                                                  
> 2025 10 27 02 11 48.6750000  0 21                     
G15  21862635.942   114888916.546       -2999.565          41.000    21862626.211    89523806.491       -2337.242          39.000  
G18  21942935.361   115310895.941       -3603.057          42.000    21942926.008    89852596.018       -2807.544          41.000  
G23  18644110.482    97975462.738        -693.149          48.000    18644097.705    76344456.231        -540.159          49.000  
G24  19587905.053   102935132.698       -2653.356          41.000    19587894.441    80209142.090       -2067.695          38.000  
G32  21613039.544   113577297.003        1709.145          45.000    21613030.227    88501749.305        1332.020          43.000  
C08  34635874.775   180358084.945         -18.978          46.000    34635856.979   139464242.674         -14.755          49.000  
C13  34756315.944   180985258.052         217.232          46.000    34756306.471   139949243.015         168.098          46.000  
C16  35733460.348   186073504.958         276.724          47.000    35733449.446   143883793.763         213.977          47.000  
C25  21330093.623   111071389.267       -1555.803          45.000                                                                  
C32  21552981.414   112232027.597        1326.131          46.000                                                                  
C06  35506961.171   184894061.716         455.288          44.000    35506944.666   142971754.814         352.093          45.000  
G25  21791044.110   114512724.465        3185.550          42.000    21791037.691    89230670.130        2482.123          39.000  
G10  20224034.082   106278015.474        2079.582          46.000    20224023.243    82814002.433        1620.524          42.000  
G12  21430053.421   112615700.969        2095.892          43.000    21430042.555    87752462.936        1633.456          40.000  
G28  23309466.327   122492083.442        3125.662          37.000    23309459.202    95448318.424        2436.077          40.000  
C23  21117101.504   109962289.745        1451.130          50.000                                                                  
C09  37015766.470   192750812.108         533.859          41.000    37015754.657   149047100.350         413.043          46.000  
C33  24874361.110   129527306.680       -2621.899          36.000                                                                  
C30  24561476.467   127898045.809       -2026.938          35.000                                                                  
C27  24991601.569   130137808.777       -2797.465          37.000                                                                  
C37  24175349.487   125887383.371        3092.370          41.000                                                                  
> 2025 10 27 02 11 48.7150000  0 21                     
G15  21862658.770   114889036.517       -2999.395          41.000    21862649.049    89523899.992       -2337.546          39.000  
G18  21942962.782   115311040.066       -3603.076          42.000    21942953.421    89852708.318       -2807.520          41.000  
G23  18644115.745    97975490.463        -693.179          48.000    18644102.977    76344477.829        -540.046          49.000  
G24  19587925.248   102935238.840       -2653.521          41.000    19587914.646    80209224.808       -2067.975          38.000  
G32  21613026.515   113577228.636        1709.153          45.000    21613017.201    88501696.037        1331.814          43.000  
C08  34635874.897   180358085.711         -19.110          46.000    34635857.134   139464243.263         -14.735          49.000  
C13  34756314.293   180985249.363         217.219          46.000    34756304.795   139949236.300         167.941          46.000  
C16  35733458.213   186073493.887         276.744          47.000    35733447.322   143883785.201         213.991          47.000  
C25  21330105.610   111071451.501       -1555.829          45.000                                                                  
C32  21552971.202   112231974.564        1325.929          46.000                                                                  
C06  35506957.679   184894043.504         455.265          44.000    35506941.172   142971740.727         352.126          45.000  
G25  21791019.853   114512597.031        3185.712          42.000    21791013.459    89230570.841        2482.074          39.000  
G10  20224018.253   106277932.289        2079.620          46.000    20224007.399    82813937.612        1620.533          42.000  
G12  21430037.474   112615617.147        2095.595          43.000    21430026.619    87752397.616        1633.182          40.000  
G28  23309442.540   122491958.396        3125.885          37.000    23309435.407    95448220.986        2436.040          40.000  
C23  21117090.388   109962231.696        1451.169          50.000                                                                  
C09  37015762.400   192750790.750         533.841          41.000    37015750.551   149047083.837         412.902          46.000  
C33  24874381.216   129527411.546       -2621.830          36.000                                                                  
C30  24561492.059   127898126.891       -2027.023          35.000                                                                  
C27  24991623.055   130137920.669       -2797.294          37.000                                                                  
C37  24175325.722   125887259.668        3092.489          41.000                                                                  
> 2025 10 27 02 11 48.7550000  0 21                     
G15  21862681.602   114889156.497       -2999.458          41.000    21862671.904    89523993.480       -2337.374          39.000  
G18  21942990.198   115311184.188       -3603.045          42.000    21942980.864    89852820.636       -2807.841          41.000  
G23  18644121.010    97975518.185        -693.110          48.000    18644108.267    76344499.436        -540.126          49.000  
G24  19587945.450   102935344.979       -2653.513          41.000    19587934.833    80209307.503       -2067.668          38.000  
G32  21613013.496   113577160.251        1709.496          45.000    21613004.193    88501642.763        1331.822          43.000  
C08  34635875.059   180358086.475         -19.147          46.000    34635857.311   139464243.847         -14.642          49.000  
C13  34756312.653   180985240.662         217.418          46.000    34756303.107   139949229.581         167.962          46.000  
C16  35733456.072   186073482.815         276.783          47.000    35733445.239   143883776.636         214.075          47.000  
C25  21330117.561   111071513.736       -1555.861          45.000                                                                  
C32  21552961.013   112231921.518        1326.030          46.000                                                                  
C06  35506954.166   184894025.282         455.429          44.000    35506937.653   142971726.645         352.035          45.000  
G25  21790995.613   114512469.597        3185.798          42.000    21790989.213    89230471.547        2482.194          39.000  
G10  20224002.424   106277849.105        2079.605          46.000    20223991.570    82813872.791        1620.532          42.000  
G12  21430021.522   112615533.309        2095.781          43.000    21430010.671    87752332.298        1633.027          40.000  
G28  23309418.743   122491833.347        3126.087          37.000    23309411.627    95448123.560        2435.748          40.000  
C23  21117079.227   109962173.647        1451.162          50.000                                                                  
C09  37015758.303   192750769.399         533.756          41.000    37015746.452   149047067.321         412.884          46.000  
C33  24874401.332   129527516.394       -2621.393          36.000                                                                  
C30  24561507.637   127898207.975       -2027.091          35.000                                                                  
C27  24991644.557   130138032.561       -2797.227          37.000                                                                  
C37  24175301.959   125887135.977        3092.328          41.000                                                                  
> 2025 10 27 02 11 48.7950000  0 21                     
G15  21862704.442   114889276.466       -2999.334          41.000    21862694.735    89524086.969       -2337.312          39.000  
G18  21943017.605   115311328.304       -3602.929          42.000    21943008.272    89852932.942       -2807.784          41.000  
G23  18644126.274    97975545.908        -693.091          48.000    18644113.542    76344521.038        -540.089          49.000  
G24  19587965.632   102935451.104       -2653.252          41.000    19587955.021    80209390.222       -2067.967          38.000  
G32  21613000.488   113577091.872        1709.550          45.000    21612991.170    88501589.489        1331.835          43.000  
C08  34635875.227   180358087.235         -19.084          46.000    34635857.477   139464244.435         -14.659          49.000  
C13  34756310.978   180985231.974         217.299          46.000    34756301.426   139949222.854         168.083          46.000  
C16  35733453.938   186073471.736         276.922          47.000    35733443.119   143883768.073         214.074          47.000  
C25  21330129.530   111071575.973       -1555.911          45.000                                                                  
C32  21552950.804   112231868.470        1326.150          46.000                                                                  
C06  35506950.664   184894007.059         455.570          44.000    35506934.144   142971712.557         352.095          45.000  
G25  21790971.363   114512342.165        3185.785          42.000    21790964.959    89230372.250        2482.356          39.000  
G10  20223986.583   106277765.919        2079.637          46.000    20223975.716    82813807.974        1620.472          42.000  
G12  21430005.600   112615449.466        2095.988          43.000    21429994.721    87752266.968        1633.167          40.000  
G28  23309394.937   122491708.286        3126.456          37.000    23309387.830    95448026.117        2435.924          40.000  
C23  21117068.075   109962115.596        1451.219          50.000                                                                  
C09  37015754.197   192750748.028         534.077          41.000    37015742.351   149047050.801         412.939          46.000  
C33  24874421.475   129527621.262       -2621.571          36.000                                                                  
C30  24561523.222   127898289.017       -2026.304          35.000                                                                  
C27  24991666.051   130138144.484       -2797.813          37.000                                                                  
C37  24175278.222   125887012.266        3092.574          41.000                                                                  
> 2025 10 27 02 11 48.8350000  0 21                     
G15  21862727.286   114889396.438       -2999.266          41.000    21862717.559    89524180.453       -2337.169          39.000  
G18  21943045.023   115311472.437       -3603.176          42.000    21943035.694    89853045.237       -2807.494          41.000  
G23  18644131.537    97975573.631        -693.060          48.000    18644118.814    76344542.642        -540.120          49.000  
G24  19587985.825   102935557.236       -2653.230          41.000    19587975.205    80209472.902       -2067.397          38.000  
G32  21612987.506   113577023.501        1709.392          45.000    21612978.150    88501536.210        1331.909          43.000  
C08  34635875.373   180358087.999         -19.104          46.000    34635857.633   139464245.028         -14.775          50.000  
C13  34756309.322   180985223.279         217.325          46.000    34756299.729   139949216.135         168.034          46.000  
C16  35733451.794   186073460.657         276.963          47.000    35733440.973   143883759.510         214.066          47.000  
C25  21330141.473   111071638.206       -1555.866          45.000                                                                  
C32  21552940.590   112231815.429        1326.079          46.000                                                                  
C06  35506947.166   184893988.845         455.455          44.000    35506930.626   142971698.470         352.140          45.000  
G25  21790947.109   114512214.736        3185.747          42.000    21790940.701    89230272.947        2482.510          39.000  
G10  20223970.743   106277682.734        2079.624          46.000    20223959.883    82813743.152        1620.506          42.000  
G12  21429989.664   112615365.620        2096.116          43.000    21429978.751    87752201.643        1633.102          40.000  
G28  23309371.131   122491583.244        3126.282          37.000    23309364.055    95447928.677        2435.948          40.000  
C23  21117056.916   109962057.548        1451.200          50.000                                                                  
C09  37015750.126   192750726.657         534.255          41.000    37015738.225   149047034.276         413.037          46.000  
C33  24874441.626   129527726.107       -2621.311          36.000                                                                  
C30  24561538.789   127898370.115       -2026.958          35.000                                                                  
C27  24991687.565   130138256.401       -2797.953          37.000                                                                  
C37  24175254.464   125886888.571        3092.473          41.000                                                                  
> 2025 10 27 02 11 48.8750000  0 21                     
G15  21862750.113   114889516.402       -2999.111          41.000    21862740.370    89524273.916       -2336.665          39.000  
G18  21943072.465   115311616.558       -3603.051          41.000    21943063.116    89853157.531       -2807.347          41.000  
G23  18644136.799    97975601.351        -693.036          48.000    18644124.108    76344564.245        -540.114          49.000  
G24  19588006.024   102935663.361       -2653.172          41.000    19587995.388    80209555.602       -2067.401          38.000  
G32  21612974.505   113576955.139        1709.118          45.000    21612965.130    88501482.921        1332.126          43.000  
C08  34635875.534   180358088.754         -18.951          46.000    34635857.777   139464245.613         -14.701          50.000  
C13  34756307.668   180985214.577         217.499          46.000    34756298.061   139949209.412         168.069          46.000  
C16  35733449.683   186073449.576         277.023          47.000    35733438.835   143883750.943         214.123          47.000  
C25  21330153.453   111071700.440       -1555.873          45.000                                                                  
C32  21552930.379   112231762.385        1326.079          46.000                                                                  
C06  35506943.674   184893970.620         455.565          44.000    35506927.145   142971684.377         352.255          45.000  
G25  21790922.863   114512087.307        3185.710          42.000    21790916.452    89230173.643        2482.621          39.000  
G10  20223954.903   106277599.544        2079.701          46.000    20223944.048    82813678.332        1620.485          42.000  
G12  21429973.709   112615281.791        2095.869          43.000    21429962.786    87752136.305        1633.329          40.000  
G28  23309347.317   122491458.194        3126.300          37.000    23309340.263    95447831.251        2435.677          40.000  
C23  21117045.752   109961999.496        1451.250          50.000                                                                  
C09  37015746.011   192750705.293         534.192          41.000    37015734.128   149047017.754         413.062          46.000  
C33  24874461.765   129527830.968       -2621.424          36.000                                                                  
C30  24561554.382   127898451.215       -2027.474          35.000                                                                  
C27  24991709.050   130138368.300       -2797.643          37.000                                                                  
C37  24175230.675   125886764.870        3092.479          41.000                                                                  
> 2025 10 27 02 11 48.9150000  0 21                     
G15  21862772.955   114889636.373       -2999.219          41.000    21862763.202    89524367.400       -2336.863          39.000  
G18  21943099.898   115311760.678       -3603.009          41.000    21943090.535    89853269.826       -2807.348          41.000  
G23  18644142.065    97975629.074        -693.067          48.000    18644129.381    76344585.847        -540.101          49.000  
G24  19588026.226   102935769.512       -2653.584          41.000    19588015.576    80209638.311       -2067.593          39.000  
G32  21612961.483   113576886.766        1709.157          45.000    21612952.100    88501429.635        1332.123          43.000  
C08  34635875.701   180358089.507         -18.865          46.000    34635857.936   139464246.198         -14.670          50.000  
C13  34756305.982   180985205.884         217.421          46.000    34756296.415   139949202.693         168.013          46.000  
C16  35733447.546   186073438.508         276.824          47.000    35733436.674   143883742.385         213.968          47.000  
C25  21330165.398   111071762.677       -1555.923          45.000                                                                  
C32  21552920.161   112231709.337        1326.134          46.000                                                                  
C06  35506940.200   184893952.404         455.458          44.000    35506923.630   142971670.294         352.150          45.000  
G25  21790898.618   114511959.880        3185.660          42.000    21790892.203    89230074.365        2482.159          39.000  
G10  20223939.068   106277516.356        2079.698          46.000    20223928.219    82813613.504        1620.652          42.000  
G12  21429957.780   112615197.963        2095.714          43.000    21429946.828    87752070.989        1633.070          40.000  
G28  23309323.546   122491333.173        3125.755          37.000    23309316.445    95447733.809        2435.860          40.000  
C23  21117034.598   109961941.446        1451.218          50.000                                                                  
C09  37015741.884   192750683.928         534.124          41.000    37015730.053   149047001.235         412.987          46.000  
C33  24874481.917   129527935.833       -2621.599          36.000                                                                  
C30  24561569.956   127898532.286       -2027.116          35.000                                                                  
C27  24991730.515   130138480.161       -2796.719          37.000                                                                  
C37  24175206.925   125886641.159        3092.675          41.000                                                                  
> 2025 10 27 02 11 48.9550000  0 21                     
G15  21862795.777   114889756.342       -2999.194          41.000    21862786.032    89524460.894       -2337.187          39.000  
G18  21943127.322   115311904.790       -3602.874          41.000    21943117.975    89853382.129       -2807.534          41.000  
G23  18644147.357    97975656.805        -693.242          48.000    18644134.644    76344607.454        -540.157          49.000  
G24  19588046.428   102935875.660       -2653.796          41.000    19588035.784    80209721.019       -2067.667          38.000  
G32  21612948.477   113576818.380        1709.507          45.000    21612939.081    88501376.356        1332.042          43.000  
C08  34635875.852   180358090.275         -19.110          46.000    34635858.094   139464246.786         -14.697          50.000  
C13  34756304.289   180985197.187         217.418          46.000    34756294.764   139949195.962         168.187          46.000  
C16  35733445.425   186073427.437         276.769          47.000    35733434.529   143883733.821         214.029          47.000  
C25  21330177.360   111071824.919       -1556.017          45.000                                                                  
C32  21552909.970   112231656.294        1326.104          46.000                                                                  
C06  35506936.709   184893934.186         455.433          44.000    35506920.098   142971656.206         352.150          45.000  
G25  21790874.364   114511832.455        3185.592          42.000    21790867.943    89229975.060        2482.403          39.000  
G10  20223923.214   106277433.171        2079.639          46.000    20223912.390    82813548.697        1620.382          42.000  
G12  21429941.829   112615114.127        2095.772          43.000    21429930.861    87752005.658        1633.191          40.000  
G28  23309299.766   122491208.114        3126.166          37.000    23309292.650    95447636.371        2435.919          40.000  
C23  21117023.445   109961883.396        1451.211          50.000                                                                  
C09  37015737.786   192750662.563         534.081          41.000    37015725.942   149046984.707         413.117          46.000  
C33  24874502.069   129528040.707       -2621.840          36.000                                                                  
C30  24561585.532   127898613.378       -2027.258          35.000                                                                  
C27  24991751.983   130138592.060       -2797.074          37.000                                                                  
C37  24175183.166   125886517.468        3092.399          41.000                                                                  
> 2025 10 27 02 11 48.9950000  0 21                     
G15  21862818.624   114889876.328       -2999.556          41.000    21862808.861    89524554.379       -2337.167          39.000  
G18  21943154.746   115312048.907       -3602.918          41.000    21943145.417    89853494.429       -2807.577          41.000  
G23  18644152.613    97975684.530        -693.209          48.000    18644139.904    76344629.052        -540.045          49.000  
G24  19588066.615   102935981.795       -2653.607          41.000    19588055.972    80209803.721       -2067.655          38.000  
G32  21612935.474   113576750.011        1709.312          45.000    21612926.072    88501323.093        1331.675          43.000  
C08  34635876.005   180358091.033         -19.045          46.000    34635858.236   139464247.373         -14.688          50.000  
C13  34756302.613   180985188.495         217.318          46.000    34756293.113   139949189.239         168.127          46.000  
C16  35733443.278   186073416.366         276.732          47.000    35733432.404   143883725.253         214.132          47.000  
C25  21330189.308   111071887.154       -1555.939          45.000                                                                  
C32  21552899.785   112231603.248        1326.148          46.000                                                                  
C06  35506933.183   184893915.973         455.323          44.000    35506916.582   142971642.112         352.274          45.000  
G25  21790850.132   114511705.021        3185.717          42.000    21790843.679    89229875.743        2482.751          39.000  
G10  20223907.403   106277349.984        2079.640          46.000    20223896.556    82813483.883        1620.313          42.000  
G12  21429925.852   112615030.292        2095.830          43.000    21429914.917    87751940.329        1633.209          40.000  
G28  23309275.983   122491083.067        3126.258          37.000    23309268.865    95447538.940        2435.772          40.000  
C23  21117012.309   109961825.347        1451.180          50.000                                                                  
C09  37015733.678   192750641.193         534.180          41.000    37015721.856   149046968.192         412.944          46.000  
C33  24874522.212   129528145.558       -2621.489          36.000                                                                  
C30  24561601.112   127898694.442       -2026.823          35.000                                                                  
C27  24991773.468   130138703.942       -2797.014          37.000                                                                  
C37  24175159.436   125886393.770        3092.382          41.000                                                                  
> 2025 10 27 02 11 49.0350000  0 21                     
G15  21862841.460   114889996.308       -2999.603          41.000    21862831.685    89524647.876       -2337.466          39.000  
G18  21943182.186   115312193.037       -3603.164          41.000    21943172.848    89853606.748       -2807.871          41.000  
G23  18644157.898    97975712.263        -693.308          48.000    18644145.194    76344650.663        -540.220          49.000  
G24  19588086.788   102936087.932       -2653.497          41.000    19588076.171    80209886.430       -2067.710          39.000  
G32  21612922.472   113576681.644        1709.188          45.000    21612913.047    88501269.818        1331.677          43.000  
C08  34635876.163   180358091.798         -19.108          46.000    34635858.423   139464247.960         -14.689          50.000  
C13  34756300.952   180985179.801         217.306          46.000    34756291.449   139949182.517         168.079          46.000  
C16  35733441.151   186073405.291         276.804          47.000    35733430.290   143883716.694         214.020          47.000  
C25  21330201.267   111071949.401       -1556.128          45.000                                                                  
C32  21552889.612   112231550.207        1326.078          46.000                                                                  
C06  35506929.646   184893897.756         455.332          44.000    35506913.076   142971628.028         352.148          45.000  
G25  21790825.877   114511577.601        3185.587          42.000    21790819.442    89229776.467        2482.176          39.000  
G10  20223891.586   106277266.808        2079.452          46.000    20223880.723    82813419.056        1620.553          42.000  
G12  21429909.892   112614946.466        2095.692          43.000    21429898.972    87751875.019        1632.811          40.000  
G28  23309252.161   122490958.024        3126.174          37.000    23309245.081    95447441.507        2435.740          40.000  
C23  21117001.129   109961767.310        1450.972          50.000                                                                  
C09  37015729.588   192750619.833         534.094          41.000    37015717.763   149046951.676         412.864          46.000  
C33  24874542.356   129528250.432       -2621.777          36.000                                                                  
C30  24561616.697   127898775.519       -2026.911          35.000                                                                  
C27  24991794.941   130138815.863       -2797.792          37.000                                                                  
C37  24175135.691   125886270.075        3092.287          41.000                                                                  
> 2025 10 27 02 11 49.0750000  0 21                     
G15  21862864.297   114890116.278       -2999.447          41.000    21862854.519    89524741.340       -2336.921          39.000  
G18  21943209.606   115312337.166       -3603.262          41.000    21943200.266    89853719.057       -2807.839          41.000  
G23  18644163.164    97975739.992        -693.288          48.000    18644150.464    76344672.268        -540.175          49.000  
G24  19588106.987   102936194.067       -2653.420          41.000    19588096.384    80209969.150       -2067.896          39.000  
G32  21612909.435   113576613.264        1709.344          45.000    21612900.035    88501216.542        1331.785          43.000  
C08  34635876.334   180358092.553         -19.002          46.000    34635858.595   139464248.547         -14.689          50.000  
C13  34756299.267   180985171.120         217.068          46.000    34756289.749   139949175.799         167.987          46.000  
C16  35733439.016   186073394.218         276.804          47.000    35733428.191   143883708.138         213.872          47.000  
C25  21330213.233   111072011.644       -1556.158          45.000                                                                  
C32  21552879.408   112231497.162        1326.098          46.000                                                                  
C06  35506926.167   184893879.539         455.360          44.000    35506909.580   142971613.945         352.080          45.000  
G25  21790801.638   114511450.172        3185.644          42.000    21790795.201    89229677.176        2482.141          39.000  
G10  20223875.761   106277183.619        2079.601          46.000    20223864.893    82813354.229        1620.686          42.000  
G12  21429893.914   112614862.625        2095.926          43.000    21429883.038    87751809.680        1633.167          40.000  
G28  23309228.375   122490832.980        3126.160          37.000    23309221.296    95447344.067        2435.890          40.000  
C23  21116990.021   109961709.267        1451.001          50.000                                                                  
C09  37015725.482   192750598.460         534.279          41.000    37015713.661   149046935.154         412.951          46.000  
C33  24874562.477   129528355.293       -2621.695          36.000                                                                  
C30  24561632.275   127898856.617       -2027.229          35.000                                                                  
C27  24991816.437   130138927.753       -2797.555          37.000                                                                  
C37  24175111.925   125886146.370        3092.514          41.000                                                                  
> 2025 10 27 02 11 49.1150000  0 21                     
G15  21862887.119   114890236.238       -2999.129          41.000    21862877.330    89524834.817       -2336.811          39.000  
G18  21943237.015   115312481.284       -3603.138          41.000    21943227.686    89853831.359       -2807.684          41.000  
G23  18644168.444    97975767.710        -693.026          48.000    18644155.718    76344693.872        -540.156          49.000  
G24  19588127.174   102936300.185       -2653.085          41.000    19588116.575    80210051.828       -2067.259          39.000  
G32  21612896.432   113576544.884        1709.494          45.000    21612887.026    88501163.245        1332.239          43.000  
C08  34635876.479   180358093.306         -18.848          46.000    34635858.758   139464249.134         -14.703          50.000  
C13  34756297.600   180985162.420         217.251          46.000    34756288.028   139949169.072         168.055          46.000  
C16  35733436.867   186073383.139         276.919          47.000    35733426.091   143883699.567         214.094          47.000  
C25  21330225.210   111072073.871       -1555.862          45.000                                                                  
C32  21552869.248   112231444.105        1326.311          46.000                                                                  
C06  35506922.662   184893861.311         455.581          44.000    35506906.082   142971599.855         352.179          45.000  
G25  21790777.393   114511322.725        3186.055          42.000    21790770.963    89229577.864        2482.534          39.000  
G10  20223859.916   106277100.431        2079.672          46.000    20223849.057    82813289.407        1620.627          42.000  
G12  21429877.948   112614778.784        2095.986          43.000    21429867.101    87751744.361        1633.086          40.000  
G28  23309204.600   122490707.941        3126.035          37.000    23309197.494    95447246.612        2436.260          40.000  
C23  21116978.887   109961651.217        1451.162          50.000                                                                  
C09  37015721.340   192750577.093         534.260          41.000    37015709.546   149046918.623         413.198          46.000  
C33  24874582.624   129528460.137       -2621.258          36.000                                                                  
C30  24561647.849   127898937.692       -2027.006          35.000                                                                  
C27  24991837.935   130139039.653       -2797.554          37.000                                                                  
C37  24175088.153   125886022.659        3092.747          41.000                                                                  
> 2025 10 27 02 11 49.1550000  0 21                     
G15  21862909.952   114890356.208       -2999.200          41.000    21862900.154    89524928.312       -2337.117          39.000  
G18  21943264.459   115312625.400       -3602.984          41.000    21943255.103    89853943.649       -2807.383          41.000  
G23  18644173.740    97975795.432        -693.016          48.000    18644160.973    76344715.472        -540.051          49.000  
G24  19588147.360   102936406.319       -2653.189          41.000    19588136.768    80210134.529       -2067.422          39.000  
G32  21612883.407   113576476.503        1709.561          45.000    21612874.000    88501109.962        1332.199          43.000  
C08  34635876.632   180358094.059         -18.802          46.000    34635858.924   139464249.713         -14.577          50.000  
C13  34756295.932   180985153.712         217.573          46.000    34756286.319   139949162.337         168.247          46.000  
C16  35733434.755   186073372.057         277.032          47.000    35733423.967   143883690.995         214.240          47.000  
C25  21330237.154   111072136.108       -1555.883          45.000                                                                  
C32  21552859.063   112231391.059        1326.245          46.000                                                                  
C06  35506919.163   184893843.093         455.540          44.000    35506902.590   142971585.757         352.385          45.000  
G25  21790753.155   114511195.293        3185.971          42.000    21790746.713    89229478.571        2482.383          39.000  
G10  20223844.101   106277017.250        2079.572          46.000    20223833.223    82813224.593        1620.415          42.000  
G12  21429862.004   112614694.944        2096.035          43.000    21429851.142    87751679.043        1632.947          40.000  
G28  23309180.807   122490582.880        3126.310          37.000    23309173.715    95447149.178        2436.013          40.000  
C23  21116967.765   109961593.161        1451.343          50.000                                                                  
C09  37015717.217   192750555.719         534.377          41.000    37015705.448   149046902.097         413.215          46.000  
C33  24874602.754   129528564.988       -2621.224          36.000                                                                  
C30  24561663.410   127899018.766       -2026.882          35.000                                                                  
C27  24991859.418   130139151.530       -2797.116          37.000                                                                  
C37  24175064.401   125885898.958        3092.634          41.000                                                                  
> 2025 10 27 02 11 49.1950000  0 21                     
G15  21862932.769   114890476.164       -2998.964          41.000    21862922.999    89525021.813       -2337.364          39.000  
G18  21943291.887   115312769.508       -3602.701          41.000    21943282.522    89854055.936       -2807.162          41.000  
G23  18644179.018    97975823.158        -693.079          48.000    18644166.244    76344737.074        -540.020          49.000  
G24  19588167.560   102936512.460       -2653.401          41.000    19588156.950    80210217.210       -2067.170          39.000  
G32  21612870.380   113576408.130        1709.435          45.000    21612860.974    88501056.688        1331.929          43.000  
C08  34635876.780   180358094.808         -18.743          46.000    34635859.092   139464250.298         -14.579          50.000  
C13  34756294.276   180985145.002         217.737          46.000    34756284.657   139949155.609         168.243          46.000  
C16  35733432.611   186073360.974         277.060          47.000    35733421.834   143883682.432         214.166          47.000  
C25  21330249.080   111072198.343       -1555.871          45.000                                                                  
C32  21552848.846   112231338.018        1326.094          46.000                                                                  
C06  35506915.660   184893824.871         455.543          44.000    35506899.085   142971571.668         352.281          45.000  
G25  21790728.913   114511067.854        3186.045          42.000    21790722.469    89229379.270        2482.509          39.000  
G10  20223828.262   106276934.055        2079.782          46.000    20223817.413    82813159.772        1620.418          42.000  
G12  21429846.065   112614611.109        2095.939          43.000    21429835.194    87751613.719        1632.992          40.000  
G28  23309157.027   122490457.848        3125.963          37.000    23309149.912    95447051.737        2436.013          40.000  
C23  21116956.585   109961535.111        1451.301          50.000                                                                  
C09  37015713.106   192750534.364         534.037          41.000    37015701.351   149046885.575         413.135          46.000  
C33  24874622.902   129528669.859       -2621.644          36.000                                                                  
C30  24561678.994   127899099.818       -2026.432          35.000                                                                  
C27  24991880.899   130139263.408       -2796.896          36.000                                                                  
C37  24175040.643   125885775.248        3092.729          41.000                                                                  
> 2025 10 27 02 11 49.2350000  0 21                     
G15  21862955.602   114890596.143       -2999.309          41.000    21862945.823    89525115.281       -2336.979          39.000  
G18  21943319.308   115312913.627       -3602.832          41.000    21943309.943    89854168.224       -2807.127          41.000  
G23  18644184.315    97975850.886        -693.172          48.000    18644171.529    76344758.682        -540.151          49.000  
G24  19588187.754   102936618.597       -2653.450          41.000    19588177.137    80210299.938       -2067.815          39.000  
G32  21612857.351   113576339.753        1709.416          45.000    21612847.968    88501003.409        1331.905          43.000  
C08  34635876.932   180358095.567         -18.886          46.000    34635859.267   139464250.880         -14.577          50.000  
C13  34756292.601   180985136.312         217.479          46.000    34756282.990   139949148.881         168.218          46.000  
C16  35733430.452   186073349.901         276.918          47.000    35733419.691   143883673.866         214.153          47.000  
C25  21330261.032   111072260.576       -1555.879          45.000                                                                  
C32  21552838.630   112231284.974        1326.045          46.000                                                                  
C06  35506912.137   184893806.652         455.502          44.000    35506895.572   142971557.582         352.191          45.000  
G25  21790704.657   114510940.415        3186.081          42.000    21790698.209    89229279.980        2482.263          39.000  
G10  20223812.451   106276850.869        2079.720          46.000    20223801.587    82813094.947        1620.567          42.000  
G12  21429830.107   112614527.271        2095.940          43.000    21429819.225    87751548.378        1633.351          40.000  
G28  23309133.230   122490332.799        3126.101          37.000    23309126.113    95446954.282        2436.255          40.000  
C23  21116945.391   109961477.063        1451.243          50.000                                                                  
C09  37015709.024   192750512.999         534.050          41.000    37015697.248   149046869.051         413.085          46.000  
C33  24874643.042   129528774.722       -2621.679          36.000                                                                  
C30  24561694.553   127899180.892       -2026.601          35.000                                                                  
C27  24991902.408   130139375.291       -2796.934          37.000                                                                  
C37  24175016.872   125885651.550        3092.548          41.000                                                                  
> 2025 10 27 02 11 49.2750000  0 21                     
G15  21862978.462   114890716.122       -2999.482          41.000    21862968.662    89525208.761       -2336.930          39.000  
G18  21943346.713   115313057.736       -3602.740          41.000    21943337.372    89854280.533       -2807.529          41.000  
G23  18644189.605    97975878.616        -693.253          48.000    18644176.790    76344780.290        -540.219          49.000  
G24  19588207.947   102936724.738       -2653.559          41.000    19588197.353    80210382.638       -2067.764          39.000  
G32  21612844.352   113576271.379        1709.323          45.000    21612834.950    88500950.134        1331.819          43.000  
C08  34635877.102   180358096.328         -18.990          46.000    34635859.447   139464251.463         -14.569          50.000  
C13  34756290.909   180985127.621         217.301          46.000    34756281.331   139949142.161         168.044          46.000  
C16  35733428.330   186073338.826         276.874          47.000    35733417.572   143883665.297         214.197          47.000  
C25  21330272.978   111072322.812       -1555.912          45.000                                                                  
C32  21552828.454   112231231.917        1326.252          46.000                                                                  
C06  35506908.600   184893788.427         455.540          44.000    35506892.047   142971543.495         352.161          45.000  
G25  21790680.406   114510812.980        3185.987          42.000    21790673.969    89229180.659        2482.840          39.000  
G10  20223796.616   106276767.681        2079.725          46.000    20223785.767    82813030.124        1620.612          42.000  
G12  21429814.158   112614443.441        2095.763          43.000    21429803.263    87751483.043        1633.396          40.000  
G28  23309109.416   122490207.743        3126.304          37.000    23309102.303    95446856.844        2436.066          40.000  
C23  21116934.238   109961419.019        1451.129          50.000                                                                  
C09  37015704.926   192750491.624         534.254          41.000    37015693.140   149046852.530         412.992          46.000  
C33  24874663.202   129528879.589       -2621.715          36.000                                                                  
C30  24561710.141   127899261.988       -2027.110          35.000                                                                  
C27  24991923.885   130139487.189       -2797.311          36.000                                                                  
C37  24174993.136   125885527.851        3092.428          41.000                                                                  
> 2025 10 27 02 11 49.3150000  0 21                     
G15  21863001.259   114890836.084       -2999.237          41.000    21862991.493    89525302.242       -2337.000          39.000  
G18  21943374.160   115313201.865       -3603.091          41.000    21943364.798    89854392.844       -2807.762          41.000  
G23  18644194.859    97975906.342        -693.221          48.000    18644182.058    76344801.898        -540.250          49.000  
G24  19588228.126   102936830.863       -2653.331          41.000    19588217.567    80210465.338       -2067.605          39.000  
G32  21612831.328   113576202.995        1709.466          45.000    21612821.957    88500896.851        1331.926          43.000  
C08  34635877.255   180358097.081         -18.875          46.000    34635859.601   139464252.049         -14.616          50.000  
C13  34756289.268   180985118.918         217.449          46.000    34756279.695   139949135.435         168.074          46.000  
C16  35733426.243   186073327.741         277.022          47.000    35733415.460   143883656.732         214.117          47.000  
C25  21330284.913   111072385.053       -1556.030          45.000                                                                  
C32  21552818.267   112231178.866        1326.270          46.000                                                                  
C06  35506905.112   184893770.200         455.603          44.000    35506888.554   142971529.400         352.299          45.000  
G25  21790656.161   114510685.552        3185.794          42.000    21790649.696    89229081.357        2482.755          39.000  
G10  20223780.782   106276684.493        2079.717          46.000    20223769.946    82812965.293        1620.780          42.000  
G12  21429798.205   112614359.612        2095.670          43.000    21429787.319    87751417.732        1632.954          40.000  
G28  23309085.639   122490082.685        3126.407          37.000    23309078.505    95446759.408        2435.957          40.000  
C23  21116923.087   109961360.968        1451.193          50.000                                                                  
C09  37015700.823   192750470.249         534.333          41.000    37015689.020   149046836.003         413.092          46.000  
C33  24874683.355   129528984.437       -2621.416          36.000                                                                  
C30  24561725.702   127899343.076       -2027.199          35.000                                                                  
C27  24991945.373   130139599.075       -2797.267          36.000                                                                  
C37  24174969.361   125885404.144        3092.584          41.000                                                                  
> 2025 10 27 02 11 49.3550000  0 21                     
G15  21863024.086   114890956.044       -2999.101          41.000    21863014.326    89525395.715       -2336.876          39.000  
G18  21943401.585   115313345.987       -3603.165          41.000    21943392.228    89854505.142       -2807.606          41.000  
G23  18644200.139    97975934.065        -693.134          48.000    18644187.307    76344823.502        -540.193          49.000  
G24  19588248.349   102936937.005       -2653.449          41.000    19588237.775    80210548.049       -2067.695          39.000  
G32  21612818.297   113576134.614        1709.509          45.000    21612808.940    88500843.559        1332.174          43.000  
C08  34635877.444   180358097.832         -18.776          46.000    34635859.774   139464252.635         -14.662          50.000  
C13  34756287.624   180985110.212         217.592          46.000    34756278.027   139949128.714         168.019          46.000  
C16  35733424.145   186073316.658         277.052          47.000    35733413.331   143883648.165         214.132          47.000  
C25  21330296.834   111072447.295       -1556.111          45.000                                                                  
C32  21552808.077   112231125.813        1326.293          46.000                                                                  
C06  35506901.611   184893751.981         455.511          44.000    35506885.089   142971515.300         352.457          45.000  
G25  21790631.881   114510558.112        3185.913          42.000    21790625.453    89228982.059        2482.548          39.000  
G10  20223764.946   106276601.301        2079.740          46.000    20223754.118    82812900.480        1620.498          42.000  
G12  21429782.260   112614275.782        2095.629          43.000    21429771.363    87751352.405        1633.007          40.000  
G28  23309061.873   122489957.640        3126.246          37.000    23309054.704    95446661.965        2435.998          40.000  
C23  21116911.897   109961302.922        1451.124          50.000                                                                  
C09  37015696.726   192750448.868         534.499          41.000    37015684.913   149046819.479         413.092          46.000  
C33  24874703.501   129529089.278       -2621.124          36.000                                                                  
C30  24561741.275   127899424.155       -2027.109          35.000                                                                  
C27  24991966.863   130139710.963       -2797.267          37.000                                                                  
C37  24174945.591   125885280.429        3092.813          41.000                                                                  
> 2025 10 27 02 11 49.3950000  0 21                     
G15  21863046.925   114891076.019       -2999.302          41.000    21863037.155    89525489.200       -2337.052          39.000  
G18  21943429.018   115313490.099       -3602.967          41.000    21943419.649    89854617.443       -2807.582          41.000  
G23  18644205.436    97975961.793        -693.190          48.000    18644192.562    76344845.103        -540.068          49.000  
G24  19588268.541   102937043.136       -2653.348          41.000    19588257.947    80210630.740       -2067.408          39.000  
G32  21612805.292   113576066.233        1709.534          45.000    21612795.919    88500790.273        1332.160          43.000  
C08  34635877.587   180358098.586         -18.783          46.000    34635859.909   139464253.215         -14.568          50.000  
C13  34756285.943   180985101.516         217.460          46.000    34756276.380   139949121.984         168.176          46.000  
C16  35733422.004   186073305.571         277.139          47.000    35733411.199   143883639.595         214.184          47.000  
C25  21330308.799   111072509.527       -1555.920          45.000                                                                  
C32  21552797.920   112231072.756        1326.380          46.000                                                                  
C06  35506898.106   184893733.760         455.493          44.000    35506881.606   142971501.212         352.297          45.000  
G25  21790607.630   114510430.671        3186.012          42.000    21790601.196    89228882.747        2482.716          39.000  
G10  20223749.109   106276518.111        2079.746          46.000    20223738.280    82812835.654        1620.551          42.000  
G12  21429766.298   112614191.944        2095.819          43.000    21429755.419    87751287.069        1633.222          40.000  
G28  23309038.106   122489832.590        3126.255          37.000    23309030.932    95446564.539        2435.740          40.000  
C23  21116900.756   109961244.875        1451.132          50.000                                                                  
C09  37015692.626   192750427.493         534.455          41.000    37015680.829   149046802.961         412.993          46.000  
C33  24874723.622   129529194.124       -2621.059          36.000                                                                  
C30  24561756.833   127899505.220       -2026.762          35.000                                                                  
C27  24991988.376   130139822.845       -2797.199          37.000                                                                  
C37  24174921.851   125885156.705        3093.074          41.000                                                                  
> 2025 10 27 02 11 49.4350000  0 21                     
G15  21863069.749   114891195.981       -2999.215          41.000    21863059.977    89525582.675       -2336.982          39.000  
G18  21943456.452   115313634.216       -3602.923          41.000    21943447.081    89854729.745       -2807.563          41.000  
G23  18644210.711    97975989.520        -693.196          48.000    18644197.838    76344866.707        -540.101          49.000  
G24  19588288.726   102937149.257       -2653.117          41.000    19588278.147    80210713.442       -2067.418          39.000  
G32  21612792.271   113575997.848        1709.602          45.000    21612782.906    88500736.994        1332.048          43.000  
C08  34635877.748   180358099.331         -18.639          46.000    34635860.070   139464253.794         -14.490          49.000  
C13  34756284.251   180985092.813         217.529          46.000    34756274.724   139949115.246         168.370          46.000  
C16  35733419.882   186073294.493         277.009          47.000    35733409.096   143883631.024         214.253          47.000  
C25  21330320.747   111072571.766       -1555.933          45.000                                                                  
C32  21552787.708   112231019.705        1326.291          46.000                                                                  
C06  35506894.585   184893715.536         455.532          44.000    35506878.094   142971487.118         352.303          45.000  
G25  21790583.380   114510303.238        3185.893          42.000    21790576.955    89228783.464        2482.230          39.000  
G10  20223733.262   106276434.923        2079.707          46.000    20223722.452    82812770.842        1620.356          42.000  
G12  21429750.329   112614108.095        2096.158          43.000    21429739.461    87751221.753        1632.982          40.000  
G28  23309014.308   122489707.566        3125.723          37.000    23309007.137    95446467.089        2436.042          40.000  
C23  21116889.660   109961186.823        1451.221          50.000                                                                  
C09  37015688.494   192750406.125         534.276          41.000    37015676.729   149046786.433         413.104          46.000  
C33  24874743.776   129529298.978       -2621.229          36.000                                                                  
C30  24561772.398   127899586.272       -2026.403          35.000                                                                  
C27  24992009.877   130139934.738       -2797.347          37.000                                                                  
C37  24174898.067   125885032.985        3093.107          41.000                                                                  
> 2025 10 27 02 11 49.4750000  0 21                     
G15  21863092.596   114891315.949       -2999.182          41.000    21863082.800    89525676.163       -2337.201          39.000  
G18  21943483.872   115313778.347       -3603.152          41.000    21943474.515    89854842.055       -2807.698          41.000  
G23  18644216.001    97976017.253        -693.321          48.000    18644203.140    76344888.320        -540.300          49.000  
G24  19588308.934   102937255.404       -2653.439          41.000    19588298.346    80210796.150       -2067.593          39.000  
G32  21612779.251   113575929.467        1709.564          45.000    21612769.881    88500683.709        1332.079          43.000  
C08  34635877.886   180358100.081         -18.691          46.000    34635860.235   139464254.379         -14.573          49.000  
C13  34756282.548   180985084.116         217.461          46.000    34756273.050   139949108.516         168.330          46.000  
C16  35733417.726   186073283.414         276.938          47.000    35733406.971   143883622.461         214.096          47.000  
C25  21330332.687   111072634.003       -1555.934          45.000                                                                  
C32  21552777.523   112230966.669        1325.932          46.000                                                                  
C06  35506891.083   184893697.317         455.453          44.000    35506874.607   142971473.031         352.202          45.000  
G25  21790559.130   114510175.802        3185.881          42.000    21790552.699    89228684.159        2482.414          39.000  
G10  20223717.444   106276351.739        2079.617          46.000    20223706.624    82812706.034        1620.215          42.000  
G12  21429734.391   112614024.264        2095.921          43.000    21429723.512    87751156.430        1632.991          40.000  
G28  23308990.513   122489582.525        3125.760          37.000    23308983.341    95446369.636        2436.238          40.000  
C23  21116878.507   109961128.774        1451.220          50.000                                                                  
C09  37015684.390   192750384.749         534.294          41.000    37015672.617   149046769.909         413.110          46.000  
C33  24874763.913   129529403.867       -2621.956          36.000                                                                  
C30  24561787.968   127899667.354       -2026.819          35.000                                                                  
C27  24992031.390   130140046.636       -2797.414          37.000                                                                  
C37  24174874.296   125884909.282        3092.779          41.000                                                                  
> 2025 10 27 02 11 49.5150000  0 21                     
G15  21863115.390   114891435.912       -2999.076          41.000    21863105.632    89525769.630       -2336.850          39.000  
G18  21943511.301   115313922.476       -3603.225          41.000    21943501.939    89854954.363       -2807.766          41.000  
G23  18644221.279    97976044.984        -693.332          48.000    18644208.427    76344909.930        -540.318          49.000  
G24  19588329.124   102937361.556       -2653.718          41.000    19588318.539    80210878.865       -2067.830          39.000  
G32  21612766.234   113575861.089        1709.477          45.000    21612756.874    88500630.418        1332.266          43.000  
C08  34635878.025   180358100.838         -18.840          46.000    34635860.413   139464254.961         -14.566          49.000  
C13  34756280.897   180985075.407         217.608          46.000    34756271.373   139949101.795         168.139          46.000  
C16  35733415.598   186073272.333         276.954          47.000    35733404.838   143883613.890         214.181          47.000  
C25  21330344.652   111072696.241       -1555.985          45.000                                                                  
C32  21552767.342   112230913.621        1326.031          46.000                                                                  
C06  35506887.605   184893679.081         455.753          44.000    35506871.105   142971458.934         352.313          45.000  
G25  21790534.910   114510048.371        3185.801          42.000    21790528.438    89228584.860        2482.432          39.000  
G10  20223701.617   106276268.558        2079.529          46.000    20223690.773    82812641.212        1620.362          42.000  
G12  21429718.440   112613940.431        2095.820          43.000    21429707.571    87751091.097        1633.219          40.000  
G28  23308966.726   122489457.466        3126.210          37.000    23308959.559    95446272.213        2435.807          40.000  
C23  21116867.372   109961070.728        1451.189          50.000                                                                  
C09  37015680.293   192750363.393         533.981          41.000    37015668.496   149046753.385         413.092          46.000  
C33  24874784.044   129529508.731       -2621.871          36.000                                                                  
C30  24561803.567   127899748.461       -2027.469          35.000                                                                  
C27  24992052.868   130140158.557       -2797.887          37.000                                                                  
C37  24174850.551   125884785.581        3092.540          41.000                                                                  
> 2025 10 27 02 11 49.5550000  0 21                     
G15  21863138.224   114891555.879       -2999.140          41.000    21863128.456    89525863.114       -2337.013          39.000  
G18  21943538.734   115314066.593       -3603.021          42.000    21943529.376    89855066.671       -2807.790          41.000  
G23  18644226.540    97976072.710        -693.231          48.000    18644213.700    76344931.541        -540.342          49.000  
G24  19588349.330   102937467.693       -2653.615          41.000    19588338.727    80210961.563       -2067.630          39.000  
G32  21612753.214   113575792.704        1709.558          45.000    21612743.874    88500577.136        1332.134          43.000  
C08  34635878.185   180358101.596         -18.981          46.000    34635860.601   139464255.545         -14.607          49.000  
C13  34756279.225   180985066.709         217.518          46.000    34756269.700   139949095.069         168.109          46.000  
C16  35733413.486   186073261.244         277.094          47.000    35733402.721   143883605.319         214.233          47.000  
C25  21330356.632   111072758.472       -1555.859          45.000                                                                  
C32  21552757.167   112230860.570        1326.139          46.000                                                                  
C06  35506884.120   184893660.852         455.727          44.000    35506867.607   142971444.836         352.408          45.000  
G25  21790510.677   114509920.942        3185.664          42.000    21790504.168    89228485.556        2482.500          39.000  
G10  20223685.765   106276185.363        2079.734          46.000    20223674.948    82812576.383        1620.556          42.000  
G12  21429702.490   112613856.596        2095.815          43.000    21429691.621    87751025.764        1633.304          40.000  
G28  23308942.930   122489332.371        3127.111          37.000    23308935.773    95446174.779        2435.733          40.000  
C23  21116856.190   109961012.687        1451.062          50.000                                                                  
C09  37015676.203   192750342.022         534.118          41.000    37015664.366   149046736.858         413.153          46.000  
C33  24874804.173   129529613.575       -2621.389          36.000                                                                  
C30  24561819.145   127899829.548       -2027.404          35.000                                                                  
C27  24992074.372   130140270.445       -2797.466          37.000                                                                  
C37  24174826.797   125884661.889        3092.284          42.000                                                                  
> 2025 10 27 02 11 49.5950000  0 21                     
G15  21863161.034   114891675.846       -2999.209          41.000    21863151.292    89525956.593       -2337.001          39.000  
G18  21943566.151   115314210.709       -3602.972          41.000    21943556.806    89855178.974       -2807.685          41.000  
G23  18644231.805    97976100.442        -693.288          48.000    18644218.964    76344953.150        -540.285          49.000  
G24  19588369.537   102937573.830       -2653.569          41.000    19588358.926    80211044.264       -2067.586          39.000  
G32  21612740.221   113575724.331        1709.358          45.000    21612730.872    88500523.859        1331.947          43.000  
C08  34635878.336   180358102.359         -19.113          46.000    34635860.762   139464256.126         -14.579          49.000  
C13  34756277.530   180985058.019         217.319          46.000    34756268.027   139949088.349         168.004          46.000  
C16  35733411.345   186073250.171         276.874          47.000    35733400.587   143883596.751         214.214          47.000  
C25  21330368.577   111072820.714       -1556.049          45.000                                                                  
C32  21552747.029   112230807.517        1326.246          46.000                                                                  
C06  35506880.646   184893642.636         455.498          44.000    35506864.096   142971430.749         352.264          45.000  
G25  21790486.410   114509793.499        3185.895          42.000    21790479.915    89228386.254        2482.531          39.000  
G10  20223669.940   106276102.179        2079.647          46.000    20223659.128    82812511.564        1620.520          42.000  
G12  21429686.543   112613772.772        2095.602          43.000    21429675.683    87750960.441        1633.139          40.000  
G28  23308919.123   122489207.301        3127.034          37.000    23308911.975    95446077.334        2435.908          40.000  
C23  21116845.039   109960954.647        1450.981          50.000                                                                  
C09  37015672.116   192750320.646         534.303          41.000    37015660.260   149046720.326         413.270          46.000  
C33  24874824.312   129529718.417       -2620.965          36.000                                                                  
C30  24561834.708   127899910.610       -2026.847          35.000                                                                  
C27  24992095.859   130140382.282       -2796.290          37.000                                                                  
C37  24174803.036   125884538.188        3092.341          42.000                                                                  
> 2025 10 27 02 11 49.6350000  0 21                     
G15  21863183.867   114891795.820       -2999.377          41.000    21863174.133    89526050.086       -2337.269          39.000  
G18  21943593.588   115314354.816       -3602.745          41.000    21943584.216    89855291.247       -2807.063          41.000  
G23  18644237.098    97976128.181        -693.443          48.000    18644224.242    76344974.758        -540.228          49.000  
G24  19588389.719   102937679.972       -2653.639          41.000    19588379.095    80211126.948       -2067.271          38.000  
G32  21612727.209   113575655.946        1709.490          45.000    21612717.873    88500470.580        1331.917          43.000  
C08  34635878.511   180358103.112         -18.972          46.000    34635860.906   139464256.710         -14.598          49.000  
C13  34756275.871   180985049.317         217.405          46.000    34756266.353   139949081.620         168.083          46.000  
C16  35733409.215   186073239.095         276.833          47.000    35733398.443   143883588.195         213.977          47.000  
C25  21330380.508   111072882.970       -1556.348          45.000                                                                  
C32  21552736.843   112230754.477        1326.076          46.000                                                                  
C06  35506877.128   184893624.424         455.323          44.000    35506860.586   142971416.666         352.077          45.000  
G25  21790462.143   114509666.063        3185.863          42.000    21790455.657    89228286.952        2482.519          39.000  
G10  20223654.103   106276019.002        2079.499          46.000    20223643.299    82812446.741        1620.564          42.000  
G12  21429670.588   112613688.941        2095.656          43.000    21429659.731    87750895.120        1633.039          40.000  
G28  23308895.335   122489082.274        3126.116          37.000    23308888.169    95445979.900        2435.863          40.000  
C23  21116833.927   109960896.603        1451.001          50.000                                                                  
C09  37015668.011   192750299.282         534.173          41.000    37015656.148   149046703.799         413.239          46.000  
C33  24874844.458   129529823.274       -2621.170          36.000                                                                  
C30  24561850.295   127899991.660       -2026.303          35.000                                                                  
C27  24992117.336   130140494.145       -2796.183          37.000                                                                  
C37  24174779.287   125884414.472        3092.701          42.000                                                                  
> 2025 10 27 02 11 49.6750000  0 21                     
G15  21863206.698   114891915.799       -2999.525          41.000    21863196.967    89526143.573       -2337.266          39.000  
G18  21943621.019   115314498.926       -3602.677          41.000    21943611.630    89855403.529       -2806.942          41.000  
G23  18644242.380    97976155.919        -693.510          48.000    18644229.534    76344996.369        -540.285          49.000  
G24  19588409.909   102937786.104       -2653.453          41.000    19588399.307    80211209.671       -2067.779          39.000  
G32  21612714.208   113575587.563        1709.527          45.000    21612704.866    88500417.292        1332.029          43.000  
C08  34635878.660   180358103.858         -18.785          46.000    34635861.077   139464257.298         -14.685          50.000  
C13  34756274.224   180985040.608         217.621          46.000    34756264.700   139949074.888         168.218          46.000  
C16  35733407.107   186073228.010         277.010          47.000    35733396.292   143883579.623         214.146          47.000  
C25  21330392.448   111072945.218       -1556.325          45.000                                                                  
C32  21552726.658   112230701.426        1326.170          46.000                                                                  
C06  35506873.615   184893606.198         455.490          44.000    35506857.089   142971402.586         351.953          45.000  
G25  21790437.905   114509538.626        3185.900          42.000    21790431.408    89228187.666        2482.257          39.000  
G10  20223638.289   106275935.820        2079.504          46.000    20223627.452    82812381.931        1620.340          42.000  
G12  21429654.636   112613605.116        2095.588          43.000    21429643.793    87750829.829        1632.437          40.000  
G28  23308871.555   122488957.245        3125.648          37.000    23308864.374    95445882.453        2436.076          40.000  
C23  21116822.771   109960838.560        1451.042          50.000                                                                  
C09  37015663.923   192750277.909         534.271          41.000    37015652.027   149046687.273         413.158          46.000  
C33  24874864.578   129529928.130       -2621.309          36.000                                                                  
C30  24561865.887   127900072.747       -2026.764          35.000                                                                  
C27  24992138.827   130140606.022       -2796.525          37.000                                                                  
C37  24174755.567   125884290.759        3092.837          42.000                                                                  
> 2025 10 27 02 11 49.7150000  0 21                     
G15  21863229.521   114892035.756       -2999.162          41.000    21863219.792    89526237.058       -2337.183          39.000  
G18  21943648.445   115314643.046       -3602.919          41.000    21943639.062    89855515.824       -2807.228          41.000  
G23  18644247.649    97976183.651        -693.390          48.000    18644234.818    76345017.981        -540.334          49.000  
G24  19588430.090   102937892.238       -2653.375          41.000    19588419.529    80211292.392       -2068.084          39.000  
G32  21612701.214   113575519.194        1709.252          45.000    21612691.875    88500364.015        1331.905          43.000  
C08  34635878.810   180358104.608         -18.743          46.000    34635861.250   139464257.884         -14.716          49.000  
C13  34756272.564   180985031.911         217.543          46.000    34756263.019   139949068.163         168.148          46.000  
C16  35733404.969   186073216.930         276.995          47.000    35733394.158   143883571.057         214.133          47.000  
C25  21330404.433   111073007.460       -1556.177          45.000                                                                  
C32  21552716.438   112230648.376        1326.189          46.000                                                                  
C06  35506870.145   184893587.974         455.535          44.000    35506853.585   142971388.495         352.093          45.000  
G25  21790413.658   114509411.186        3185.911          42.000    21790407.151    89228088.366        2482.340          39.000  
G10  20223622.452   106275852.641        2079.446          46.000    20223611.614    82812317.112        1620.328          42.000  
G12  21429638.684   112613521.283        2095.715          43.000    21429627.851    87750764.503        1632.823          40.000  
G28  23308847.810   122488832.240        3125.106          37.000    23308840.582    95445785.006        2436.181          40.000  
C23  21116811.647   109960780.514        1451.092          50.000                                                                  
C09  37015659.820   192750256.536         534.258          41.000    37015647.931   149046670.759         412.887          46.000  
C33  24874884.726   129530033.002       -2621.675          36.000                                                                  
C30  24561881.472   127900153.845       -2027.267          36.000                                                                  
C27  24992160.326   130140717.934       -2797.476          37.000                                                                  
C37  24174731.816   125884167.055        3092.672          42.000                                                                  
> 2025 10 27 02 11 49.7550000  0 21                     
G15  21863252.356   114892155.732       -2999.318          41.000    21863242.625    89526330.535       -2336.978          39.000  
G18  21943675.876   115314787.175       -3603.209          41.000    21943666.501    89855628.146       -2807.899          41.000  
G23  18644252.957    97976211.389        -693.453          48.000    18644240.095    76345039.598        -540.428          49.000  
G24  19588450.284   102937998.383       -2653.518          41.000    19588439.721    80211375.102       -2067.972          39.000  
G32  21612688.229   113575450.822        1709.167          45.000    21612678.866    88500310.732        1331.974          43.000  
C08  34635878.943   180358105.371         -18.959          46.000    34635861.417   139464258.468         -14.659          49.000  
C13  34756270.904   180985023.206         217.577          46.000    34756261.328   139949061.434         168.172          46.000  
C16  35733402.864   186073205.860         276.835          47.000    35733392.059   143883562.486         214.236          47.000  
C25  21330416.429   111073069.696       -1555.951          45.000                                                                  
C32  21552706.273   112230595.326        1326.232          46.000                                                                  
C06  35506866.639   184893569.745         455.635          44.000    35506850.095   142971374.401         352.229          45.000  
G25  21790389.438   114509283.765        3185.594          42.000    21790382.886    89227989.057        2482.570          39.000  
G10  20223606.623   106275769.462        2079.430          46.000    20223595.778    82812252.304        1620.176          42.000  
G12  21429622.722   112613437.453        2095.740          43.000    21429611.884    87750699.169        1633.206          40.000  
G28  23308824.042   122488707.202        3125.451          37.000    23308816.798    95445687.574        2435.939          40.000  
C23  21116800.487   109960722.477        1450.951          50.000                                                                  
C09  37015655.726   192750235.175         534.061          41.000    37015643.817   149046654.239         412.888          46.000  
C33  24874904.863   129530137.861       -2621.636          36.000                                                                  
C30  24561897.015   127900234.933       -2027.279          35.000                                                                  
C27  24992181.811   130140829.824       -2797.479          37.000                                                                  
C37  24174708.067   125884043.370        3092.288          42.000                                                                  
> 2025 10 27 02 11 49.7950000  0 21                     
G15  21863275.190   114892275.696       -2999.124          41.000    21863265.443    89526424.014       -2336.942          39.000  
G18  21943703.312   115314931.301       -3603.300          41.000    21943693.944    89855740.473       -2808.285          41.000  
G23  18644258.253    97976239.132        -693.564          48.000    18644245.350    76345061.213        -540.458          49.000  
G24  19588470.480   102938104.525       -2653.583          41.000    19588459.911    80211457.790       -2067.473          39.000  
G32  21612675.209   113575382.430        1709.542          45.000    21612665.842    88500257.450        1332.000          43.000  
C08  34635879.095   180358106.128         -18.982          46.000    34635861.581   139464259.050         -14.594          49.000  
C13  34756269.237   180985014.514         217.356          46.000    34756259.663   139949054.710         168.140          46.000  
C16  35733400.731   186073194.784         276.830          47.000    35733389.940   143883553.920         214.170          47.000  
C25  21330428.396   111073131.948       -1556.188          45.000                                                                  
C32  21552696.080   112230542.281        1326.144          46.000                                                                  
C06  35506863.120   184893551.530         455.480          44.000    35506846.583   142971360.306         352.343          45.000  
G25  21790365.210   114509156.338        3185.534          42.000    21790358.636    89227889.762        2482.406          39.000  
G10  20223590.788   106275686.282        2079.445          46.000    20223579.939    82812187.488        1620.246          42.000  
G12  21429606.762   112613353.622        2095.758          42.000    21429595.932    87750633.836        1633.359          40.000  
G28  23308800.254   122488582.140        3126.149          37.000    23308793.014    95445590.130        2435.987          40.000  
C23  21116789.341   109960664.444        1450.814          50.000                                                                  
C09  37015651.617   192750213.816         533.970          41.000    37015639.721   149046637.726         412.784          46.000  
C33  24874925.031   129530242.707       -2621.285          36.000                                                                  
C30  24561912.600   127900316.021       -2027.334          35.000                                                                  
C27  24992203.296   130140941.711       -2797.353          37.000                                                                  
C37  24174684.334   125883919.661        3092.521          42.000                                                                  
> 2025 10 27 02 11 49.8350000  0 21                     
G15  21863298.040   114892395.664       -2999.100          41.000    21863288.274    89526517.493       -2336.956          39.000  
G18  21943730.739   115315075.420       -3603.138          41.000    21943721.357    89855852.759       -2807.616          41.000  
G23  18644263.520    97976266.872        -693.558          48.000    18644250.628    76345082.825        -540.382          49.000  
G24  19588490.679   102938210.669       -2653.626          41.000    19588480.097    80211540.503       -2067.645          39.000  
G32  21612662.222   113575314.050        1709.516          45.000    21612652.834    88500204.166        1332.062          43.000  
C08  34635879.245   180358106.886         -18.971          46.000    34635861.743   139464259.631         -14.556          49.000  
C13  34756267.564   180985005.820         217.294          46.000    34756257.981   139949047.983         168.142          46.000  
C16  35733398.620   186073183.705         276.916          47.000    35733387.821   143883545.353         214.163          47.000  
C25  21330440.352   111073194.189       -1556.091          45.000                                                                  
C32  21552685.899   112230489.232        1326.189          46.000                                                                  
C06  35506859.620   184893533.311         455.462          44.000    35506843.068   142971346.217         352.290          45.000  
G25  21790340.957   114509028.906        3185.673          42.000    21790334.390    89227790.481        2482.071          39.000  
G10  20223574.944   106275603.097        2079.569          46.000    20223564.124    82812122.661        1620.482          42.000  
G12  21429590.791   112613269.786        2095.865          42.000    21429579.980    87750568.516        1633.120          40.000  
G28  23308776.446   122488457.082        3126.484          37.000    23308769.206    95445492.698        2435.818          40.000  
C23  21116778.218   109960606.403        1450.918          50.000                                                                  
C09  37015647.511   192750192.446         534.143          41.000    37015635.615   149046621.205         412.927          46.000  
C33  24874945.178   129530347.570       -2621.398          36.000                                                                  
C30  24561928.175   127900397.100       -2027.117          35.000                                                                  
C27  24992224.773   130141053.601       -2797.285          37.000                                                                  
C37  24174660.572   125883795.946        3092.736          42.000                                                                  
> 2025 10 27 02 11 49.8750000  0 21                     
G15  21863320.854   114892515.625       -2999.034          41.000    21863311.123    89526610.981       -2337.100          39.000  
G18  21943758.144   115315219.525       -3602.781          41.000    21943748.758    89855965.043       -2807.223          41.000  
G23  18644268.796    97976294.596        -693.239          48.000    18644255.903    76345104.429        -540.177          49.000  
G24  19588510.889   102938316.800       -2653.410          41.000    19588500.277    80211623.202       -2067.556          39.000  
G32  21612649.197   113575245.666        1709.577          45.000    21612639.823    88500150.877        1332.173          43.000  
C08  34635879.397   180358107.628         -18.668          46.000    34635861.885   139464260.207         -14.424          49.000  
C13  34756265.893   180984997.109         217.582          46.000    34756256.300   139949041.249         168.273          46.000  
C16  35733396.484   186073172.619         277.089          47.000    35733385.680   143883536.781         214.233          47.000  
C25  21330452.325   111073256.435       -1556.111          45.000                                                                  
C32  21552675.723   112230436.169        1326.459          46.000                                                                  
C06  35506856.135   184893515.074         455.802          44.000    35506839.572   142971332.121         352.393          45.000  
G25  21790316.707   114508901.461        3185.984          42.000    21790310.151    89227691.181        2482.318          39.000  
G10  20223559.112   106275519.899        2079.841          46.000    20223548.290    82812057.834        1620.615          42.000  
G12  21429574.838   112613185.952        2095.882          42.000    21429564.024    87750503.199        1632.958          40.000  
G28  23308752.658   122488332.027        3126.546          37.000    23308745.408    95445395.249        2436.031          40.000  
C23  21116767.112   109960548.354        1451.148          50.000                                                                  
C09  37015643.410   192750171.061         534.506          41.000    37015631.526   149046604.664         413.358          46.000  
C33  24874965.312   129530452.416       -2621.104          36.000                                                                  
C30  24561943.736   127900478.155       -2026.540          35.000                                                                  
C27  24992246.252   130141165.469       -2796.947          37.000                                                                  
C37  24174636.812   125883672.227        3092.936          42.000                                                                  
> 2025 10 27 02 11 49.9150000  0 21                     
G15  21863343.671   114892635.577       -2998.861          41.000    21863333.946    89526704.456       -2336.981          39.000  
G18  21943785.585   115315363.622       -3602.424          41.000    21943776.202    89856077.340       -2807.255          41.000  
G23  18644274.052    97976322.318        -693.055          48.000    18644261.190    76345126.031        -540.054          49.000  
G24  19588531.091   102938422.924       -2653.176          41.000    19588520.483    80211705.904       -2067.546          39.000  
G32  21612636.159   113575177.253        1710.193          45.000    21612626.809    88500097.572        1332.508          43.000  
C08  34635879.558   180358108.364         -18.448          46.000    34635862.009   139464260.781         -14.337          49.000  
C13  34756264.205   180984988.397         217.753          46.000    34756254.630   139949034.511         168.422          46.000  
C16  35733394.356   186073161.523         277.367          47.000    35733383.541   143883528.200         214.443          47.000  
C25  21330464.293   111073318.672       -1555.991          45.000                                                                  
C32  21552665.535   112230383.111        1326.545          46.000                                                                  
C06  35506852.631   184893496.832         456.048          44.000    35506836.063   142971318.016         352.548          45.000  
G25  21790292.442   114508774.005        3186.356          42.000    21790285.900    89227591.857        2482.915          39.000  
G10  20223543.248   106275436.699        2080.014          46.000    20223532.449    82811993.005        1620.749          42.000  
G12  21429558.895   112613102.115        2095.937          42.000    21429548.085    87750437.874        1633.055          40.000  
G28  23308728.841   122488206.928        3127.310          37.000    23308721.619    95445297.799        2436.240          40.000  
C23  21116755.952   109960490.294        1451.437          50.000                                                                  
C09  37015639.272   192750149.674         534.702          41.000    37015627.393   149046588.123         413.572          46.000  
C33  24874985.460   129530557.246       -2620.811          36.000                                                                  
C30  24561959.293   127900559.199       -2026.030          35.000                                                                  
C27  24992267.735   130141277.330       -2796.665          37.000                                                                  
C37  24174613.030   125883548.506        3093.051          42.000                                                                  
> 2025 10 27 02 11 49.9550000  0 21                     
G15  21863366.523   114892755.529       -2998.782          41.000    21863356.771    89526797.921       -2336.733          39.000  
G18  21943813.002   115315507.718       -3602.279          41.000    21943803.643    89856189.632       -2807.269          41.000  
G23  18644279.345    97976350.041        -692.995          48.000    18644266.484    76345147.633        -540.012          49.000  
G24  19588551.271   102938529.065       -2653.360          41.000    19588540.687    80211788.601       -2067.361          39.000  
G32  21612623.130   113575108.855        1710.189          45.000    21612613.797    88500044.274        1332.536          43.000  
C08  34635879.739   180358109.099         -18.320          46.000    34635862.185   139464261.354         -14.290          49.000  
C13  34756262.538   180984979.680         217.910          46.000    34756252.961   139949027.773         168.452          46.000  
C16  35733392.228   186073150.425         277.534          47.000    35733381.413   143883519.621         214.509          47.000  
C25  21330476.229   111073380.895       -1555.680          45.000                                                                  
C32  21552655.370   112230330.044        1326.704          46.000                                                                  
C06  35506849.153   184893478.599         455.992          44.000    35506832.554   142971303.906         352.731          45.000  
G25  21790268.179   114508646.548        3186.532          42.000    21790261.634    89227492.531        2483.177          39.000  
G10  20223527.433   106275353.498        2080.089          46.000    20223516.601    82811928.165        1620.962          42.000  
G12  21429542.939   112613018.270        2096.061          42.000    21429532.123    87750372.532        1633.439          40.000  
G28  23308705.031   122488081.849        3127.303          37.000    23308697.798    95445200.350        2436.299          40.000  
C23  21116744.803   109960432.238        1451.519          50.000                                                                  
C09  37015635.136   192750128.291         534.682          41.000    37015623.295   149046571.587         413.509          46.000  
C33  24875005.611   129530662.116       -2621.335          36.000                                                                  
C30  24561974.855   127900640.250       -2026.036          35.000                                                                  
C27  24992289.220   130141389.198       -2796.630          37.000                                                                  
C37  24174589.274   125883424.770        3093.370          42.000                                                                  
> 2025 10 27 02 11 49.9950000  0 21                     
G15  21863389.347   114892875.479       -2998.734          41.000    21863379.581    89526891.380       -2336.417          39.000  
G18  21943840.434   115315651.826       -3602.515          41.000    21943831.056    89856301.906       -2806.949          41.000  
G23  18644284.633    97976377.763        -692.991          48.000    18644271.761    76345169.235        -540.014          49.000  
G24  19588571.468   102938635.187       -2653.185          41.000    19588560.867    80211871.301       -2067.383          39.000  
G32  21612610.114   113575040.461        1710.017          45.000    21612600.786    88499990.978        1332.497          43.000  
C08  34635879.867   180358109.843         -18.425          46.000    34635862.338   139464261.923         -14.209          49.000  
C13  34756260.848   180984970.957         218.094          46.000    34756251.264   139949021.026         168.648          46.000  
C16  35733390.124   186073139.321         277.651          47.000    35733379.251   143883511.041         214.550          47.000  
C25  21330488.162   111073443.128       -1555.715          45.000                                                                  
C32  21552645.145   112230276.982        1326.657          46.000                                                                  
C06  35506845.650   184893460.362         455.988          44.000    35506829.058   142971289.805         352.646          45.000  
G25  21790243.936   114508519.090        3186.572          42.000    21790237.390    89227393.216        2483.060          39.000  
G10  20223511.618   106275270.306        2079.958          46.000    20223500.764    82811863.341        1620.783          42.000  
G12  21429526.995   112612934.421        2096.235          42.000    21429516.170    87750307.198        1633.447          40.000  
G28  23308681.220   122487956.790        3126.900          37.000    23308674.011    95445102.894        2436.457          40.000  
C23  21116733.606   109960374.184        1451.457          50.000                                                                  
C09  37015631.041   192750106.891         534.952          41.000    37015619.189   149046555.053         413.421          46.000  
C33  24875025.719   129530766.959       -2621.122          36.000                                                                  
C30  24561990.464   127900721.313       -2026.285          35.000                                                                  
C27  24992310.714   130141501.084       -2797.013          37.000                                                                  
C37  24174565.527   125883301.041        3093.376          42.000                                                                  
> 2025 10 27 02 11 50.0350000  0 21                     
G15  21863412.158   114892995.438       -2998.892          41.000    21863402.400    89526984.841       -2336.459          39.000  
G18  21943867.859   115315795.933       -3602.657          41.000    21943858.466    89856414.191       -2807.031          41.000  
G23  18644289.920    97976405.487        -693.042          48.000    18644277.058    76345190.839        -540.083          49.000  
G24  19588591.651   102938741.318       -2653.215          41.000    19588581.060    80211953.981       -2067.092          39.000  
G32  21612597.104   113574972.069        1709.904          45.000    21612587.771    88499937.679        1332.521          43.000  
C08  34635880.015   180358110.586         -18.516          46.000    34635862.454   139464262.493         -14.195          49.000  
C13  34756259.168   180984962.237         218.122          46.000    34756249.563   139949014.280         168.698          46.000  
C16  35733388.010   186073128.228         277.478          47.000    35733377.093   143883502.466         214.451          47.000  
C25  21330500.106   111073505.346       -1555.485          45.000                                                                  
C32  21552634.936   112230223.920        1326.637          46.000                                                                  
C06  35506842.124   184893442.129         455.893          44.000    35506825.544   142971275.700         352.678          45.000  
G25  21790219.672   114508391.632        3186.538          42.000    21790213.151    89227293.920        2482.573          39.000  
G10  20223495.781   106275187.113        2079.858          46.000    20223484.946    82811798.519        1620.585          42.000  
G12  21429511.044   112612850.575        2096.263          42.000    21429500.209    87750241.859        1633.448          40.000  
G28  23308657.427   122487831.751        3126.252          37.000    23308650.208    95445005.451        2436.247          40.000  
C23  21116722.418   109960316.131        1451.377          50.000                                                                  
C09  37015626.930   192750085.512         534.704          41.000    37015615.078   149046538.516         413.421          46.000  
C33  24875045.838   129530871.785       -2620.852          36.000                                                                  
C30  24562006.024   127900802.410       -2027.077          35.000                                                                  
C27  24992332.211   130141612.926       -2796.283          37.000                                                                  
C37  24174541.775   125883177.323        3093.064          42.000                                                                  
> 2025 10 27 02 11 50.0750000  0 21                     
G15  21863434.952   114893115.374       -2998.542          41.000    21863425.223    89527078.301       -2336.474          39.000  
G18  21943895.288   115315940.023       -3602.404          41.000    21943885.907    89856526.469       -2806.945          41.000  
G23  18644295.197    97976433.207        -693.011          48.000    18644282.348    76345212.438        -539.977          49.000  
G24  19588611.846   102938847.425       -2652.831          41.000    19588601.276    80212036.686       -2067.367          39.000  
G32  21612584.093   113574903.670        1709.961          45.000    21612574.749    88499884.384        1332.446          43.000  
C08  34635880.177   180358111.315         -18.324          46.000    34635862.603   139464263.063         -14.212          49.000  
C13  34756257.482   180984953.515         218.099          46.000    34756247.865   139949007.534         168.717          46.000  
C16  35733385.913   186073117.134         277.387          47.000    35733374.971   143883493.881         214.546          47.000  
C25  21330512.027   111073567.571       -1555.514          45.000                                                                  
C32  21552624.777   112230170.850        1326.743          46.000                                                                  
C06  35506838.633   184893423.874         456.248          44.000    35506822.023   142971261.584         352.822          45.000  
G25  21790195.424   114508264.190        3186.200          42.000    21790188.884    89227194.600        2482.780          39.000  
G10  20223479.951   106275103.912        2079.950          46.000    20223469.109    82811733.683        1620.772          42.000  
G12  21429495.097   112612766.720        2096.394          42.000    21429484.258    87750176.517        1633.535          40.000  
G28  23308633.619   122487706.697        3126.176          37.000    23308626.420    95444908.009        2436.061          40.000  
C23  21116711.264   109960258.073        1451.403          50.000                                                                  
C09  37015622.842   192750064.114         534.889          41.000    37015610.958   149046521.973         413.532          46.000  
C33  24875065.958   129530976.631       -2620.990          36.000                                                                  
C30  24562021.610   127900883.475       -2026.972          35.000                                                                  
C27  24992353.706   130141724.779       -2796.275          37.000                                                                  
C37  24174518.014   125883053.600        3093.022          42.000                                                                  
> 2025 10 27 02 11 50.1150000  0 21                     
G15  21863457.759   114893235.308       -2998.371          41.000    21863448.026    89527171.757       -2336.412          39.000  
G18  21943922.691   115316084.116       -3602.343          41.000    21943913.318    89856638.740       -2806.872          40.000  
G23  18644300.461    97976460.923        -692.943          48.000    18644287.615    76345234.039        -540.002          49.000  
G24  19588632.030   102938953.544       -2652.848          41.000    19588621.470    80212119.372       -2067.192          38.000  
G32  21612571.060   113574835.257        1710.247          45.000    21612561.732    88499831.088        1332.415          43.000  
C08  34635880.349   180358112.039         -18.131          46.000    34635862.749   139464263.625         -14.111          49.000  
C13  34756255.814   180984944.787         218.207          46.000    34756246.196   139949000.790         168.643          46.000  
C16  35733383.804   186073106.024         277.631          47.000    35733372.861   143883485.287         214.781          47.000  
C25  21330523.969   111073629.801       -1555.667          45.000                                                                  
C32  21552614.595   112230117.774        1326.912          46.000                                                                  
C06  35506835.144   184893405.618         456.395          44.000    35506818.534   142971247.483         352.656          45.000  
G25  21790171.199   114508136.737        3186.227          42.000    21790164.639    89227095.268        2483.116          39.000  
G10  20223464.114   106275020.701        2080.176          46.000    20223453.290    82811668.846        1620.895          42.000  
G12  21429479.150   112612682.874        2096.303          42.000    21429468.322    87750111.189        1633.346          40.000  
G28  23308609.848   122487581.616        3126.636          37.000    23308602.623    95444810.546        2436.310          40.000  
C23  21116700.144   109960200.009        1451.522          50.000                                                                  
C09  37015618.728   192750042.723         534.796          41.000    37015606.858   149046505.429         413.587          46.000  
C33  24875086.082   129531081.458       -2620.785          36.000                                                                  
C30  24562037.168   127900964.535       -2026.762          35.000                                                                  
C27  24992375.179   130141836.608       -2795.852          37.000                                                                  
C37  24174494.273   125882929.877        3093.012          42.000                                                                  
> 2025 10 27 02 11 50.1550000  0 21                     
G15  21863480.576   114893355.261       -2998.667          41.000    21863470.865    89527265.228       -2336.700          39.000  
G18  21943950.122   115316228.209       -3602.350          41.000    21943940.741    89856751.022       -2807.015          40.000  
G23  18644305.735    97976488.639        -692.888          48.000    18644292.915    76345255.633        -539.891          49.000  
G24  19588652.244   102939059.662       -2652.889          41.000    19588641.680    80212202.049       -2066.996          38.000  
G32  21612558.024   113574766.844        1710.344          45.000    21612548.713    88499777.780        1332.607          43.000  
C08  34635880.517   180358112.762         -18.042          46.000    34635862.882   139464264.185         -14.033          49.000  
C13  34756254.167   180984936.055         218.291          46.000    34756244.516   139948994.053         168.462          46.000  
C16  35733381.707   186073094.911         277.801          47.000    35733370.748   143883476.690         214.943          47.000  
C25  21330535.928   111073692.027       -1555.673          45.000                                                                  
C32  21552604.382   112230064.696        1326.977          46.000                                                                  
C06  35506831.671   184893387.376         456.205          44.000    35506815.036   142971233.381         352.540          45.000  
G25  21790146.940   114508009.271        3186.508          42.000    21790140.392    89226995.943        2483.169          39.000  
G10  20223448.275   106274937.493        2080.235          46.000    20223437.438    82811604.013        1620.834          42.000  
G12  21429463.198   112612599.021        2096.353          42.000    21429452.369    87750045.859        1633.214          40.000  
G28  23308586.054   122487456.541        3126.826          37.000    23308578.814    95444713.081        2436.494          40.000  
C23  21116688.978   109960141.949        1451.514          50.000                                                                  
C09  37015614.611   192750021.333         534.734          41.000    37015602.771   149046488.881         413.667          46.000  
C33  24875106.239   129531186.286       -2620.726          36.000                                                                  
C30  24562052.749   127901045.584       -2026.370          35.000                                                                  
C27  24992396.649   130141948.447       -2795.872          36.000                                                                  
C37  24174470.526   125882806.139        3093.331          42.000                                                                  
> 2025 10 27 02 11 50.1950000  0 21                     
G15  21863503.403   114893475.198       -2998.522          41.000    21863493.716    89527358.703       -2336.898          39.000  
G18  21943977.545   115316372.304       -3602.368          41.000    21943968.146    89856863.296       -2806.984          40.000  
G23  18644311.017    97976516.356        -692.883          48.000    18644298.180    76345277.232        -539.936          49.000  
G24  19588672.425   102939165.781       -2652.945          41.000    19588661.872    80212284.745       -2067.270          38.000  
G32  21612545.016   113574698.441        1710.198          45.000    21612535.698    88499724.462        1332.892          43.000  
C08  34635880.671   180358113.487         -18.058          46.000    34635863.065   139464264.745         -14.011          49.000  
C13  34756252.490   180984927.337         218.071          46.000    34756242.839   139948987.306         168.548          46.000  
C16  35733379.543   186073083.811         277.675          47.000    35733368.610   143883468.106         214.757          46.000  
C25  21330547.893   111073754.253       -1555.679          45.000                                                                  
C32  21552594.188   112230011.621        1326.948          46.000                                                                  
C06  35506828.168   184893369.138         456.010          44.000    35506811.576   142971219.266         352.724          45.000  
G25  21790122.671   114507881.805        3186.662          42.000    21790116.155    89226896.625        2483.031          39.000  
G10  20223432.451   106274854.278        2080.374          46.000    20223421.612    82811539.172        1620.964          42.000  
G12  21429447.242   112612515.167        2096.403          42.000    21429436.404    87749980.508        1633.548          40.000  
G28  23308562.247   122487331.461        3126.989          37.000    23308555.012    95444615.613        2436.680          40.000  
C23  21116677.812   109960083.888        1451.532          50.000                                                                  
C09  37015610.505   192749999.941         534.752          41.000    37015598.661   149046472.334         413.697          46.000  
C33  24875126.381   129531291.113       -2620.576          36.000                                                                  
C30  24562068.317   127901126.631       -2026.213          35.000                                                                  
C27  24992418.139   130142060.300       -2796.150          36.000                                                                  
C37  24174446.767   125882682.394        3093.613          42.000                                                                  
> 2025 10 27 02 11 50.2350000  0 21                     
G15  21863526.244   114893595.148       -2998.704          41.000    21863516.533    89527452.176       -2336.938          39.000  
G18  21944004.967   115316516.397       -3602.375          41.000    21943995.571    89856975.592       -2807.304          40.000  
G23  18644316.309    97976544.076        -692.958          48.000    18644303.464    76345298.833        -540.023          49.000  
G24  19588692.625   102939271.910       -2653.144          41.000    19588682.081    80212367.457       -2067.724          38.000  
G32  21612532.016   113574630.054        1709.781          45.000    21612522.677    88499671.159        1332.728          43.000  
C08  34635880.825   180358114.229         -18.425          46.000    34635863.258   139464265.314         -14.180          49.000  
C13  34756250.839   180984918.614         218.021          46.000    34756241.165   139948980.553         168.698          46.000  
C16  35733377.384   186073072.708         277.629          47.000    35733366.491   143883459.526         214.565          46.000  
C25  21330559.832   111073816.481       -1555.716          45.000                                                                  
C32  21552583.991   112229958.550        1326.828          46.000                                                                  
C06  35506824.667   184893350.894         456.022          44.000    35506808.062   142971205.152         352.859          45.000  
G25  21790098.413   114507754.344        3186.616          42.000    21790091.903    89226797.315        2482.839          39.000  
G10  20223416.621   106274771.078        2080.151          46.000    20223405.756    82811474.343        1620.777          42.000  
G12  21429431.281   112612431.323        2096.219          42.000    21429420.458    87749915.170        1633.509          40.000  
G28  23308538.455   122487206.396        3126.827          37.000    23308531.220    95444518.156        2436.561          40.000  
C23  21116666.628   109960025.828        1451.486          50.000                                                                  
C09  37015606.416   192749978.541         534.894          41.000    37015594.543   149046455.791         413.604          46.000  
C33  24875146.512   129531395.947       -2620.753          36.000                                                                  
C30  24562083.892   127901207.688       -2026.324          35.000                                                                  
C27  24992439.610   130142172.171       -2796.661          36.000                                                                  
C37  24174423.002   125882558.669        3093.339          42.000                                                                  
> 2025 10 27 02 11 50.2750000  0 21                     
G15  21863549.074   114893715.098       -2998.783          41.000    21863539.353    89527545.636       -2336.682          39.000  
G18  21944032.397   115316660.499       -3602.554          41.000    21944022.980    89857087.876       -2807.235          40.000  
G23  18644321.622    97976571.806        -693.213          48.000    18644308.749    76345320.433        -540.035          49.000  
G24  19588712.819   102939378.029       -2653.092          41.000    19588702.273    80212450.133       -2067.282          38.000  
G32  21612518.986   113574561.650        1709.915          45.000    21612509.662    88499617.871        1332.335          43.000  
C08  34635880.972   180358114.969         -18.562          46.000    34635863.433   139464265.880         -14.211          49.000  
C13  34756249.159   180984909.896         217.889          46.000    34756239.500   139948973.811         168.588          46.000  
C16  35733375.250   186073061.612         277.469          47.000    35733364.348   143883450.948         214.415          46.000  
C25  21330571.745   111073878.715       -1555.834          45.000                                                                  
C32  21552573.809   112229905.483        1326.690          46.000                                                                  
C06  35506821.159   184893332.643         456.145          44.000    35506804.515   142971191.041         352.830          45.000  
G25  21790074.171   114507626.893        3186.315          42.000    21790067.654    89226698.006        2482.690          39.000  
G10  20223400.786   106274687.884        2079.875          46.000    20223389.927    82811409.507        1620.821          42.000  
G12  21429415.352   112612347.486        2095.969          42.000    21429404.504    87749849.837        1633.364          40.000  
G28  23308514.651   122487081.330        3126.763          37.000    23308507.420    95444420.704        2436.357          40.000  
C23  21116655.438   109959967.773        1451.372          50.000                                                                  
C09  37015602.315   192749957.147         534.888          41.000    37015590.446   149046439.247         413.585          46.000  
C33  24875166.658   129531500.788       -2621.021          36.000                                                                  
C30  24562099.481   127901288.746       -2026.439          35.000                                                                  
C27  24992461.113   130142284.043       -2796.980          37.000                                                                  
C37  24174399.254   125882434.947        3093.118          42.000                                                                  
> 2025 10 27 02 11 50.3150000  0 21                     
G15  21863571.925   114893835.058       -2999.013          41.000    21863562.170    89527639.086       -2336.410          39.000  
G18  21944059.812   115316804.600       -3602.609          41.000    21944050.392    89857200.158       -2807.136          40.000  
G23  18644326.913    97976599.534        -693.292          48.000    18644314.056    76345342.043        -540.234          49.000  
G24  19588733.044   102939484.165       -2653.351          41.000    19588722.483    80212532.847       -2067.701          38.000  
G32  21612505.972   113574493.249        1709.940          45.000    21612496.647    88499564.574        1332.313          43.000  
C08  34635881.107   180358115.709         -18.613          46.000    34635863.614   139464266.452         -14.314          49.000  
C13  34756247.474   180984901.178         217.843          46.000    34756237.822   139948967.072         168.471          46.000  
C16  35733373.119   186073050.513         277.460          47.000    35733362.217   143883442.373         214.297          46.000  
C25  21330583.715   111073940.946       -1555.832          45.000                                                                  
C32  21552563.608   112229852.418        1326.604          46.000                                                                  
C06  35506817.643   184893314.401         456.067          44.000    35506800.992   142971176.930         352.786          45.000  
G25  21790049.935   114507499.444        3186.200          42.000    21790043.408    89226598.700        2482.612          39.000  
G10  20223384.970   106274604.684        2079.850          46.000    20223374.093    82811344.672        1620.805          42.000  
G12  21429399.396   112612263.633        2096.134          42.000    21429388.561    87749784.506        1633.277          40.000  
G28  23308490.851   122486956.264        3126.748          37.000    23308483.615    95444323.253        2436.244          40.000  
C23  21116644.255   109959909.723        1451.221          50.000                                                                  
C09  37015598.182   192749935.763         534.660          41.000    37015586.321   149046422.712         413.413          46.000  
C33  24875186.794   129531605.631       -2621.200          36.000                                                                  
C30  24562115.035   127901369.825       -2026.922          35.000                                                                  
C27  24992482.599   130142395.905       -2796.811          37.000                                                                  
C37  24174375.509   125882311.221        3093.096          42.000                                                                  
> 2025 10 27 02 11 50.3550000  0 21                     
G15  21863594.765   114893955.011       -2999.011          41.000    21863584.989    89527732.545       -2336.431          39.000  
G18  21944087.247   115316948.706       -3602.669          41.000    21944077.822    89857312.448       -2807.240          40.000  
G23  18644332.195    97976627.266        -693.371          48.000    18644319.354    76345363.654        -540.338          49.000  
G24  19588753.259   102939590.294       -2653.356          41.000    19588742.714    80212615.555       -2067.754          38.000  
G32  21612492.925   113574424.844        1710.040          45.000    21612483.625    88499511.280        1332.284          43.000  
C08  34635881.266   180358116.446         -18.565          46.000    34635863.753   139464267.025         -14.374          49.000  
C13  34756245.770   180984892.463         217.812          46.000    34756236.131   139948960.335         168.398          46.000  
C16  35733371.002   186073039.416         277.397          47.000    35733360.070   143883433.787         214.481          46.000  
C25  21330595.684   111074003.181       -1555.875          45.000                                                                  
C32  21552553.435   112229799.358        1326.462          46.000                                                                  
C06  35506814.152   184893296.164         455.967          44.000    35506797.526   142971162.838         352.452          45.000  
G25  21790025.676   114507371.994        3186.146          42.000    21790019.160    89226499.382        2482.781          39.000  
G10  20223369.170   106274521.497        2079.662          46.000    20223358.263    82811279.857        1620.530          42.000  
G12  21429383.441   112612179.792        2096.053          42.000    21429372.599    87749719.192        1632.920          40.000  
G28  23308467.068   122486831.218        3126.364          37.000    23308459.822    95444225.814        2435.959          40.000  
C23  21116633.128   109959851.675        1451.136          50.000                                                                  
C09  37015594.087   192749914.372         534.697          41.000    37015582.224   149046406.180         413.278          46.000  
C33  24875206.969   129531710.475       -2621.165          36.000                                                                  
C30  24562130.588   127901450.903       -2027.047          36.000                                                                  
C27  24992504.098   130142507.776       -2796.810          37.000                                                                  
C37  24174351.731   125882187.506        3092.884          42.000                                                                  
> 2025 10 27 02 11 50.3950000  0 21                     
G15  21863617.588   114894074.949       -2998.693          41.000    21863607.833    89527826.019       -2336.762          39.000  
G18  21944114.650   115317092.807       -3602.576          41.000    21944105.266    89857424.743       -2807.345          40.000  
G23  18644337.460    97976654.992        -693.251          48.000    18644324.633    76345385.261        -540.280          49.000  
G24  19588773.466   102939696.435       -2653.568          41.000    19588762.910    80212698.240       -2067.326          38.000  
G32  21612479.897   113574356.440        1710.109          45.000    21612470.602    88499457.983        1332.316          43.000  
C08  34635881.419   180358117.171         -18.313          46.000    34635863.914   139464267.597         -14.374          49.000  
C13  34756244.089   180984883.747         217.837          46.000    34756234.475   139948953.589         168.529          46.000  
C16  35733368.869   186073028.328         277.207          47.000    35733357.917   143883425.206         214.521          46.000  
C25  21330607.649   111074065.421       -1556.007          45.000                                                                  
C32  21552543.244   112229746.293        1326.528          46.000                                                                  
C06  35506810.656   184893277.926         455.930          44.000    35506794.040   142971148.733         352.472          45.000  
G25  21790001.418   114507244.543        3186.166          42.000    21789994.914    89226400.062        2482.924          39.000  
G10  20223353.354   106274438.304        2079.705          46.000    20223342.432    82811215.029        1620.597          42.000  
G12  21429367.476   112612095.962        2095.803          42.000    21429356.623    87749653.850        1633.290          40.000  
G28  23308443.248   122486706.162        3126.326          37.000    23308436.037    95444128.351        2436.284          40.000  
C23  21116622.018   109959793.624        1451.165          50.000                                                                  
C09  37015589.988   192749892.993         534.507          41.000    37015578.126   149046389.640         413.396          46.000  
C33  24875227.112   129531815.312       -2621.033          36.000                                                                  
C30  24562146.142   127901531.962       -2026.669          36.000                                                                  
C27  24992525.574   130142619.641       -2796.748          37.000                                                                  
C37  24174327.977   125882063.781        3093.048          42.000                                                                  
> 2025 10 27 02 11 50.4350000  0 21                     
G15  21863640.412   114894194.889       -2998.525          41.000    21863630.661    89527919.484       -2336.716          39.000  
G18  21944142.049   115317236.905       -3602.509          41.000    21944132.663    89857537.019       -2807.073          40.000  
G23  18644342.727    97976682.717        -693.163          48.000    18644329.900    76345406.866        -540.223          49.000  
G24  19588793.651   102939802.542       -2653.025          41.000    19588783.095    80212780.921       -2067.021          38.000  
G32  21612466.909   113574288.048        1709.903          45.000    21612457.597    88499404.687        1332.316          43.000  
C08  34635881.584   180358117.899         -18.178          46.000    34635864.073   139464268.162         -14.238          49.000  
C13  34756242.411   180984875.028         217.905          46.000    34756232.797   139948946.838         168.700          46.000  
C16  35733366.745   186073017.231         277.295          47.000    35733355.804   143883416.615         214.705          46.000  
C25  21330619.611   111074127.656       -1555.980          45.000                                                                  
C32  21552533.056   112229693.227        1326.611          46.000                                                                  
C06  35506807.155   184893259.677         456.107          44.000    35506790.533   142971134.629         352.527          45.000  
G25  21789977.170   114507117.082        3186.365          42.000    21789970.654    89226300.738        2483.053          39.000  
G10  20223337.530   106274355.100        2079.929          46.000    20223326.606    82811150.200        1620.673          42.000  
G12  21429351.519   112612012.123        2095.870          42.000    21429340.658    87749588.508        1633.490          40.000  
G28  23308419.434   122486581.068        3126.974          37.000    23308412.237    95444030.906        2436.139          40.000  
C23  21116610.894   109959735.568        1451.281          50.000                                                                  
C09  37015585.888   192749871.594         534.810          41.000    37015574.032   149046373.101         413.440          46.000  
C33  24875247.272   129531920.157       -2621.057          36.000                                                                  
C30  24562161.720   127901613.006       -2026.199          36.000                                                                  
C27  24992547.078   130142731.492       -2796.403          37.000                                                                  
C37  24174304.194   125881940.052        3093.141          42.000                                                                  
> 2025 10 27 02 11 50.4750000  0 21                     
G15  21863663.240   114894314.832       -2998.540          41.000    21863653.491    89528012.957       -2336.871          39.000  
G18  21944169.461   115317380.988       -3602.176          42.000    21944160.084    89857649.299       -2807.006          40.000  
G23  18644348.012    97976710.438        -693.052          48.000    18644335.167    76345428.464        -540.024          49.000  
G24  19588813.837   102939908.653       -2652.826          41.000    19588803.282    80212863.616       -2067.200          38.000  
G32  21612453.898   113574219.631        1710.265          45.000    21612444.556    88499351.370        1332.752          43.000  
C08  34635881.761   180358118.622         -18.067          46.000    34635864.221   139464268.722         -14.081          49.000  
C13  34756240.763   180984866.296         218.171          46.000    34756231.140   139948940.089         168.734          46.000  
C16  35733364.620   186073006.121         277.604          47.000    35733353.702   143883408.027         214.699          46.000  
C25  21330631.563   111074189.875       -1555.678          45.000                                                                  
C32  21552522.881   112229640.148        1326.887          46.000                                                                  
C06  35506803.658   184893241.425         456.198          44.000    35506787.009   142971120.511         352.792          45.000  
G25  21789952.918   114506989.617        3186.582          41.000    21789946.401    89226201.427        2482.865          39.000  
G10  20223321.706   106274271.891        2080.167          46.000    20223310.775    82811085.362        1620.853          42.000  
G12  21429335.572   112611928.266        2096.274          42.000    21429324.703    87749523.178        1633.361          40.000  
G28  23308395.647   122486455.983        3127.122          37.000    23308388.449    95443933.434        2436.579          40.000  
C23  21116599.783   109959677.504        1451.502          50.000                                                                  
C09  37015581.764   192749850.194         535.000          41.000    37015569.947   149046356.547         413.735          46.000  
C33  24875267.371   129532024.974       -2620.540          36.000                                                                  
C30  24562177.270   127901694.083       -2026.621          36.000                                                                  
C27  24992568.570   130142843.325       -2795.874          37.000                                                                  
C37  24174280.430   125881816.315        3093.348          42.000                                                                  
> 2025 10 27 02 11 50.5150000  0 21                     
G15  21863686.086   114894434.784       -2998.747          41.000    21863676.300    89528106.402       -2336.359          39.000  
G18  21944196.888   115317525.082       -3602.245          42.000    21944187.494    89857761.576       -2806.908          40.000  
G23  18644353.267    97976738.159        -693.010          48.000    18644340.432    76345450.063        -539.983          49.000  
G24  19588834.061   102940014.791       -2653.168          41.000    19588823.473    80212946.317       -2067.430          38.000  
G32  21612440.873   113574151.227        1710.168          45.000    21612431.548    88499298.059        1332.823          43.000  
C08  34635881.896   180358119.354         -18.217          46.000    34635864.367   139464269.274         -13.834          49.000  
C13  34756239.078   180984857.563         218.313          46.000    34756229.495   139948933.346         168.658          46.000  
C16  35733362.498   186072995.010         277.785          47.000    35733351.580   143883399.430         214.890          46.000  
C25  21330643.486   111074252.098       -1555.574          45.000                                                                  
C32  21552512.683   112229587.071        1326.997          46.000                                                                  
C06  35506800.143   184893223.173         456.258          44.000    35506783.486   142971106.399         352.832          45.000  
G25  21789928.655   114506862.154        3186.599          41.000    21789922.133    89226102.108        2482.941          39.000  
G10  20223305.883   106274188.683        2080.237          46.000    20223294.928    82811020.514        1621.162          42.000  
G12  21429319.622   112611844.411        2096.453          42.000    21429308.759    87749457.839        1633.436          40.000  
G28  23308371.876   122486330.906        3127.011          37.000    23308364.647    95443835.960        2436.838          40.000  
C23  21116588.645   109959619.441        1451.587          50.000                                                                  
C09  37015577.680   192749828.805         534.844          41.000    37015565.832   149046339.994         413.838          46.000  
C33  24875287.497   129532129.786       -2620.247          36.000                                                                  
C30  24562192.828   127901775.099       -2025.676          36.000                                                                  
C27  24992590.068   130142955.181       -2796.055          37.000                                                                  
C37  24174256.654   125881692.590        3093.210          42.000                                                                  
> 2025 10 27 02 11 50.5550000  0 21                     
G15  21863708.912   114894554.725       -2998.628          41.000    21863699.118    89528199.878       -2336.736          39.000  
G18  21944224.311   115317669.170       -3602.228          42.000    21944214.917    89857873.850       -2806.829          40.000  
G23  18644358.553    97976765.882        -693.042          48.000    18644345.704    76345471.664        -539.996          49.000  
G24  19588854.264   102940120.910       -2653.085          41.000    19588843.676    80213029.020       -2067.623          38.000  
G32  21612427.840   113574082.818        1710.199          45.000    21612418.544    88499244.750        1332.783          43.000  
C08  34635882.017   180358120.093         -18.387          46.000    34635864.551   139464269.836         -13.934          49.000  
C13  34756237.401   180984848.832         218.343          46.000    34756227.835   139948926.595         168.736          46.000  
C16  35733360.334   186072983.897         277.861          47.000    35733349.453   143883390.846         214.738          46.000  
C25  21330655.407   111074314.330       -1555.708          45.000                                                                  
C32  21552502.486   112229533.998        1326.918          46.000                                                                  
C06  35506796.631   184893204.921         456.288          44.000    35506780.014   142971092.296         352.646          45.000  
G25  21789904.397   114506734.689        3186.596          41.000    21789897.860    89226002.787        2483.028          39.000  
G10  20223290.060   106274105.480        2080.145          46.000    20223279.079    82810955.678        1621.032          42.000  
G12  21429303.668   112611760.560        2096.391          42.000    21429292.812    87749392.501        1633.434          40.000  
G28  23308348.096   122486205.847        3126.638          37.000    23308340.865    95443738.497        2436.720          40.000  
C23  21116577.482   109959561.385        1451.501          50.000                                                                  
C09  37015573.582   192749807.404         534.943          41.000    37015561.741   149046323.453         413.622          46.000  
C33  24875307.629   129532234.626       -2620.668          36.000                                                                  
C30  24562208.380   127901856.154       -2026.092          36.000                                                                  
C27  24992611.549   130143067.035       -2796.222          37.000                                                                  
C37  24174232.884   125881568.850        3093.388          42.000                                                                  
> 2025 10 27 02 11 50.5950000  0 21                     
G15  21863731.726   114894674.660       -2998.498          41.000    21863721.947    89528293.331       -2336.473          39.000  
G18  21944251.734   115317813.263       -3602.264          42.000    21944242.353    89857986.126       -2806.879          40.000  
G23  18644363.840    97976793.608        -693.117          48.000    18644350.978    76345493.268        -540.090          49.000  
G24  19588874.461   102940227.038       -2653.164          41.000    19588863.871    80213111.705       -2067.380          38.000  
G32  21612414.827   113574014.408        1710.261          45.000    21612405.520    88499191.452        1332.578          43.000  
C08  34635882.162   180358120.815         -18.169          46.000    34635864.707   139464270.401         -14.059          49.000  
C13  34756235.730   180984840.110         218.192          46.000    34756226.162   139948919.847         168.740          46.000  
C16  35733358.197   186072972.794         277.708          47.000    35733347.293   143883382.260         214.655          46.000  
C25  21330667.335   111074376.567       -1555.885          45.000                                                                  
C32  21552492.287   112229480.922        1326.904          46.000                                                                  
C06  35506793.147   184893186.675         456.230          44.000    35506776.534   142971078.181         352.723          45.000  
G25  21789880.136   114506607.224        3186.621          41.000    21789873.589    89225903.466        2483.014          39.000  
G10  20223274.234   106274022.278        2080.099          46.000    20223263.250    82810890.857        1620.634          42.000  
G12  21429287.714   112611676.706        2096.388          42.000    21429276.866    87749327.166        1633.384          40.000  
G28  23308324.319   122486080.779        3126.585          37.000    23308317.069    95443641.035        2436.688          40.000  
C23  21116566.325   109959503.328        1451.431          50.000                                                                  
C09  37015569.466   192749786.005         534.942          41.000    37015557.594   149046306.906         413.634          46.000  
C33  24875327.770   129532339.478       -2621.159          36.000                                                                  
C30  24562223.967   127901937.221       -2026.552          36.000                                                                  
C27  24992633.043   130143178.896       -2796.407          37.000                                                                  
C37  24174209.110   125881445.117        3093.347          42.000                                                                  
> 2025 10 27 02 11 50.6350000  0 21                     
G15  21863754.536   114894794.601       -2998.511          41.000    21863744.759    89528386.793       -2336.543          39.000  
G18  21944279.159   115317957.365       -3602.480          42.000    21944269.772    89858098.413       -2807.101          40.000  
G23  18644369.128    97976821.335        -693.198          48.000    18644356.275    76345514.877        -540.221          49.000  
G24  19588894.673   102940333.165       -2653.190          41.000    19588884.072    80213194.395       -2067.214          38.000  
G32  21612401.795   113573945.997        1710.291          45.000    21612392.492    88499138.159        1332.355          43.000  
C08  34635882.297   180358121.528         -17.922          46.000    34635864.861   139464270.967         -14.144          49.000  
C13  34756234.049   180984831.382         218.190          47.000    34756224.490   139948913.097         168.736          46.000  
C16  35733356.053   186072961.693         277.575          47.000    35733345.158   143883373.680         214.529          46.000  
C25  21330679.272   111074438.796       -1555.859          45.000                                                                  
C32  21552482.123   112229427.849        1326.834          46.000                                                                  
C06  35506789.657   184893168.432         456.087          44.000    35506773.031   142971064.066         352.802          45.000  
G25  21789855.895   114506479.772        3186.385          41.000    21789849.326    89225804.141        2483.089          39.000  
G10  20223258.421   106273939.088        2079.804          46.000    20223247.437    82810826.025        1620.671          42.000  
G12  21429271.762   112611592.869        2096.086          42.000    21429260.907    87749261.837        1633.220          40.000  
G28  23308300.537   122485955.700        3126.801          37.000    23308293.278    95443543.591        2436.323          40.000  
C23  21116555.159   109959445.275        1451.317          50.000                                                                  
C09  37015565.358   192749764.609         534.924          41.000    37015553.488   149046290.361         413.629          46.000  
C33  24875347.884   129532444.314       -2621.106          36.000                                                                  
C30  24562239.555   127902018.318       -2027.294          36.000                                                                  
C27  24992654.538   130143290.746       -2796.332          37.000                                                                  
C37  24174185.355   125881321.387        3093.276          42.000                                                                  
