     3.04           OBSERVATION DATA    M: Mixed            RINEX VERSION / TYPE
RTKCONV 2.4.3 b34                       20251027 033045 UTC PGM / RUN BY / DATE 
format: u-blox UBX                                          COMMENT             
log: D:\GPdata\10_27\fingure_288_10_27_2.ubx                COMMENT             
                                                            MARKER NAME         
                                                            MARKER NUMBER       
                                                            MARKER TYPE         
                                                            OBSERVER / AGENCY   
                                                            REC # / TYPE / VERS 
                                                            ANT # / TYPE        
        0.0000        0.0000        0.0000                  APPROX POSITION XYZ 
        0.0000        0.0000        0.0000                  ANTENNA: DELTA H/E/N
G    8 C1C L1C D1C S1C C2L L2L D2L S2L                      SYS / # / OBS TYPES 
C    8 C2I L2I D2I S2I C7I L7I D7I S7I                      SYS / # / OBS TYPES 
  2025    10    27    02    50   21.5960000     GPS         TIME OF FIRST OBS   
  2025    10    27    02    50   46.9160000     GPS         TIME OF LAST OBS    
G L1C                                                       SYS / PHASE SHIFT   
G L2L  0.00000                                              SYS / PHASE SHIFT   
C L2I                                                       SYS / PHASE SHIFT   
C L7I                                                       SYS / PHASE SHIFT   
  0                                                         GLONASS SLOT / FRQ #
 C1C    0.000 C1P    0.000 C2C    0.000 C2P    0.000        GLONASS COD/PHS/BIS 
                                                            END OF HEADER       
> 2025 10 27 02 50 21.5960000  0 19                     
G12  20753355.160   109059617.7401        889.618          45.000    20753343.270    84981473.7661        693.297          42.000  
G15  23239654.324   122125197.1211      -3251.068          34.000    23239649.002    95162476.2581      -2532.931          32.000  
G18  23567644.346   123848792.7961      -3682.401          36.000    23567638.972    96505516.1531      -2869.957          36.000  
G23  19252943.649   101174897.2841      -2071.834          46.000    19252932.031    78837507.6391      -1614.431          48.000  
G24  20929511.765   109985326.0141      -3363.240          30.000    20929500.196                       -2620.858          31.000  
G32  20903474.070   109848497.2121       1505.789          46.000    20903463.545    85596176.9741       1173.232          41.000  
C08  34709912.888   180743620.6681       -335.541          46.000    34709896.088   139762353.4261       -259.412          49.000  
C13  34711879.824   180753863.7551        -39.697          47.000    34711870.908   139770306.8761        -30.670          48.000  
C16  35671901.396   185752953.0401          4.377          47.000    35671893.156   143635926.1831          3.365          48.000  
C25  22251948.639   115871749.0571      -2541.506          35.000                                                                  
C32  21053022.787   109628617.5171        879.149          50.000                                                                  
C06  35365332.611   184156567.5871        183.828          44.000    35365317.028   142401475.7441        141.993          47.000  
G25  20501705.791   107737206.0251       2559.972          40.000    20501697.995    83951027.6191       1994.700          43.000  
G10  19515069.980   102552380.7941       1057.318          50.000    19515058.306    79910902.2601        823.804          44.000  
G28  22040965.085   115826067.5821       2591.289          40.000    22040954.848    90254059.6211       2018.932          42.000  
C23  20727513.464   107933600.8391        274.025          50.000                                                                  
C09  36833883.623   191803702.4021        282.219          39.000    36833871.958   148314736.3301        218.254          47.000  
C33  26107440.473   135948233.3651      -2925.860          32.000                                                                  
C37  22875407.094   119118262.3941       2692.646          43.000                                                                  
> 2025 10 27 02 50 21.6360000  0 19                     
G12  20753348.383   109059582.155         889.573          45.000    20753336.498    84981446.035         693.277          42.000  
G15  23239679.066   122125327.162       -3251.001          34.000    23239673.727    95162577.627       -2533.745          32.000  
G18  23567672.362   123848940.105       -3682.594          36.000    23567666.998    96505630.922       -2869.604          36.000  
G23  19252959.426   101174980.161       -2071.951          46.000    19252947.788    78837572.217       -1614.492          48.000  
G24  20929537.373   109985460.551       -3363.259          30.000    20929525.778                       -2620.666          31.000  
G32  20903462.617   109848436.985        1505.678          46.000    20903452.095    85596130.036        1173.344          41.000  
C08  34709915.470   180743634.087        -335.510          46.000    34709898.672   139762363.803        -259.442          49.000  
C13  34711880.137   180753865.331         -39.520          47.000    34711871.207   139770308.099         -30.615          48.000  
C16  35671901.332   185752952.869           4.279          47.000    35671893.146   143635926.050           3.293          48.000  
C25  22251968.128   115871850.673       -2540.710          35.000                                                                  
C32  21053016.053   109628582.346         879.215          50.000                                                                  
C06  35365331.188   184156560.241         183.655          44.000    35365315.631   142401470.060         142.050          47.000  
G25  20501686.297   107737103.616        2560.083          40.000    20501678.483    83950947.819        1994.896          43.000  
G10  19515061.904   102552338.502        1057.257          50.000    19515050.252    79910869.303         823.883          44.000  
G28  22040945.347   115825963.919        2591.437          40.000    22040935.120    90253978.856        2018.971          42.000  
C23  20727511.365   107933589.881         273.924          50.000                                                                  
C09  36833881.432   191803691.092         282.602          39.000    36833869.786   148314727.594         218.374          47.000  
C33  26107462.929   135948350.349       -2924.925          32.000                                                                  
C37  22875386.392   119118154.696        2692.543          43.000                                                                  
> 2025 10 27 02 50 21.6760000  0 19                     
G12  20753341.595   109059546.564         889.672          45.000    20753329.733    84981418.308         693.201          42.000  
G15  23239703.816   122125457.219       -3251.327          34.000    23239698.451    95162678.943       -2533.208          32.000  
G18  23567700.414   123849087.418       -3682.745          36.000    23567695.023    96505745.697       -2869.431          36.000  
G23  19252975.206   101175063.030       -2071.845          46.000    19252963.553    78837636.792       -1614.454          48.000  
G24  20929562.973   109985595.089       -3363.310          30.000    20929551.364                       -2620.789          31.000  
G32  20903451.147   109848376.753        1505.719          46.000    20903440.607    85596083.099        1173.390          41.000  
C08  34709918.032   180743647.507        -335.541          46.000    34709901.260   139762374.180        -259.430          49.000  
C13  34711880.441   180753866.910         -39.465          47.000    34711871.546   139770309.320         -30.560          48.000  
C16  35671901.314   185752952.693           4.321          47.000    35671893.108   143635925.912           3.386          48.000  
C25  22251987.639   115871952.312       -2540.850          35.000                                                                  
C32  21053009.323   109628547.169         879.343          50.000                                                                  
C06  35365329.801   184156552.897         183.583          44.000    35365314.254   142401464.374         142.095          47.000  
G25  20501666.820   107737001.217        2560.000          40.000    20501658.990    83950868.019        1994.996          43.000  
G10  19515053.824   102552296.207        1057.306          50.000    19515042.188    79910836.335         824.127          44.000  
G28  22040925.616   115825860.267        2591.388          40.000    22040915.399    90253898.085        2019.160          42.000  
C23  20727509.266   107933578.920         273.949          50.000                                                                  
C09  36833879.264   191803679.789         282.667          39.000    36833867.650   148314718.856         218.460          47.000  
C33  26107485.385   135948467.411       -2925.960          32.000                                                                  
C37  22875365.701   119118046.990        2692.616          43.000                                                                  
> 2025 10 27 02 50 21.7160000  0 19                     
G12  20753334.823   109059510.981         889.619          45.000    20753322.972    84981390.584         693.132          42.000  
G15  23239728.548   122125587.285       -3251.558          34.000    23239723.228    95162780.325       -2534.183          32.000  
G18  23567728.445   123849234.729       -3682.792          36.000    23567723.077    96505860.484       -2869.621          36.000  
G23  19252990.946   101175145.898       -2071.747          46.000    19252979.313    78837701.360       -1614.294          48.000  
G24  20929588.568   109985729.616       -3363.241          30.000    20929576.978                       -2620.265          32.000  
G32  20903439.682   109848316.522        1505.734          46.000    20903429.138    85596036.167        1173.342          41.000  
C08  34709920.565   180743660.922        -335.413          46.000    34709903.806   139762384.556        -259.424          49.000  
C13  34711880.755   180753868.483         -39.355          47.000    34711871.858   139770310.542         -30.554          48.000  
C16  35671901.268   185752952.514           4.407          47.000    35671893.074   143635925.774           3.390          48.000  
C25  22252007.164   115872053.968       -2541.282          35.000                                                                  
C32  21053002.571   109628511.997         879.348          50.000                                                                  
C06  35365328.414   184156545.535         183.859          44.000    35365312.817   142401458.682         142.225          47.000  
G25  20501647.315   107736898.808        2560.134          40.000    20501639.489    83950788.219        1995.039          43.000  
G10  19515045.778   102552253.910        1057.379          50.000    19515034.164    79910803.377         824.036          44.000  
G28  22040905.895   115825756.610        2591.419          40.000    22040895.670    90253817.303        2019.413          42.000  
C23  20727507.177   107933567.952         274.092          50.000                                                                  
C09  36833877.114   191803668.516         282.060          39.000    36833865.465   148314710.128         218.283          47.000  
C33  26107507.854   135948584.472       -2926.423          32.000                                                                  
C37  22875344.994   119117939.285        2692.607          43.000                                                                  
> 2025 10 27 02 50 21.7560000  0 19                     
G12  20753328.037   109059475.401         889.498          45.000    20753316.210    84981362.862         693.017          42.000  
G15  23239753.314   122125717.358       -3251.846          34.000    23239747.973    95162881.631       -2533.253          32.000  
G18  23567756.489   123849382.028       -3682.644          36.000    23567751.084    96505975.252       -2869.338          36.000  
G23  19253006.711   101175228.772       -2071.833          46.000    19252995.096    78837765.941       -1614.461          48.000  
G24  20929614.171   109985864.158       -3363.362          30.000    20929602.561                       -2621.677          31.000  
G32  20903428.215   109848256.294        1505.689          46.000    20903417.680    85595989.242        1173.190          41.000  
C08  34709923.135   180743674.346        -335.547          46.000    34709906.351   139762394.941        -259.607          49.000  
C13  34711881.060   180753870.068         -39.539          47.000    34711872.164   139770311.765         -30.591          48.000  
C16  35671901.205   185752952.338           4.399          47.000    35671893.050   143635925.644           3.266          48.000  
C25  22252026.681   115872155.629       -2541.570          35.000                                                                  
C32  21052995.773   109628476.830         879.237          50.000                                                                  
C06  35365327.002   184156538.175         183.977          44.000    35365311.419   142401452.999         142.140          47.000  
G25  20501627.832   107736796.402        2560.151          40.000    20501619.996    83950708.421        1995.001          43.000  
G10  19515037.739   102552211.615        1057.379          50.000    19515026.119    79910770.426         823.822          44.000  
G28  22040886.175   115825652.971        2591.158          40.000    22040875.964    90253736.537        2019.218          42.000  
C23  20727505.063   107933556.984         274.174          50.000                                                                  
C09  36833874.956   191803657.212         282.290          39.000    36833863.280   148314701.400         218.196          47.000  
C33  26107530.314   135948701.489       -2926.005          32.000                                                                  
C37  22875324.304   119117831.581        2692.564          43.000                                                                  
> 2025 10 27 02 50 21.7960000  0 19                     
G12  20753321.240   109059439.825         889.384          45.000    20753309.454    84981335.147         692.846          42.000  
G15  23239778.075   122125847.430       -3252.043          34.000    23239772.699    95162982.944       -2532.874          32.000  
G18  23567784.510   123849529.335       -3682.615          36.000    23567779.119    96506090.029       -2869.404          36.000  
G23  19253022.507   101175311.650       -2071.981          46.000    19253010.888    78837830.524       -1614.584          48.000  
G24  20929639.765   109985998.704       -3363.508          30.000    20929628.159                       -2621.364          31.000  
G32  20903416.744   109848196.063        1505.716          46.000    20903406.234    85595942.313        1173.181          41.000  
C08  34709925.707   180743687.768        -335.620          46.000    34709908.915   139762405.320        -259.534          49.000  
C13  34711881.347   180753871.656         -39.691          47.000    34711872.472   139770312.987         -30.560          48.000  
C16  35671901.164   185752952.165           4.361          47.000    35671892.996   143635925.513           3.209          48.000  
C25  22252046.205   115872257.284       -2541.569          35.000                                                                  
C32  21052989.030   109628441.662         879.181          50.000                                                                  
C06  35365325.578   184156530.836         183.657          44.000    35365310.021   142401447.317         142.063          47.000  
G25  20501608.345   107736693.998        2560.116          40.000    20501600.498    83950628.636        1994.671          43.000  
G10  19515029.697   102552169.324        1057.288          50.000    19515018.070    79910737.479         823.682          44.000  
G28  22040866.440   115825549.329        2590.997          40.000    22040856.257    90253655.780        2018.995          42.000  
C23  20727502.926   107933546.027         274.010          50.000                                                                  
C09  36833872.773   191803645.939         281.875          39.000    36833861.134   148314692.672         218.147          47.000  
C33  26107552.777   135948818.505       -2925.720          32.000                                                                  
C37  22875303.596   119117723.887        2692.351          43.000                                                                  
> 2025 10 27 02 50 21.8360000  0 19                     
G12  20753314.487   109059404.251         889.291          45.000    20753302.678    84981307.415         693.065          42.000  
G15  23239802.840   122125977.440       -3250.902          34.000    23239797.468    95163084.322       -2533.856          32.000  
G18  23567812.566   123849676.657       -3682.937          36.000    23567807.149    96506204.834       -2869.913          36.000  
G23  19253038.300   101175394.529       -2072.055          46.000    19253026.658    78837895.104       -1614.564          48.000  
G24  20929665.373   109986133.246       -3363.557          30.000    20929653.781                       -2621.587          31.000  
G32  20903405.300   109848135.830        1505.835          46.000    20903394.770    85595895.379        1173.299          41.000  
C08  34709928.267   180743701.192        -335.651          46.000    34709911.509   139762415.699        -259.497          49.000  
C13  34711881.673   180753873.251         -39.880          47.000    34711872.770   139770314.220         -30.756          48.000  
C16  35671901.117   185752952.004           4.120          47.000    35671892.946   143635925.377           3.276          48.000  
C25  22252065.706   115872358.941       -2541.580          35.000                                                                  
C32  21052982.263   109628406.500         879.041          50.000                                                                  
C06  35365324.163   184156523.494         183.564          44.000    35365308.627   142401441.638         141.973          47.000  
G25  20501588.865   107736591.608        2559.883          40.000    20501581.025    83950548.846        1994.628          43.000  
G10  19515021.676   102552127.041        1057.086          50.000    19515010.019    79910704.525         823.737          44.000  
G28  22040846.717   115825445.679        2591.067          40.000    22040836.544    90253575.016        2018.990          42.000  
C23  20727500.796   107933535.075         273.817          50.000                                                                  
C09  36833870.607   191803634.663         281.755          39.000    36833858.973   148314683.949         218.028          47.000  
C33  26107575.260   135948935.522       -2925.597          32.000                                                                  
C37  22875282.952   119117616.186        2692.391          43.000                                                                  
> 2025 10 27 02 50 21.8760000  0 19                     
G12  20753307.699   109059368.674         889.316          45.000    20753295.897    84981279.693         693.051          42.000  
G15  23239827.579   122126107.466       -3250.525          34.000    23239822.240    95163185.668       -2533.806          32.000  
G18  23567840.583   123849823.950       -3682.543          36.000    23567835.208    96506319.637       -2870.113          36.000  
G23  19253054.087   101175477.416       -2072.227          46.000    19253042.421    78837959.678       -1614.410          48.000  
G24  20929690.964   109986267.795       -3363.662          30.000    20929679.390                       -2621.201          31.000  
G32  20903393.847   109848075.602        1505.748          46.000    20903383.278    85595848.436        1173.498          41.000  
C08  34709930.859   180743714.615        -335.669          46.000    34709914.072   139762426.081        -259.534          49.000  
C13  34711881.964   180753874.843         -39.893          47.000    34711873.092   139770315.446         -30.743          48.000  
C16  35671901.065   185752951.831           4.191          47.000    35671892.889   143635925.243           3.289          48.000  
C25  22252085.230   115872460.595       -2541.500          35.000                                                                  
C32  21052975.500   109628371.345         878.858          50.000                                                                  
C06  35365322.724   184156516.154         183.472          44.000    35365307.212   142401435.958         141.958          47.000  
G25  20501569.348   107736489.206        2559.941          40.000    20501561.534    83950469.056        1994.598          43.000  
G10  19515013.634   102552084.758        1057.001          50.000    19515001.967    79910671.581         823.584          44.000  
G28  22040827.003   115825342.034        2591.068          40.000    22040816.821    90253494.262        2018.836          42.000  
C23  20727498.691   107933524.130         273.596          50.000                                                                  
C09  36833868.455   191803623.374         281.959          39.000    36833856.789   148314675.219         218.125          47.000  
C33  26107597.762   135949052.586       -2926.195          32.000                                                                  
C37  22875262.272   119117508.483        2692.503          43.000                                                                  
> 2025 10 27 02 50 21.9160000  0 19                     
G12  20753300.940   109059333.104         889.221          45.000    20753289.136    84981251.976         692.948          42.000  
G15  23239852.321   122126237.566       -3251.720          34.000    23239846.977    95163286.992       -2533.484          32.000  
G18  23567868.608   123849971.255       -3682.556          36.000    23567863.235    96506434.408       -2869.619          36.000  
G23  19253069.853   101175560.296       -2072.126          46.000    19253058.195    78838024.266       -1614.638          48.000  
G24  20929716.583   109986402.363       -3363.958          30.000    20929705.003                       -2621.582          31.000  
G32  20903382.397   109848015.375        1505.688          46.000    20903371.808    85595801.498        1173.504          41.000  
C08  34709933.420   180743728.046        -335.803          46.000    34709916.621   139762436.460        -259.503          49.000  
C13  34711882.277   180753876.430         -39.783          47.000    34711873.392   139770316.679         -30.841          48.000  
C16  35671901.000   185752951.658           4.279          47.000    35671892.832   143635925.112           3.258          48.000  
C25  22252104.738   115872562.237       -2541.172          35.000                                                                  
C32  21052968.731   109628336.190         878.787          50.000                                                                  
C06  35365321.313   184156508.804         183.623          44.000    35365305.799   142401430.278         141.982          47.000  
G25  20501549.868   107736386.815        2559.772          40.000    20501542.037    83950389.270        1994.585          43.000  
G10  19515005.577   102552042.473        1057.013          50.000    19514993.909    79910638.633         823.615          44.000  
G28  22040807.286   115825238.383        2591.180          40.000    22040797.084    90253413.500        2018.912          42.000  
C23  20727496.614   107933513.177         273.656          50.000                                                                  
C09  36833866.264   191803612.075         282.326          39.000    36833854.643   148314666.498         218.025          47.000  
C33  26107620.247   135949169.628       -2926.202          32.000                                                                  
C37  22875241.589   119117400.789        2692.404          43.000                                                                  
> 2025 10 27 02 50 21.9560000  0 19                     
G12  20753294.154   109059297.529         889.297          45.000    20753282.355    84981224.259         692.891          42.000  
G15  23239877.078   122126367.632       -3251.826          34.000    23239871.697    95163388.332       -2533.497          32.000  
G18  23567896.647   123850118.559       -3682.559          36.000    23567891.272    96506549.192       -2869.599          36.000  
G23  19253085.604   101175643.180       -2072.139          46.000    19253073.985    78838088.851       -1614.687          48.000  
G24  20929742.176   109986536.924       -3364.081          30.000    20929730.566                       -2620.372          31.000  
G32  20903370.921   109847955.150        1505.619          46.000    20903360.351    85595754.586        1173.031          41.000  
C08  34709935.998   180743741.470        -335.712          46.000    34709919.199   139762446.843        -259.576          49.000  
C13  34711882.621   180753878.021         -39.795          47.000    34711873.702   139770317.908         -30.804          48.000  
C16  35671900.964   185752951.485           4.311          47.000    35671892.790   143635924.984           3.188          48.000  
C25  22252124.249   115872663.881       -2541.069          35.000                                                                  
C32  21052961.987   109628301.024         878.958          50.000                                                                  
C06  35365319.912   184156501.458         183.599          44.000    35365304.393   142401424.598         141.967          47.000  
G25  20501530.370   107736284.409        2559.973          40.000    20501522.573    83950309.478        1994.701          43.000  
G10  19514997.510   102552000.190        1057.025          50.000    19514985.889    79910605.670         823.926          44.000  
G28  22040787.575   115825134.741        2591.112          40.000    22040777.361    90253332.729        2019.124          42.000  
C23  20727494.541   107933502.221         273.776          50.000                                                                  
C09  36833864.105   191803600.806         281.971          39.000    36833852.454   148314657.770         218.094          47.000  
C33  26107642.740   135949286.636       -2925.590          32.000                                                                  
C37  22875220.905   119117293.098        2692.243          43.000                                                                  
> 2025 10 27 02 50 21.9960000  0 19                     
G12  20753287.381   109059261.957         889.257          45.000    20753275.585    84981196.540         692.902          42.000  
G15  23239901.824   122126497.697       -3251.777          34.000    23239896.471    95163489.679       -2533.582          32.000  
G18  23567924.682   123850265.862       -3682.576          36.000    23567919.306    96506663.969       -2869.445          36.000  
G23  19253101.388   101175726.061       -2072.114          46.000    19253089.757    78838153.435       -1614.668          48.000  
G24  20929767.810   109986671.466       -3363.944          30.000    20929756.147                       -2620.490          31.000  
G32  20903359.473   109847894.935        1505.415          46.000    20903348.885    85595707.667        1172.862          41.000  
C08  34709938.562   180743754.900        -335.773          46.000    34709921.754   139762457.223        -259.552          49.000  
C13  34711882.936   180753879.607         -39.685          47.000    34711874.025   139770319.137         -30.774          48.000  
C16  35671900.906   185752951.317           4.223          47.000    35671892.786   143635924.848           3.273          48.000  
C25  22252143.751   115872765.535       -2541.261          35.000                                                                  
C32  21052955.270   109628265.857         879.079          50.000                                                                  
C06  35365318.495   184156494.103         183.778          44.000    35365302.942   142401418.915         141.999          47.000  
G25  20501510.897   107736182.020        2559.802          40.000    20501503.074    83950229.686        1994.773          43.000  
G10  19514989.449   102551957.905        1057.056          50.000    19514977.820    79910572.722         823.810          44.000  
G28  22040767.819   115825031.094        2591.143          40.000    22040757.632    90253251.952        2019.372          42.000  
C23  20727492.463   107933491.267         273.822          50.000                                                                  
C09  36833861.927   191803589.500         282.417          39.000    36833850.288   148314649.043         218.126          47.000  
C33  26107665.197   135949403.643       -2925.129          32.000                                                                  
C37  22875200.221   119117185.407        2692.211          43.000                                                                  
> 2025 10 27 02 50 22.0360000  0 19                     
G12  20753280.614   109059226.387         889.227          45.000    20753268.814    84981168.814         693.024          42.000  
G15  23239926.569   122126627.755       -3251.593          34.000    23239921.208    95163591.037       -2533.827          32.000  
G18  23567952.687   123850413.177       -3682.700          36.000    23567947.356    96506778.759       -2869.650          36.000  
G23  19253117.158   101175808.951       -2072.212          46.000    19253105.549    78838218.020       -1614.668          48.000  
G24  20929793.422   109986806.000       -3363.715          30.000    20929781.765                       -2620.509          31.000  
G32  20903348.014   109847834.704        1505.595          46.000    20903337.439    85595660.736        1173.079          41.000  
C08  34709941.103   180743768.324        -335.675          46.000    34709924.316   139762467.609        -259.644          49.000  
C13  34711883.279   180753881.190         -39.581          47.000    34711874.308   139770320.362         -30.682          48.000  
C16  35671900.875   185752951.148           4.212          47.000    35671892.728   143635924.718           3.233          48.000  
C25  22252163.278   115872867.214       -2541.821          35.000                                                                  
C32  21052948.511   109628230.695         879.044          50.000                                                                  
C06  35365317.064   184156486.755         183.726          44.000    35365301.538   142401413.233         142.041          47.000  
G25  20501491.437   107736079.631        2559.673          40.000    20501483.587    83950149.892        1994.855          43.000  
G10  19514981.389   102551915.619        1057.123          50.000    19514969.750    79910539.772         823.798          44.000  
G28  22040748.091   115824927.444        2591.224          40.000    22040737.919    90253171.197        2019.026          42.000  
C23  20727490.338   107933480.316         273.775          50.000                                                                  
C09  36833859.765   191803578.214         282.263          39.000    36833848.104   148314640.316         218.118          47.000  
C33  26107687.668   135949520.678       -2925.488          32.000                                                                  
C37  22875179.539   119117077.710        2692.301          43.000                                                                  
> 2025 10 27 02 50 22.0760000  0 19                     
G12  20753273.845   109059190.818         889.182          45.000    20753262.057    84981141.105         692.810          42.000  
G15  23239951.310   122126757.822       -3251.696          34.000    23239945.963    95163692.410       -2534.247          32.000  
G18  23567980.702   123850560.481       -3682.593          36.000    23567975.387    96506893.545       -2869.708          36.000  
G23  19253132.916   101175891.832       -2072.132          46.000    19253121.325    78838282.611       -1614.741          48.000  
G24  20929818.979   109986940.516       -3363.341          30.000    20929807.427                       -2622.010          31.000  
G32  20903336.549   109847774.485        1505.512          46.000    20903325.984    85595613.796        1173.344          41.000  
C08  34709943.714   180743781.745        -335.553          46.000    34709926.875   139762477.996        -259.711          49.000  
C13  34711883.578   180753882.786         -39.825          47.000    34711874.615   139770321.592         -30.713          48.000  
C16  35671900.849   185752950.987           4.057          47.000    35671892.695   143635924.588           3.221          48.000  
C25  22252182.805   115872968.883       -2541.893          35.000                                                                  
C32  21052941.746   109628195.535         878.986          50.000                                                                  
C06  35365315.628   184156479.419         183.475          44.000    35365300.130   142401407.556         141.968          47.000  
G25  20501471.975   107735977.246        2559.585          40.000    20501464.121    83950070.115        1994.606          43.000  
G10  19514973.347   102551873.344        1056.952          50.000    19514961.711    79910506.832         823.590          44.000  
G28  22040728.357   115824823.800        2591.180          40.000    22040718.195    90253090.446        2018.766          42.000  
C23  20727488.175   107933469.368         273.691          50.000                                                                  
C09  36833857.584   191803566.928         282.155          39.000    36833845.934   148314631.593         218.056          47.000  
C33  26107710.169   135949637.745       -2926.385          32.000                                                                  
C37  22875158.861   119116970.015        2692.301          43.000                                                                  
> 2025 10 27 02 50 22.1160000  0 19                     
G12  20753267.075   109059155.248         889.185          45.000    20753255.263    84981113.392         692.755          42.000  
G15  23239976.053   122126887.855       -3251.028          34.000    23239970.718    95163793.719       -2533.384          32.000  
G18  23568008.732   123850707.787       -3682.601          36.000    23568003.429    96507008.327       -2869.464          36.000  
G23  19253148.688   101175974.720       -2072.206          46.000    19253137.105    78838347.197       -1614.729          48.000  
G24  20929844.580   109987075.071       -3363.515          30.000    20929833.052                       -2621.406          31.000  
G32  20903325.064   109847714.262        1505.552          46.000    20903314.534    85595566.873        1173.190          41.000  
C08  34709946.272   180743795.178        -335.718          46.000    34709929.488   139762488.375        -259.576          49.000  
C13  34711883.852   180753884.380         -39.886          47.000    34711874.910   139770322.819         -30.707          48.000  
C16  35671900.795   185752950.815           4.179          47.000    35671892.653   143635924.459           3.191          48.000  
C25  22252202.330   115873070.531       -2541.454          35.000                                                                  
C32  21052935.001   109628160.380         878.892          50.000                                                                  
C06  35365314.206   184156472.079         183.436          44.000    35365298.744   142401401.875         141.996          47.000  
G25  20501452.498   107735874.853        2559.742          40.000    20501444.648    83949990.339        1994.434          43.000  
G10  19514965.308   102551831.068        1056.854          50.000    19514953.643    79910473.894         823.450          44.000  
G28  22040708.621   115824720.173        2590.781          40.000    22040698.495    90253009.702        2018.551          42.000  
C23  20727486.051   107933458.425         273.563          50.000                                                                  
C09  36833855.409   191803555.643         282.106          39.000    36833843.773   148314622.866         218.107          47.000  
C33  26107732.661   135949754.804       -2926.584          32.000                                                                  
C37  22875138.187   119116862.327        2692.216          43.000                                                                  
> 2025 10 27 02 50 22.1560000  0 19                     
G12  20753260.287   109059119.689         889.045          45.000    20753248.496    84981085.686         692.589          42.000  
G15  23240000.810   122127017.935       -3251.566          34.000    23239995.472    95163895.072       -2533.734          32.000  
G18  23568036.758   123850855.110       -3682.915          36.000    23568031.451    96507123.117       -2869.596          36.000  
G23  19253164.475   101176057.603       -2072.157          46.000    19253152.865    78838411.786       -1614.760          48.000  
G24  20929870.211   109987209.612       -3363.511          30.000    20929858.636                       -2619.647          31.000  
G32  20903313.598   109847654.030        1505.687          46.000    20903303.066    85595519.949        1173.114          41.000  
C08  34709948.856   180743808.604        -335.699          46.000    34709932.055   139762498.754        -259.515          49.000  
C13  34711884.193   180753885.963         -39.685          47.000    34711875.209   139770324.045         -30.664          48.000  
C16  35671900.749   185752950.645           4.238          47.000    35671892.643   143635924.333           3.127          48.000  
C25  22252221.833   115873172.163       -2540.918          35.000                                                                  
C32  21052928.278   109628125.219         878.939          50.000                                                                  
C06  35365312.807   184156464.736         183.524          44.000    35365297.350   142401396.203         141.829          47.000  
G25  20501433.000   107735772.472        2559.620          40.000    20501425.178    83949910.552        1994.560          43.000  
G10  19514957.280   102551788.787        1056.940          50.000    19514945.605    79910440.952         823.450          44.000  
G28  22040688.904   115824616.527        2590.952          40.000    22040678.777    90252928.934        2018.941          42.000  
C23  20727483.954   107933447.475         273.626          50.000                                                                  
C09  36833853.250   191803544.374         281.775          39.000    36833841.597   148314614.137         218.163          47.000  
C33  26107755.123   135949871.828       -2926.095          32.000                                                                  
C37  22875117.527   119116754.630        2692.328          43.000                                                                  
> 2025 10 27 02 50 22.1960000  0 19                     
G12  20753253.510   109059084.119         889.125          45.000    20753241.737    84981057.967         692.782          42.000  
G15  23240025.572   122127147.984       -3251.384          34.000    23240020.229    95163996.429       -2533.976          32.000  
G18  23568064.788   123851002.404       -3682.635          36.000    23568059.491    96507237.891       -2869.465          36.000  
G23  19253180.252   101176140.487       -2072.132          46.000    19253168.636    78838476.369       -1614.667          48.000  
G24  20929895.814   109987344.135       -3363.303          30.000    20929884.259                       -2621.020          31.000  
G32  20903302.124   109847593.799        1505.780          46.000    20903291.593    85595473.023        1173.108          41.000  
C08  34709951.460   180743822.028        -335.645          46.000    34709934.629   139762509.133        -259.491          49.000  
C13  34711884.511   180753887.548         -39.612          47.000    34711875.482   139770325.270         -30.627          48.000  
C16  35671900.751   185752950.472           4.295          47.000    35671892.599   143635924.202           3.195          48.000  
C25  22252241.380   115873273.825       -2541.285          35.000                                                                  
C32  21052921.578   109628090.055         879.049          50.000                                                                  
C06  35365311.424   184156457.383         183.713          44.000    35365295.955   142401390.520         141.968          47.000  
G25  20501413.491   107735670.056        2560.167          40.000    20501405.681    83949830.768        1994.592          43.000  
G10  19514949.226   102551746.507        1056.958          50.000    19514937.559    79910408.011         823.450          44.000  
G28  22040669.171   115824512.888        2590.959          40.000    22040659.037    90252848.164        2019.220          42.000  
C23  20727481.849   107933436.524         273.719          50.000                                                                  
C09  36833851.106   191803533.079         282.156          39.000    36833839.437   148314605.418         217.999          47.000  
C33  26107777.584   135949988.850       -2925.607          32.000                                                                  
C37  22875096.852   119116646.934        2692.394          43.000                                                                  
> 2025 10 27 02 50 22.2360000  0 19                     
G12  20753246.726   109059048.554         889.106          45.000    20753234.962    84981030.253         692.816          42.000  
G15  23240050.315   122127278.023       -3251.104          34.000    23240044.959    95164097.750       -2533.435          32.000  
G18  23568092.828   123851149.730       -3682.946          36.000    23568087.522    96507352.681       -2869.609          36.000  
G23  19253196.026   101176223.376       -2072.212          46.000    19253184.420    78838540.953       -1614.605          48.000  
G24  20929921.422   109987478.709       -3363.742          30.000    20929909.909                       -2622.200          31.000  
G32  20903290.683   109847533.578        1505.602          46.000    20903280.130    85595426.096        1173.156          41.000  
C08  34709954.020   180743835.449        -335.565          46.000    34709937.189   139762519.517        -259.583          49.000  
C13  34711884.784   180753889.135         -39.642          47.000    34711875.756   139770326.502         -30.768          48.000  
C16  35671900.711   185752950.298           4.329          47.000    35671892.547   143635924.060           3.436          48.000  
C25  22252260.883   115873375.500       -2541.722          35.000                                                                  
C32  21052914.857   109628054.885         879.221          50.000                                                                  
C06  35365310.027   184156450.034         183.782          44.000    35365294.579   142401384.842         141.968          47.000  
G25  20501394.020   107735567.662        2560.023          40.000    20501386.203    83949750.973        1994.820          43.000  
G10  19514941.149   102551704.224        1057.013          50.000    19514929.525    79910375.060         823.645          43.000  
G28  22040649.445   115824409.233        2591.226          40.000    22040639.303    90252767.393        2019.304          42.000  
C23  20727479.751   107933425.573         273.769          50.000                                                                  
C09  36833848.945   191803521.792         282.160          39.000    36833837.279   148314596.683         218.214          47.000  
C33  26107800.043   135950105.880       -2925.729          32.000                                                                  
C37  22875076.180   119116539.235        2692.463          43.000                                                                  
> 2025 10 27 02 50 22.2760000  0 19                     
G12  20753239.947   109059012.975         889.332          45.000    20753228.204    84981002.528         693.069          42.000  
G15  23240075.065   122127408.061       -3250.878          34.000    23240069.703    95164199.075       -2533.198          32.000  
G18  23568120.873   123851297.030       -3682.750          36.000    23568115.564    96507467.463       -2869.610          36.000  
G23  19253211.806   101176306.262       -2072.181          46.000    19253200.188    78838605.538       -1614.618          48.000  
G24  20929947.039   109987613.251       -3363.701          30.000    20929935.519                       -2621.144          31.000  
G32  20903279.242   109847473.355        1505.525          46.000    20903268.677    85595379.164        1173.258          41.000  
C08  34709956.613   180743848.871        -335.559          46.000    34709939.749   139762529.895        -259.491          49.000  
C13  34711885.101   180753890.716         -39.575          47.000    34711876.094   139770327.721         -30.585          48.000  
C16  35671900.639   185752950.128           4.302          47.000    35671892.520   143635923.922           3.474          48.000  
C25  22252280.425   115873477.151       -2541.542          35.000                                                                  
C32  21052908.058   109628019.725         879.108          50.000                                                                  
C06  35365308.628   184156442.689         183.723          44.000    35365293.176   142401379.156         142.056          47.000  
G25  20501374.560   107735465.277        2559.765          40.000    20501366.701    83949671.185        1994.745          43.000  
G10  19514933.085   102551661.943        1057.037          50.000    19514921.486    79910342.115         823.621          43.000  
G28  22040629.715   115824305.592        2591.068          40.000    22040619.604    90252686.628        2019.240          42.000  
C23  20727477.637   107933414.622         273.780          50.000                                                                  
C09  36833846.769   191803510.498         282.329          39.000    36833835.111   148314587.947         218.357          47.000  
C33  26107822.509   135950222.904       -2925.683          32.000                                                                  
C37  22875055.485   119116431.534        2692.504          43.000                                                                  
> 2025 10 27 02 50 22.3160000  0 19                     
G12  20753233.191   109058977.410         889.238          45.000    20753221.433    84980974.808         693.082          42.000  
G15  23240099.812   122127538.142       -3251.588          34.000    23240094.451    95164300.434       -2533.820          32.000  
G18  23568148.889   123851444.314       -3682.301          36.000    23568143.605    96507582.227       -2869.313          36.000  
G23  19253227.579   101176389.144       -2072.101          46.000    19253215.955    78838670.127       -1614.680          48.000  
G24  20929972.678   109987747.781       -3363.504          30.000    20929961.104                       -2620.549          31.000  
G32  20903267.784   109847413.123        1505.670          46.000    20903257.187    85595332.226        1173.404          41.000  
C08  34709959.183   180743862.288        -335.468          46.000    34709942.302   139762540.273        -259.454          49.000  
C13  34711885.387   180753892.298         -39.539          47.000    34711876.378   139770328.948         -30.658          48.000  
C16  35671900.608   185752949.948           4.444          47.000    35671892.470   143635923.787           3.425          48.000  
C25  22252299.955   115873578.798       -2541.239          35.000                                                                  
C32  21052901.302   109627984.558         879.150          50.000                                                                  
C06  35365307.245   184156435.337         183.782          44.000    35365291.784   142401373.459         142.323          47.000  
G25  20501355.085   107735362.882        2559.794          40.000    20501347.245    83949591.402        1994.612          43.000  
G10  19514925.033   102551619.663        1057.007          50.000    19514913.448    79910309.165         823.737          43.000  
G28  22040610.006   115824201.935        2591.299          40.000    22040599.873    90252605.868        2019.077          42.000  
C23  20727475.511   107933403.670         273.798          50.000                                                                  
C09  36833844.595   191803499.211         282.257          39.000    36833832.965   148314579.213         218.360          47.000  
C33  26107844.987   135950339.934       -2925.811          32.000                                                                  
C37  22875034.811   119116323.836        2692.464          43.000                                                                  
> 2025 10 27 02 50 22.3560000  0 19                     
G12  20753226.409   109058941.824         889.522          45.000    20753214.678    84980947.085         693.067          42.000  
G15  23240124.576   122127668.200       -3251.663          34.000    23240119.205    95164401.742       -2532.975          32.000  
G18  23568176.922   123851591.588       -3681.803          36.000    23568171.633    96507697.018       -2869.604          36.000  
G23  19253243.340   101176472.024       -2072.015          46.000    19253231.702    78838734.705       -1614.519          48.000  
G24  20929998.294   109987882.322       -3363.479          30.000    20929986.666                       -2619.853          31.000  
G32  20903256.330   109847352.880        1505.946          46.000    20903245.710    85595285.277        1173.615          41.000  
C08  34709961.758   180743875.710        -335.516          46.000    34709944.889   139762550.650        -259.436          49.000  
C13  34711885.699   180753893.881         -39.551          47.000    34711876.657   139770330.172         -30.634          48.000  
C16  35671900.587   185752949.766           4.538          47.000    35671892.417   143635923.651           3.395          48.000  
C25  22252319.457   115873680.446       -2541.173          35.000                                                                  
C32  21052894.570   109627949.392         879.143          50.000                                                                  
C06  35365305.823   184156427.981         183.898          44.000    35365290.387   142401367.783         142.090          47.000  
G25  20501335.598   107735260.485        2559.842          40.000    20501327.763    83949511.599        1994.888          43.000  
G10  19514916.983   102551577.378        1057.068          50.000    19514905.413    79910276.213         823.804          43.000  
G28  22040590.274   115824098.284        2591.304          40.000    22040580.132    90252525.113        2018.891          42.000  
C23  20727473.439   107933392.712         273.894          50.000                                                                  
C09  36833842.422   191803487.924         282.207          39.000    36833830.803   148314570.477         218.397          47.000  
C33  26107867.454   135950456.956       -2925.765          32.000                                                                  
C37  22875014.152   119116216.144        2692.323          43.000                                                                  
> 2025 10 27 02 50 22.3960000  0 19                     
G12  20753219.647   109058906.256         889.340          45.000    20753207.917    84980919.377         692.822          42.000  
G15  23240149.334   122127798.249       -3251.410          34.000    23240143.963    95164503.120       -2533.817          32.000  
G18  23568204.958   123851738.876       -3681.951          36.000    23568199.672    96507811.790       -2869.474          36.000  
G23  19253259.119   101176554.907       -2072.052          46.000    19253247.482    78838799.291       -1614.613          48.000  
G24  20930023.893   109988016.849       -3363.342          30.000    20930012.259                       -2620.573          32.000  
G32  20903244.878   109847292.640        1506.029          46.000    20903234.224    85595238.339        1173.538          41.000  
C08  34709964.337   180743889.139        -335.663          46.000    34709947.499   139762561.025        -259.406          49.000  
C13  34711885.999   180753895.465         -39.612          47.000    34711876.961   139770331.394         -30.585          48.000  
C16  35671900.551   185752949.597           4.350          47.000    35671892.337   143635923.516           3.364          48.000  
C25  22252338.987   115873782.093       -2541.155          35.000                                                                  
C32  21052887.817   109627914.227         879.130          50.000                                                                  
C06  35365304.396   184156420.634         183.767          44.000    35365288.981   142401362.095         142.122          47.000  
G25  20501316.109   107735158.085        2559.911          40.000    20501308.266    83949431.818        1994.626          43.000  
G10  19514908.913   102551535.093        1057.104          50.000    19514897.371    79910243.255         823.932          43.000  
G28  22040570.563   115823994.637        2591.203          40.000    22040560.392    90252444.339        2019.179          42.000  
C23  20727471.321   107933381.759         273.858          50.000                                                                  
C09  36833840.224   191803476.637         282.175          39.000    36833828.621   148314561.752         218.201          47.000  
C33  26107889.909   135950573.953       -2925.287          32.000                                                                  
C37  22874993.467   119116108.438        2692.515          43.000                                                                  
> 2025 10 27 02 50 22.4360000  0 19                     
G12  20753212.878   109058870.696         889.068          45.000    20753201.130    84980891.661         692.805          42.000  
G15  23240174.082   122127928.310       -3251.526          34.000    23240168.692    95164604.471       -2533.865          32.000  
G18  23568232.989   123851886.211       -3682.954          36.000    23568227.698    96507926.581       -2869.815          36.000  
G23  19253274.933   101176637.795       -2072.170          46.000    19253263.265    78838863.884       -1614.804          48.000  
G24  20930049.486   109988151.384       -3363.305          30.000    20930037.890                       -2621.684          32.000  
G32  20903233.435   109847232.410        1505.870          46.000    20903222.771    85595191.412        1173.297          41.000  
C08  34709966.922   180743902.555        -335.510          46.000    34709950.076   139762571.409        -259.540          49.000  
C13  34711886.322   180753897.041         -39.496          47.000    34711877.299   139770332.620         -30.627          48.000  
C16  35671900.491   185752949.429           4.152          47.000    35671892.269   143635923.386           3.274          48.000  
C25  22252358.493   115873883.765       -2541.630          35.000                                                                  
C32  21052881.056   109627879.060         879.123          50.000                                                                  
C06  35365302.967   184156413.284         183.706          44.000    35365287.560   142401356.414         142.021          47.000  
G25  20501296.626   107735055.688        2559.882          40.000    20501288.783    83949352.036        1994.513          43.000  
G10  19514900.887   102551492.812        1057.043          50.000    19514889.340    79910210.318         823.584          43.000  
G28  22040550.842   115823890.992        2591.103          40.000    22040540.668    90252363.582        2019.004          42.000  
C23  20727469.173   107933370.812         273.713          50.000                                                                  
C09  36833838.040   191803465.336         282.375          39.000    36833826.468   148314553.021         218.209          47.000  
C33  26107912.374   135950691.001       -2925.961          31.000                                                                  
C37  22874972.774   119116000.744        2692.397          43.000                                                                  
> 2025 10 27 02 50 22.4760000  0 19                     
G12  20753206.118   109058835.140         888.868          45.000    20753194.358    84980863.946         692.808          42.000  
G15  23240198.861   122128058.369       -3251.429          34.000    23240193.460    95164705.838       -2534.225          32.000  
G18  23568261.020   123852033.534       -3683.209          36.000    23568255.743    96508041.364       -2869.849          36.000  
G23  19253290.715   101176720.689       -2072.373          46.000    19253279.027    78838928.472       -1614.809          48.000  
G24  20930075.072   109988285.934       -3363.471          30.000    20930063.461                       -2620.792          32.000  
G32  20903221.967   109847172.190        1505.605          46.000    20903211.325    85595144.485        1173.145          41.000  
C08  34709969.484   180743915.980        -335.583          46.000    34709952.679   139762581.788        -259.564          49.000  
C13  34711886.629   180753898.633         -39.734          47.000    34711877.596   139770333.848         -30.737          48.000  
C16  35671900.460   185752949.257           4.186          47.000    35671892.224   143635923.251           3.309          48.000  
C25  22252378.023   115873985.425       -2541.647          35.000                                                                  
C32  21052874.267   109627843.903         878.969          50.000                                                                  
C06  35365301.529   184156405.934         183.673          44.000    35365286.130   142401350.736         141.897          47.000  
G25  20501277.153   107734953.301        2559.685          40.000    20501269.309    83949272.257        1994.413          43.000  
G10  19514892.871   102551450.540        1056.812          50.000    19514881.339    79910177.381         823.401          43.000  
G28  22040531.120   115823787.359        2590.850          40.000    22040520.956    90252282.825        2018.892          42.000  
C23  20727467.023   107933359.875         273.445          50.000                                                                  
C09  36833835.856   191803454.051         282.185          39.000    36833824.281   148314544.293         218.166          47.000  
C33  26107934.822   135950808.053       -2926.375          31.000                                                                  
C37  22874952.100   119115893.048        2692.321          43.000                                                                  
> 2025 10 27 02 50 22.5160000  0 19                     
G12  20753199.340   109058799.583         888.812          45.000    20753187.601    84980836.248         692.513          42.000  
G15  23240223.618   122128188.434       -3251.499          34.000    23240218.206    95164807.181       -2533.921          32.000  
G18  23568289.044   123852180.838       -3682.909          36.000    23568283.776    96508156.144       -2869.692          36.000  
G23  19253306.488   101176803.589       -2072.550          46.000    19253294.812    78838993.071       -1614.981          48.000  
G24  20930100.666   109988420.480       -3363.566          30.000    20930089.040                       -2620.577          32.000  
G32  20903210.507   109847111.971        1505.456          46.000    20903199.852    85595097.555        1173.164          41.000  
C08  34709972.048   180743929.417        -335.870          46.000    34709955.238   139762592.172        -259.644          49.000  
C13  34711886.919   180753900.233         -40.009          47.000    34711877.904   139770335.079         -30.804          48.000  
C16  35671900.418   185752949.086           4.210          47.000    35671892.179   143635923.129           3.094          48.000  
C25  22252397.551   115874087.092       -2541.758          35.000                                                                  
C32  21052867.501   109627808.747         878.850          50.000                                                                  
C06  35365300.104   184156398.604         183.369          44.000    35365284.702   142401345.065         141.738          47.000  
G25  20501257.676   107734850.920        2559.460          40.000    20501249.812    83949192.472        1994.491          43.000  
G10  19514884.831   102551408.272        1056.647          50.000    19514873.302    79910144.446         823.352          44.000  
G28  22040511.396   115823683.724        2590.803          40.000    22040501.226    90252202.058        2019.055          42.000  
C23  20727464.945   107933348.940         273.292          50.000                                                                  
C09  36833833.697   191803442.776         281.935          39.000    36833822.117   148314535.575         217.966          47.000  
C33  26107957.299   135950925.063       -2925.736          31.000                                                                  
C37  22874931.415   119115785.363        2692.086          43.000                                                                  
> 2025 10 27 02 50 22.5560000  0 19                     
G12  20753192.546   109058764.027         888.778          45.000    20753180.842    84980808.545         692.435          42.000  
G15  23240248.363   122128318.490       -3251.429          34.000    23240242.949    95164908.492       -2533.115          32.000  
G18  23568317.070   123852328.129       -3682.404          35.000    23568311.774    96508270.920       -2869.514          36.000  
G23  19253322.264   101176886.488       -2072.580          46.000    19253310.605    78839057.667       -1615.011          48.000  
G24  20930126.261   109988554.993       -3363.262          30.000    20930114.665                       -2621.147          32.000  
G32  20903199.057   109847051.747        1505.489          46.000    20903188.413    85595050.629        1173.178          41.000  
C08  34709974.615   180743942.846        -335.864          46.000    34709957.827   139762602.559        -259.723          49.000  
C13  34711887.231   180753901.825         -39.948          47.000    34711878.228   139770336.307         -30.774          48.000  
C16  35671900.397   185752948.922           4.086          47.000    35671892.123   143635922.998           3.137          48.000  
C25  22252417.092   115874188.724       -2541.134          35.000                                                                  
C32  21052860.724   109627773.593         878.778          50.000                                                                  
C06  35365298.711   184156391.262         183.413          44.000    35365283.288   142401339.386         141.826          47.000  
G25  20501238.169   107734748.529        2559.631          40.000    20501230.323    83949112.690        1994.500          43.000  
G10  19514876.778   102551366.002        1056.665          50.000    19514865.256    79910111.510         823.352          44.000  
G28  22040491.679   115823580.093        2590.717          40.000    22040481.525    90252121.313        2018.712          42.000  
C23  20727462.858   107933338.001         273.352          50.000                                                                  
C09  36833831.537   191803431.482         282.172          39.000    36833819.950   148314526.851         217.994          47.000  
C33  26107979.769   135951042.113       -2926.020          31.000                                                                  
C37  22874910.758   119115677.671        2692.189          43.000                                                                  
> 2025 10 27 02 50 22.5960000  0 19                     
G12  20753185.784   109058728.463         888.959          45.000    20753174.068    84980780.843         692.456          42.000  
G15  23240273.104   122128448.525       -3251.090          34.000    23240267.683    95165009.824       -2533.163          32.000  
G18  23568345.097   123852475.421       -3682.159          35.000    23568339.796    96508385.679       -2869.120          36.000  
G23  19253338.031   101176969.380       -2072.449          46.000    19253326.374    78839122.258       -1614.893          48.000  
G24  20930151.866   109988689.538       -3363.416          30.000    20930140.253                       -2621.554          32.000  
G32  20903187.579   109846991.517        1505.627          46.000    20903176.972    85595003.702        1173.131          41.000  
C08  34709977.182   180743956.274        -335.791          46.000    34709960.401   139762612.945        -259.723          49.000  
C13  34711887.550   180753903.411         -39.783          47.000    34711878.544   139770337.540         -30.811          48.000  
C16  35671900.370   185752948.749           4.216          47.000    35671892.118   143635922.865           3.212          48.000  
C25  22252436.595   115874290.407       -2541.702          35.000                                                                  
C32  21052853.974   109627738.434         878.885          50.000                                                                  
C06  35365297.305   184156383.910         183.622          44.000    35365281.882   142401333.710         141.816          47.000  
G25  20501218.678   107734646.147        2559.583          40.000    20501210.859    83949032.911        1994.483          43.000  
G10  19514868.700   102551323.730        1056.708          50.000    19514857.212    79910078.570         823.468          44.000  
G28  22040471.964   115823476.445        2591.018          40.000    22040461.811    90252040.556        2018.789          42.000  
C23  20727460.803   107933327.060         273.421          50.000                                                                  
C09  36833829.367   191803420.199         282.173          39.000    36833817.757   148314518.126         218.052          47.000  
C33  26108002.248   135951159.163       -2926.250          31.000                                                                  
C37  22874890.081   119115569.986        2692.098          43.000                                                                  
> 2025 10 27 02 50 22.6360000  0 19                     
G12  20753179.026   109058692.907         888.898          45.000    20753167.304    84980753.129         692.671          42.000  
G15  23240297.863   122128578.611       -3251.805          34.000    23240292.447    95165111.167       -2533.318          32.000  
G18  23568373.135   123852622.727       -3682.406          35.000    23568367.823    96508500.458       -2869.247          36.000  
G23  19253353.792   101177052.278       -2072.449          46.000    19253342.149    78839186.855       -1614.924          48.000  
G24  20930177.505   109988824.111       -3363.814          30.000    20930165.853                       -2621.993          32.000  
G32  20903176.137   109846931.286        1505.723          46.000    20903165.507    85594956.778        1173.074          41.000  
C08  34709979.769   180743969.703        -335.748          46.000    34709962.978   139762623.331        -259.711          49.000  
C13  34711887.858   180753904.998         -39.697          47.000    34711878.858   139770338.770         -30.817          48.000  
C16  35671900.323   185752948.586           4.110          47.000    35671892.072   143635922.740           3.140          48.000  
C25  22252456.142   115874392.104       -2542.255          35.000                                                                  
C32  21052847.218   109627703.278         878.879          50.000                                                                  
C06  35365295.886   184156376.572         183.478          44.000    35365280.434   142401328.033         141.851          47.000  
G25  20501199.196   107734543.770        2559.440          40.000    20501191.372    83948953.119        1994.652          43.000  
G10  19514860.644   102551281.463        1056.653          50.000    19514849.154    79910045.626         823.566          44.000  
G28  22040452.238   115823372.799        2591.128          40.000    22040442.093    90251959.797        2018.897          42.000  
C23  20727458.761   107933316.116         273.524          50.000                                                                  
C09  36833827.185   191803408.915         282.089          39.000    36833815.583   148314509.403         218.046          47.000  
C33  26108024.727   135951276.189       -2926.083          31.000                                                                  
C37  22874869.416   119115462.302        2692.093          43.000                                                                  
> 2025 10 27 02 50 22.6760000  0 19                     
G12  20753172.238   109058657.353         888.833          45.000    20753160.531    84980725.420         692.701          42.000  
G15  23240322.608   122128708.671       -3251.854          34.000    23240317.212    95165212.493       -2533.126          32.000  
G18  23568401.136   123852770.049       -3683.027          35.000    23568395.835    96508615.280       -2870.200          36.000  
G23  19253369.576   101177135.174       -2072.425          46.000    19253357.928    78839251.451       -1614.930          48.000  
G24  20930203.110   109988958.667       -3363.905          30.000    20930191.435                       -2620.751          31.000  
G32  20903164.670   109846871.064        1505.624          46.000    20903154.048    85594909.850        1173.122          41.000  
C08  34709982.375   180743983.122        -335.498          46.000    34709965.556   139762633.710        -259.558          49.000  
C13  34711888.173   180753906.581         -39.563          47.000    34711879.135   139770339.999         -30.780          48.000  
C16  35671900.291   185752948.424           4.021          47.000    35671892.022   143635922.609           3.208          48.000  
C25  22252475.655   115874493.771       -2541.957          35.000                                                                  
C32  21052840.468   109627668.121         878.918          50.000                                                                  
C06  35365294.474   184156369.225         183.586          44.000    35365279.026   142401322.350         141.991          47.000  
G25  20501179.685   107734441.369        2559.809          40.000    20501171.897    83948873.339        1994.524          43.000  
G10  19514852.595   102551239.188        1056.781          50.000    19514841.119    79910012.686         823.547          44.000  
G28  22040432.515   115823269.164        2590.990          40.000    22040422.369    90251879.043        2018.846          42.000  
C23  20727456.699   107933305.172         273.567          50.000                                                                  
C09  36833825.024   191803397.634         282.008          39.000    36833813.401   148314500.675         218.146          47.000  
C33  26108047.200   135951393.215       -2925.860          31.000                                                                  
C37  22874848.750   119115354.620        2692.042          43.000                                                                  
> 2025 10 27 02 50 22.7160000  0 19                     
G12  20753165.474   109058621.793         888.914          45.000    20753153.768    84980697.706         692.761          42.000  
G15  23240347.361   122128838.713       -3251.412          34.000    23240341.942    95165313.876       -2533.983          32.000  
G18  23568429.154   123852917.324       -3682.441          35.000    23568423.858    96508730.047       -2869.664          36.000  
G23  19253385.320   101177218.065       -2072.320          46.000    19253373.702    78839316.041       -1614.807          48.000  
G24  20930228.707   109989093.217       -3363.902          30.000    20930217.035                       -2620.554          31.000  
G32  20903153.206   109846810.836        1505.676          46.000    20903142.582    85594862.911        1173.334          41.000  
C08  34709984.959   180743996.546        -335.510          46.000    34709968.169   139762644.091        -259.558          49.000  
C13  34711888.465   180753908.164         -39.545          47.000    34711879.414   139770341.221         -30.621          48.000  
C16  35671900.245   185752948.244           4.297          47.000    35671891.990   143635922.467           3.455          48.000  
C25  22252495.166   115874595.395       -2541.058          35.000                                                                  
C32  21052833.705   109627632.962         878.956          50.000                                                                  
C06  35365293.052   184156361.871         183.771          44.000    35365277.586   142401316.665         142.114          47.000  
G25  20501160.198   107734338.975        2559.886          40.000    20501152.417    83948793.556        1994.609          43.000  
G10  19514844.540   102551196.918        1056.775          50.000    19514833.102    79909979.754         823.358          44.000  
G28  22040412.778   115823165.526        2590.940          40.000    22040402.643    90251798.278        2019.026          42.000  
C23  20727454.598   107933294.235         273.462          50.000                                                                  
C09  36833822.866   191803386.351         282.041          39.000    36833811.240   148314491.940         218.315          47.000  
C33  26108069.637   135951510.247       -2925.826          31.000                                                                  
C37  22874828.082   119115246.908        2692.542          43.000                                                                  
> 2025 10 27 02 50 22.7560000  0 19                     
G12  20753158.717   109058586.231         889.017          45.000    20753147.023    84980670.013         692.431          42.000  
G15  23240372.095   122128968.786       -3251.617          34.000    23240366.662    95165415.224       -2533.997          32.000  
G18  23568457.215   123853064.665       -3683.225          35.000    23568451.887    96508844.835       -2869.717          36.000  
G23  19253401.088   101177300.962       -2072.370          46.000    19253389.493    78839380.633       -1614.801          48.000  
G24  20930254.304   109989227.753       -3363.729          30.000    20930242.635                       -2620.692          32.000  
G32  20903141.769   109846750.611        1505.663          46.000    20903131.121    85594815.976        1173.333          41.000  
C08  34709987.519   180744009.974        -335.638          46.000    34709970.738   139762654.475        -259.583          49.000  
C13  34711888.776   180753909.760         -39.819          47.000    34711879.720   139770342.446         -30.597          48.000  
C16  35671900.196   185752948.069           4.364          47.000    35671891.925   143635922.335           3.370          48.000  
C25  22252514.690   115874697.038       -2541.006          35.000                                                                  
C32  21052826.969   109627597.800         879.024          50.000                                                                  
C06  35365291.663   184156354.525         183.696          44.000    35365276.188   142401310.980         142.153          47.000  
G25  20501140.714   107734236.585        2559.836          40.000    20501132.929    83948713.782        1994.430          43.000  
G10  19514836.497   102551154.649        1056.726          50.000    19514825.052    79909946.814         823.413          44.000  
G28  22040393.056   115823061.883        2590.983          40.000    22040382.900    90251717.526        2018.851          42.000  
C23  20727452.489   107933283.295         273.469          50.000                                                                  
C09  36833820.696   191803375.068         282.015          39.000    36833809.063   148314483.216         218.180          47.000  
C33  26108092.114   135951627.314       -2926.480          31.000                                                                  
C37  22874807.383   119115139.215        2692.474          43.000                                                                  
> 2025 10 27 02 50 22.7960000  0 19                     
G12  20753151.954   109058550.680         888.846          45.000    20753140.248    84980642.304         692.621          42.000  
G15  23240396.833   122129098.831       -3251.461          34.000    23240391.445    95165516.538       -2533.385          32.000  
G18  23568485.249   123853211.972       -3683.036          35.000    23568479.923    96508959.608       -2869.425          36.000  
G23  19253416.884   101177383.869       -2072.629          46.000    19253405.263    78839445.231       -1614.912          48.000  
G24  20930279.937   109989362.293       -3363.621          30.000    20930268.246    85705904.711       -2620.389          31.000  
G32  20903130.330   109846690.383        1505.668          46.000    20903119.670    85594769.037        1173.408          41.000  
C08  34709990.110   180744023.400        -335.681          46.000    34709973.309   139762664.856        -259.546          49.000  
C13  34711889.069   180753911.350         -39.813          47.000    34711880.020   139770343.672         -30.615          48.000  
C16  35671900.150   185752947.901           4.262          47.000    35671891.883   143635922.206           3.263          48.000  
C25  22252534.204   115874798.726       -2541.771          35.000                                                                  
C32  21052820.235   109627562.639         879.036          50.000                                                                  
C06  35365290.270   184156347.175         183.721          44.000    35365274.803   142401305.301         142.050          47.000  
G25  20501121.229   107734134.214        2559.442          40.000    20501113.461    83948634.007        1994.304          43.000  
G10  19514828.447   102551112.378        1056.738          50.000    19514817.007    79909913.876         823.413          44.000  
G28  22040373.325   115822958.245        2590.908          40.000    22040363.188    90251636.765        2018.976          42.000  
C23  20727450.387   107933272.357         273.451          50.000                                                                  
C09  36833818.535   191803363.768         282.362          39.000    36833806.870   148314474.489         218.117          47.000  
C33  26108114.586   135951744.344       -2926.140          31.000                                                                  
C37  22874786.698   119115031.532        2692.230          43.000                                                                  
> 2025 10 27 02 50 22.8360000  0 19                     
G12  20753145.197   109058515.128         888.779          45.000    20753133.446    84980614.577         692.992          42.000  
G15  23240421.599   122129228.876       -3251.278          34.000    23240416.198    95165617.872       -2533.147          32.000  
G18  23568513.273   123853359.232       -3681.977          35.000    23568507.941    96509074.365       -2869.058          36.000  
G23  19253432.665   101177466.765       -2072.505          46.000    19253421.042    78839509.833       -1615.060          48.000  
G24  20930305.542   109989496.838       -3363.615          30.000    20930293.839    85706009.551       -2620.792          31.000  
G32  20903118.896   109846630.163        1505.517          46.000    20903108.235    85594722.136        1172.746          41.000  
C08  34709992.650   180744036.837        -335.907          46.000    34709975.868   139762675.240        -259.595          49.000  
C13  34711889.398   180753912.940         -39.819          47.000    34711880.335   139770344.900         -30.676          48.000  
C16  35671900.113   185752947.734           4.197          47.000    35671891.803   143635922.081           3.122          48.000  
C25  22252553.735   115874900.389       -2541.807          35.000                                                                  
C32  21052813.436   109627527.482         878.976          50.000                                                                  
C06  35365288.860   184156339.837         183.523          44.000    35365273.396   142401299.622         141.964          47.000  
G25  20501101.749   107734031.829        2559.496          40.000    20501093.995    83948554.225        1994.387          43.000  
G10  19514820.387   102551070.108        1056.726          50.000    19514808.958    79909880.942         823.358          44.000  
G28  22040353.593   115822854.609        2590.872          40.000    22040343.457    90251556.008        2018.957          42.000  
C23  20727448.292   107933261.420         273.386          50.000                                                                  
C09  36833816.353   191803352.474         282.383          39.000    36833804.686   148314465.761         218.149          47.000  
C33  26108137.075   135951861.366       -2925.684          31.000                                                                  
C37  22874766.014   119114923.846        2692.139          43.000                                                                  
> 2025 10 27 02 50 22.8760000  0 19                     
G12  20753138.425   109058479.576         888.736          45.000    20753126.696    84980586.888         692.500          42.000  
G15  23240446.323   122129358.943       -3251.635          34.000    23240440.931                       -2533.401          32.000  
G18  23568541.287   123853506.547       -3682.452          35.000    23568535.984    96509189.159       -2869.485          36.000  
G23  19253448.434   101177549.666       -2072.529          46.000    19253436.818    78839574.429       -1615.010          48.000  
G24  20930331.147   109989631.401       -3363.825          30.000    20930319.462                       -2621.915          31.000  
G32  20903107.442   109846569.941        1505.474          46.000    20903096.772    85594675.216        1172.753          41.000  
C08  34709995.211   180744050.270        -335.938          46.000    34709978.422   139762685.627        -259.674          49.000  
C13  34711889.735   180753914.531         -39.838          47.000    34711880.632   139770346.140         -30.927          48.000  
C16  35671900.058   185752947.566           4.153          47.000    35671891.764   143635921.951           3.167          48.000  
C25  22252573.252   115875002.056       -2541.812          35.000                                                                  
C32  21052806.661   109627492.330         878.830          50.000                                                                  
C06  35365287.472   184156332.489         183.593          44.000    35365271.982   142401293.950         141.843          47.000  
G25  20501082.285   107733929.451        2559.464          40.000    20501074.511    83948474.452        1994.298          43.000  
G10  19514812.350   102551027.848        1056.525          50.000    19514800.933    79909848.013         823.212          44.000  
G28  22040333.883   115822750.985        2590.579          40.000    22040323.740    90251475.259        2018.739          42.000  
C23  20727446.179   107933250.488         273.299          50.000                                                                  
C09  36833814.177   191803341.180         282.380          39.000    36833802.537   148314457.036         218.081          47.000  
C33  26108159.530   135951978.348       -2924.652          31.000                                                                  
C37  22874745.339   119114816.159        2692.112          43.000                                                                  
> 2025 10 27 02 50 22.9160000  0 19                     
G12  20753131.678   109058444.033         888.576          45.000    20753119.931    84980559.193         692.337          42.000  
G15  23240471.076   122129489.016       -3251.791          34.000    23240465.685                       -2533.867          32.000  
G18  23568569.285   123853653.812       -3681.881          35.000    23568564.035    96509303.952       -2869.756          36.000  
G23  19253464.231   101177632.579       -2072.794          46.000    19253452.566    78839639.033       -1615.108          48.000  
G24  20930356.751   109989765.936       -3363.659          30.000    20930345.071    85706219.319       -2621.984          31.000  
G32  20903095.986   109846509.715        1505.529          46.000    20903085.318    85594628.275        1173.201          41.000  
C08  34709997.784   180744063.704        -335.950          46.000    34709981.015   139762696.007        -259.564          49.000  
C13  34711890.012   180753916.128         -39.935          47.000    34711880.920   139770347.381         -31.073          48.000  
C16  35671900.020   185752947.402           4.069          47.000    35671891.714   143635921.824           3.162          48.000  
C25  22252592.785   115875103.719       -2541.712          35.000                                                                  
C32  21052799.906   109627457.183         878.686          50.000                                                                  
C06  35365286.064   184156325.160         183.319          44.000    35365270.554   142401288.279         141.742          47.000  
G25  20501062.802   107733827.062        2559.658          40.000    20501055.026    83948394.657        1994.632          43.000  
G10  19514804.309   102550985.587        1056.451          50.000    19514792.882    79909815.083         823.175          44.000  
G28  22040314.174   115822647.345        2590.769          40.000    22040304.015    90251394.498        2018.928          42.000  
C23  20727444.083   107933239.558         273.225          50.000                                                                  
C09  36833812.014   191803329.903         282.053          39.000    36833800.355   148314448.314         218.031          47.000  
C33  26108182.029                       -2925.825          31.000                                                                  
C37  22874724.659   119114708.477        2691.993          43.000                                                                  
> 2025 10 27 02 50 22.9560000  0 19                     
G12  20753124.897   109058408.481         888.638          45.000    20753113.181    84980531.493         692.323          42.000  
G15  23240495.822   122129619.072       -3251.563          34.000    23240490.456                       -2534.611          32.000  
G18  23568597.311   123853801.150       -3682.725          35.000    23568592.052    96509418.723       -2869.501          36.000  
G23  19253479.994   101177715.483       -2072.725          46.000    19253468.360    78839703.637       -1615.151          48.000  
G24  20930382.350   109989900.488       -3363.723          30.000    20930370.670    85706324.154       -2621.397          31.000  
G32  20903084.536   109846449.493        1505.525          46.000    20903073.869    85594581.342        1173.333          41.000  
C08  34710000.375   180744077.133        -335.852          46.000    34709983.609   139762706.401        -259.802          49.000  
C13  34711890.288   180753917.722         -39.911          47.000    34711881.202   139770348.609         -30.865          48.000  
C16  35671899.955   185752947.242           3.954          47.000    35671891.680   143635921.694           3.201          48.000  
C25  22252612.343   115875205.395       -2541.941          35.000                                                                  
C32  21052793.173   109627422.034         878.665          50.000                                                                  
C06  35365284.677   184156317.813         183.491          44.000    35365269.119   142401282.594         141.958          47.000  
G25  20501043.316   107733724.687        2559.484          40.000    20501035.553    83948314.892        1994.280          43.000  
G10  19514796.287   102550943.325        1056.470          50.000    19514784.836    79909782.156         823.114          44.000  
G28  22040294.493   115822543.718        2590.638          40.000    22040284.286    90251313.745        2018.840          42.000  
C23  20727441.990   107933228.625         273.254          50.000                                                                  
C09  36833809.847   191803318.644         281.593          39.000    36833798.194   148314439.590         218.046          47.000  
C33  26108204.536                       -2926.895          31.000                                                                  
C37  22874703.961   119114600.789        2692.067          43.000                                                                  
> 2025 10 27 02 50 22.9960000  0 19                     
G12  20753118.100   109058372.922         888.859          45.000    20753106.417    84980503.797         692.317          42.000  
G15  23240520.563   122129749.131       -3251.449          34.000    23240515.227                       -2534.221          32.000  
G18  23568625.325   123853948.453       -3682.740          35.000    23568620.078    96509533.502       -2869.482          36.000  
G23  19253495.748   101177798.384       -2072.601          46.000    19253484.121    78839768.231       -1614.971          48.000  
G24  20930407.960   109990035.031       -3363.666          30.000    20930396.261                       -2620.096          31.000  
G32  20903073.078   109846389.271        1505.553          46.000    20903062.407    85594534.417        1173.238          41.000  
C08  34710002.978   180744090.559        -335.706          46.000    34709986.205   139762716.786        -259.717          49.000  
C13  34711890.591   180753919.311         -39.801          47.000    34711881.532   139770349.828         -30.603          48.000  
C16  35671899.947   185752947.068           4.156          47.000    35671891.638   143635921.562           3.233          48.000  
C25  22252631.881   115875307.083       -2542.105          35.000                                                                  
C32  21052786.462   109627386.872         878.885          50.000                                                                  
C06  35365283.272   184156310.460         183.744          44.000    35365267.688   142401276.910         142.068          47.000  
G25  20501023.843   107733622.303        2559.586          40.000    20501016.065    83948235.113        1994.317          43.000  
G10  19514788.235   102550901.056        1056.628          50.000    19514776.797    79909749.212         823.389          44.000  
G28  22040274.765   115822440.073        2590.906          40.000    22040264.567    90251232.985        2018.895          42.000  
C23  20727439.909   107933217.689         273.341          50.000                                                                  
C09  36833807.699   191803307.358         281.927          39.000    36833796.014   148314430.864         218.115          47.000  
C33  26108226.982                       -2925.767          31.000                                                                  
C37  22874683.261   119114493.088        2692.363          43.000                                                                  
> 2025 10 27 02 50 23.0360000  0 19                     
G12  20753111.337   109058337.371         888.805          45.000    20753099.649    84980476.088         692.578          42.000  
G15  23240545.311   122129879.154       -3250.818          34.000    23240539.990    95166124.658       -2534.027          32.000  
G18  23568653.356   123854095.762       -3682.784          35.000    23568648.108    96509648.287       -2869.706          36.000  
G23  19253511.509   101177881.278       -2072.411          46.000    19253499.899    78839832.828       -1614.917          48.000  
G24  20930433.575   109990169.583       -3363.703          30.000    20930421.876                       -2620.132          31.000  
G32  20903061.613   109846329.041        1505.721          46.000    20903050.957    85594487.490        1173.184          41.000  
C08  34710005.561   180744103.989        -335.754          46.000    34709988.810   139762727.165        -259.558          49.000  
C13  34711890.905   180753920.895         -39.642          47.000    34711881.825   139770351.056         -30.627          48.000  
C16  35671899.931   185752946.895           4.301          47.000    35671891.609   143635921.435           3.193          48.000  
C25  22252651.393   115875408.734       -2541.624          35.000                                                                  
C32  21052779.727   109627351.710         879.010          50.000                                                                  
C06  35365281.834   184156303.111         183.792          44.000    35365266.235   142401271.230         142.035          47.000  
G25  20501004.366   107733519.926        2559.500          40.000    20500996.581    83948155.341        1994.256          43.000  
G10  19514780.181   102550858.787        1056.683          50.000    19514768.774    79909716.284         823.291          44.000  
G28  22040255.048   115822336.423        2591.186          40.000    22040244.863    90251152.235        2018.759          42.000  
C23  20727437.865   107933206.749         273.462          50.000                                                                  
C09  36833805.517   191803296.073         282.091          39.000    36833793.847   148314422.139         218.121          47.000  
C33  26108249.443                       -2925.449          31.000                                                                  
C37  22874662.555   119114385.392        2692.412          43.000                                                                  
> 2025 10 27 02 50 23.0760000  0 19                     
G12  20753104.566   109058301.816         888.863          45.000    20753092.894    84980448.388         692.528          42.000  
G15  23240570.036   122130009.216       -3251.073          34.000    23240564.726                       -2532.647          32.000  
G18  23568681.382   123854243.028       -3682.031          35.000    23568676.133    96509763.052       -2869.382          36.000  
G23  19253527.307   101177964.181       -2072.522          46.000    19253515.645    78839897.422       -1614.843          48.000  
G24  20930459.179   109990304.128       -3363.678          30.000    20930447.468                       -2620.475          31.000  
G32  20903050.144   109846268.803        1505.896          46.000    20903039.475    85594440.553        1173.332          41.000  
C08  34710008.141   180744117.408        -335.559          46.000    34709991.381   139762737.550        -259.589          49.000  
C13  34711891.192   180753922.478         -39.569          47.000    34711882.123   139770352.290         -30.762          48.000  
C16  35671899.921   185752946.712           4.564          47.000    35671891.535   143635921.299           3.323          48.000  
C25  22252670.885   115875510.380       -2541.287          35.000                                                                  
C32  21052772.981   109627316.546         879.096          50.000                                                                  
C06  35365280.385   184156295.761         183.823          44.000    35365264.836   142401265.551         141.973          47.000  
G25  20500984.880   107733417.534        2559.745          40.000    20500977.087    83948075.550        1994.606          43.000  
G10  19514772.138   102550816.520        1056.702          50.000    19514760.733    79909683.339         823.553          44.000  
G28  22040235.326   115822232.775        2591.258          40.000    22040225.147    90251071.485        2018.704          42.000  
C23  20727435.754   107933195.809         273.509          50.000                                                                  
C09  36833803.348   191803284.774         282.403          39.000    36833791.674   148314413.405         218.258          47.000  
C33  26108271.934                       -2926.306          31.000                                                                  
C37  22874641.881   119114277.697        2692.410          43.000                                                                  
> 2025 10 27 02 50 23.1160000  0 19                     
G12  20753097.815   109058266.263         888.835          45.000    20753086.152    84980420.683         692.572          42.000  
G15  23240594.788   122130139.265       -3251.014          34.000    23240589.471                       -2532.805          32.000  
G18  23568709.384   123854390.325       -3682.184          35.000    23568704.176    96509877.838       -2869.685          36.000  
G23  19253543.083   101178047.086       -2072.634          46.000    19253531.432    78839962.023       -1614.973          48.000  
G24  20930484.744   109990438.666       -3363.577          30.000    20930473.044                       -2620.956          31.000  
G32  20903038.666   109846208.579        1505.721          46.000    20903028.025    85594393.625        1173.217          41.000  
C08  34710010.700   180744130.842        -335.767          46.000    34709993.909   139762747.930        -259.521          49.000  
C13  34711891.490   180753924.072         -39.764          47.000    34711882.418   139770353.520         -30.804          48.000  
C16  35671899.895   185752946.541           4.423          47.000    35671891.473   143635921.162           3.399          48.000  
C25  22252690.409   115875612.052       -2541.615          35.000                                                                  
C32  21052766.210   109627281.398         878.843          50.000                                                                  
C06  35365278.988   184156288.415         183.676          44.000    35365263.422   142401259.872         141.934          47.000  
G25  20500965.396   107733315.143        2559.870          40.000    20500957.592    83947995.770        1994.587          43.000  
G10  19514764.091   102550774.264        1056.445          50.000    19514752.700    79909650.411         823.334          43.000  
G28  22040215.625   115822129.135        2591.132          40.000    22040205.446    90250990.728        2018.804          42.000  
C23  20727433.642   107933184.879         273.332          50.000                                                                  
C09  36833801.170   191803273.478         282.492          39.000    36833789.517   148314404.671         218.357          47.000  
C33  26108294.400                       -2925.173          31.000                                                                  
C37  22874621.193   119114170.019        2692.046          43.000                                                                  
> 2025 10 27 02 50 23.1560000  0 19                     
G12  20753091.074   109058230.732         888.380          45.000    20753079.374    84980392.988         692.437          42.000  
G15  23240619.534   122130269.362       -3251.930          34.000    23240614.242                       -2533.662          32.000  
G18  23568737.447   123854537.650       -3682.830          35.000    23568732.222    96509992.622       -2869.766          36.000  
G23  19253558.846   101178129.999       -2072.837          46.000    19253547.198    78840026.636       -1615.262          48.000  
G24  20930510.339   109990573.243       -3363.906          30.000    20930498.630                       -2621.363          31.000  
G32  20903027.218   109846148.363        1505.448          46.000    20903016.583    85594346.709        1172.925          41.000  
C08  34710013.268   180744144.277        -335.889          46.000    34709996.480   139762758.313        -259.552          49.000  
C13  34711891.802   180753925.667         -39.874          47.000    34711882.721   139770354.753         -30.853          48.000  
C16  35671899.880   185752946.385           4.055          47.000    35671891.447   143635921.037           3.219          48.000  
C25  22252709.931   115875713.729       -2541.911          35.000                                                                  
C32  21052759.425   109627246.255         878.602          50.000                                                                  
C06  35365277.582   184156281.085         183.342          44.000    35365261.987   142401254.203         141.737          47.000  
G25  20500945.915   107733212.770        2559.542          40.000    20500938.126    83947916.004        1994.316          43.000  
G10  19514756.080   102550732.013        1056.256          50.000    19514744.644    79909617.488         823.090          43.000  
G28  22040195.920   115822025.521        2590.534          39.000    22040185.704    90250909.974        2018.810          42.000  
C23  20727431.529   107933173.955         273.127          50.000                                                                  
C09  36833798.998   191803262.211         282.018          39.000    36833787.344   148314395.947         218.204          47.000  
C33  26108316.872                       -2925.858          31.000                                                                  
C37  22874600.525   119114062.354        2691.673          43.000                                                                  
> 2025 10 27 02 50 23.1960000  0 19                     
G12  20753084.314   109058195.194         888.320          45.000    20753072.610    84980365.301         692.217          42.000  
G15  23240644.290   122130399.430       -3252.010          34.000    23240639.000                       -2534.309          32.000  
G18  23568765.467   123854684.948       -3682.652          35.000    23568760.254    96510107.402       -2869.677          36.000  
G23  19253574.603   101178212.911       -2072.891          46.000    19253562.984    78840091.238       -1615.187          48.000  
G24  20930535.962   109990707.803       -3363.966          30.000    20930524.247                       -2622.154          31.000  
G32  20903015.746   109846088.157        1505.180          46.000    20903005.109    85594299.773        1173.166          41.000  
C08  34710015.845   180744157.710        -335.938          46.000    34709999.044   139762768.699        -259.637          49.000  
C13  34711892.115   180753927.267         -40.033          47.000    34711883.028   139770355.984         -30.823          48.000  
C16  35671899.875   185752946.231           3.833          47.000    35671891.384   143635920.912           3.117          48.000  
C25  22252729.477   115875815.391       -2541.700          35.000                                                                  
C32  21052752.682   109627211.107         878.596          50.000                                                                  
C06  35365276.194   184156273.744         183.402          44.000    35365260.568   142401248.526         141.819          47.000  
G25  20500926.448   107733110.408        2559.132          40.000    20500918.657    83947836.240        1994.119          43.000  
G10  19514748.027   102550689.755        1056.317          50.000    19514736.606    79909584.564         823.035          43.000  
G28  22040176.199   115821921.896        2590.463          40.000    22040165.989    90250829.207        2019.052          42.000  
C23  20727429.446   107933163.033         273.003          50.000                                                                  
C09  36833796.838   191803250.941         281.750          39.000    36833785.180   148314387.224         218.059          47.000  
C33  26108339.319                       -2926.732          31.000                                                                  
C37  22874579.864   119113954.671        2691.788          43.000                                                                  
> 2025 10 27 02 50 23.2360000  0 19                     
G12  20753077.552   109058159.655         888.382          45.000    20753065.843    84980337.599         692.372          42.000  
G15  23240669.033   122130529.500       -3252.126          34.000    23240663.773    95166631.370       -2534.678          32.000  
G18  23568793.504   123854832.284       -3683.172          35.000    23568788.268    96510222.184       -2869.621          36.000  
G23  19253590.362   101178295.818       -2072.785          46.000    19253578.753    78840155.843       -1615.162          48.000  
G24  20930561.600   109990842.315       -3363.471          30.000    20930549.874                       -2621.314          31.000  
G32  20903004.267   109846027.936        1505.305          46.000    20902993.642    85594252.848        1173.121          41.000  
C08  34710018.433   180744171.143        -335.889          46.000    34710001.623   139762779.090        -259.766          49.000  
C13  34711892.411   180753928.860         -39.935          47.000    34711883.358   139770357.221         -30.939          48.000  
C16  35671899.857   185752946.060           4.081          47.000    35671891.314   143635920.782           3.147          48.000  
C25  22252749.014   115875917.088       -2542.267          35.000                                                                  
C32  21052745.952   109627175.951         878.719          50.000                                                                  
C06  35365274.826   184156266.402         183.438          44.000    35365259.168   142401242.846         141.914          47.000  
G25  20500906.964   107733008.049        2558.891          40.000    20500899.174    83947756.452        1994.431          43.000  
G10  19514739.953   102550647.496        1056.396          50.000    19514728.549    79909551.630         823.193          43.000  
G28  22040156.479   115821818.267        2590.529          40.000    22040146.262    90250748.450        2018.988          42.000  
C23  20727427.368   107933152.106         273.035          50.000                                                                  
C09  36833794.668   191803239.657         281.898          39.000    36833782.988   148314378.509         217.860          47.000  
C33  26108361.787                       -2926.030          31.000                                                                  
C37  22874559.195   119113846.984        2691.976          43.000                                                                  
> 2025 10 27 02 50 23.2760000  0 19                     
G12  20753070.784   109058124.111         888.494          45.000    20753059.092    84980309.900         692.417          42.000  
G15  23240693.787   122130659.574       -3252.044          34.000    23240688.518    95166732.692       -2533.795          32.000  
G18  23568821.518   123854979.583       -3682.893          35.000    23568816.304    96510336.954       -2869.394          36.000  
G23  19253606.112   101178378.728       -2072.810          46.000    19253594.521    78840220.447       -1615.169          48.000  
G24  20930587.209   109990976.865       -3363.563          30.000    20930575.461                       -2621.015          31.000  
G32  20902992.800   109845967.701        1505.696          46.000    20902982.192    85594205.920        1173.162          41.000  
C08  34710021.026   180744184.579        -335.950          46.000    34710004.211   139762789.477        -259.753          49.000  
C13  34711892.708   180753930.451         -39.844          47.000    34711883.669   139770358.451         -30.835          48.000  
C16  35671899.841   185752945.893           4.161          47.000    35671891.282   143635920.657           3.109          48.000  
C25  22252768.561   115876018.737       -2541.599          35.000                                                                  
C32  21052739.225   109627140.793         878.867          50.000                                                                  
C06  35365273.418   184156259.058         183.555          44.000    35365257.787   142401237.166         141.963          47.000  
G25  20500887.474   107732905.674        2559.101          40.000    20500879.696    83947676.682        1994.311          43.000  
G10  19514731.902   102550605.238        1056.421          50.000    19514720.488    79909518.696         823.309          43.000  
G28  22040136.753   115821714.633        2590.710          39.000    22040126.562    90250667.703        2018.720          42.000  
C23  20727425.302   107933141.180         273.050          50.000                                                                  
C09  36833792.496   191803228.360         282.226          39.000    36833780.818   148314369.784         217.971          47.000  
C33  26108384.264                       -2925.751          31.000                                                                  
C37  22874538.532   119113739.297        2692.115          43.000                                                                  
> 2025 10 27 02 50 23.3160000  0 19                     
G12  20753064.017   109058088.562         888.655          45.000    20753052.341    84980282.209         692.281          42.000  
G15  23240718.522   122130789.618       -3251.473          34.000    23240713.265    95166834.044       -2533.831          32.000  
G18  23568849.522   123855126.870       -3682.468          35.000    23568844.350    96510451.742       -2869.680          36.000  
G23  19253621.917   101178461.639       -2072.798          46.000    19253610.310    78840285.060       -1615.298          48.000  
G24  20930612.819   109991111.424       -3363.709          30.000    20930601.046                       -2620.256          31.000  
G32  20902981.325   109845907.472        1505.761          46.000    20902970.728    85594159.000        1173.045          41.000  
C08  34710023.623   180744198.008        -335.834          46.000    34710006.787   139762799.866        -259.766          49.000  
C13  34711893.032   180753932.042         -39.819          47.000    34711883.952   139770359.681         -30.792          48.000  
C16  35671899.814   185752945.724           4.224          47.000    35671891.234   143635920.523           3.248          48.000  
C25  22252788.048   115876120.419       -2541.821          35.000                                                                  
C32  21052732.445   109627105.646         878.762          50.000                                                                  
C06  35365272.008   184156251.731         183.330          44.000    35365256.402   142401231.488         141.946          47.000  
G25  20500867.982   107732803.290        2559.438          40.000    20500860.225    83947596.917        1994.149          43.000  
G10  19514723.874   102550562.980        1056.427          50.000    19514712.454    79909485.773         823.138          43.000  
G28  22040117.041   115821610.996        2590.897          39.000    22040106.841    90250586.960        2018.547          42.000  
C23  20727423.229   107933130.251         273.135          50.000                                                                  
C09  36833790.321   191803217.077         282.167          39.000    36833778.653   148314361.059         218.047          47.000  
C33  26108406.727                       -2925.679          31.000                                                                  
C37  22874517.841   119113631.613        2692.117          43.000                                                                  
> 2025 10 27 02 50 23.3560000  0 19                     
G12  20753057.271   109058053.017         888.656          45.000    20753045.608    84980254.514         692.303          42.000  
G15  23240743.278   122130919.656       -3251.166          34.000    23240738.042    95166935.407       -2534.077          32.000  
G18  23568877.517   123855274.138       -3681.868          35.000    23568872.374    96510566.504       -2869.302          36.000  
G23  19253637.679   101178544.550       -2072.797          46.000    19253626.087    78840349.660       -1615.131          48.000  
G24  20930638.426   109991245.979       -3363.812          30.000    20930626.660                       -2620.386          31.000  
G32  20902969.861   109845847.242        1505.813          46.000    20902959.263    85594112.073        1173.113          41.000  
C08  34710026.207   180744211.438        -335.785          46.000    34710009.362   139762810.247        -259.607          49.000  
C13  34711893.323   180753933.634         -39.819          47.000    34711884.267   139770360.912         -30.792          48.000  
C16  35671899.794   185752945.549           4.336          47.000    35671891.200   143635920.391           3.299          48.000  
C25  22252807.575   115876222.085       -2541.692          35.000                                                                  
C32  21052725.703   109627070.496         878.724          50.000                                                                  
C06  35365270.597   184156244.388         183.451          44.000    35365255.016   142401225.807         141.991          47.000  
G25  20500848.487   107732700.897        2559.777          40.000    20500840.718    83947517.135        1994.383          43.000  
G10  19514715.838   102550520.724        1056.403          50.000    19514704.391    79909452.850         823.029          43.000  
G28  22040097.317   115821507.353        2591.031          39.000    22040087.113    90250506.203        2018.699          42.000  
C23  20727421.182   107933119.320         273.226          50.000                                                                  
C09  36833788.152   191803205.782         282.348          39.000    36833776.523   148314352.338         218.028          47.000  
C33  26108429.197                       -2926.283          31.000                                                                  
C37  22874497.174   119113523.914        2692.401          43.000                                                                  
> 2025 10 27 02 50 23.3960000  0 19                     
G12  20753050.521   109058017.485         888.409          45.000    20753038.841    84980226.819         692.336          41.000  
G15  23240768.019   122131049.683       -3250.778          34.000    23240762.803    95167036.718       -2533.207          32.000  
G18  23568905.557   123855421.444       -3682.280          35.000    23568900.393    96510681.268       -2869.188          35.000  
G23  19253653.451   101178627.462       -2072.816          46.000    19253641.857    78840414.263       -1615.094          47.000  
G24  20930664.034   109991380.535       -3363.900          30.000    20930652.282                       -2620.907          31.000  
G32  20902958.403   109845787.024        1505.576          46.000    20902947.801    85594065.147        1173.117          41.000  
C08  34710028.777   180744224.863        -335.675          46.000    34710011.933   139762820.634        -259.644          49.000  
C13  34711893.609   180753935.225         -39.813          47.000    34711884.550   139770362.140         -30.750          48.000  
C16  35671899.759   185752945.386           4.195          47.000    35671891.127   143635920.261           3.236          48.000  
C25  22252827.117   115876323.738       -2541.354          35.000                                                                  
C32  21052718.978   109627035.344         878.750          50.000                                                                  
C06  35365269.159   184156237.033         183.733          44.000    35365253.614   142401220.126         142.010          47.000  
G25  20500829.009   107732598.517        2559.680          40.000    20500821.224    83947437.355        1994.471          42.000  
G10  19514707.780   102550478.467        1056.415          50.000    19514696.367    79909419.925         823.065          43.000  
G28  22040077.614   115821403.727        2590.806          39.000    22040067.380    90250425.450        2018.806          42.000  
C23  20727419.064   107933108.396         273.133          50.000                                                                  
C09  36833785.976   191803194.511         282.014          39.000    36833774.351   148314343.611         218.103          47.000  
C33  26108451.682                       -2926.121          31.000                                                                  
C37  22874476.473   119113416.229        2692.292          43.000                                                                  
> 2025 10 27 02 50 23.4360000  0 19                     
G12  20753043.742   109057981.945         888.405          45.000    20753032.072    84980199.123         692.377          41.000  
G15  23240792.781   122131179.777       -3251.689          34.000    23240787.557    95167138.066       -2533.416          32.000  
G18  23568933.601   123855568.739       -3682.376          35.000    23568928.404    96510796.054       -2869.568          35.000  
G23  19253669.233   101178710.373       -2072.810          46.000    19253657.659    78840478.874       -1615.223          47.000  
G24  20930689.655   109991515.095       -3363.979          30.000    20930677.893                       -2621.757          31.000  
G32  20902946.935   109845726.803        1505.522          46.000    20902936.330    85594018.206        1173.387          41.000  
C08  34710031.363   180744238.297        -335.809          46.000    34710014.488   139762831.016        -259.570          49.000  
C13  34711893.943   180753936.815         -39.771          47.000    34711884.847   139770363.373         -30.811          48.000  
C16  35671899.700   185752945.220           4.150          47.000    35671891.069   143635920.127           3.314          48.000  
C25  22252846.632   115876425.417       -2541.700          35.000                                                                  
C32  21052712.269   109627000.188         878.820          50.000                                                                  
C06  35365267.721   184156229.688         183.677          44.000    35365252.176   142401214.449         141.957          47.000  
G25  20500809.516   107732496.141        2559.509          40.000    20500801.770    83947357.593        1994.172          42.000  
G10  19514699.749   102550436.211        1056.372          50.000    19514688.320    79909386.995         823.169          43.000  
G28  22040057.901   115821300.094        2590.800          39.000    22040047.663    90250344.698        2018.786          42.000  
C23  20727416.979   107933097.470         273.128          50.000                                                                  
C09  36833783.794   191803183.237         281.807          39.000    36833772.189   148314334.885         218.127          47.000  
C33  26108474.105                       -2925.392          31.000                                                                  
C37  22874455.763   119113308.552        2692.055          43.000                                                                  
> 2025 10 27 02 50 23.4760000  0 19                     
G12  20753036.972   109057946.407         888.382          45.000    20753025.331    84980171.441         692.123          41.000  
G15  23240817.525   122131309.840       -3251.838          34.000    23240812.327    95167239.403       -2533.419          32.000  
G18  23568961.626   123855716.064       -3683.023          35.000    23568956.450    96510910.851       -2869.884          35.000  
G23  19253685.037   101178793.293       -2072.964          46.000    19253673.460    78840543.487       -1615.322          47.000  
G24  20930715.258   109991649.684       -3364.357          30.000    20930703.502                       -2622.214          31.000  
G32  20902935.462   109845666.581        1505.517          46.000    20902924.849    85593971.280        1173.183          41.000  
C08  34710033.923   180744251.731        -335.870          46.000    34710017.038   139762841.410        -259.766          49.000  
C13  34711894.240   180753938.407         -39.832          47.000    34711885.147   139770364.612         -30.963          48.000  
C16  35671899.693   185752945.050           4.204          47.000    35671890.986   143635920.006           3.098          48.000  
C25  22252866.160   115876527.102       -2542.089          35.000                                                                  
C32  21052705.489   109626965.042         878.692          50.000                                                                  
C06  35365266.326   184156222.344         183.607          44.000    35365250.785   142401208.774         141.880          47.000  
G25  20500790.027   107732393.789        2558.949          40.000    20500782.291    83947277.826        1994.079          42.000  
G10  19514691.702   102550393.959        1056.311          50.000    19514680.289    79909354.061         823.322          43.000  
G28  22040038.168   115821196.463        2590.776          39.000    22040027.956    90250263.944        2018.792          42.000  
C23  20727414.864   107933086.551         272.972          50.000                                                                  
C09  36833781.633   191803171.949         282.038          39.000    36833770.016   148314326.162         218.095          47.000  
C33  26108496.624                       -2925.773          31.000                                                                  
C37  22874435.076   119113200.879        2691.804          43.000                                                                  
> 2025 10 27 02 50 23.5160000  0 19                     
G12  20753030.202   109057910.871         888.343          45.000    20753018.556    84980143.755         692.069          41.000  
G15  23240842.262   122131439.945       -3252.721          34.000    23240837.075    95167340.784       -2534.155          32.000  
G18  23568989.680   123855863.375       -3682.989          35.000    23568984.496    96511025.635       -2869.785          35.000  
G23  19253700.828   101178876.212       -2073.031          46.000    19253689.232    78840608.096       -1615.309          47.000  
G24  20930740.881   109991784.229       -3364.112          30.000    20930729.098                       -2621.399          31.000  
G32  20902923.993   109845606.362        1505.467          46.000    20902913.414    85593924.361        1172.998          41.000  
C08  34710036.509   180744265.167        -335.956          46.000    34710019.634   139762851.799        -259.808          49.000  
C13  34711894.553   180753940.005         -39.954          47.000    34711885.456   139770365.842         -30.859          48.000  
C16  35671899.649   185752944.890           4.046          47.000    35671890.958   143635919.883           3.011          48.000  
C25  22252885.687   115876628.783       -2542.161          35.000                                                                  
C32  21052698.723   109626929.896         878.616          50.000                                                                  
C06  35365264.896   184156215.004         183.516          44.000    35365249.344   142401203.102         141.788          47.000  
G25  20500770.544   107732291.412        2559.131          40.000    20500762.827    83947198.051        1994.207          42.000  
G10  19514683.648   102550351.705        1056.299          50.000    19514672.247    79909321.146         822.986          43.000  
G28  22040018.437   115821092.840        2590.602          39.000    22040008.274    90250183.202        2018.586          42.000  
C23  20727412.771   107933075.632         272.912          50.000                                                                  
C09  36833779.452   191803160.675         281.925          39.000    36833767.855   148314317.438         218.057          47.000  
C33  26108519.077                       -2926.439          31.000                                                                  
C37  22874414.422   119113093.198        2691.820          43.000                                                                  
> 2025 10 27 02 50 23.5560000  0 19                     
G12  20753023.456   109057875.337         888.315          45.000    20753011.780    84980116.059         692.234          41.000  
G15  23240867.025   122131569.993       -3252.038          34.000    23240861.807    95167442.145       -2534.323          32.000  
G18  23569017.717   123856010.693       -3683.034          35.000    23569012.518    96511140.403       -2869.373          35.000  
G23  19253716.587   101178959.135       -2073.116          46.000    19253704.995    78840672.709       -1615.364          47.000  
G24  20930766.484   109991918.786       -3364.073          30.000    20930754.686                       -2621.206          31.000  
G32  20902912.507   109845546.141        1505.469          46.000    20902901.972    85593877.443        1172.855          41.000  
C08  34710039.098   180744278.606        -336.023          46.000    34710022.210   139762862.186        -259.760          49.000  
C13  34711894.849   180753941.602         -39.978          47.000    34711885.755   139770367.076         -30.841          48.000  
C16  35671899.604   185752944.731           3.952          47.000    35671890.916   143635919.756           3.081          48.000  
C25  22252905.181   115876730.462       -2542.098          35.000                                                                  
C32  21052691.964   109626894.748         878.639          50.000                                                                  
C06  35365263.485   184156207.669         183.394          44.000    35365247.924   142401197.432         141.707          47.000  
G25  20500751.091   107732189.049        2559.088          40.000    20500743.348    83947118.277        1994.309          42.000  
G10  19514675.655   102550309.465        1056.055          50.000    19514664.190    79909288.232         822.754          43.000  
G28  22039998.722   115820989.216        2590.535          39.000    22039988.560    90250102.461        2018.489          42.000  
C23  20727410.671   107933064.719         272.792          50.000                                                                  
C09  36833777.273   191803149.392         282.078          39.000    36833765.712   148314308.715         218.045          47.000  
C33  26108541.544                       -2926.474          31.000                                                                  
C37  22874393.708   119112985.516        2691.917          43.000                                                                  
> 2025 10 27 02 50 23.5960000  0 19                     
G12  20753016.710   109057839.805         888.273          45.000    20753005.019    84980088.371         692.182          41.000  
G15  23240891.778   122131700.050       -3251.567          34.000    23240886.552    95167543.468       -2533.513          32.000  
G18  23569045.736   123856157.947       -3681.900          35.000    23569040.535    96511255.192       -2869.572          35.000  
G23  19253732.368   101179042.053       -2073.029          46.000    19253720.757    78840737.315       -1615.228          47.000  
G24  20930792.050   109992053.332       -3363.915          30.000    20930780.270                       -2621.171          31.000  
G32  20902901.026   109845485.916        1505.567          46.000    20902890.520    85593830.513        1173.069          41.000  
C08  34710041.714   180744292.040        -335.962          46.000    34710024.796   139762872.571        -259.698          49.000  
C13  34711895.160   180753943.198         -39.929          47.000    34711886.047   139770368.306         -30.780          48.000  
C16  35671899.588   185752944.571           3.903          47.000    35671890.857   143635919.631           3.083          48.000  
C25  22252924.701   115876832.109       -2541.469          35.000                                                                  
C32  21052685.218   109626859.600         878.673          50.000                                                                  
C06  35365262.100   184156200.325         183.485          44.000    35365246.507   142401191.754         141.825          47.000  
G25  20500731.601   107732086.672        2559.308          40.000    20500723.876    83947038.515        1994.109          42.000  
G10  19514667.605   102550267.216        1056.085          50.000    19514656.153    79909255.313         822.760          43.000  
G28  22039979.018   115820885.589        2590.593          39.000    22039968.819    90250021.696        2018.945          42.000  
C23  20727408.589   107933053.795         272.947          50.000                                                                  
C09  36833775.091   191803138.097         282.346          39.000    36833763.546   148314299.990         218.077          47.000  
C33  26108564.034                       -2925.787          31.000                                                                  
C37  22874373.055   119112877.823        2692.169          43.000                                                                  
> 2025 10 27 02 50 23.6360000  0 19                     
G12  20753009.960   109057804.268         888.339          45.000    20752998.265    84980060.677         692.307          41.000  
G15  23240916.523   122131830.077       -3251.006          34.000    23240911.283    95167644.772       -2532.770          32.000  
G18  23569073.757   123856305.248       -3682.197          35.000    23569068.574    96511369.943       -2868.962          35.000  
G23  19253748.164   101179124.956       -2072.684          46.000    19253736.538    78840801.921       -1615.154          47.000  
G24  20930817.672   109992187.883       -3363.872          30.000    20930805.833                       -2620.366          31.000  
G32  20902889.559   109845425.683        1505.773          46.000    20902879.045    85593783.584        1173.179          41.000  
C08  34710044.276   180744305.465        -335.706          46.000    34710027.405   139762882.956        -259.644          49.000  
C13  34711895.473   180753944.787         -39.758          47.000    34711886.342   139770369.530         -30.634          48.000  
C16  35671899.558   185752944.393           4.233          47.000    35671890.830   143635919.489           3.382          48.000  
C25  22252944.218   115876933.784       -2541.631          35.000                                                                  
C32  21052678.493   109626824.444         878.853          50.000                                                                  
C06  35365260.678   184156192.979         183.575          44.000    35365245.077   142401186.074         141.921          47.000  
G25  20500712.124   107731984.291        2559.530          40.000    20500704.414    83946958.742        1994.254          42.000  
G10  19514659.566   102550224.959        1056.305          50.000    19514648.110    79909222.387         822.968          43.000  
G28  22039959.308   115820781.937        2591.135          39.000    22039949.096    90249940.953        2018.737          42.000  
C23  20727406.500   107933042.870         273.070          50.000                                                                  
C09  36833772.930   191803126.811         282.305          39.000    36833761.368   148314291.265         218.096          47.000  
C33  26108586.475   135954202.077       -2925.410          31.000                                                                  
C37  22874352.375   119112770.148        2691.982          43.000                                                                  
> 2025 10 27 02 50 23.6760000  0 19                     
G12  20753003.194   109057768.722         888.552          45.000    20752991.497    84980032.979         692.386          41.000  
G15  23240941.273   122131960.106       -3250.761          34.000    23240936.019    95167746.105       -2532.875          32.000  
G18  23569101.793   123856452.515       -3681.800          35.000    23569096.615    96511484.712       -2868.946          35.000  
G23  19253763.958   101179207.866       -2072.679          46.000    19253752.325    78840866.529       -1615.155          47.000  
G24  20930843.291   109992322.402       -3363.468          30.000    20930831.402                       -2620.966          31.000  
G32  20902878.082   109845365.454        1505.800          46.000    20902867.558    85593736.638        1173.518          41.000  
C08  34710046.858   180744318.885        -335.486          46.000    34710029.988   139762893.342        -259.662          49.000  
C13  34711895.786   180753946.363         -39.447          47.000    34711886.650   139770370.752         -30.524          48.000  
C16  35671899.535   185752944.207           4.552          47.000    35671890.786   143635919.356           3.374          48.000  
C25  22252963.752   115877035.475       -2542.113          35.000                                                                  
C32  21052671.754   109626789.285         878.976          50.000                                                                  
C06  35365259.267   184156185.640         183.508          44.000    35365243.646   142401180.385         142.129          47.000  
G25  20500692.612   107731881.913        2559.568          40.000    20500684.921    83946878.961        1994.466          42.000  
G10  19514651.511   102550182.700        1056.421          50.000    19514640.099    79909189.456         823.200          43.000  
G28  22039939.585   115820678.292        2591.198          39.000    22039929.383    90249860.192        2018.910          42.000  
C23  20727404.399   107933031.935         273.313          50.000                                                                  
C09  36833770.761   191803115.537         282.033          39.000    36833759.222   148314282.534         218.215          47.000  
C33  26108608.959                       -2924.939          31.000                                                                  
C37  22874331.683   119112662.451        2692.241          43.000                                                                  
> 2025 10 27 02 50 23.7160000  0 19                     
G12  20752996.443   109057733.186         888.483          45.000    20752984.731    84980005.288         692.340          41.000  
G15  23240966.027   122132090.183       -3251.555          34.000    23240960.759    95167847.442       -2533.127          32.000  
G18  23569129.821   123856599.836       -3682.631          35.000    23569124.642    96511599.480       -2869.081          35.000  
G23  19253779.747   101179290.776       -2072.711          46.000    19253768.125    78840931.136       -1615.143          47.000  
G24  20930868.894   109992456.931       -3363.295          30.000    20930857.001                       -2621.707          31.000  
G32  20902866.617   109845305.226        1505.744          46.000    20902856.115    85593689.711        1173.341          41.000  
C08  34710049.403   180744332.311        -335.559          46.000    34710032.546   139762903.726        -259.619          49.000  
C13  34711896.049   180753947.952         -39.612          47.000    34711886.963   139770371.982         -30.682          48.000  
C16  35671899.512   185752944.034           4.483          47.000    35671890.784   143635919.221           3.391          48.000  
C25  22252983.260   115877137.135       -2541.747          35.000                                                                  
C32  21052664.934   109626754.136         878.805          50.000                                                                  
C06  35365257.861   184156178.286         183.739          44.000    35365242.234   142401174.702         142.141          47.000  
G25  20500673.124   107731779.539        2559.440          40.000    20500665.454    83946799.196        1994.262          42.000  
G10  19514643.498   102550140.447        1056.378          50.000    19514632.057    79909156.529         823.254          43.000  
G28  22039919.867   115820574.652        2591.064          39.000    22039909.669    90249779.430        2019.002          42.000  
C23  20727402.310   107933021.009         273.260          50.000                                                                  
C09  36833768.582   191803104.243         282.216          39.000    36833757.084   148314273.805         218.212          47.000  
C33  26108631.410                       -2925.989          31.000                                                                  
C37  22874310.986   119112554.764        2692.192          43.000                                                                  
> 2025 10 27 02 50 23.7560000  0 19                     
G12  20752989.666   109057697.652         888.365          45.000    20752977.961    84979977.605         692.104          41.000  
G15  23240990.738   122132220.268       -3252.172          34.000    23240985.481    95167948.810       -2533.860          32.000  
G18  23569157.864   123856747.140       -3682.761          35.000    23569152.669    96511714.267       -2869.551          35.000  
G23  19253795.542   101179373.706       -2073.106          46.000    19253783.910    78840995.750       -1615.316          47.000  
G24  20930894.506   109992591.476       -3363.363          30.000    20930882.644                       -2621.625          31.000  
G32  20902855.174   109845245.004        1505.600          46.000    20902844.640    85593642.776        1173.364          41.000  
C08  34710051.977   180744345.742        -335.724          46.000    34710035.103   139762914.110        -259.589          49.000  
C13  34711896.314   180753949.548         -39.838          47.000    34711887.265   139770373.214         -30.804          48.000  
C16  35671899.474   185752943.874           4.144          47.000    35671890.734   143635919.099           3.132          48.000  
C25  22253002.773   115877238.779       -2541.206          35.000                                                                  
C32  21052658.153   109626718.989         878.683          50.000                                                                  
C06  35365256.453   184156170.946         183.610          44.000    35365240.829   142401169.027         141.978          47.000  
G25  20500653.632   107731677.165        2559.335          40.000    20500645.956    83946719.425        1994.236          42.000  
G10  19514635.468   102550098.197        1056.281          50.000    19514624.017    79909123.616         822.931          43.000  
G28  22039900.156   115820471.027        2590.753          39.000    22039889.950    90249698.685        2018.752          42.000  
C23  20727400.215   107933010.095         272.964          50.000                                                                  
C09  36833766.409   191803092.954         282.233          39.000    36833754.893   148314265.081         218.111          47.000  
C33  26108653.917                       -2926.329          31.000                                                                  
C37  22874290.307   119112447.089        2691.936          43.000                                                                  
> 2025 10 27 02 50 23.7960000  0 19                     
G12  20752982.919   109057662.121         888.256          45.000    20752971.198    84979949.925         691.926          41.000  
G15  23241015.501   122132350.329       -3251.945          34.000    23241010.233    95168050.175       -2534.130          32.000  
G18  23569185.890   123856894.441       -3682.780          35.000    23569180.710    96511829.051       -2869.675          35.000  
G23  19253811.313   101179456.626       -2073.129          46.000    19253799.699    78841060.369       -1615.475          47.000  
G24  20930920.109   109992726.028       -3363.510          30.000    20930908.276                       -2621.353          31.000  
G32  20902843.699   109845184.780        1505.584          46.000    20902833.187    85593595.855        1173.132          41.000  
C08  34710054.540   180744359.180        -335.931          46.000    34710037.678   139762924.496        -259.625          49.000  
C13  34711896.599   180753951.145         -39.935          47.000    34711887.574   139770374.448         -30.878          48.000  
C16  35671899.466   185752943.711           4.019          47.000    35671890.691   143635918.969           3.142          48.000  
C25  22253022.295   115877340.471       -2541.917          35.000                                                                  
C32  21052651.416   109626683.835         878.750          50.000                                                                  
C06  35365255.046   184156163.603         183.577          44.000    35365239.435   142401163.350         141.901          47.000  
G25  20500634.136   107731574.807        2559.053          40.000    20500626.469    83946639.647        1994.356          42.000  
G10  19514627.476   102550055.953        1056.110          50.000    19514615.969    79909090.688         823.029          43.000  
G28  22039880.451   115820367.408        2590.469          39.000    22039870.253    90249617.942        2018.566          42.000  
C23  20727398.134   107932999.178         272.873          50.000                                                                  
C09  36833764.269   191803081.685         281.875          39.000    36833752.730   148314256.354         218.112          47.000  
C33  26108676.346                       -2926.835          31.000                                                                  
C37  22874269.608   119112339.411        2691.850          43.000                                                                  
> 2025 10 27 02 50 23.8360000  0 19                     
G12  20752976.181   109057626.598         888.052          45.000    20752964.444    84979922.237         692.003          41.000  
G15  23241040.261   122132480.370       -3251.408          34.000    23241034.956    95168151.539       -2534.276          32.000  
G18  23569213.912   123857041.730       -3682.448          35.000    23569208.748    96511943.827       -2869.581          35.000  
G23  19253827.088   101179539.547       -2073.110          46.000    19253815.490    78841124.988       -1615.530          47.000  
G24  20930945.720   109992860.554       -3363.315          30.000    20930933.913                       -2621.037          31.000  
G32  20902832.228   109845124.556        1505.560          46.000    20902821.721    85593548.933        1172.999          41.000  
C08  34710057.129   180744372.615        -335.986          46.000    34710040.283   139762934.880        -259.613          49.000  
C13  34711896.896   180753952.736         -39.886          47.000    34711887.855   139770375.684         -30.963          48.000  
C16  35671899.443   185752943.547           3.999          47.000    35671890.637   143635918.843           3.101          48.000  
C25  22253041.816   115877442.157       -2542.224          35.000                                                                  
C32  21052644.660   109626648.687         878.712          50.000                                                                  
C06  35365253.651   184156156.262         183.540          44.000    35365238.053   142401157.678         141.813          47.000  
G25  20500614.613   107731472.428        2559.262          40.000    20500607.002    83946559.887        1994.119          42.000  
G10  19514619.441   102550013.707        1056.104          50.000    19514607.927    79909057.770         822.943          43.000  
G28  22039860.727   115820263.791        2590.311          39.000    22039850.542    90249537.191        2018.643          42.000  
C23  20727396.057   107932988.264         272.807          50.000                                                                  
C09  36833762.115   191803070.402         281.934          39.000    36833750.579   148314247.628         218.112          47.000  
C33  26108698.802                       -2925.527          31.000                                                                  
C37  22874248.938   119112231.727        2691.972          43.000                                                                  
> 2025 10 27 02 50 23.8760000  0 19                     
G12  20752969.411   109057591.070         888.058          45.000    20752957.670    84979894.556         691.968          41.000  
G15  23241065.022   122132610.431       -3251.390          34.000    23241059.704    95168252.898       -2534.167          32.000  
G18  23569241.935   123857189.010       -3682.105          35.000    23569236.778    96512058.610       -2869.706          35.000  
G23  19253842.853   101179622.469       -2073.116          46.000    19253831.243    78841189.601       -1615.437          47.000  
G24  20930971.343   109992995.174       -3364.291          30.000    20930959.508                       -2620.796          31.000  
G32  20902820.789   109845064.335        1505.510          46.000    20902810.258    85593502.025        1172.707          41.000  
C08  34710059.719   180744386.049        -335.956          46.000    34710042.857   139762945.273        -259.821          49.000  
C13  34711897.203   180753954.326         -39.825          47.000    34711888.184   139770376.915         -30.847          48.000  
C16  35671899.455   185752943.375           4.141          47.000    35671890.597   143635918.712           3.189          48.000  
C25  22253061.356   115877543.827       -2542.000          35.000                                                                  
C32  21052637.932   109626613.539         878.662          50.000                                                                  
C06  35365252.289   184156148.913         183.658          44.000    35365236.673   142401151.997         141.915          47.000  
G25  20500595.133   107731370.064        2559.188          40.000    20500587.532    83946480.125        1994.035          42.000  
G10  19514611.377   102549971.456        1056.183          50.000    19514599.885    79909024.849         822.955          43.000  
G28  22039840.986   115820160.146        2590.844          39.000    22039830.804    90249456.437        2018.756          42.000  
C23  20727393.948   107932977.349         272.807          50.000                                                                  
C09  36833759.949   191803059.116         282.049          39.000    36833748.389   148314238.905         218.069          47.000  
C33  26108721.234                       -2924.978          31.000                                                                  
C37  22874228.276   119112124.045        2692.008          43.000                                                                  
> 2025 10 27 02 50 23.9160000  0 19                     
G12  20752962.644   109057555.543         888.049          45.000    20752950.918    84979866.861         692.230          41.000  
G15  23241089.772   122132740.488       -3251.350          34.000    23241084.446    95168354.239       -2533.986          32.000  
G18  23569269.962   123857336.299       -3682.089          35.000    23569264.813    96512173.376       -2869.485          35.000  
G23  19253858.618   101179705.394       -2073.140          46.000    19253847.019    78841254.218       -1615.443          47.000  
G24  20930996.942   109993129.729       -3364.260          30.000    20930985.083                       -2621.163          31.000  
G32  20902809.341   109845004.111        1505.551          46.000    20902798.802    85593455.090        1173.059          41.000  
C08  34710062.317   180744399.487        -335.992          46.000    34710045.479   139762955.664        -259.851          49.000  
C13  34711897.501   180753955.918         -39.819          47.000    34711888.472   139770378.149         -30.859          48.000  
C16  35671899.413   185752943.211           4.081          47.000    35671890.526   143635918.583           3.209          48.000  
C25  22253080.848   115877645.494       -2541.734          35.000                                                                  
C32  21052631.218   109626578.391         878.670          50.000                                                                  
C06  35365250.913   184156141.574         183.517          44.000    35365235.266   142401146.317         141.962          47.000  
G25  20500575.655   107731267.702        2559.051          40.000    20500568.023    83946400.352        1994.196          42.000  
G10  19514603.338   102549929.209        1056.146          50.000    19514591.853    79908991.921         823.090          43.000  
G28  22039821.265   115820056.523        2590.692          39.000    22039811.097    90249375.691        2018.649          42.000  
C23  20727391.857   107932966.434         272.829          50.000                                                                  
C09  36833757.787   191803047.826         282.147          39.000    36833746.234   148314230.185         217.975          47.000  
C33  26108743.690                       -2925.911          31.000                                                                  
C37  22874207.590   119112016.365        2691.972          43.000                                                                  
> 2025 10 27 02 50 23.9560000  0 19                     
G12  20752955.862   109057520.005         888.270          45.000    20752944.172    84979839.179         692.104          41.000  
G15  23241114.499   122132870.548       -3251.434          34.000    23241109.252    95168455.549       -2533.512          32.000  
G18  23569297.978   123857483.600       -3682.359          35.000    23569292.853    96512288.153       -2869.461          35.000  
G23  19253874.393   101179788.314       -2073.072          46.000    19253862.774    78841318.825       -1615.276          47.000  
G24  20931022.554   109993264.282       -3364.160          30.000    20931010.692                       -2621.545          31.000  
G32  20902797.890   109844943.894        1505.468          46.000    20902787.322    85593408.152        1173.301          41.000  
C08  34710064.869   180744412.919        -335.919          46.000    34710048.039   139762966.055        -259.845          49.000  
C13  34711897.826   180753957.510         -39.807          47.000    34711888.790   139770379.377         -30.756          48.000  
C16  35671899.409   185752943.045           4.081          47.000    35671890.476   143635918.457           3.169          48.000  
C25  22253100.381   115877747.184       -2542.024          35.000                                                                  
C32  21052624.467   109626543.244         878.664          50.000                                                                  
C06  35365249.494   184156134.233         183.457          44.000    35365233.846   142401140.636         142.012          47.000  
G25  20500556.189   107731165.337        2559.074          40.000    20500548.516    83946320.588        1994.142          42.000  
G10  19514595.315   102549886.963        1056.134          50.000    19514583.820    79908959.007         822.906          43.000  
G28  22039801.539   115819952.889        2590.828          39.000    22039791.376    90249294.951        2018.494          42.000  
C23  20727389.776   107932955.514         272.926          50.000                                                                  
C09  36833755.597   191803036.550         282.055          39.000    36833744.047   148314221.458         218.084          47.000  
C33  26108766.167                       -2926.406          31.000                                                                  
C37  22874186.929   119111908.681        2692.041          43.000                                                                  
> 2025 10 27 02 50 23.9960000  0 19                     
G12  20752949.127   109057484.482         888.112          45.000    20752937.396    84979811.487         692.219          41.000  
G15  23241139.225   122133000.598       -3251.320          34.000    23241134.002    95168556.898       -2533.699          32.000  
G18  23569325.980   123857630.907       -3682.616          35.000    23569320.904    96512402.932       -2869.474          35.000  
G23  19253890.170   101179871.239       -2073.127          46.000    19253878.560    78841383.439       -1615.308          47.000  
G24  20931048.208   109993398.832       -3364.038          30.000    20931036.298                       -2620.964          31.000  
G32  20902786.427   109844883.673        1505.462          46.000    20902775.842    85593361.210        1173.542          41.000  
C08  34710067.430   180744426.354        -335.913          46.000    34710050.619   139762976.442        -259.760          49.000  
C13  34711898.121   180753959.114         -40.057          47.000    34711889.118   139770380.612         -30.847          48.000  
C16  35671899.354   185752942.882           4.043          47.000    35671890.444   143635918.326           3.228          48.000  
C25  22253119.872   115877848.856       -2541.807          35.000                                                                  
C32  21052617.718   109626508.098         878.613          50.000                                                                  
C06  35365248.095   184156126.895         183.423          44.000    35365232.449   142401134.964         141.844          47.000  
G25  20500536.704   107731062.958        2559.316          40.000    20500529.056    83946240.808        1994.364          42.000  
G10  19514587.272   102549844.720        1056.049          50.000    19514575.788    79908926.086         822.949          43.000  
G28  22039781.804   115819849.268        2590.584          39.000    22039771.629    90249214.198        2018.632          42.000  
C23  20727387.659   107932944.603         272.821          50.000                                                                  
C09  36833753.441   191803025.265         282.085          39.000    36833741.868   148314212.737         218.008          47.000  
C33  26108788.651   135955255.448       -2926.877          31.000                                                                  
C37  22874166.251   119111801.005        2691.940          43.000                                                                  
> 2025 10 27 02 50 24.0360000  0 19                     
G12  20752942.367   109057448.963         887.980          45.000    20752930.657    84979783.817         691.895          41.000  
G15  23241163.988   122133130.696       -3252.104          34.000    23241158.741    95168658.224       -2533.351          32.000  
G18  23569354.024   123857778.217       -3682.818          35.000    23569348.973    96512517.714       -2869.545          35.000  
G23  19253905.961   101179954.170       -2073.287          46.000    19253894.353    78841448.065       -1615.573          47.000  
G24  20931073.776   109993533.364       -3363.733          30.000    20931061.907                       -2621.250          31.000  
G32  20902774.990   109844823.448        1505.562          46.000    20902764.393    85593314.295        1173.099          41.000  
C08  34710070.000   180744439.789        -335.870          46.000    34710053.180   139762986.825        -259.644          49.000  
C13  34711898.402   180753960.713         -40.070          47.000    34711889.432   139770381.840         -30.762          48.000  
C16  35671899.311   185752942.723           3.969          47.000    35671890.414   143635918.202           3.156          48.000  
C25  22253139.381   115877950.539       -2541.925          35.000                                                                  
C32  21052610.966   109626472.961         878.455          50.000                                                                  
C06  35365246.660   184156119.557         183.400          44.000    35365231.026   142401129.285         141.908          47.000  
G25  20500517.220   107730960.606        2558.966          40.000    20500509.585    83946161.051        1994.071          42.000  
G10  19514579.257   102549802.483        1055.914          50.000    19514567.772    79908893.191         822.504          43.000  
G28  22039762.090   115819745.654        2590.368          39.000    22039751.912    90249133.459        2018.490          42.000  
C23  20727385.526   107932933.696         272.674          50.000                                                                  
C09  36833751.272   191803013.994         281.872          39.000    36833739.693   148314204.012         218.090          47.000  
C33  26108811.107   135955372.488       -2926.514          31.000                                                                  
C37  22874145.568   119111693.328        2691.895          43.000                                                                  
> 2025 10 27 02 50 24.0760000  0 19                     
G12  20752935.600   109057413.438         888.024          45.000    20752923.910    84979756.144         691.779          41.000  
G15  23241188.733   122133260.766       -3251.991          34.000    23241183.485    95168759.596       -2534.080          32.000  
G18  23569382.050   123857925.514       -3682.624          35.000    23569376.996    96512632.515       -2869.853          35.000  
G23  19253921.712   101180037.092       -2073.164          46.000    19253910.162    78841512.689       -1615.658          47.000  
G24  20931099.376   109993667.911       -3363.671          30.000    20931087.497                       -2620.390          31.000  
G32  20902763.528   109844763.219        1505.716          46.000    20902752.946    85593267.378        1172.923          41.000  
C08  34710072.586   180744453.218        -335.791          46.000    34710055.754   139762997.214        -259.698          49.000  
C13  34711898.694   180753962.301         -39.838          47.000    34711889.757   139770383.070         -30.792          48.000  
C16  35671899.314   185752942.552           4.162          47.000    35671890.358   143635918.069           3.248          48.000  
C25  22253158.918   115878052.229       -2542.140          35.000                                                                  
C32  21052604.252   109626437.811         878.599          50.000                                                                  
C06  35365245.247   184156112.216         183.463          44.000    35365229.598   142401123.607         141.865          47.000  
G25  20500497.718   107730858.225        2559.305          40.000    20500490.121    83946081.305        1993.702          42.000  
G10  19514571.212   102549760.247        1055.829          50.000    19514559.741    79908860.280         822.607          43.000  
G28  22039742.371   115819642.029        2590.444          39.000    22039732.192    90249052.707        2018.652          42.000  
C23  20727383.452   107932922.783         272.728          50.000                                                                  
C09  36833749.087   191803002.714         281.912          39.000    36833737.526   148314195.287         218.096          47.000  
C33  26108833.547                       -2925.452          31.000                                                                  
C37  22874124.891   119111585.652        2691.843          43.000                                                                  
> 2025 10 27 02 50 24.1160000  0 19                     
G12  20752928.841   109057377.914         888.031          45.000    20752917.126    84979728.465         691.850          41.000  
G15  23241213.476   122133390.803       -3251.310          34.000    23241208.258    95168860.932       -2533.679          32.000  
G18  23569410.092   123858072.798       -3682.278          35.000    23569405.013    96512747.261       -2869.180          35.000  
G23  19253937.502   101180120.021       -2073.200          46.000    19253925.924    78841577.311       -1615.651          47.000  
G24  20931125.005   109993802.478       -3363.876          30.000    20931113.125                       -2621.517          31.000  
G32  20902752.079   109844702.999        1505.588          46.000    20902741.490    85593220.452        1172.994          41.000  
C08  34710075.185   180744466.659        -335.974          46.000    34710058.342   139763007.602        -259.717          49.000  
C13  34711899.014   180753963.888         -39.691          47.000    34711890.079   139770384.304         -30.859          48.000  
C16  35671899.282   185752942.383           4.243          47.000    35671890.317   143635917.942           3.201          48.000  
C25  22253178.456   115878153.906       -2542.004          35.000                                                                  
C32  21052597.537   109626402.662         878.689          50.000                                                                  
C06  35365243.847   184156104.878         183.462          44.000    35365228.155   142401117.929         141.895          46.000  
G25  20500478.224   107730755.856        2559.336          40.000    20500470.636    83946001.545        1993.800          42.000  
G10  19514563.157   102549718.011        1055.823          50.000    19514551.720    79908827.365         822.766          43.000  
G28  22039722.646   115819538.402        2590.595          39.000    22039712.462    90248971.951        2018.845          42.000  
C23  20727381.393   107932911.870         272.762          50.000                                                                  
C09  36833746.924   191802991.444         281.723          39.000    36833735.377   148314186.560         218.145          47.000  
C33  26108856.023                       -2925.858          31.000                                                                  
C37  22874104.229   119111477.977        2691.835          43.000                                                                  
> 2025 10 27 02 50 24.1560000  0 19                     
G12  20752922.093   109057342.391         888.032          45.000    20752910.363    84979700.771         692.168          41.000  
G15  23241238.220   122133520.867       -3251.402          34.000    23241232.983    95168962.278       -2533.754          32.000  
G18  23569438.135   123858220.093       -3682.216          35.000    23569433.039    96512861.996       -2868.491          35.000  
G23  19253953.288   101180202.952       -2073.281          46.000    19253941.690    78841641.923       -1615.417          47.000  
G24  20931150.630   109993937.039       -3363.977          30.000    20931138.753                       -2621.977          31.000  
G32  20902740.638   109844642.779        1505.503          46.000    20902730.029    85593173.533        1172.925          41.000  
C08  34710077.795   180744480.096        -335.992          46.000    34710060.925   139763017.994        -259.845          49.000  
C13  34711899.305   180753965.482         -39.807          47.000    34711890.392   139770385.541         -30.939          48.000  
C16  35671899.267   185752942.211           4.312          47.000    35671890.291   143635917.818           3.089          48.000  
C25  22253197.975   115878255.592       -2542.171          35.000                                                                  
C32  21052590.759   109626367.517         878.654          50.000                                                                  
C06  35365242.416   184156097.528         183.645          44.000    35365226.725   142401112.251         141.895          46.000  
G25  20500458.744   107730653.488        2559.302          40.000    20500451.139    83945921.769        1994.172          42.000  
G10  19514555.100   102549675.768        1055.969          50.000    19514543.679    79908794.442         823.004          43.000  
G28  22039702.922   115819434.773        2590.630          39.000    22039692.752    90248891.202        2018.806          42.000  
C23  20727379.260   107932900.962         272.692          50.000                                                                  
C09  36833744.766   191802980.161         281.908          39.000    36833733.202   148314177.834         218.132          47.000  
C33  26108878.521                       -2925.487          31.000                                                                  
C37  22874083.582   119111370.288        2692.061          43.000                                                                  
> 2025 10 27 02 50 24.1960000  0 19                     
G12  20752915.336   109057306.881         887.800          45.000    20752903.615    84979673.095         692.000          41.000  
G15  23241262.963   122133650.952       -3251.927          34.000    23241257.716    95169063.645       -2534.191          32.000  
G18  23569466.172   123858367.385       -3682.189          35.000    23569461.081    96512976.801       -2869.502          35.000  
G23  19253969.107   101180285.891       -2073.484          46.000    19253957.463    78841706.541       -1615.429          47.000  
G24  20931176.257   109994071.610       -3364.120          30.000    20931164.362                       -2621.998          31.000  
G32  20902729.184   109844582.570        1505.266          46.000    20902718.567    85593126.603        1173.068          41.000  
C08  34710080.374   180744493.542        -336.163          46.000    34710063.535   139763028.394        -260.034          49.000  
C13  34711899.595   180753967.084         -40.033          47.000    34711890.713   139770386.784         -31.085          48.000  
C16  35671899.232   185752942.063           3.895          47.000    35671890.249   143635917.693           3.059          48.000  
C25  22253217.513   115878357.298       -2542.571          35.000                                                                  
C32  21052583.984   109626332.382         878.430          50.000                                                                  
C06  35365241.012   184156090.203         183.270          44.000    35365225.329   142401106.588         141.652          46.000  
G25  20500439.279   107730551.143        2558.856          40.000    20500431.660    83945842.000        1994.270          42.000  
G10  19514547.058   102549633.529        1055.957          50.000    19514535.647    79908761.524         823.022          43.000  
G28  22039683.198   115819331.146        2590.674          39.000    22039673.028    90248810.469        2018.438          42.000  
C23  20727377.147   107932890.059         272.577          50.000                                                                  
C09  36833742.599   191802968.876         282.116          39.000    36833731.013   148314169.122         217.874          47.000  
C33  26108901.000   135955840.594       -2925.677          31.000                                                                  
C37  22874062.917   119111262.631        2691.602          43.000                                                                  
> 2025 10 27 02 50 24.2360000  0 19                     
G12  20752908.567   109057271.362         887.851          45.000    20752896.865    84979645.433         691.645          41.000  
G15  23241287.716   122133781.021       -3251.952          34.000    23241282.485    95169165.018       -2534.465          32.000  
G18  23569494.222   123858514.695       -3682.533          35.000    23569489.136    96513091.605       -2870.036          35.000  
G23  19253984.882   101180368.829       -2073.544          46.000    19253973.228    78841771.162       -1615.497          47.000  
G24  20931201.865   109994206.173       -3364.124          30.000    20931189.948                       -2619.964          31.000  
G32  20902717.744   109844522.356        1505.240          46.000    20902707.113    85593079.678        1173.094          41.000  
C08  34710082.975   180744506.984        -336.139          46.000    34710066.134   139763038.792        -260.071          49.000  
C13  34711899.899   180753968.689         -40.173          47.000    34711891.043   139770388.016         -30.945          48.000  
C16  35671899.211   185752941.902           3.889          47.000    35671890.199   143635917.573           2.963          48.000  
C25  22253237.037   115878458.968       -2542.002          35.000                                                                  
C32  21052577.245   109626297.238         878.499          50.000                                                                  
C06  35365239.603   184156082.870         183.212          44.000    35365223.918   142401100.920         141.606          46.000  
G25  20500419.788   107730448.792        2558.729          40.000    20500412.186    83945762.242        1994.067          42.000  
G10  19514539.042   102549591.298        1055.811          50.000    19514527.604    79908728.609         822.949          43.000  
G28  22039663.478   115819227.522        2590.630          39.000    22039653.315    90248729.741        2018.223          42.000  
C23  20727375.017   107932879.157         272.517          50.000                                                                  
C09  36833740.424   191802957.593         282.086          39.000    36833728.858   148314160.406         217.821          47.000  
C33  26108923.464                       -2925.767          31.000                                                                  
C37  22874042.229   119111154.966        2691.500          43.000                                                                  
> 2025 10 27 02 50 24.2760000  0 19                     
G12  20752901.803   109057235.846         887.841          45.000    20752890.079    84979617.758         691.677          41.000  
G15  23241312.465   122133911.097       -3251.979          34.000    23241307.264    95169266.370       -2534.141          32.000  
G18  23569522.271   123858662.000       -3682.596          35.000    23569517.160    96513206.387       -2869.866          35.000  
G23  19254000.649   101180451.762       -2073.463          46.000    19253989.038    78841835.789       -1615.614          47.000  
G24  20931227.470   109994340.715       -3363.895          30.000    20931215.551                       -2621.148          31.000  
G32  20902706.275   109844462.136        1505.367          46.000    20902695.658    85593032.751        1173.132          41.000  
C08  34710085.540   180744520.425        -336.084          46.000    34710068.716   139763049.184        -259.937          49.000  
C13  34711900.213   180753970.290         -40.125          47.000    34711891.376   139770389.254         -30.981          48.000  
C16  35671899.209   185752941.747           3.837          47.000    35671890.152   143635917.450           2.968          48.000  
C25  22253256.561   115878560.648       -2541.923          35.000                                                                  
C32  21052570.467   109626262.101         878.416          50.000                                                                  
C06  35365238.223   184156075.536         183.246          44.000    35365222.499   142401095.240         141.837          46.000  
G25  20500400.308   107730346.434        2558.858          40.000    20500392.720    83945682.480        1994.002          42.000  
G10  19514531.006   102549549.064        1055.774          50.000    19514519.587    79908695.710         822.589          43.000  
G28  22039643.750   115819123.907        2590.488          39.000    22039633.587    90248649.002        2018.294          42.000  
C23  20727372.941   107932868.252         272.539          50.000                                                                  
C09  36833738.240   191802946.308         282.098          39.000    36833726.673   148314151.693         217.766          47.000  
C33  26108945.918                       -2926.624          31.000                                                                  
C37  22874021.574   119111047.291        2691.623          43.000                                                                  
> 2025 10 27 02 50 24.3160000  0 19                     
G12  20752895.032   109057200.329         887.854          45.000    20752883.336    84979590.086         691.715          41.000  
G15  23241337.211   122134041.151       -3251.648          34.000    23241332.027    95169367.692       -2533.289          32.000  
G18  23569550.301   123858809.300       -3682.597          35.000    23569545.179    96513321.149       -2869.419          35.000  
G23  19254016.427   101180534.698       -2073.451          46.000    19254004.812    78841900.421       -1615.774          47.000  
G24  20931253.067   109994475.285       -3364.035          30.000    20931241.180                       -2622.075          31.000  
G32  20902694.793   109844401.914        1505.498          46.000    20902684.208    85592985.829        1173.081          41.000  
C08  34710088.109   180744533.861        -335.992          46.000    34710071.274   139763059.573        -259.778          49.000  
C13  34711900.538   180753971.892         -40.094          47.000    34711891.683   139770390.494         -31.012          48.000  
C16  35671899.180   185752941.595           3.750          47.000    35671890.113   143635917.328           2.982          48.000  
C25  22253276.092   115878662.330       -2541.967          35.000                                                                  
C32  21052563.741   109626226.964         878.380          50.000                                                                  
C06  35365236.842   184156068.194         183.412          44.000    35365221.060   142401089.570         141.760          46.000  
G25  20500380.821   107730244.079        2558.845          40.000    20500373.263    83945602.714        1994.069          42.000  
G10  19514522.988   102549506.832        1055.725          50.000    19514511.552    79908662.806         822.552          43.000  
G28  22039624.050   115819020.293        2590.340          39.000    22039613.850    90248568.249        2018.612          42.000  
C23  20727370.815   107932857.350         272.509          50.000                                                                  
C09  36833736.069   191802935.037         281.839          39.000    36833724.511   148314142.969         217.950          47.000  
C33  26108968.379                       -2926.450          31.000                                                                  
C37  22874000.920   119110939.610        2691.853          43.000                                                                  
> 2025 10 27 02 50 24.3560000  0 19                     
G12  20752888.290   109057164.828         887.603          45.000    20752876.585    84979562.405         691.878          41.000  
G15  23241361.980   122134171.210       -3251.500          34.000    23241356.749    95169468.997       -2532.703          32.000  
G18  23569578.315   123858956.589       -3682.422          35.000    23569573.188    96513435.904       -2868.979          35.000  
G23  19254032.198   101180617.628       -2073.309          46.000    19254020.590    78841965.051       -1615.816          47.000  
G24  20931278.658   109994609.848       -3364.066          30.000    20931266.817                       -2622.264          31.000  
G32  20902683.362   109844341.701        1505.378          46.000    20902672.743    85592938.903        1173.105          41.000  
C08  34710090.688   180744547.299        -335.931          46.000    34710073.828   139763069.963        -259.723          49.000  
C13  34711900.883   180753973.489         -39.990          47.000    34711891.990   139770391.728         -30.927          48.000  
C16  35671899.204   185752941.427           4.022          47.000    35671890.066   143635917.202           3.083          48.000  
C25  22253295.627   115878764.046       -2542.701          35.000                                                                  
C32  21052557.001   109626191.823         878.472          50.000                                                                  
C06  35365235.470   184156060.860         183.407          44.000    35365219.676   142401083.892         141.851          46.000  
G25  20500361.323   107730141.721        2558.912          40.000    20500353.816    83945522.973        1993.680          42.000  
G10  19514514.946   102549464.604        1055.670          50.000    19514503.499    79908629.898         822.614          43.000  
G28  22039604.343   115818916.665        2590.596          39.000    22039594.136    90248487.498        2018.804          42.000  
C23  20727368.725   107932846.448         272.510          50.000                                                                  
C09  36833733.913   191802923.756         281.873          39.000    36833722.363   148314134.242         218.120          47.000  
C33  26108990.852                       -2925.812          31.000                                                                  
C37  22873980.237   119110831.938        2691.848          43.000                                                                  
> 2025 10 27 02 50 24.3960000  0 19                     
G12  20752881.539   109057129.310         887.764          45.000    20752869.819    84979534.728         691.935          41.000  
G15  23241386.695   122134301.250       -3251.057          34.000    23241381.487    95169570.354       -2533.330          32.000  
G18  23569606.358   123859103.868       -3682.118          35.000    23569601.216    96513550.685       -2869.294          35.000  
G23  19254047.984   101180700.564       -2073.371          46.000    19254036.352    78842029.675       -1615.705          47.000  
G24  20931304.271   109994744.396       -3363.926          30.000    20931292.419                       -2621.243          31.000  
G32  20902671.914   109844281.476        1505.506          46.000    20902661.288    85592891.981        1173.034          41.000  
C08  34710093.287   180744560.735        -335.907          46.000    34710076.402   139763080.356        -259.790          49.000  
C13  34711901.218   180753975.083         -39.862          47.000    34711892.289   139770392.966         -30.951          48.000  
C16  35671899.208   185752941.258           4.166          47.000    35671890.018   143635917.072           3.190          48.000  
C25  22253315.185   115878865.714       -2542.207          35.000                                                                  
C32  21052550.290   109626156.674         878.645          50.000                                                                  
C06  35365234.067   184156053.516         183.557          44.000    35365218.265   142401078.214         141.886          46.000  
G25  20500341.835   107730039.354        2559.064          40.000    20500334.336    83945443.215        1993.802          42.000  
G10  19514506.885   102549422.366        1055.835          50.000    19514495.453    79908596.989         822.656          43.000  
G28  22039584.627   115818813.047        2590.547          39.000    22039574.446    90248406.760        2018.621          42.000  
C23  20727366.676   107932835.542         272.569          50.000                                                                  
C09  36833731.715   191802912.478         281.913          39.000    36833720.208   148314125.519         218.098          47.000  
C33  26109013.312                       -2926.345          31.000                                                                  
C37  22873959.573   119110724.264        2691.853          43.000                                                                  
> 2025 10 27 02 50 24.4360000  0 19                     
G12  20752874.755   109057093.785         888.010          45.000    20752863.061    84979507.059         691.790          41.000  
G15  23241411.415   122134431.319       -3251.547          34.000    23241406.254    95169671.725       -2533.923          32.000  
G18  23569634.417   123859251.180       -3682.578          35.000    23569629.249    96513665.455       -2869.348          35.000  
G23  19254063.742   101180783.501       -2073.420          46.000    19254052.146    78842094.300       -1615.637          47.000  
G24  20931329.873   109994878.954       -3363.894          30.000    20931318.020                       -2620.407          31.000  
G32  20902660.444   109844221.258        1505.500          46.000    20902649.836    85592845.068        1172.882          41.000  
C08  34710095.876   180744574.171        -335.907          46.000    34710078.982   139763090.754        -259.943          49.000  
C13  34711901.512   180753976.682         -39.929          47.000    34711892.601   139770394.203         -30.951          48.000  
C16  35671899.190   185752941.096           4.117          47.000    35671889.974   143635916.943           3.212          48.000  
C25  22253334.736   115878967.402       -2542.275          35.000                                                                  
C32  21052543.526   109626121.535         878.551          50.000                                                                  
C06  35365232.664   184156046.179         183.490          44.000    35365216.832   142401072.539         141.871          46.000  
G25  20500322.345   107729936.993        2559.052          40.000    20500314.833    83945363.460        1993.788          42.000  
G10  19514498.839   102549380.130        1055.872          50.000    19514487.392    79908564.075         822.803          43.000  
G28  22039564.926   115818709.416        2590.726          39.000    22039554.732    90248326.023        2018.427          42.000  
C23  20727364.582   107932824.638         272.560          50.000                                                                  
C09  36833729.546   191802901.206         281.819          39.000    36833718.021   148314116.795         218.109          47.000  
C33  26109035.800                       -2926.353          31.000                                                                  
C37  22873938.890   119110616.590        2691.865          43.000                                                                  
> 2025 10 27 02 50 24.4760000  0 19                     
G12  20752868.042   109057058.270         887.933          45.000    20752856.317    84979479.399         691.539          42.000  
G15  23241436.188   122134561.428       -3252.447          34.000    23241430.975    95169773.097       -2534.305          32.000  
G18  23569662.440   123859398.475       -3682.471          35.000    23569657.292    96513780.221       -2869.176          35.000  
G23  19254079.536   101180866.447       -2073.636          46.000    19254067.918    78842158.922       -1615.563          47.000  
G24  20931355.487   109995013.525       -3364.041          30.000    20931343.599                       -2620.543          31.000  
G32  20902648.971   109844161.035        1505.549          46.000    20902638.392    85592798.128        1173.267          41.000  
C08  34710098.453   180744587.617        -336.090          46.000    34710081.587   139763101.150        -259.955          49.000  
C13  34711901.821   180753978.280         -39.966          47.000    34711892.900   139770395.437         -30.890          48.000  
C16  35671899.159   185752940.932           4.120          47.000    35671889.916   143635916.814           3.229          48.000  
C25  22253354.236   115879069.086       -2542.250          35.000                                                                  
C32  21052536.735   109626086.398         878.441          50.000                                                                  
C06  35365231.272   184156038.842         183.457          44.000    35365215.408   142401066.866         141.804          46.000  
G25  20500302.872   107729834.654        2558.655          40.000    20500295.346    83945283.693        1994.019          42.000  
G10  19514490.815   102549337.901        1055.768          50.000    19514479.341    79908531.166         822.748          43.000  
G28  22039545.180   115818605.809        2590.344          39.000    22039535.022    90248245.284        2018.379          42.000  
C23  20727362.481   107932813.740         272.450          50.000                                                                  
C09  36833727.374   191802889.927         281.871          39.000    36833715.873   148314108.083         217.883          47.000  
C33  26109058.253                       -2926.467          31.000                                                                  
C37  22873918.200   119110508.919        2691.782          43.000                                                                  
> 2025 10 27 02 50 24.5160000  0 19                     
G12  20752861.308   109057022.763         887.751          45.000    20752849.557    84979451.722         691.727          42.000  
G15  23241460.939   122134691.511       -3252.438          34.000    23241455.744    95169874.443       -2534.017          32.000  
G18  23569690.454   123859545.763       -3682.230          35.000    23569685.308    96513895.012       -2869.550          35.000  
G23  19254095.325   101180949.385       -2073.549          46.000    19254083.696    78842223.542       -1615.490          47.000  
G24  20931381.106   109995148.080       -3363.964          30.000    20931369.208                       -2620.756          31.000  
G32  20902637.517   109844100.816        1505.508          46.000    20902626.951    85592751.208        1173.119          41.000  
C08  34710101.038   180744601.057        -336.047          46.000    34710084.214   139763111.539        -259.827          49.000  
C13  34711902.131   180753979.874         -39.868          47.000    34711893.228   139770396.672         -30.914          48.000  
C16  35671899.147   185752940.766           4.173          47.000    35671889.878   143635916.686           3.194          48.000  
C25  22253373.752   115879170.791       -2542.502          35.000                                                                  
C32  21052529.996   109626051.261         878.400          50.000                                                                  
C06  35365229.894   184156031.508         183.369          44.000    35365213.990   142401061.197         141.729          46.000  
G25  20500283.381   107729732.304        2558.644          40.000    20500275.858    83945203.935        1993.989          42.000  
G10  19514482.780   102549295.672        1055.707          50.000    19514471.310    79908498.257         822.760          43.000  
G28  22039525.480   115818502.198        2590.260          39.000    22039515.299    90248164.531        2018.692          42.000  
C23  20727360.402   107932802.839         272.447          50.000                                                                  
C09  36833725.221   191802878.642         282.040          39.000    36833713.706   148314099.361         217.922          47.000  
C33  26109080.689                       -2927.250          31.000                                                                  
C37  22873897.523   119110401.245        2691.832          43.000                                                                  
> 2025 10 27 02 50 24.5560000  0 19                     
G12  20752854.553   109056987.255         887.664          45.000    20752842.766    84979424.049         691.757          42.000  
G15  23241485.666   122134821.519       -3251.019          34.000    23241480.477    95169975.763       -2533.348          32.000  
G18  23569718.470   123859693.046       -3682.060          35.000    23569713.371    96514009.782       -2869.330          35.000  
G23  19254111.112   101181032.322       -2073.474          46.000    19254099.489    78842288.162       -1615.491          47.000  
G24  20931406.731   109995282.655       -3364.160          30.000    20931394.834                       -2621.743          31.000  
G32  20902626.040   109844040.591        1505.595          46.000    20902615.468    85592704.278        1173.208          41.000  
C08  34710103.606   180744614.487        -335.846          46.000    34710086.766   139763121.927        -259.735          49.000  
C13  34711902.432   180753981.472         -39.929          47.000    34711893.536   139770397.905         -30.872          48.000  
C16  35671899.132   185752940.610           3.966          47.000    35671889.825   143635916.565           3.050          48.000  
C25  22253393.255   115879272.450       -2541.886          35.000                                                                  
C32  21052523.258   109626016.115         878.561          50.000                                                                  
C06  35365228.473   184156024.158         183.608          44.000    35365212.573   142401055.521         141.776          46.000  
G25  20500263.912   107729629.949        2558.740          40.000    20500256.370    83945124.167        1994.149          42.000  
G10  19514474.725   102549253.438        1055.786          50.000    19514463.289    79908465.360         822.522          43.000  
G28  22039505.779   115818398.579        2590.386          39.000    22039495.592    90248083.787        2018.659          42.000  
C23  20727358.322   107932791.941         272.396          50.000                                                                  
C09  36833723.062   191802867.368         281.918          39.000    36833711.524   148314090.647         217.828          47.000  
C33  26109103.160                       -2926.836          31.000                                                                  
C37  22873876.867   119110293.575        2691.750          43.000                                                                  
> 2025 10 27 02 50 24.5960000  0 19                     
G12  20752847.799   109056951.743         887.748          45.000    20752836.038    84979396.368         691.891          42.000  
G15  23241510.412   122134951.601       -3251.671          34.000    23241505.253    95170077.130       -2533.760          32.000  
G18  23569746.517   123859840.359       -3682.505          35.000    23569741.364    96514124.532       -2868.933          35.000  
G23  19254126.891   101181115.257       -2073.425          46.000    19254115.300    78842352.794       -1615.725          47.000  
G24  20931432.339   109995417.203       -3363.989          30.000    20931420.456                       -2622.065          31.000  
G32  20902614.576   109843980.372        1505.535          46.000    20902603.991    85592657.352        1173.152          41.000  
C08  34710106.190   180744627.929        -335.962          46.000    34710089.312   139763132.311        -259.637          49.000  
C13  34711902.735   180753983.063         -39.838          47.000    34711893.836   139770399.138         -30.847          48.000  
C16  35671899.097   185752940.448           3.976          47.000    35671889.780   143635916.439           3.059          48.000  
C25  22253412.773   115879374.126       -2541.875          36.000                                                                  
C32  21052516.521   109625980.968         878.667          50.000                                                                  
C06  35365227.047   184156016.816         183.596          44.000    35365211.138   142401049.845         141.816          46.000  
G25  20500244.435   107729527.564        2559.326          40.000    20500236.885    83945044.414        1993.908          42.000  
G10  19514466.683   102549211.207        1055.774          50.000    19514455.234    79908432.448         822.681          43.000  
G28  22039486.041   115818294.953        2590.617          39.000    22039475.864    90248003.050        2018.510          42.000  
C23  20727356.233   107932781.036         272.527          50.000                                                                  
C09  36833720.879   191802856.084         282.014          39.000    36833709.355   148314081.913         218.163          47.000  
C33  26109125.619                       -2926.598          31.000                                                                  
C37  22873856.221   119110185.893        2691.923          43.000                                                                  
> 2025 10 27 02 50 24.6360000  0 19                     
G12  20752841.039   109056916.236         887.690          45.000    20752829.296    84979368.705         691.702          42.000  
G15  23241535.182   122135081.660       -3251.600          34.000    23241530.010    95170178.468       -2533.687          32.000  
G18  23569774.549   123859987.648       -3682.377          35.000    23569769.404    96514239.329       -2869.535          35.000  
G23  19254142.701   101181198.194       -2073.426          46.000    19254131.091    78842417.426       -1615.835          47.000  
G24  20931457.956   109995551.768       -3364.052          30.000    20931446.033                       -2621.794          31.000  
G32  20902603.127   109843920.157        1505.431          46.000    20902592.522    85592610.436        1173.000          41.000  
C08  34710108.771   180744641.361        -335.840          46.000    34710091.894   139763142.695        -259.583          49.000  
C13  34711903.051   180753984.662         -39.935          47.000    34711894.137   139770400.373         -30.847          48.000  
C16  35671899.052   185752940.276           4.158          47.000    35671889.738   143635916.314           3.041          48.000  
C25  22253432.303   115879475.819       -2542.122          36.000                                                                  
C32  21052509.730   109625945.826         878.606          50.000                                                                  
C06  35365225.611   184156009.477         183.510          44.000    35365209.702   142401044.172         141.797          46.000  
G25  20500224.933   107729425.203        2559.221          40.000    20500217.414    83944964.661        1993.807          42.000  
G10  19514458.666   102549168.976        1055.762          50.000    19514447.192    79908399.527         822.949          43.000  
G28  22039466.311   115818191.339        2590.440          39.000    22039456.119    90247922.301        2018.635          42.000  
C23  20727354.137   107932770.135         272.526          50.000                                                                  
C09  36833718.722   191802844.804         281.980          39.000    36833707.195   148314073.190         218.180          47.000  
C33  26109148.082                       -2926.142          31.000                                                                  
C37  22873835.549   119110078.215        2691.939          43.000                                                                  
> 2025 10 27 02 50 24.6760000  0 19                     
G12  20752834.296   109056880.731         887.613          45.000    20752822.529    84979341.031         691.784          42.000  
G15  23241559.945   122135211.783       -3252.687          34.000    23241554.735    95170279.789       -2533.196          32.000  
G18  23569802.570   123860134.959       -3682.593          35.000    23569797.436    96514354.094       -2869.256          35.000  
G23  19254158.485   101181281.131       -2073.457          46.000    19254146.848    78842482.057       -1615.847          47.000  
G24  20931483.559   109995686.347       -3364.235          29.000    20931471.646                       -2620.985          31.000  
G32  20902591.680   109843859.941        1505.375          46.000    20902581.084    85592563.512        1173.023          41.000  
C08  34710111.341   180744654.799        -335.852          46.000    34710094.457   139763153.090        -259.814          49.000  
C13  34711903.372   180753986.262         -40.021          47.000    34711894.436   139770401.603         -30.786          48.000  
C16  35671899.033   185752940.107           4.201          47.000    35671889.669   143635916.189           3.070          48.000  
C25  22253451.842   115879577.506       -2542.170          36.000                                                                  
C32  21052502.967   109625910.693         878.395          50.000                                                                  
C06  35365224.195   184156002.139         183.486          44.000    35365208.291   142401038.493         141.903          46.000  
G25  20500205.456   107729322.868        2558.612          40.000    20500197.913    83944884.902        1993.856          42.000  
G10  19514450.615   102549126.748        1055.695          50.000    19514439.148    79908366.630         822.601          43.000  
G28  22039446.598   115818087.704        2590.771          39.000    22039436.405    90247841.561        2018.528          42.000  
C23  20727352.015   107932759.234         272.532          50.000                                                                  
C09  36833716.552   191802833.529         281.874          39.000    36833705.044   148314064.471         218.046          47.000  
C33  26109170.532                       -2925.854          31.000                                                                  
C37  22873814.890   119109970.536        2691.918          43.000                                                                  
> 2025 10 27 02 50 24.7160000  0 19                     
G12  20752827.546   109056845.214         887.789          45.000    20752815.781    84979313.368         691.594          42.000  
G15  23241584.679   122135341.787       -3251.365          34.000    23241579.481    95170381.146       -2533.517          32.000  
G18  23569830.587   123860282.223       -3681.925          35.000    23569825.472    96514468.865       -2869.225          35.000  
G23  19254174.262   101181364.070       -2073.487          46.000    19254162.639    78842546.682       -1615.729          47.000  
G24  20931509.140   109995820.920       -3364.315          29.000    20931497.227                       -2620.862          31.000  
G32  20902580.226   109843799.722        1505.408          46.000    20902569.607    85592516.581        1173.200          41.000  
C08  34710113.922   180744668.246        -336.078          46.000    34710097.069   139763163.486        -259.924          49.000  
C13  34711903.672   180753987.862         -40.076          47.000    34711894.733   139770402.842         -30.951          48.000  
C16  35671899.001   185752939.948           4.043          47.000    35671889.638   143635916.065           3.078          48.000  
C25  22253471.383   115879679.207       -2542.497          36.000                                                                  
C32  21052496.180   109625875.557         878.347          50.000                                                                  
C06  35365222.772   184155994.800         183.473          44.000    35365206.867   142401032.822         141.802          46.000  
G25  20500185.972   107729220.509        2558.758          40.000    20500178.453    83944805.145        1993.851          42.000  
G10  19514442.580   102549084.518        1055.695          50.000    19514431.126    79908333.727         822.504          43.000  
G28  22039426.878   115817984.085        2590.587          39.000    22039416.696    90247760.813        2018.660          42.000  
C23  20727349.961   107932748.330         272.564          50.000                                                                  
C09  36833714.357   191802822.239         282.062          39.000    36833702.893   148314055.753         217.945          47.000  
C33  26109192.987                       -2925.680          31.000                                                                  
C37  22873794.173   119109862.871        2691.658          43.000                                                                  
> 2025 10 27 02 50 24.7560000  0 19                     
G12  20752820.794   109056809.710         887.671          45.000    20752809.008    84979285.705         691.540          42.000  
G15  23241609.425   122135471.848       -3251.444          34.000    23241604.252    95170482.515       -2533.971          32.000  
G18  23569858.635   123860429.518       -3682.073          35.000    23569853.451    96514583.618       -2868.987          35.000  
G23  19254190.032   101181447.017       -2073.672          46.000    19254178.399    78842611.308       -1615.699          47.000  
G24  20931534.731   109995955.479       -3364.219          29.000    20931522.807                       -2620.988          31.000  
G32  20902568.789   109843739.506        1505.376          46.000    20902558.147    85592469.655        1173.237          41.000  
C08  34710116.510   180744681.685        -336.066          46.000    34710099.666   139763173.881        -259.943          49.000  
C13  34711904.011   180753989.459         -40.002          47.000    34711895.045   139770404.079         -30.994          48.000  
C16  35671898.966   185752939.789           3.948          47.000    35671889.592   143635915.933           3.229          48.000  
C25  22253490.910   115879780.892       -2542.292          36.000                                                                  
C32  21052489.470   109625840.415         878.446          50.000                                                                  
C06  35365221.341   184155987.463         183.429          44.000    35365205.504   142401027.145         141.870          46.000  
G25  20500166.487   107729118.153        2558.807          40.000    20500158.990    83944725.388        1993.871          42.000  
G10  19514434.548   102549042.293        1055.634          50.000    19514423.088    79908300.826         822.449          43.000  
G28  22039407.170   115817880.486        2590.146          39.000    22039396.988    90247680.060        2018.764          42.000  
C23  20727347.851   107932737.433         272.426          50.000                                                                  
C09  36833712.196   191802810.960         281.953          39.000    36833700.752   148314047.025         218.098          47.000  
C33  26109215.477                       -2925.977          31.000                                                                  
C37  22873773.476   119109755.203        2691.607          43.000                                                                  
> 2025 10 27 02 50 24.7960000  0 19                     
G12  20752814.047   109056774.202         887.678          45.000    20752802.237    84979258.029         691.765          42.000  
G15  23241634.180   122135601.929       -3251.838          34.000    23241628.997    95170583.850       -2533.560          32.000  
G18  23569886.682   123860576.816       -3682.307          35.000    23569881.488    96514698.430       -2869.998          35.000  
G23  19254205.813   101181529.967       -2073.795          46.000    19254194.201    78842675.939       -1615.773          47.000  
G24  20931560.342   109996090.035       -3364.099          29.000    20931548.419                       -2621.506          31.000  
G32  20902557.320   109843679.283        1505.482          46.000    20902546.703    85592422.736        1173.079          41.000  
C08  34710119.085   180744695.122        -335.999          46.000    34710102.253   139763184.275        -259.930          49.000  
C13  34711904.337   180753991.054         -39.935          47.000    34711895.353   139770405.315         -30.969          48.000  
C16  35671898.946   185752939.631           3.919          47.000    35671889.532   143635915.810           3.112          48.000  
C25  22253510.445   115879882.593       -2542.477          36.000                                                                  
C32  21052482.706   109625805.277         878.447          50.000                                                                  
C06  35365219.915   184155980.139         183.181          44.000    35365204.103   142401021.470         141.841          46.000  
G25  20500147.010   107729015.792        2558.981          40.000    20500139.497    83944645.631        1993.879          42.000  
G10  19514426.543   102549000.069        1055.566          50.000    19514415.050    79908267.927         822.388          43.000  
G28  22039387.472   115817776.874        2590.168          39.000    22039377.273    90247599.313        2018.707          42.000  
C23  20727345.757   107932726.538         272.351          50.000                                                                  
C09  36833710.025   191802799.683         281.898          39.000    36833698.591   148314038.304         218.059          47.000  
C33  26109237.930                       -2926.351          31.000                                                                  
C37  22873752.778   119109647.537        2691.579          43.000                                                                  
> 2025 10 27 02 50 24.8360000  0 19                     
G12  20752807.298   109056738.702         887.524          45.000    20752795.485    84979230.354         691.872          42.000  
G15  23241658.901   122135732.004       -3252.041          34.000    23241653.739    95170685.216       -2533.878          32.000  
G18  23569914.694   123860724.104       -3682.219          35.000    23569909.533    96514813.203       -2869.758          35.000  
G23  19254221.597   101181612.913       -2073.757          46.000    19254209.966    78842740.579       -1615.957          47.000  
G24  20931585.953   109996224.535       -3363.339          29.000    20931574.058                       -2620.847          31.000  
G32  20902545.835   109843619.061        1505.545          46.000    20902535.247    85592375.820        1172.918          41.000  
C08  34710121.625   180744708.565        -336.060          46.000    34710104.840   139763194.674        -260.016          49.000  
C13  34711904.642   180753992.658         -40.070          47.000    34711895.653   139770406.550         -30.945          48.000  
C16  35671898.936   185752939.470           3.928          47.000    35671889.510   143635915.681           3.214          48.000  
C25  22253529.997   115879984.296       -2542.649          36.000                                                                  
C32  21052475.943   109625770.140         878.414          50.000                                                                  
C06  35365218.505   184155972.799         183.325          44.000    35365202.707   142401015.802         141.709          46.000  
G25  20500127.535   107728913.447        2558.754          40.000    20500120.015    83944565.887        1993.651          42.000  
G10  19514418.543   102548957.852        1055.414          50.000    19514407.028    79908235.032         822.296          43.000  
G28  22039367.735   115817673.265        2590.120          39.000    22039357.572    90247518.595        2018.109          42.000  
C23  20727343.670   107932715.652         272.162          50.000                                                                  
C09  36833707.864   191802788.403         281.931          39.000    36833696.421   148314029.586         217.958          47.000  
C33  26109260.416                       -2925.372          31.000                                                                  
C37  22873732.100   119109539.870        2691.582          43.000                                                                  
> 2025 10 27 02 50 24.8760000  0 19                     
G12  20752800.525   109056703.198         887.521          45.000    20752788.747    84979202.688         691.752          42.000  
G15  23241683.637   122135862.037       -3251.512          34.000    23241678.518    95170786.557       -2533.666          32.000  
G18  23569942.717   123860871.417       -3682.708          35.000    23569937.553    96514927.999       -2869.933          35.000  
G23  19254237.375   101181695.858       -2073.700          46.000    19254225.759    78842805.218       -1616.037          47.000  
G24  20931611.547   109996359.118       -3363.750          29.000    20931599.697                       -2621.516          31.000  
G32  20902534.366   109843558.844        1505.459          46.000    20902523.798    85592328.896        1172.979          41.000  
C08  34710124.166   180744722.006        -336.072          46.000    34710107.382   139763205.072        -260.016          49.000  
C13  34711904.955   180753994.263         -40.155          47.000    34711895.973   139770407.786         -30.908          48.000  
C16  35671898.918   185752939.310           3.970          47.000    35671889.469   143635915.555           3.172          48.000  
C25  22253549.538   115880085.968       -2542.056          36.000                                                                  
C32  21052469.195   109625735.008         878.313          50.000                                                                  
C06  35365217.099   184155965.466         183.314          44.000    35365201.294   142401010.135         141.648          46.000  
G25  20500108.061   107728811.099        2558.708          40.000    20500100.511    83944486.122        1993.905          42.000  
G10  19514410.525   102548915.634        1055.371          50.000    19514398.981    79908202.126         822.479          43.000  
G28  22039348.022   115817569.636        2590.500          39.000    22039337.832    90247437.871        2017.945          42.000  
C23  20727341.604   107932704.765         272.091          50.000                                                                  
C09  36833705.689   191802777.150         281.428          39.000    36833694.262   148314020.873         217.802          47.000  
C33  26109282.860                       -2925.143          31.000                                                                  
C37  22873711.416   119109432.203        2691.634          43.000                                                                  
> 2025 10 27 02 50 24.9160000  0 19                     
G12  20752793.766   109056667.699         887.432          45.000    20752781.997    84979175.040         691.319          42.000  
G15  23241708.409   122135992.119       -3251.913          34.000    23241703.330    95170887.966       -2534.734          32.000  
G18  23569970.747   123861018.709       -3682.630          35.000    23569965.558    96515042.790       -2869.944          35.000  
G23  19254253.162   101181778.809       -2073.756          46.000    19254241.548    78842869.856       -1616.036          47.000  
G24  20931637.151   109996493.672       -3363.765          29.000    20931625.313                       -2621.688          31.000  
G32  20902522.932   109843498.632        1505.357          46.000    20902512.351    85592281.980        1172.863          41.000  
C08  34710126.719   180744735.456        -336.230          46.000    34710109.932   139763215.469        -259.998          49.000  
C13  34711905.294   180753995.862         -40.076          47.000    34711896.281   139770409.026         -31.006          48.000  
C16  35671898.883   185752939.148           4.029          47.000    35671889.429   143635915.440           2.943          48.000  
C25  22253569.080   115880187.638       -2541.774          36.000                                                                  
C32  21052462.435   109625699.877         878.250          50.000                                                                  
C06  35365215.697   184155958.120         183.518          44.000    35365199.936   142401004.462         141.725          46.000  
G25  20500088.596   107728708.753        2558.673          40.000    20500081.017    83944406.368        1993.877          42.000  
G10  19514402.470   102548873.413        1055.450          50.000    19514390.944    79908169.230         822.400          43.000  
G28  22039328.325   115817466.026        2590.286          39.000    22039318.092    90247357.140        2018.030          42.000  
C23  20727339.535   107932693.871         272.205          50.000                                                                  
C09  36833703.506   191802765.869         281.736          39.000    36833692.109   148314012.162         217.736          47.000  
C33  26109305.317                       -2926.365          31.000                                                                  
C37  22873690.735   119109324.528        2691.793          43.000                                                                  
> 2025 10 27 02 50 24.9560000  0 19                     
G12  20752787.021   109056632.197         887.462          45.000    20752775.256    84979147.382         691.357          42.000  
G15  23241733.148   122136122.193       -3251.980          33.000    23241728.069    95170989.319       -2534.297          32.000  
G18  23569998.783   123861166.030       -3682.978          35.000    23569993.564    96515157.556       -2869.489          35.000  
G23  19254268.954   101181861.760       -2073.811          46.000    19254257.338    78842934.491       -1615.949          47.000  
G24  20931662.750   109996628.227       -3363.778          30.000    20931650.921                       -2621.370          31.000  
G32  20902511.470   109843438.416        1505.360          46.000    20902500.891    85592235.061        1172.859          41.000  
C08  34710129.291   180744748.902        -336.212          46.000    34710112.512   139763225.856        -259.766          49.000  
C13  34711905.607   180753997.463         -40.076          47.000    34711896.600   139770410.265         -31.006          48.000  
C16  35671898.882   185752938.985           4.025          47.000    35671889.404   143635915.320           2.942          48.000  
C25  22253588.612   115880289.341       -2542.238          36.000                                                                  
C32  21052455.701   109625664.744         878.258          50.000                                                                  
C06  35365214.271   184155950.783         183.466          44.000    35365198.535   142400998.792         141.732          46.000  
G25  20500069.113   107728606.403        2558.729          40.000    20500061.529    83944326.622        1993.714          42.000  
G10  19514394.431   102548831.185        1055.609          50.000    19514382.890    79908136.324         822.552          43.000  
G28  22039308.605   115817362.400        2590.491          39.000    22039298.356    90247276.394        2018.379          42.000  
C23  20727337.470   107932682.974         272.335          50.000                                                                  
C09  36833701.345   191802754.594         281.824          39.000    36833689.954   148314003.443         217.857          47.000  
C33  26109327.832                       -2928.003          30.000                                                                  
C37  22873670.061   119109216.848        2691.954          43.000                                                                  
> 2025 10 27 02 50 24.9960000  0 19                     
G12  20752780.257   109056596.697         887.458          45.000    20752768.498    84979119.707         691.710          42.000  
G15  23241757.891   122136252.215       -3250.978          33.000    23241752.807    95171090.649       -2533.712          32.000  
G18  23570026.797   123861313.305       -3682.283          35.000    23570021.592    96515272.296       -2868.768          35.000  
G23  19254284.724   101181944.701       -2073.620          46.000    19254273.109    78842999.122       -1615.832          47.000  
G24  20931688.345   109996762.801       -3364.032          29.000    20931676.535                       -2621.450          31.000  
G32  20902500.011   109843378.199        1505.401          46.000    20902489.425    85592188.129        1173.146          41.000  
C08  34710131.887   180744762.334        -335.907          46.000    34710115.090   139763236.248        -259.753          49.000  
C13  34711905.949   180753999.067         -40.118          47.000    34711896.891   139770411.501         -30.957          48.000  
C16  35671898.867   185752938.827           3.973          47.000    35671889.364   143635915.195           3.004          48.000  
C25  22253608.155   115880391.042       -2542.502          36.000                                                                  
C32  21052449.012   109625629.599         878.478          50.000                                                                  
C06  35365212.867   184155943.449         183.378          44.000    35365197.121   142400993.115         141.830          46.000  
G25  20500049.638   107728504.055        2558.695          40.000    20500042.047    83944246.878        1993.600          42.000  
G10  19514386.397   102548788.959        1055.652          50.000    19514374.828    79908103.425         822.479          43.000  
G28  22039288.878   115817258.779        2590.528          39.000    22039278.626    90247195.642        2018.676          42.000  
C23  20727335.399   107932672.081         272.346          50.000                                                                  
C09  36833699.166   191802743.305         282.086          39.000    36833687.794   148313994.718         218.046          47.000  
C33  26109350.257                       -2926.880          30.000                                                                  
C37  22873649.382   119109109.178        2691.832          43.000                                                                  
> 2025 10 27 02 50 25.0360000  0 19                     
G12  20752773.496   109056561.188         887.607          45.000    20752761.747    84979092.041         691.712          42.000  
G15  23241782.631   122136382.285       -3251.361          33.000    23241777.561    95171191.996       -2533.710          32.000  
G18  23570054.828   123861460.559       -3681.560          34.000    23570049.624    96515387.070       -2869.038          35.000  
G23  19254300.489   101182027.642       -2073.528          46.000    19254288.883    78843063.757       -1615.820          47.000  
G24  20931713.978   109996897.362       -3364.056          29.000    20931702.119                       -2621.053          31.000  
G32  20902488.543   109843317.978        1505.449          46.000    20902477.964    85592141.187        1173.458          41.000  
C08  34710134.462   180744775.770        -335.876          46.000    34710117.691   139763246.637        -259.729          49.000  
C13  34711906.265   180754000.660         -39.911          47.000    34711897.178   139770412.738         -30.963          47.000  
C16  35671898.844   185752938.665           4.008          47.000    35671889.286   143635915.067           3.107          48.000  
C25  22253627.695   115880492.741       -2542.538          36.000                                                                  
C32  21052442.244   109625594.460         878.500          50.000                                                                  
C06  35365211.457   184155936.102         183.555          44.000    35365195.713   142400987.437         141.947          46.000  
G25  20500030.142   107728401.699        2558.850          40.000    20500022.564    83944167.110        1993.983          42.000  
G10  19514378.370   102548746.736        1055.591          50.000    19514366.808    79908070.518         822.577          43.000  
G28  22039269.168   115817155.165        2590.428          39.000    22039258.940    90247114.894        2018.773          42.000  
C23  20727333.286   107932661.187         272.344          50.000                                                                  
C09  36833696.985   191802732.012         282.315          39.000    36833685.659   148313985.996         218.069          46.000  
C33  26109372.727                       -2925.774          30.000                                                                  
C37  22873628.684   119109001.504        2691.823          43.000                                                                  
> 2025 10 27 02 50 25.0760000  0 19                     
G12  20752766.716   109056525.679         887.709          45.000    20752754.987    84979064.376         691.655          41.000  
G15  23241807.378   122136512.352       -3251.654          33.000    23241802.330    95171293.337       -2533.591          32.000  
G18  23570082.866   123861607.874       -3682.244          34.000    23570077.643    96515501.828       -2868.921          35.000  
G23  19254316.261   101182110.596       -2073.744          46.000    19254304.683    78843128.388       -1615.777          46.000  
G24  20931739.611   109997031.938       -3364.231          29.000    20931727.732                       -2620.584          31.000  
G32  20902477.056   109843257.759        1505.474          46.000    20902466.525    85592094.269        1173.170          41.000  
C08  34710137.029   180744789.203        -335.803          46.000    34710120.300   139763257.027        -259.717          49.000  
C13  34711906.588   180754002.246         -39.709          47.000    34711897.510   139770413.975         -30.981          47.000  
C16  35671898.797   185752938.498           4.132          47.000    35671889.210   143635914.929           3.361          48.000  
C25  22253647.226   115880594.433       -2542.389          36.000                                                                  
C32  21052435.493   109625559.324         878.420          50.000                                                                  
C06  35365210.064   184155928.775         183.267          44.000    35365194.287   142400981.760         141.947          46.000  
G25  20500010.674   107728299.336        2558.994          40.000    20500003.067    83944087.357        1993.911          42.000  
G10  19514370.371   102548704.515        1055.518          50.000    19514358.771    79908037.621         822.430          43.000  
G28  22039249.472   115817051.552        2590.348          39.000    22039239.225    90247034.164        2018.403          41.000  
C23  20727331.190   107932650.295         272.324          50.000                                                                  
C09  36833694.834   191802720.746         281.876          39.000    36833683.510   148313977.272         218.098          46.000  
C33  26109395.171                       -2925.343          30.000                                                                  
C37  22873608.012   119108893.841        2691.637          43.000                                                                  
> 2025 10 27 02 50 25.1160000  0 19                     
G12  20752759.987   109056490.178         887.594          45.000    20752748.249    84979036.722         691.375          41.000  
G15  23241832.139   122136642.428       -3251.903          34.000    23241827.075    95171394.680       -2533.551          32.000  
G18  23570110.905   123861755.182       -3682.637          34.000    23570105.661    96515616.624       -2869.627          35.000  
G23  19254332.069   101182193.552       -2073.892          46.000    19254320.486    78843193.025       -1615.876          46.000  
G24  20931765.226   109997166.528       -3364.532          29.000    20931753.341                       -2621.617          31.000  
G32  20902465.576   109843197.532        1505.595          46.000    20902455.070    85592047.348        1173.029          41.000  
C08  34710139.588   180744802.658        -336.218          46.000    34710122.885   139763267.425        -259.937          48.000  
C13  34711906.881   180754003.847         -39.899          47.000    34711897.790   139770415.208         -30.896          47.000  
C16  35671898.769   185752938.333           4.135          47.000    35671889.153   143635914.808           3.197          48.000  
C25  22253666.749   115880696.144       -2542.641          36.000                                                                  
C32  21052428.723   109625524.189         878.349          50.000                                                                  
C06  35365208.655   184155921.443         183.236          44.000    35365192.889   142400976.087         141.859          46.000  
G25  20499991.215   107728196.997        2558.621          40.000    20499983.592    83944007.602        1993.901          42.000  
G10  19514362.339   102548662.300        1055.377          50.000    19514350.730    79908004.733         822.180          43.000  
G28  22039229.769   115816947.947        2590.175          39.000    22039219.520    90246953.442        2018.088          41.000  
C23  20727329.087   107932639.406         272.233          50.000                                                                  
C09  36833692.667   191802709.472         281.830          39.000    36833681.353   148313968.547         218.109          46.000  
C33  26109417.590                       -2925.673          30.000                                                                  
C37  22873587.338   119108786.180        2691.453          43.000                                                                  
> 2025 10 27 02 50 25.1560000  0 19                     
G12  20752753.249   109056454.681         887.438          45.000    20752741.499    84979009.080         691.080          41.000  
G15  23241856.902   122136772.495       -3251.765          34.000    23241851.861    95171496.061       -2534.209          32.000  
G18  23570138.945   123861902.467       -3682.412          34.000    23570133.710    96515731.408       -2869.728          35.000  
G23  19254347.844   101182276.507       -2073.916          46.000    19254336.298    78843257.667       -1616.049          46.000  
G24  20931790.855   109997301.081       -3364.281          29.000    20931778.979                       -2621.699          30.000  
G32  20902454.121   109843137.314        1505.549          46.000    20902443.632    85592000.430        1172.909          41.000  
C08  34710142.169   180744816.102        -336.218          46.000    34710125.453   139763277.827        -260.077          48.000  
C13  34711907.189   180754005.463         -40.314          47.000    34711898.097   139770416.446         -30.939          47.000  
C16  35671898.740   185752938.177           3.975          47.000    35671889.111   143635914.689           3.034          47.000  
C25  22253686.269   115880797.831       -2542.376          36.000                                                                  
C32  21052421.932   109625489.061         878.191          50.000                                                                  
C06  35365207.242   184155914.107         183.292          44.000    35365191.445   142400970.414         141.813          46.000  
G25  20499971.747   107728094.655        2558.484          40.000    20499964.088    83943927.847        1993.883          42.000  
G10  19514354.312   102548620.084        1055.334          50.000    19514342.681    79907971.836         822.223          43.000  
G28  22039210.057   115816844.314        2590.580          39.000    22039199.808    90246872.701        2018.290          41.000  
C23  20727326.961   107932628.525         272.034          50.000                                                                  
C09  36833690.495   191802698.192         281.894          39.000    36833679.180   148313959.822         218.134          46.000  
C33  26109440.058                       -2925.531          30.000                                                                  
C37  22873566.677   119108678.515        2691.491          43.000                                                                  
> 2025 10 27 02 50 25.1960000  0 19                     
G12  20752746.469   109056419.189         887.274          45.000    20752734.732    84978981.417         691.314          41.000  
G15  23241881.620   122136902.560       -3251.698          34.000    23241876.628    95171597.368       -2533.347          32.000  
G18  23570166.977   123862049.754       -3682.251          34.000    23570161.742    96515846.182       -2869.559          35.000  
G23  19254363.598   101182359.458       -2073.841          46.000    19254352.084    78843322.308       -1616.091          46.000  
G24  20931816.484   109997435.666       -3364.450          29.000    20931804.594                       -2621.275          30.000  
G32  20902442.681   109843077.099        1505.419          46.000    20902432.185    85591953.510        1172.915          41.000  
C08  34710144.774   180744829.540        -336.053          46.000    34710128.031   139763288.222        -259.985          47.000  
C13  34711907.490   180754007.067         -40.271          47.000    34711898.391   139770417.685         -30.988          46.000  
C16  35671898.724   185752938.016           3.985          47.000    35671889.044   143635914.570           2.946          46.000  
C25  22253705.827   115880899.518       -2542.167          36.000                                                                  
C32  21052415.226   109625453.926         878.252          50.000                                                                  
C06  35365205.843   184155906.773         183.301          44.000    35365190.003   142400964.749         141.655          45.000  
G25  20499952.273   107727992.312        2558.439          40.000    20499944.625    83943848.108        1993.588          42.000  
G10  19514346.276   102548577.865        1055.396          50.000    19514334.646    79907938.942         822.278          43.000  
G28  22039190.325   115816740.689        2590.678          39.000    22039180.072    90246791.961        2018.383          41.000  
C23  20727324.878   107932617.635         272.118          50.000                                                                  
C09  36833688.317   191802686.916         281.863          39.000    36833676.980   148313951.104         217.994          46.000  
C33  26109462.544                       -2926.564          30.000                                                                  
C37  22873545.996   119108570.851        2691.523          43.000                                                                  
> 2025 10 27 02 50 25.2360000  0 19                     
G12  20752739.722   109056383.694         887.274          45.000    20752727.969    84978953.748         691.586          41.000  
G15  23241906.370   122137032.590       -3250.970          34.000    23241901.366    95171698.688       -2533.118          32.000  
G18  23570194.999   123862197.030       -3681.968          34.000    23570189.756    96515960.967       -2869.670          35.000  
G23  19254379.390   101182442.407       -2073.761          46.000    19254367.853    78843386.942       -1615.986          46.000  
G24  20931842.094   109997570.211       -3364.113          29.000    20931830.227                       -2621.285          31.000  
G32  20902431.209   109843016.879        1505.446          46.000    20902420.732    85591906.590        1172.896          41.000  
C08  34710147.365   180744842.980        -335.999          46.000    34710130.593   139763298.613        -259.857          47.000  
C13  34711907.817   180754008.664         -40.063          47.000    34711898.669   139770418.920         -30.939          46.000  
C16  35671898.718   185752937.862           3.857          47.000    35671889.019   143635914.444           3.062          46.000  
C25  22253725.355   115881001.211       -2542.217          36.000                                                                  
C32  21052408.525   109625418.785         878.427          50.000                                                                  
C06  35365204.442   184155899.431         183.466          44.000    35365188.559   142400959.081         141.622          45.000  
G25  20499932.797   107727889.968        2558.484          40.000    20499925.134    83943768.362        1993.551          42.000  
G10  19514338.216   102548535.643        1055.475          50.000    19514326.586    79907906.037         822.485          43.000  
G28  22039170.608   115816637.081        2590.409          39.000    22039160.364    90246711.213        2018.594          42.000  
C23  20727322.843   107932606.746         272.152          50.000                                                                  
C09  36833686.161   191802675.633         281.996          39.000    36833674.811   148313942.386         217.940          46.000  
C33  26109485.029                       -2926.421          30.000                                                                  
C37  22873525.342   119108463.188        2691.533          43.000                                                                  
> 2025 10 27 02 50 25.2760000  0 19                     
G12  20752732.998   109056348.214         887.026          45.000    20752721.205    84978926.079         691.724          41.000  
G15  23241931.111   122137162.674       -3251.670          34.000    23241926.114    95171800.040       -2533.500          32.000  
G18  23570223.021   123862344.319       -3682.101          34.000    23570217.816    96516075.740       -2869.572          35.000  
G23  19254395.163   101182525.356       -2073.737          46.000    19254383.648    78843451.582       -1616.017          46.000  
G24  20931867.671   109997704.780       -3364.146          29.000    20931855.800                       -2621.020          31.000  
G32  20902419.762   109842956.664        1505.369          46.000    20902409.279    85591859.667        1172.998          41.000  
C08  34710149.947   180744856.431        -336.200          46.000    34710133.190   139763309.005        -259.808          47.000  
C13  34711908.129   180754010.259         -39.923          47.000    34711898.970   139770420.162         -31.030          46.000  
C16  35671898.713   185752937.703           3.893          47.000    35671888.997   143635914.319           3.081          46.000  
C25  22253744.871   115881102.899       -2542.156          36.000                                                                  
C32  21052401.782   109625383.650         878.406          50.000                                                                  
C06  35365203.025   184155892.079         183.704          44.000    35365187.162   142400953.400         141.886          45.000  
G25  20499913.336   107727787.619        2558.654          40.000    20499905.663    83943688.614        1993.608          42.000  
G10  19514330.202   102548493.429        1055.371          50.000    19514318.556    79907873.140         822.461          43.000  
G28  22039150.880   115816533.485        2589.987          39.000    22039140.667    90246630.473        2018.568          42.000  
C23  20727320.775   107932595.859         272.165          50.000                                                                  
C09  36833683.999   191802664.383         281.429          39.000    36833672.645   148313933.669         217.910          46.000  
C33  26109507.505                       -2925.795          30.000                                                                  
C37  22873504.688   119108355.522        2691.572          43.000                                                                  
> 2025 10 27 02 50 25.3160000  0 19                     
G12  20752726.230   109056312.724         887.091          45.000    20752714.448    84978898.425         691.484          41.000  
G15  23241955.858   122137292.769       -3252.134          34.000    23241950.898    95171901.445       -2534.565          32.000  
G18  23570251.064   123862491.616       -3682.236          34.000    23570245.829    96516190.499       -2869.222          35.000  
G23  19254410.969   101182608.322       -2074.032          46.000    19254399.445    78843516.225       -1616.091          46.000  
G24  20931893.275   109997839.338       -3364.059          29.000    20931881.365                       -2620.868          30.000  
G32  20902408.312   109842896.452        1505.307          46.000    20902397.806    85591812.743        1173.053          41.000  
C08  34710152.567   180744869.880        -336.249          46.000    34710135.779   139763319.405        -259.955          47.000  
C13  34711908.431   180754011.852         -39.819          47.000    34711899.263   139770421.403         -31.079          46.000  
C16  35671898.664   185752937.541           3.986          47.000    35671888.950   143635914.193           3.154          46.000  
C25  22253764.409   115881204.613       -2542.705          36.000                                                                  
C32  21052395.024   109625348.521         878.251          50.000                                                                  
C06  35365201.613   184155884.761         183.250          44.000    35365185.767   142400947.734         141.748          45.000  
G25  20499893.879   107727685.280        2558.546          40.000    20499886.199    83943608.858        1993.792          42.000  
G10  19514322.189   102548451.217        1055.267          50.000    19514310.543    79907840.248         822.345          43.000  
G28  22039131.143   115816429.879        2589.952          39.000    22039120.959    90246549.725        2018.648          42.000  
C23  20727318.644   107932584.975         272.115          50.000                                                                  
C09  36833681.863   191802653.106         281.660          39.000    36833670.492   148313924.953         217.886          46.000  
C33  26109529.958                       -2925.166          30.000                                                                  
C37  22873484.017   119108247.853        2691.650          43.000                                                                  
> 2025 10 27 02 50 25.3560000  0 19                     
G12  20752719.470   109056277.223         887.395          45.000    20752707.675    84978870.765         691.453          41.000  
G15  23241980.593   122137422.857       -3252.246          34.000    23241975.651    95172002.777       -2533.866          32.000  
G18  23570279.092   123862638.933       -3682.738          34.000    23570273.848    96516305.249       -2868.855          36.000  
G23  19254426.743   101182691.281       -2074.044          46.000    19254415.208    78843580.861       -1615.992          46.000  
G24  20931918.894   109997973.902       -3364.047          29.000    20931906.989                       -2621.983          31.000  
G32  20902396.838   109842836.238        1505.310          46.000    20902386.346    85591765.821        1173.078          41.000  
C08  34710155.177   180744883.320        -336.084          46.000    34710138.384   139763329.798        -259.882          47.000  
C13  34711908.741   180754013.456         -39.984          47.000    34711899.558   139770422.644         -31.097          46.000  
C16  35671898.649   185752937.381           4.005          47.000    35671888.905   143635914.072           3.066          46.000  
C25  22253783.946   115881306.313       -2542.654          35.000                                                                  
C32  21052388.261   109625313.391         878.208          50.000                                                                  
C06  35365200.203   184155877.428         183.209          44.000    35365184.365   142400942.062         141.775          45.000  
G25  20499874.407   107727582.953        2558.240          40.000    20499866.726    83943529.123        1993.522          42.000  
G10  19514314.171   102548409.006        1055.231          50.000    19514302.505    79907807.351         822.351          43.000  
G28  22039111.416   115816326.259        2590.291          39.000    22039101.275    90246468.987        2018.516          42.000  
C23  20727316.535   107932574.088         272.135          50.000                                                                  
C09  36833679.676   191802641.814         282.101          39.000    36833668.312   148313916.233         217.931          46.000  
C33  26109552.441                       -2926.650          30.000                                                                  
C37  22873463.323   119108140.195        2691.489          43.000                                                                  
> 2025 10 27 02 50 25.3960000  0 19                     
G12  20752712.717   109056241.723         887.512          45.000    20752700.925    84978843.120         691.177          41.000  
G15  23242005.330   122137552.902       -3251.496          34.000    23242000.424    95172104.115       -2533.523          32.000  
G18  23570307.106   123862786.222       -3682.412          34.000    23570301.859    96516420.022       -2869.090          36.000  
G23  19254442.533   101182774.245       -2074.142          46.000    19254431.006    78843645.500       -1615.998          46.000  
G24  20931944.495   109998108.457       -3363.953          30.000    20931932.621                       -2622.450          31.000  
G32  20902385.367   109842776.016        1505.447          46.000    20902374.898    85591718.895        1173.136          41.000  
C08  34710157.764   180744896.772        -336.243          46.000    34710140.969   139763340.196        -259.937          47.000  
C13  34711909.023   180754015.063         -40.161          47.000    34711899.833   139770423.881         -31.006          46.000  
C16  35671898.638   185752937.225           3.938          47.000    35671888.859   143635913.952           2.993          46.000  
C25  22253803.496   115881408.013       -2542.579          35.000                                                                  
C32  21052381.567   109625278.261         878.191          50.000                                                                  
C06  35365198.793   184155870.099         183.190          44.000    35365182.971   142400936.394         141.696          45.000  
G25  20499854.927   107727480.608        2558.472          40.000    20499847.232    83943449.366        1993.741          42.000  
G10  19514306.121   102548366.795        1055.243          50.000    19514294.454    79907774.456         822.339          43.000  
G28  22039091.693   115816222.657        2590.122          39.000    22039081.600    90246388.270        2018.037          43.000  
C23  20727314.424   107932563.207         272.052          50.000                                                                  
C09  36833677.528   191802630.555         281.644          39.000    36833666.152   148313907.511         218.006          46.000  
C33  26109574.925                       -2926.604          30.000                                                                  
C37  22873442.640   119108032.544        2691.286          43.000                                                                  
> 2025 10 27 02 50 25.4360000  0 19                     
G12  20752705.965   109056206.239         887.255          45.000    20752694.164    84978815.469         691.166          41.000  
G15  23242030.055   122137682.937       -3250.918          34.000    23242025.173    95172205.476       -2533.793          32.000  
G18  23570335.120   123862933.501       -3682.012          34.000    23570329.891    96516534.793       -2869.209          36.000  
G23  19254458.300   101182857.198       -2073.950          46.000    19254446.804    78843710.145       -1616.127          47.000  
G24  20931970.075   109998243.022       -3364.012          29.000    20931958.233    85712824.805       -2621.896          30.000  
G32  20902373.904   109842715.790        1505.598          46.000    20902363.430    85591671.960        1173.320          41.000  
C08  34710160.344   180744910.218        -336.243          46.000    34710143.547   139763350.588        -259.857          47.000  
C13  34711909.340   180754016.665         -40.161          47.000    34711900.129   139770425.113         -30.847          46.000  
C16  35671898.611   185752937.067           3.905          47.000    35671888.771   143635913.834           2.924          46.000  
C25  22253823.027   115881509.700       -2542.333          35.000                                                                  
C32  21052374.845   109625243.126         878.303          50.000                                                                  
C06  35365197.415   184155862.763         183.292          44.000    35365181.567   142400930.717         141.844          45.000  
G25  20499835.447   107727378.264        2558.618          40.000    20499827.745    83943369.624        1993.600          42.000  
G10  19514298.073   102548324.580        1055.334          50.000    19514286.437    79907741.567         822.241          43.000  
G28  22039071.971   115816119.051        2590.104          39.000    22039061.876    90246307.536        2018.147          43.000  
C23  20727312.334   107932552.320         272.098          50.000                                                                  
C09  36833675.345   191802619.274         281.827          39.000    36833663.966   148313898.793         217.980          46.000  
C33  26109597.412                       -2926.488          30.000                                                                  
C37  22873421.989   119107924.874        2691.521          43.000                                                                  
> 2025 10 27 02 50 25.4760000  0 19                     
G12  20752699.243   109056170.761         886.977          45.000    20752687.407    84978787.811         691.306          41.000  
G15  23242054.808   122137813.001       -3251.189          34.000    23242049.950    95172306.833       -2533.831          32.000  
G18  23570363.111   123863080.775       -3681.757          34.000    23570357.954    96516649.582       -2869.577          36.000  
G23  19254474.093   101182940.156       -2073.957          46.000    19254462.618    78843774.791       -1616.232          46.000  
G24  20931995.683   109998377.589       -3364.102          30.000    20931983.845                       -2621.216          30.000  
G32  20902362.461   109842655.575        1505.451          46.000    20902351.970    85591625.048        1173.004          41.000  
C08  34710162.898   180744923.653        -336.023          46.000    34710146.111   139763360.988        -259.991          47.000  
C13  34711909.620   180754018.267         -40.100          47.000    34711900.439   139770426.345         -30.786          46.000  
C16  35671898.599   185752936.909           3.878          47.000    35671888.751   143635913.710           2.998          46.000  
C25  22253842.557   115881611.401       -2542.438          35.000                                                                  
C32  21052368.138   109625207.988         878.403          50.000                                                                  
C06  35365196.019   184155855.420         183.469          44.000    35365180.176   142400925.040         141.893          45.000  
G25  20499815.966   107727275.898        2559.056          40.000    20499808.276    83943289.867        1993.799          42.000  
G10  19514290.051   102548282.369        1055.249          50.000    19514278.408    79907708.679         822.168          43.000  
G28  22039052.257   115816015.445        2590.041          39.000    22039042.154    90246226.807        2018.162          43.000  
C23  20727310.238   107932541.438         272.039          50.000                                                                  
C09  36833673.172   191802607.999         281.840          39.000    36833661.803   148313890.072         217.986          46.000  
C33  26109619.873                       -2926.263          30.000                                                                  
C37  22873401.323   119107817.191        2691.904          44.000                                                                  
> 2025 10 27 02 50 25.5160000  0 19                     
G12  20752692.503   109056135.278         886.931          45.000    20752680.660    84978760.172         691.039          41.000  
G15  23242079.558   122137943.071       -3251.469          34.000    23242074.676    95172408.174       -2533.716          32.000  
G18  23570391.155   123863228.064       -3682.024          34.000    23570385.993    96516764.348       -2869.408          36.000  
G23  19254489.874   101183023.123       -2074.154          46.000    19254478.424    78843839.440       -1616.293          47.000  
G24  20932021.302   109998512.136       -3363.905          29.000    20932009.457    85713034.479       -2620.991          30.000  
G32  20902351.013   109842595.371        1505.155          46.000    20902340.535    85591578.147        1172.622          41.000  
C08  34710165.442   180744937.101        -336.151          46.000    34710148.671   139763371.387        -260.028          47.000  
C13  34711909.938   180754019.866         -40.051          47.000    34711900.739   139770427.591         -31.061          46.000  
C16  35671898.599   185752936.752           3.853          47.000    35671888.698   143635913.583           3.062          46.000  
C25  22253862.104   115881713.118       -2542.845          36.000                                                                  
C32  21052361.367   109625172.863         878.223          50.000                                                                  
C06  35365194.619   184155848.082         183.518          44.000    35365178.750   142400919.361         141.948          45.000  
G25  20499796.503   107727173.560        2558.712          40.000    20499788.793    83943210.124        1993.658          42.000  
G10  19514282.033   102548240.167        1055.072          50.000    19514270.378    79907675.789         822.168          43.000  
G28  22039032.543   115815911.828        2590.266          39.000    22039022.430    90246146.064        2018.448          43.000  
C23  20727308.132   107932530.563         271.872          50.000                                                                  
C09  36833671.032   191802596.732         281.676          39.000    36833659.651   148313881.356         217.917          46.000  
C33  26109642.368                       -2926.270          30.000                                                                  
C37  22873380.634   119107709.524        2691.805          44.000                                                                  
> 2025 10 27 02 50 25.5560000  0 19                     
G12  20752685.733   109056099.785         887.138          45.000    20752673.904    84978732.529         690.981          41.000  
G15  23242104.315   122138073.169       -3252.236          34.000    23242099.427    95172509.523       -2533.911          32.000  
G18  23570419.187   123863375.383       -3682.760          34.000    23570414.015    96516879.105       -2869.134          36.000  
G23  19254505.655   101183106.087       -2074.166          46.000    19254494.205    78843904.092       -1616.360          47.000  
G24  20932046.927   109998646.737       -3364.380          30.000    20932035.051    85713139.316       -2620.795          30.000  
G32  20902339.562   109842535.165        1505.058          46.000    20902329.056    85591531.231        1172.681          41.000  
C08  34710168.053   180744950.554        -336.279          46.000    34710151.271   139763381.789        -260.083          47.000  
C13  34711910.192   180754021.471         -40.106          47.000    34711901.042   139770428.835         -31.122          46.000  
C16  35671898.561   185752936.601           3.772          47.000    35671888.658   143635913.463           3.017          46.000  
C25  22253881.629   115881814.826       -2542.893          36.000                                                                  
C32  21052354.620   109625137.737         878.126          50.000                                                                  
C06  35365193.208   184155840.755         183.281          44.000    35365177.362   142400913.695         141.769          45.000  
G25  20499777.035   107727071.227        2558.405          40.000    20499769.305    83943130.382        1993.568          42.000  
G10  19514274.004   102548197.965        1054.993          50.000    19514262.338    79907642.898         822.192          43.000  
G28  22039012.837   115815808.224        2590.197          39.000    22039002.707    90246065.334        2018.334          43.000  
C23  20727306.050   107932519.690         271.780          50.000                                                                  
C09  36833668.883   191802585.447         281.987          39.000    36833657.504   148313872.637         217.956          46.000  
C33  26109664.844                       -2926.428          30.000                                                                  
C37  22873359.933   119107601.871        2691.473          44.000                                                                  
> 2025 10 27 02 50 25.5960000  0 19                     
G12  20752678.988   109056064.301         887.084          45.000    20752667.132    84978704.869         691.291          41.000  
G15  23242129.088   122138203.259       -3252.537          34.000    23242124.186    95172610.863       -2533.761          32.000  
G18  23570447.204   123863522.655       -3682.231          34.000    23570442.053    96516993.885       -2869.416          36.000  
G23  19254521.424   101183189.048       -2074.141          46.000    19254509.993    78843968.737       -1616.236          47.000  
G24  20932072.548   109998781.297       -3364.289          30.000    20932060.660    85713244.202       -2621.779          30.000  
G32  20902328.124   109842474.964        1504.949          46.000    20902317.595    85591484.288        1173.263          41.000  
C08  34710170.663   180744963.995        -336.121          46.000    34710153.873   139763392.190        -260.089          47.000  
C13  34711910.511   180754023.078         -40.198          47.000    34711901.333   139770430.075         -31.104          46.000  
C16  35671898.561   185752936.447           3.761          47.000    35671888.629   143635913.346           2.918          46.000  
C25  22253901.204   115881916.504       -2542.232          36.000                                                                  
C32  21052347.882   109625102.612         878.059          50.000                                                                  
C06  35365191.801   184155833.431         183.107          44.000    35365175.955   142400908.031         141.614          45.000  
G25  20499757.566   107726968.892        2558.213          40.000    20499749.825    83943050.644        1993.419          42.000  
G10  19514265.956   102548155.755        1055.127          50.000    19514254.325    79907610.006         822.235          43.000  
G28  22038993.145   115815704.618        2590.198          39.000    22038983.004    90245984.604        2018.292          43.000  
C23  20727303.981   107932508.810         271.854          50.000                                                                  
C09  36833666.709   191802574.157         282.165          39.000    36833655.342   148313863.926         217.798          46.000  
C33  26109687.304                       -2925.699          30.000                                                                  
C37  22873339.262   119107494.220        2691.238          44.000                                                                  
> 2025 10 27 02 50 25.6360000  0 19                     
G12  20752672.233   109056028.816         887.086          45.000    20752660.358    84978677.217         691.338          41.000  
G15  23242153.839   122138333.343       -3252.473          34.000    23242148.940    95172712.227       -2534.003          32.000  
G18  23570475.234   123863670.006       -3683.348          34.000    23570470.093    96517108.677       -2869.782          36.000  
G23  19254537.222   101183272.012       -2074.140          46.000    19254525.770    78844033.381       -1616.144          47.000  
G24  20932098.182   109998915.874       -3364.376          30.000    20932086.269    85713349.068       -2621.963          30.000  
G32  20902316.653   109842414.749        1505.196          46.000    20902306.137    85591437.371        1173.118          41.000  
C08  34710173.253   180744977.443        -336.188          46.000    34710156.471   139763402.586        -259.973          47.000  
C13  34711910.812   180754024.686         -40.259          47.000    34711901.637   139770431.318         -31.122          46.000  
C16  35671898.529   185752936.290           3.836          47.000    35671888.588   143635913.225           2.996          46.000  
C25  22253920.726   115882018.212       -2542.406          35.000                                                                  
C32  21052341.129   109625067.488         878.037          50.000                                                                  
C06  35365190.357   184155826.106         183.027          44.000    35365174.546   142400902.368         141.492          45.000  
G25  20499738.076   107726866.566        2558.055          40.000    20499730.363    83942970.910        1993.274          42.000  
G10  19514257.929   102548113.545        1055.206          50.000    19514246.318    79907577.116         822.217          43.000  
G28  22038973.427   115815601.004        2590.322          39.000    22038963.298    90245903.876        2018.211          43.000  
C23  20727301.916   107932497.935         271.831          50.000                                                                  
C09  36833664.531   191802562.884         281.987          39.000    36833653.171   148313855.207         217.882          46.000  
C33  26109709.806                       -2926.630          30.000                                                                  
C37  22873318.602   119107386.565        2691.234          44.000                                                                  
> 2025 10 27 02 50 25.6760000  0 19                     
G12  20752665.490   109055993.333         887.054          45.000    20752653.628    84978649.578         691.096          41.000  
G15  23242178.584   122138463.397       -3251.829          34.000    23242173.698    95172813.592       -2534.217          32.000  
G18  23570503.296   123863817.315       -3683.263          34.000    23570498.114    96517223.433       -2869.301          36.000  
G23  19254553.018   101183354.980       -2074.196          46.000    19254541.603    78844098.032       -1616.236          47.000  
G24  20932123.790   109999050.438       -3364.286          30.000    20932111.866    85713453.925       -2621.717          30.000  
G32  20902305.183   109842354.529        1505.440          46.000    20902294.691    85591390.448        1173.130          41.000  
C08  34710175.844   180744990.891        -336.194          46.000    34710159.080   139763412.980        -259.863          48.000  
C13  34711911.168   180754026.285         -40.100          47.000    34711901.942   139770432.558         -31.079          47.000  
C16  35671898.525   185752936.133           3.888          47.000    35671888.542   143635913.101           3.046          47.000  
C25  22253940.253   115882119.926       -2542.696          36.000                                                                  
C32  21052334.386   109625032.357         878.174          50.000                                                                  
C06  35365188.957   184155818.768         183.251          44.000    35365173.113   142400896.695         141.643          46.000  
G25  20499718.601   107726764.229        2558.232          40.000    20499710.882    83942891.171        1993.355          42.000  
G10  19514249.904   102548071.342        1055.115          50.000    19514238.291    79907544.236         821.997          43.000  
G28  22038953.688   115815497.388        2590.446          39.000    22038943.580    90245823.145        2018.204          43.000  
C23  20727299.834   107932487.058         271.858          50.000                                                                  
C09  36833662.381   191802551.630         281.452          39.000    36833651.011   148313846.488         217.932          46.000  
C33  26109732.318                       -2925.869          30.000                                                                  
C37  22873297.925   119107278.898        2691.475          44.000                                                                  
> 2025 10 27 02 50 25.7160000  0 19                     
G12  20752658.763   109055957.854         886.992          45.000    20752646.895    84978621.929         691.138          42.000  
G15  23242203.299   122138593.419       -3250.840          34.000    23242198.446    95172914.949       -2534.117          32.000  
G18  23570531.294   123863964.595       -3682.559          34.000    23570526.148    96517338.187       -2869.000          36.000  
G23  19254568.816   101183437.951       -2074.300          46.000    19254557.393    78844162.683       -1616.317          47.000  
G24  20932149.410   109999184.969       -3363.500          30.000    20932137.458    85713558.775       -2621.436          30.000  
G32  20902293.714   109842294.309        1505.523          46.000    20902283.217    85591343.534        1172.939          41.000  
C08  34710178.399   180745004.341        -336.267          46.000    34710161.641   139763423.376        -259.894          48.000  
C13  34711911.446   180754027.896         -40.234          47.000    34711902.259   139770433.793         -30.951          47.000  
C16  35671898.474   185752935.971           4.011          47.000    35671888.482   143635912.981           3.012          47.000  
C25  22253959.788   115882221.622       -2542.461          36.000                                                                  
C32  21052327.653   109624997.229         878.205          50.000                                                                  
C06  35365187.549   184155811.436         183.248          44.000    35365171.673   142400891.025         141.691          46.000  
G25  20499699.109   107726661.897        2558.247          40.000    20499691.421    83942811.414        1993.703          42.000  
G10  19514241.880   102548029.142        1054.993          50.000    19514230.277    79907511.352         821.991          43.000  
G28  22038933.962   115815393.795        2590.033          39.000    22038923.874    90245742.407        2018.354          43.000  
C23  20727297.749   107932476.184         271.846          50.000                                                                  
C09  36833660.230   191802540.358         281.552          39.000    36833648.861   148313837.770         217.937          46.000  
C33  26109754.803                       -2927.310          30.000                                                                  
C37  22873277.242   119107171.235        2691.573          44.000                                                                  
> 2025 10 27 02 50 25.7560000  0 19                     
G12  20752652.030   109055922.381         886.880          45.000    20752640.133    84978594.286         690.998          42.000  
G15  23242228.058   122138723.526       -3251.880          34.000    23242223.211    95173016.296       -2533.790          32.000  
G18  23570559.338   123864111.888       -3682.384          34.000    23570554.184    96517452.946       -2868.855          36.000  
G23  19254584.630   101183520.924       -2074.374          46.000    19254573.207    78844227.339       -1616.415          47.000  
G24  20932175.035   109999319.579       -3364.441          30.000    20932163.058    85713663.637       -2621.456          30.000  
G32  20902282.263   109842234.108        1505.193          46.000    20902271.778    85591296.620        1172.833          41.000  
C08  34710180.948   180745017.792        -336.298          46.000    34710164.190   139763433.776        -259.979          48.000  
C13  34711911.791   180754029.501         -40.247          47.000    34711902.586   139770435.043         -31.165          47.000  
C16  35671898.443   185752935.824           3.805          47.000    35671888.449   143635912.865           2.913          47.000  
C25  22253979.325   115882323.330       -2542.634          36.000                                                                  
C32  21052320.910   109624962.111         877.998          50.000                                                                  
C06  35365186.144   184155804.112         183.135          44.000    35365170.263   142400885.357         141.669          46.000  
G25  20499679.635   107726559.557        2558.396          40.000    20499671.962    83942731.670        1993.698          42.000  
G10  19514233.870   102547986.947        1054.852          50.000    19514222.253    79907478.476         821.857          43.000  
G28  22038914.263   115815290.194        2589.910          39.000    22038904.151    90245661.685        2018.066          43.000  
C23  20727295.623   107932465.318         271.678          50.000                                                                  
C09  36833658.069   191802529.107         281.240          39.000    36833646.705   148313829.066         217.653          46.000  
C33  26109777.269                       -2926.138          30.000                                                                  
C37  22873256.559   119107063.570        2691.598          44.000                                                                  
> 2025 10 27 02 50 25.7960000  0 19                     
G12  20752645.261   109055886.910         886.774          45.000    20752633.390    84978566.644         690.952          42.000  
G15  23242252.817   122138853.583       -3251.693          34.000    23242247.986    95173117.644       -2533.674          32.000  
G18  23570587.356   123864259.148       -3681.728          34.000    23570582.235    96517567.721       -2869.208          36.000  
G23  19254600.426   101183603.901       -2074.503          46.000    19254588.998    78844292.000       -1616.562          47.000  
G24  20932200.672   109999454.178       -3364.810          30.000    20932188.656    85713768.541       -2622.341          30.000  
G32  20902270.831   109842173.900        1505.126          46.000    20902260.314    85591249.701        1172.868          41.000  
C08  34710183.534   180745031.243        -336.298          46.000    34710166.754   139763444.181        -260.107          48.000  
C13  34711912.093   180754031.116         -40.387          47.000    34711902.917   139770436.295         -31.311          47.000  
C16  35671898.420   185752935.676           3.712          47.000    35671888.398   143635912.754           2.743          47.000  
C25  22253998.858   115882425.049       -2542.905          36.000                                                                  
C32  21052314.153   109624926.990         877.950          50.000                                                                  
C06  35365184.734   184155796.794         182.959          44.000    35365168.830   142400879.700         141.464          46.000  
G25  20499660.156   107726457.228        2558.283          40.000    20499652.491    83942651.939        1993.411          42.000  
G10  19514225.819   102547944.749        1054.834          50.000    19514214.221    79907445.591         821.973          43.000  
G28  22038894.561   115815186.609        2589.614          39.000    22038884.446    90245580.964        2017.943          43.000  
C23  20727293.521   107932454.453         271.573          50.000                                                                  
C09  36833655.883   191802517.840         281.409          39.000    36833644.552   148313820.356         217.645          46.000  
C33  26109799.780                       -2926.459          30.000                                                                  
C37  22873235.882   119106955.920        2691.358          44.000                                                                  
> 2025 10 27 02 50 25.8360000  0 19                     
G12  20752638.500   109055851.435         886.791          45.000    20752626.609    84978538.990         691.169          41.000  
G15  23242277.589   122138983.674       -3252.152          34.000    23242272.729    95173218.994       -2533.574          32.000  
G18  23570615.357   123864406.428       -3681.753          34.000    23570610.292    96517682.506       -2869.508          36.000  
G23  19254616.227   101183686.872       -2074.366          46.000    19254604.778    78844356.656       -1616.493          47.000  
G24  20932226.304                       -3365.004          30.000    20932214.275    85713873.403       -2622.030          30.000  
G32  20902259.367   109842113.689        1505.175          46.000    20902248.866    85591202.788        1172.784          41.000  
C08  34710186.090   180745044.702        -336.475          46.000    34710169.340   139763454.583        -260.126          48.000  
C13  34711912.375   180754032.730         -40.424          47.000    34711903.213   139770437.537         -31.165          47.000  
C16  35671898.400   185752935.524           3.762          47.000    35671888.334   143635912.642           2.725          47.000  
C25  22254018.412   115882526.774       -2543.182          36.000                                                                  
C32  21052307.425   109624891.868         877.965          50.000                                                                  
C06  35365183.314   184155789.470         182.997          44.000    35365167.424   142400874.040         141.392          46.000  
G25  20499640.700   107726354.893        2558.344          40.000    20499633.025    83942572.213        1993.169          42.000  
G10  19514217.788   102547902.548        1054.950          50.000    19514206.182    79907412.714         821.924          43.000  
G28  22038874.846   115815083.016        2589.629          39.000    22038864.704    90245500.235        2018.077          43.000  
C23  20727291.452   107932443.584         271.636          50.000                                                                  
C09  36833653.692   191802506.565         281.712          39.000    36833642.401   148313811.642         217.748          46.000  
C33  26109822.200                       -2926.200          30.000                                                                  
C37  22873215.217   119106848.266        2691.318          44.000                                                                  
> 2025 10 27 02 50 25.8760000  0 19                     
G12  20752631.768   109055815.960         886.853          45.000    20752619.861    84978511.354         690.974          41.000  
G15  23242302.337   122139113.751       -3252.104          34.000    23242297.493    95173320.378       -2534.217          32.000  
G18  23570643.386   123864553.751       -3682.620          34.000    23570638.351    96517797.305       -2869.908          36.000  
G23  19254632.004   101183769.837       -2074.218          46.000    19254620.556    78844421.311       -1616.450          47.000  
G24  20932251.890                       -3365.036          30.000    20932239.881    85713978.254       -2621.530          30.000  
G32  20902247.913   109842053.479        1505.188          46.000    20902237.432    85591155.886        1172.548          41.000  
C08  34710188.730   180745058.156        -336.444          46.000    34710171.966   139763464.983        -260.071          48.000  
C13  34711912.691   180754034.337         -40.277          47.000    34711903.533   139770438.777         -31.036          47.000  
C16  35671898.390   185752935.373           3.764          47.000    35671888.282   143635912.518           2.926          47.000  
C25  22254037.934   115882628.479       -2542.853          35.000                                                                  
C32  21052300.725   109624856.745         877.991          50.000                                                                  
C06  35365181.905   184155782.133         183.250          44.000    35365166.015   142400868.368         141.643          45.000  
G25  20499621.224   107726252.549        2558.566          40.000    20499613.545    83942492.471        1993.312          42.000  
G10  19514209.753   102547860.349        1054.944          50.000    19514198.137    79907379.836         821.906          43.000  
G28  22038855.109   115814979.427        2589.632          39.000    22038844.979    90245419.497        2018.306          43.000  
C23  20727289.389   107932432.709         271.781          50.000                                                                  
C09  36833651.542   191802495.285         281.955          39.000    36833640.217   148313802.926         217.841          46.000  
C33  26109844.682                       -2925.648          30.000                                                                  
C37  22873194.540   119106740.627        2691.038          44.000                                                                  
> 2025 10 27 02 50 25.9160000  0 19                     
G12  20752625.024   109055780.486         886.839          45.000    20752613.107    84978483.708         691.048          41.000  
G15  23242327.090   122139243.806       -3251.629          34.000    23242322.268    95173421.726       -2533.849          32.000  
G18  23570671.384   123864701.019       -3682.055          34.000    23570666.406    96517912.102       -2870.070          36.000  
G23  19254647.819   101183852.806       -2074.212          46.000    19254636.334    78844485.964       -1616.370          47.000  
G24  20932277.474                       -3363.573          29.000    20932265.470    85714083.098       -2621.172          30.000  
G32  20902236.435   109841993.268        1505.228          46.000    20902225.984    85591108.976        1172.601          41.000  
C08  34710191.327   180745071.599        -336.212          46.000    34710174.538   139763475.390        -260.168          48.000  
C13  34711913.004   180754035.943         -40.210          47.000    34711903.844   139770440.020         -31.049          47.000  
C16  35671898.347   185752935.222           3.756          47.000    35671888.232   143635912.404           2.891          47.000  
C25  22254057.462   115882730.182       -2542.625          36.000                                                                  
C32  21052293.983   109624821.621         878.057          50.000                                                                  
C06  35365180.492   184155774.799         183.307          44.000    35365164.591   142400862.704         141.604          45.000  
G25  20499601.756   107726150.240        2557.984          40.000    20499594.055    83942412.735        1993.292          42.000  
G10  19514201.706   102547818.149        1054.938          50.000    19514190.093    79907346.951         822.009          43.000  
G28  22038835.395   115814875.811        2590.200          39.000    22038825.250    90245338.757        2018.486          43.000  
C23  20727287.269   107932421.841         271.740          50.000                                                                  
C09  36833649.373   191802484.023         281.711          39.000    36833638.058   148313794.215         217.796          46.000  
C33  26109867.175                       -2925.736          30.000                                                                  
C37  22873173.877   119106632.966        2691.316          44.000                                                                  
> 2025 10 27 02 50 25.9560000  0 19                     
G12  20752618.276   109055745.013         886.826          45.000    20752606.359    84978456.065         691.013          42.000  
G15  23242351.861   122139373.892       -3251.963          34.000    23242347.033    95173523.133       -2534.671          32.000  
G18  23570699.405   123864848.303       -3682.071          34.000    23570694.425    96518026.870       -2869.607          36.000  
G23  19254663.630   101183935.797       -2074.632          46.000    19254652.115    78844550.619       -1616.370          47.000  
G24  20932303.071                       -3363.641          29.000    20932291.068    85714187.967       -2621.447          30.000  
G32  20902224.989   109841933.055        1505.265          46.000    20902214.508    85591062.057        1172.811          41.000  
C08  34710193.922   180745085.050        -336.261          46.000    34710177.113   139763485.794        -260.144          48.000  
C13  34711913.307   180754037.552         -40.210          47.000    34711904.160   139770441.264         -31.073          47.000  
C16  35671898.345   185752935.065           3.840          47.000    35671888.206   143635912.282           2.989          47.000  
C25  22254076.992   115882831.890       -2542.601          36.000                                                                  
C32  21052287.238   109624786.504         877.948          50.000                                                                  
C06  35365179.080   184155767.479         183.119          44.000    35365163.168   142400857.038         141.603          45.000  
G25  20499582.310   107726047.903        2558.218          40.000    20499574.590    83942332.989        1993.463          42.000  
G10  19514193.670   102547775.953        1054.871          50.000    19514182.065    79907314.077         821.863          43.000  
G28  22038815.679   115814772.207        2590.234          39.000    22038805.537    90245258.025        2018.390          43.000  
C23  20727285.163   107932410.976         271.642          50.000                                                                  
C09  36833647.214   191802472.756         281.655          39.000    36833635.896   148313785.502         217.802          46.000  
C33  26109889.704                       -2927.201          30.000                                                                  
C37  22873153.202   119106525.320        2691.224          44.000                                                                  
> 2025 10 27 02 50 25.9960000  0 19                     
G12  20752611.548   109055709.542         886.835          45.000    20752599.590    84978428.419         691.128          42.000  
G15  23242376.612   122139504.015       -3252.885          34.000    23242371.770    95173624.458       -2533.713          32.000  
G18  23570727.408   123864995.618       -3682.676          34.000    23570722.446    96518141.624       -2869.043          36.000  
G23  19254679.393   101184018.776       -2074.624          46.000    19254667.903    78844615.281       -1616.524          47.000  
G24  20932328.652                       -3364.488          30.000    20932316.657    85714292.809       -2621.253          30.000  
G32  20902213.535   109841872.845        1505.259          46.000    20902203.031    85591015.136        1172.957          41.000  
C08  34710196.485   180745098.510        -336.444          46.000    34710179.725   139763496.197        -260.107          48.000  
C13  34711913.640   180754039.159         -40.204          47.000    34711904.475   139770442.509         -31.116          47.000  
C16  35671898.313   185752934.924           3.644          47.000    35671888.169   143635912.168           2.914          47.000  
C25  22254096.525   115882933.586       -2542.374          36.000                                                                  
C32  21052280.507   109624751.384         877.969          50.000                                                                  
C06  35365177.669   184155760.161         182.979          44.000    35365161.788   142400851.382         141.438          45.000  
G25  20499562.824   107725945.592        2557.870          40.000    20499555.118    83942253.264        1993.213          42.000  
G10  19514185.639   102547733.756        1054.877          50.000    19514174.036    79907281.198         821.912          43.000  
G28  22038795.977   115814668.608        2590.145          39.000    22038785.843    90245177.312        2017.985          43.000  
C23  20727283.064   107932400.118         271.469          50.000                                                                  
C09  36833645.055   191802461.494         281.562          39.000    36833633.715   148313776.787         217.821          46.000  
C33  26109912.180                       -2925.934          30.000                                                                  
C37  22873132.557   119106417.667        2691.313          44.000                                                                  
> 2025 10 27 02 50 26.0360000  0 19                     
G12  20752604.792   109055674.066         886.892          45.000    20752592.836    84978400.773         691.145          42.000  
G15  23242401.347   122139634.080       -3252.313          34.000    23242396.515    95173725.791       -2533.217          32.000  
G18  23570755.453   123865142.926       -3682.802          34.000    23570750.461    96518256.380       -2868.861          36.000  
G23  19254695.184   101184101.750       -2074.476          46.000    19254683.695    78844679.932       -1616.382          47.000  
G24  20932354.269                       -3363.990          30.000    20932342.278    85714397.736       -2622.605          30.000  
G32  20902202.085   109841812.637        1505.227          46.000    20902191.577    85590968.209        1173.207          41.000  
C08  34710199.049   180745111.956        -336.255          46.000    34710182.296   139763506.591        -259.930          48.000  
C13  34711913.908   180754040.775         -40.356          47.000    34711904.802   139770443.757         -31.201          47.000  
C16  35671898.272   185752934.771           3.703          47.000    35671888.145   143635912.052           2.902          47.000  
C25  22254116.060   115883035.306       -2542.726          36.000                                                                  
C32  21052273.747   109624716.261         878.040          50.000                                                                  
C06  35365176.288   184155752.829         183.127          44.000    35365160.383   142400845.708         141.675          45.000  
G25  20499543.359   107725843.265        2557.969          40.000    20499535.682    83942173.517        1993.501          42.000  
G10  19514177.600   102547691.558        1054.919          50.000    19514166.004    79907248.311         822.046          43.000  
G28  22038776.257   115814564.999        2590.218          39.000    22038766.146    90245096.604        2017.639          42.000  
C23  20727280.991   107932389.255         271.479          50.000                                                                  
C09  36833642.902   191802450.221         281.708          39.000    36833631.550   148313768.070         217.884          46.000  
C33  26109934.640                       -2926.011          30.000                                                                  
C37  22873111.883   119106310.008        2691.428          44.000                                                                  
> 2025 10 27 02 50 26.0760000  0 19                     
G12  20752598.049   109055638.599         886.708          45.000    20752586.093    84978373.131         691.071          42.000  
G15  23242426.086   122139764.114       -3251.357          34.000    23242421.267    95173827.155       -2533.704          32.000  
G18  23570783.478   123865290.217       -3682.475          34.000    23570778.479    96518371.155       -2869.204          36.000  
G23  19254710.973   101184184.727       -2074.445          46.000    19254699.493    78844744.590       -1616.431          47.000  
G24  20932379.917                       -3365.107          30.000    20932367.916    85714502.617       -2622.419          30.000  
G32  20902190.634   109841752.429        1505.175          46.000    20902180.121    85590921.288        1173.181          41.000  
C08  34710201.628   180745125.407        -336.279          46.000    34710184.840   139763516.995        -260.052          48.000  
C13  34711914.202   180754042.382         -40.265          47.000    34711905.107   139770444.997         -31.097          47.000  
C16  35671898.252   185752934.616           3.768          47.000    35671888.080   143635911.928           2.983          47.000  
C25  22254135.582   115883137.034       -2543.145          36.000                                                                  
C32  21052267.027   109624681.140         878.019          50.000                                                                  
C06  35365174.855   184155745.502         183.116          44.000    35365158.977   142400840.033         141.820          45.000  
G25  20499523.885   107725740.931        2558.159          40.000    20499516.212    83942093.784        1993.400          42.000  
G10  19514169.592   102547649.368        1054.791          50.000    19514157.973    79907215.446         821.735          43.000  
G28  22038756.537   115814461.403        2590.050          39.000    22038746.451    90245015.883        2017.768          42.000  
C23  20727278.932   107932378.389         271.533          50.000                                                                  
C09  36833640.765   191802438.952         281.765          39.000    36833629.370   148313759.355         217.883          46.000  
C33  26109957.070                       -2924.807          30.000                                                                  
C37  22873091.186   119106202.353        2691.407          44.000                                                                  
> 2025 10 27 02 50 26.1160000  0 19                     
G12  20752591.300   109055603.145         886.387          45.000    20752579.332    84978345.515         690.549          42.000  
G15  23242450.841   122139894.185       -3251.440          34.000    23242446.034    95173928.498       -2533.613          32.000  
G18  23570811.517   123865437.530       -3682.731          34.000    23570806.508    96518485.945       -2869.681          36.000  
G23  19254726.757   101184267.714       -2074.630          46.000    19254715.283    78844809.254       -1616.592          47.000  
G24  20932405.519                       -3365.055          30.000    20932393.500    85714607.460       -2621.596          30.000  
G32  20902179.182   109841692.227        1505.032          46.000    20902168.668    85590874.373        1172.973          41.000  
C08  34710204.196   180745138.869        -336.487          46.000    34710187.393   139763527.403        -260.205          48.000  
C13  34711914.501   180754044.003         -40.497          47.000    34711905.429   139770446.247         -31.219          47.000  
C16  35671898.217   185752934.471           3.637          47.000    35671888.067   143635911.816           2.824          47.000  
C25  22254155.110   115883238.756       -2543.248          36.000                                                                  
C32  21052260.255   109624646.028         877.839          50.000                                                                  
C06  35365173.447   184155738.185         182.924          44.000    35365157.571   142400834.363         141.801          45.000  
G25  20499504.436   107725638.609        2558.032          40.000    20499496.728    83942014.052        1993.302          42.000  
G10  19514161.592   102547607.181        1054.639          50.000    19514149.928    79907182.579         821.631          43.000  
G28  22038736.815   115814357.809        2589.901          39.000    22038726.741    90244935.155        2018.044          42.000  
C23  20727276.812   107932367.531         271.437          50.000                                                                  
C09  36833638.608   191802427.694         281.595          39.000    36833627.218   148313750.652         217.650          46.000  
C33  26109979.573                       -2928.342          30.000                                                                  
C37  22873070.492   119106094.707        2691.241          44.000                                                                  
> 2025 10 27 02 50 26.1560000  0 19                     
G12  20752584.551   109055567.694         886.203          45.000    20752572.577    84978317.886         690.583          42.000  
G15  23242475.595   122140024.263       -3251.810          34.000    23242470.778    95174029.858       -2533.915          32.000  
G18  23570839.526   123865584.823       -3682.520          34.000    23570834.579    96518600.750       -2870.213          36.000  
G23  19254742.547   101184350.701       -2074.716          46.000    19254731.068    78844873.918       -1616.653          47.000  
G24  20932431.112                       -3364.633          30.000    20932419.052    85714712.298       -2621.024          30.000  
G32  20902167.706   109841632.021        1505.084          46.000    20902157.203    85590827.457        1172.918          41.000  
C08  34710206.795   180745152.330        -336.548          46.000    34710189.998   139763537.815        -260.358          48.000  
C13  34711914.834   180754045.617         -40.454          47.000    34711905.736   139770447.497         -31.281          47.000  
C16  35671898.184   185752934.326           3.548          47.000    35671888.040   143635911.711           2.660          47.000  
C25  22254174.674   115883340.480       -2543.209          36.000                                                                  
C32  21052253.492   109624610.921         877.657          50.000                                                                  
C06  35365172.043   184155730.866         182.900          44.000    35365156.148   142400828.709         141.482          45.000  
G25  20499484.978   107725536.294        2557.851          40.000    20499477.258    83941934.332        1993.076          42.000  
G10  19514153.557   102547564.998        1054.535          50.000    19514141.892    79907149.703         821.783          43.000  
G28  22038717.108   115814254.248        2589.212          39.000    22038707.029    90244854.423        2018.222          42.000  
C23  20727274.711   107932356.674         271.402          50.000                                                                  
C09  36833636.430   191802416.427         281.621          39.000    36833625.098   148313741.950         217.527          46.000  
C33  26110002.100                       -2928.331          30.000                                                                  
C37  22873049.801   119105987.059        2691.176          44.000                                                                  
> 2025 10 27 02 50 26.1960000  0 19                     
G12  20752577.793   109055532.239         886.206          45.000    20752565.811    84978290.255         690.680          41.000  
G15  23242500.349   122140154.365       -3252.413          34.000    23242495.562    95174131.202       -2533.806          32.000  
G18  23570867.557   123865732.091       -3681.919          34.000    23570862.604    96518715.523       -2869.818          36.000  
G23  19254758.322   101184433.687       -2074.715          46.000    19254746.852    78844938.584       -1616.720          47.000  
G24  20932456.743                       -3364.251          30.000    20932444.646    85714817.156       -2621.250          30.000  
G32  20902156.251   109841571.821        1504.996          46.000    20902145.746    85590780.555        1172.630          41.000  
C08  34710209.393   180745165.786        -336.481          46.000    34710192.570   139763548.223        -260.321          48.000  
C13  34711915.120   180754047.237         -40.527          47.000    34711906.060   139770448.748         -31.305          47.000  
C16  35671898.147   185752934.176           3.617          47.000    35671887.992   143635911.601           2.653          47.000  
C25  22254194.192   115883442.204       -2543.190          36.000                                                                  
C32  21052246.800   109624575.801         877.843          50.000                                                                  
C06  35365170.624   184155723.537         183.090          44.000    35365154.716   142400823.055         141.324          46.000  
G25  20499465.523   107725433.995        2557.521          40.000    20499457.786    83941854.600        1993.135          42.000  
G10  19514145.551   102547522.808        1054.645          50.000    19514133.863    79907116.817         822.040          43.000  
G28  22038697.408   115814150.656        2589.492          39.000    22038687.301    90244773.701        2018.070          42.000  
C23  20727272.676   107932345.811         271.490          50.000                                                                  
C09  36833634.270   191802405.152         281.764          39.000    36833622.920   148313733.247         217.518          46.000  
C33  26110024.543                       -2928.357          30.000                                                                  
C37  22873029.140   119105879.426        2690.870          44.000                                                                  
