     3.04           OBSERVATION DATA    M: Mixed            RINEX VERSION / TYPE
RTKCONV 2.4.3 b34                       20251027 032452 UTC PGM / RUN BY / DATE 
format: u-blox UBX                                          COMMENT             
log: D:\GPdata\10_27\fingure_110_10_rev_27_2.ubx            COMMENT             
                                                            MARKER NAME         
                                                            MARKER NUMBER       
                                                            MARKER TYPE         
                                                            OBSERVER / AGENCY   
                                                            REC # / TYPE / VERS 
                                                            ANT # / TYPE        
        0.0000        0.0000        0.0000                  APPROX POSITION XYZ 
        0.0000        0.0000        0.0000                  ANTENNA: DELTA H/E/N
G    8 C1C L1C D1C S1C C2L L2L D2L S2L                      SYS / # / OBS TYPES 
C    8 C2I L2I D2I S2I C7I L7I D7I S7I                      SYS / # / OBS TYPES 
  2025    10    27    02    48   04.3560000     GPS         TIME OF FIRST OBS   
  2025    10    27    02    48   30.1160000     GPS         TIME OF LAST OBS    
G L1C                                                       SYS / PHASE SHIFT   
G L2L  0.00000                                              SYS / PHASE SHIFT   
C L2I                                                       SYS / PHASE SHIFT   
C L7I                                                       SYS / PHASE SHIFT   
  0                                                         GLONASS SLOT / FRQ #
 C1C    0.000 C1P    0.000 C2C    0.000 C2P    0.000        GLONASS COD/PHS/BIS 
                                                            END OF HEADER       
> 2025 10 27 02 48 04.3560000  0 19                     
G12  20777746.371   109187796.9141        978.126          45.000    20777734.976    85081347.5261        762.136          41.000  
G15  23154962.108   121680142.9401      -3234.468          36.000    23154953.623    94815657.0881      -2520.591          33.000  
G18  23471357.565   123342810.6911      -3690.358          37.000    23471352.370    96111247.0171      -2876.317          37.000  
G23  19199921.731   100896267.5611      -1988.558          45.000    19199910.208    78620393.8761      -1549.531          47.000  
G24  20842086.523                1      -3330.786          28.000    20842078.385                       -2595.914          32.000  
G32  20943021.406   110056321.5581       1523.006          45.000    20943010.808    85758118.0051       1186.917          42.000  
C08  34701403.578   180699311.7971       -310.217          46.000    34701386.809   139728091.1371       -239.771          48.000  
C13  34711126.971   180749944.1171        -17.426          47.000    34711117.911   139767276.0891        -13.477          47.000  
C16  35672258.649   185754811.9961         22.775          46.000    35672249.341   143637363.6611         17.785          48.000  
C25  22185657.063   115526530.9921      -2488.959          36.000                                                                  
C32  21076690.844   109751863.7821        916.837          50.000                                                                  
C06  35370422.575   184183072.6951        202.742          44.000    35370407.039   142421971.2001        156.780          47.000  
G25  20569341.404   108092628.2671       2619.181          44.000    20569332.568    84227979.8211       2040.930          41.000  
G10  19543698.474   102702824.4251       1134.888          50.000    19543686.806    80028131.1371        884.235          44.000  
G28  22109191.842   116184597.8041       2633.688          40.000    22109180.828    90533433.2791       2052.068          41.000  
C23  20735747.392   107976475.6051        350.865          51.000                                                                  
C09  36841563.938   191843693.6331        300.723          40.000    36841551.785   148345660.1131        232.551          47.000  
C33  26030589.248                       -2906.280          31.000                                                                  
C37  22946874.107   119490408.9841       2730.608          43.000                                                                  
> 2025 10 27 02 48 04.3960000  0 19                     
G12  20777738.921   109187757.788         978.104          45.000    20777727.517    85081317.040         762.093          41.000  
G15  23154986.743   121680272.294       -3233.952          36.000    23154978.226    94815757.878       -2519.837          33.000  
G18  23471385.669   123342958.310       -3690.406          37.000    23471380.454    96111362.047       -2876.080          37.000  
G23  19199936.836   100896347.091       -1988.391          45.000    19199925.353    78620455.849       -1549.408          47.000  
G24  20842111.621                       -3331.269          28.000    20842103.734                       -2595.835          32.000  
G32  20943009.827   110056260.643        1522.920          45.000    20942999.213    85758070.547        1186.640          42.000  
C08  34701405.951   180699324.213        -310.394          46.000    34701389.239   139728100.731        -239.813          48.000  
C13  34711127.097   180749944.811         -17.365          47.000    34711118.045   139767276.630         -13.519          47.000  
C16  35672258.484   185754811.069          23.028          46.000    35672249.137   143637362.950          17.808          47.000  
C25  22185676.172   115526630.551       -2488.959          36.000                                                                  
C32  21076683.788   109751827.106         916.891          50.000                                                                  
C06  35370421.014   184183064.589         202.709          44.000    35370405.482   142421964.936         156.658          47.000  
G25  20569321.486   108092523.513        2618.924          44.000    20569312.630    84227898.183        2040.943          41.000  
G10  19543689.837   102702779.028        1134.894          50.000    19543678.164    80028095.753         884.491          44.000  
G28  22109171.809   116184492.473        2633.438          40.000    22109160.765    90533351.192        2052.143          41.000  
C23  20735744.647   107976461.573         350.806          51.000                                                                  
C09  36841561.629   191843681.596         300.916          40.000    36841549.466   148345650.818         232.430          47.000  
C33  26030611.560                       -2905.645          31.000                                                                  
C37  22946853.154   119490299.762        2730.552          43.000                                                                  
> 2025 10 27 02 48 04.4360000  0 19                     
G12  20777731.459   109187718.651         978.285          45.000    20777720.066    85081286.544         762.291          41.000  
G15  23155011.330   121680401.652       -3233.800          36.000    23155002.840    94815858.675       -2519.718          33.000  
G18  23471413.775   123343105.934       -3690.533          37.000    23471408.551    96111477.066       -2875.769          37.000  
G23  19199951.985   100896426.630       -1988.459          45.000    19199940.489    78620517.825       -1549.402          47.000  
G24  20842137.286                       -3331.116          28.000    20842129.109                       -2596.361          32.000  
G32  20942998.235   110056199.726        1522.901          45.000    20942987.621    85758023.072        1186.796          42.000  
C08  34701408.340   180699336.622        -310.333          46.000    34701391.578   139728110.330        -239.935          48.000  
C13  34711127.231   180749945.510         -17.444          47.000    34711118.197   139767277.176         -13.635          47.000  
C16  35672258.294   185754810.154          22.985          46.000    35672248.947   143637362.248          17.595          47.000  
C25  22185695.291   115526730.118       -2489.101          36.000                                                                  
C32  21076676.770   109751790.438         916.775          50.000                                                                  
C06  35370419.447   184183056.484         202.653          44.000    35370403.932   142421958.666         156.677          47.000  
G25  20569301.554   108092418.736        2619.204          44.000    20569292.702    84227816.543        2040.945          41.000  
G10  19543681.185   102702733.626        1135.004          50.000    19543669.539    80028060.382         884.369          44.000  
G28  22109151.766   116184387.131        2633.495          40.000    22109140.733    90533269.119        2051.886          41.000  
C23  20735741.925   107976447.542         350.756          51.000                                                                  
C09  36841559.319   191843669.579         300.631          40.000    36841547.172   148345641.527         232.280          47.000  
C33  26030633.877                       -2905.822          31.000                                                                  
C37  22946832.194   119490190.535        2730.585          43.000                                                                  
> 2025 10 27 02 48 04.4760000  0 19                     
G12  20777724.002   109187679.528         978.121          45.000    20777712.605    85081256.052         762.285          41.000  
G15  23155035.933   121680531.021       -3233.951          36.000    23155027.492    94815959.485       -2519.960          33.000  
G18  23471441.887   123343253.581       -3690.959          37.000    23471436.629    96111592.107       -2876.027          37.000  
G23  19199967.136   100896506.178       -1988.669          45.000    19199955.636    78620579.808       -1549.538          47.000  
G24  20842162.289                       -3331.211          28.000    20842154.467                       -2595.984          31.000  
G32  20942986.648   110056138.818        1522.708          45.000    20942976.034    85757975.599        1186.832          41.000  
C08  34701410.723   180699349.029        -310.260          46.000    34701393.945   139728119.927        -239.978          49.000  
C13  34711127.369   180749946.215         -17.615          47.000    34711118.352   139767277.718         -13.605          47.000  
C16  35672258.097   185754809.246          22.772          46.000    35672248.747   143637361.544          17.545          47.000  
C25  22185714.409   115526829.681       -2489.125          36.000                                                                  
C32  21076669.701   109751753.773         916.627          50.000                                                                  
C06  35370417.861   184183048.382         202.594          44.000    35370402.365   142421952.409         156.481          47.000  
G25  20569281.646   108092313.982        2618.919          44.000    20569272.766    84227734.912        2040.814          41.000  
G10  19543672.566   102702688.234        1134.857          50.000    19543660.911    80028025.008         884.332          44.000  
G28  22109131.722   116184281.787        2633.595          40.000    22109120.675    90533187.025        2052.156          41.000  
C23  20735739.236   107976433.509         350.750          51.000                                                                  
C09  36841557.004   191843657.558         300.493          40.000    36841544.842   148345632.231         232.308          47.000  
C33  26030656.209                       -2905.600          31.000                                                                  
C37  22946811.237   119490081.303        2730.719          43.000                                                                  
> 2025 10 27 02 48 04.5160000  0 19                     
G12  20777716.573   109187640.410         977.950          45.000    20777705.179    85081225.573         762.038          41.000  
G15  23155060.548   121680660.408       -3234.354          36.000    23155052.104    94816060.284       -2519.906          33.000  
G18  23471469.984   123343401.221       -3691.057          37.000    23471464.722    96111707.179       -2876.816          37.000  
G23  19199982.283   100896585.725       -1988.735          45.000    19199970.773    78620641.793       -1549.642          47.000  
G24  20842187.643                       -3331.128          28.000    20842179.824                       -2594.563          31.000  
G32  20942975.060   110056077.910        1522.648          45.000    20942964.436    85757928.153        1186.427          41.000  
C08  34701413.118   180699361.440        -310.272          46.000    34701396.288   139728129.528        -240.082          48.000  
C13  34711127.472   180749946.929         -17.859          47.000    34711118.483   139767278.268         -13.715          47.000  
C16  35672257.902   185754808.344          22.574          46.000    35672248.575   143637360.844          17.451          47.000  
C25  22185733.543   115526929.271       -2489.586          36.000                                                                  
C32  21076662.664   109751717.109         916.547          50.000                                                                  
C06  35370416.298   184183040.283         202.496          44.000    35370400.790   142421946.145         156.500          47.000  
G25  20569261.691   108092209.202        2619.270          44.000    20569252.828    84227653.281        2040.781          41.000  
G10  19543663.959   102702642.846        1134.692          50.000    19543652.261    80027989.639         884.235          44.000  
G28  22109111.674   116184176.451        2633.482          40.000    22109100.645    90533104.952        2051.925          40.000  
C23  20735736.552   107976419.489         350.551          51.000                                                                  
C09  36841554.674   191843645.541         300.434          40.000    36841542.561   148345622.930         232.454          47.000  
C33  26030678.536   135548538.930       -2905.408          31.000                                                                  
C37  22946790.263   119489972.088        2730.474          43.000                                                                  
> 2025 10 27 02 48 04.5560000  0 19                     
G12  20777709.146   109187601.303         977.670          45.000    20777697.745    85081195.100         761.776          41.000  
G15  23155085.145   121680789.816       -3234.949          36.000    23155076.758    94816161.139       -2520.968          33.000  
G18  23471498.063   123343548.840       -3690.764          37.000    23471492.816    96111822.170       -2875.662          37.000  
G23  19199997.404   100896665.276       -1988.846          45.000    19199985.919    78620703.780       -1549.715          47.000  
G24  20842212.830                       -3331.342          28.000    20842205.192                       -2595.272          31.000  
G32  20942963.487   110056017.009        1522.504          45.000    20942952.851    85757880.679        1186.658          41.000  
C08  34701415.464   180699373.847        -310.229          46.000    34701398.663   139728139.126        -240.045          49.000  
C13  34711127.582   180749947.641         -17.902          47.000    34711118.632   139767278.816         -13.776          47.000  
C16  35672257.730   185754807.438          22.556          46.000    35672248.402   143637360.141          17.483          47.000  
C25  22185752.665   115527028.844       -2489.486          36.000                                                                  
C32  21076655.654   109751680.448         916.460          50.000                                                                  
C06  35370414.731   184183032.190         202.344          44.000    35370399.228   142421939.881         156.522          47.000  
G25  20569241.754   108092104.448        2619.000          44.000    20569232.882    84227571.656        2040.640          41.000  
G10  19543655.336   102702597.463        1134.540          50.000    19543643.611    80027954.278         884.021          44.000  
G28  22109091.620   116184071.134        2633.021          40.000    22109080.588    90533022.870        2051.989          40.000  
C23  20735733.852   107976405.473         350.363          51.000                                                                  
C09  36841552.388   191843633.521         300.455          40.000    36841540.249   148345613.636         232.364          47.000  
C33  26030700.847   135548655.150       -2905.563          31.000                                                                  
C37  22946769.291   119489862.875        2730.322          43.000                                                                  
> 2025 10 27 02 48 04.5960000  0 19                     
G12  20777701.697   109187562.180         977.820          45.000    20777690.294    85081164.623         761.767          41.000  
G15  23155109.766   121680919.210       -3234.987          36.000    23155101.404    94816261.968       -2520.924          33.000  
G18  23471526.155   123343696.464       -3690.691          37.000    23471520.906    96111937.203       -2875.706          37.000  
G23  19200012.531   100896744.827       -1988.876          45.000    19200001.069    78620765.771       -1549.807          47.000  
G24  20842238.372                       -3331.278          28.000    20842230.556                       -2597.529          31.000  
G32  20942951.882   110055956.096        1522.631          45.000    20942941.280    85757833.221        1186.522          41.000  
C08  34701417.863   180699386.267        -310.406          46.000    34701401.061   139728148.722        -239.978          49.000  
C13  34711127.734   180749948.346         -17.773          47.000    34711118.751   139767279.361         -13.708          47.000  
C16  35672257.539   185754806.534          22.512          46.000    35672248.238   143637359.444          17.400          47.000  
C25  22185771.785   115527128.417       -2489.430          36.000                                                                  
C32  21076648.634   109751643.787         916.438          50.000                                                                  
C06  35370413.200   184183024.091         202.356          44.000    35370397.643   142421933.621         156.472          47.000  
G25  20569221.820   108091999.696        2618.829          44.000    20569212.934    84227490.026        2040.719          41.000  
G10  19543646.718   102702552.080        1134.485          50.000    19543634.971    80027918.913         884.033          44.000  
G28  22109071.575   116183965.789        2633.368          40.000    22109060.556    90532940.810        2051.615          40.000  
C23  20735731.182   107976391.451         350.394          51.000                                                                  
C09  36841550.071   191843621.510         300.299          40.000    36841537.959   148345604.341         232.345          47.000  
C33  26030723.166   135548771.401       -2906.050          31.000                                                                  
C37  22946748.335   119489753.659        2730.310          43.000                                                                  
> 2025 10 27 02 48 04.6360000  0 19                     
G12  20777694.261   109187523.057         977.952          45.000    20777682.858    85081134.136         761.986          41.000  
G15  23155134.396   121681048.581       -3234.553          36.000    23155126.016    94816362.776       -2520.581          33.000  
G18  23471554.246   123343844.079       -3690.498          37.000    23471548.985    96112052.232       -2875.670          37.000  
G23  19200027.667   100896824.378       -1988.863          45.000    19200016.196    78620827.755       -1549.695          47.000  
G24  20842263.672                       -3331.100          28.000    20842255.923                       -2596.395          31.000  
G32  20942940.291   110055895.173        1522.924          45.000    20942929.687    85757785.759        1186.505          41.000  
C08  34701420.287   180699398.677        -310.339          46.000    34701403.442   139728158.319        -239.972          49.000  
C13  34711127.875   180749949.048         -17.615          47.000    34711118.902   139767279.913         -13.788          47.000  
C16  35672257.369   185754805.618          22.733          46.000    35672248.070   143637358.742          17.441          47.000  
C25  22185790.895   115527228.001       -2489.565          36.000                                                                  
C32  21076641.603   109751607.121         916.550          50.000                                                                  
C06  35370411.685   184183015.997         202.319          44.000    35370396.081   142421927.363         156.437          47.000  
G25  20569201.893   108091894.937        2618.903          44.000    20569193.001    84227408.392        2040.792          41.000  
G10  19543638.088   102702506.692        1134.570          50.000    19543626.328    80027883.541         884.161          44.000  
G28  22109051.536   116183860.460        2633.236          40.000    22109040.525    90532858.717        2052.079          40.000  
C23  20735728.511   107976377.423         350.555          51.000                                                                  
C09  36841547.763   191843609.486         300.496          40.000    36841535.669   148345595.048         232.296          47.000  
C33  26030745.466   135548887.669       -2906.529          31.000                                                                  
C37  22946727.370   119489644.436        2730.435          43.000                                                                  
> 2025 10 27 02 48 04.6760000  0 19                     
G12  20777686.843   109187483.945         977.823          45.000    20777675.408    85081103.656         762.020          41.000  
G15  23155158.995   121681177.972       -3234.676          36.000    23155150.615    94816463.579       -2520.197          32.000  
G18  23471582.339   123343991.706       -3690.569          37.000    23471577.077    96112167.268       -2875.861          37.000  
G23  19200042.781   100896903.927       -1988.820          45.000    19200031.348    78620889.746       -1549.763          47.000  
G24  20842289.061                       -3331.532          28.000    20842281.240                       -2594.857          31.000  
G32  20942928.712   110055834.266        1522.755          45.000    20942918.071    85757738.290        1186.668          41.000  
C08  34701422.674   180699411.093        -310.431          46.000    34701405.856   139728167.919        -240.002          49.000  
C13  34711128.013   180749949.753         -17.621          47.000    34711119.043   139767280.457         -13.666          47.000  
C16  35672257.181   185754804.708          22.782          46.000    35672247.878   143637358.040          17.468          48.000  
C25  22185810.010   115527327.551       -2488.954          36.000                                                                  
C32  21076634.586   109751570.456         916.582          50.000                                                                  
C06  35370410.147   184183007.901         202.329          44.000    35370394.511   142421921.094         156.630          47.000  
G25  20569181.968   108091790.178        2618.958          44.000    20569173.063    84227326.741        2041.156          41.000  
G10  19543629.444   102702461.309        1134.540          50.000    19543617.696    80027848.183         883.972          44.000  
G28  22109031.494   116183755.124        2633.274          40.000    22109020.504    90532776.642        2052.003          40.000  
C23  20735725.838   107976363.405         350.483          51.000                                                                  
C09  36841545.442   191843597.465         300.500          40.000    36841533.349   148345585.757         232.246          47.000  
C33  26030767.786   135549003.893       -2905.918          31.000                                                                  
C37  22946706.378   119489535.219        2730.407          43.000                                                                  
> 2025 10 27 02 48 04.7160000  0 19                     
G12  20777679.409   109187444.833         977.767          45.000    20777667.979    85081073.163         762.210          41.000  
G15  23155183.609   121681307.332       -3234.188          36.000    23155175.206    94816564.386       -2520.023          33.000  
G18  23471610.430   123344139.331       -3690.645          37.000    23471605.173    96112282.316       -2876.206          37.000  
G23  19200057.912   100896983.485       -1988.930          45.000    19200046.468    78620951.728       -1549.596          47.000  
G24  20842314.684                       -3331.341          28.000    20842306.605                       -2595.299          31.000  
G32  20942917.121   110055773.354        1522.754          45.000    20942906.493    85757690.832        1186.509          41.000  
C08  34701425.077   180699423.503        -310.364          46.000    34701408.270   139728177.517        -239.972          49.000  
C13  34711128.120   180749950.459         -17.645          47.000    34711119.201   139767281.000         -13.599          47.000  
C16  35672256.985   185754803.800          22.728          46.000    35672247.686   143637357.335          17.533          48.000  
C25  22185829.102   115527427.109       -2488.901          36.000                                                                  
C32  21076627.557   109751533.789         916.645          50.000                                                                  
C06  35370408.612   184182999.792         202.581          44.000    35370392.979   142421914.824         156.737          47.000  
G25  20569162.015   108091685.421        2618.951          44.000    20569153.148    84227245.121        2040.795          41.000  
G10  19543620.784   102702415.921        1134.625          50.000    19543609.045    80027812.806         884.253          44.000  
G28  22109011.434   116183649.784        2633.475          40.000    22109000.443    90532694.561        2052.052          40.000  
C23  20735723.165   107976349.380         350.555          51.000                                                                  
C09  36841543.123   191843585.449         300.405          40.000    36841531.044   148345576.473         232.090          47.000  
C33  26030790.069                       -2905.688          31.000                                                                  
C37  22946685.418   119489426.006        2730.343          43.000                                                                  
> 2025 10 27 02 48 04.7560000  0 19                     
G12  20777671.960   109187405.705         978.062          45.000    20777660.540    85081042.688         761.950          41.000  
G15  23155208.254   121681436.728       -3234.513          36.000    23155199.827    94816665.216       -2520.460          32.000  
G18  23471638.517   123344286.963       -3690.780          37.000    23471633.264    96112397.341       -2875.972          37.000  
G23  19200073.041   100897063.034       -1988.837          45.000    19200061.595    78621013.716       -1549.665          47.000  
G24  20842339.404                       -3331.777          28.000    20842331.976                       -2596.283          31.000  
G32  20942905.533   110055712.446        1522.677          45.000    20942894.926    85757643.373        1186.453          41.000  
C08  34701427.444   180699435.915        -310.309          46.000    34701410.635   139728187.118        -240.021          49.000  
C13  34711128.264   180749951.166         -17.676          47.000    34711119.325   139767281.545         -13.617          47.000  
C16  35672256.794   185754802.897          22.609          46.000    35672247.491   143637356.633          17.531          48.000  
C25  22185848.188   115527526.698       -2489.519          36.000                                                                  
C32  21076620.506   109751497.125         916.598          50.000                                                                  
C06  35370407.096   184182991.685         202.666          44.000    35370391.446   142421908.566         156.575          47.000  
G25  20569142.071   108091580.657        2619.075          44.000    20569133.214    84227163.503        2040.544          41.000  
G10  19543612.143   102702370.537        1134.607          50.000    19543600.411    80027777.452         883.960          44.000  
G28  22108991.401   116183544.448        2633.416          40.000    22108980.419    90532612.481        2051.976          40.000  
C23  20735720.501   107976335.356         350.606          51.000                                                                  
C09  36841540.833   191843573.423         300.543          40.000    36841528.747   148345567.167         232.406          47.000  
C33  26030812.419   135549236.336       -2905.501          31.000                                                                  
C37  22946664.408   119489316.790        2730.366          43.000                                                                  
> 2025 10 27 02 48 04.7960000  0 19                     
G12  20777664.522   109187366.586         978.016          45.000    20777653.088    85081012.204         762.032          41.000  
G15  23155232.861   121681566.108       -3234.546          36.000    23155224.440    94816766.026       -2520.365          33.000  
G18  23471666.631   123344434.606       -3691.041          37.000    23471661.368    96112512.355       -2875.625          37.000  
G23  19200088.182   100897142.581       -1988.732          45.000    19200076.716    78621075.700       -1549.615          47.000  
G24  20842364.388                       -3331.810          28.000    20842357.332                       -2596.652          31.000  
G32  20942893.936   110055651.527        1522.854          45.000    20942883.345    85757595.908        1186.548          41.000  
C08  34701429.828   180699448.323        -310.205          46.000    34701413.002   139728196.708        -239.844          49.000  
C13  34711128.338   180749951.870         -17.609          47.000    34711119.460   139767282.091         -13.660          47.000  
C16  35672256.607   185754801.977          22.861          46.000    35672247.305   143637355.925          17.629          48.000  
C25  22185867.300   115527626.273       -2489.554          36.000                                                                  
C32  21076613.467   109751460.461         916.572          50.000                                                                  
C06  35370405.573   184182983.582         202.640          44.000    35370389.894   142421902.301         156.587          47.000  
G25  20569122.132   108091475.886        2619.247          44.000    20569113.281    84227081.872        2040.621          41.000  
G10  19543603.519   102702325.152        1134.595          50.000    19543591.748    80027742.082         884.119          44.000  
G28  22108971.339   116183439.126        2633.098          40.000    22108960.377    90532530.402        2051.958          40.000  
C23  20735717.835   107976321.332         350.596          51.000                                                                  
C09  36841538.526   191843561.397         300.599          40.000    36841526.421   148345557.871         232.430          47.000  
C33  26030834.748   135549352.568       -2905.679          31.000                                                                  
C37  22946643.472   119489207.563        2730.559          43.000                                                                  
> 2025 10 27 02 48 04.8360000  0 19                     
G12  20777657.082   109187327.468         977.990          45.000    20777645.640    85080981.733         761.874          41.000  
G15  23155257.461   121681695.465       -3234.138          36.000    23155249.075    94816866.861       -2520.818          33.000  
G18  23471694.726   123344582.217       -3690.519          37.000    23471689.472    96112627.400       -2875.985          37.000  
G23  19200103.322   100897222.133       -1988.782          45.000    19200091.859    78621137.691       -1549.745          47.000  
G24  20842389.994                       -3331.566          28.000    20842382.664                       -2595.974          31.000  
G32  20942882.332   110055590.611        1522.930          45.000    20942871.731    85757548.439        1186.662          41.000  
C08  34701432.176   180699460.732        -310.199          46.000    34701415.363   139728206.303        -239.838          49.000  
C13  34711128.457   180749952.577         -17.645          47.000    34711119.629   139767282.636         -13.666          47.000  
C16  35672256.444   185754801.070          22.772          46.000    35672247.114   143637355.217          17.691          48.000  
C25  22185886.434   115527725.845       -2489.486          36.000                                                                  
C32  21076606.420   109751423.795         916.611          50.000                                                                  
C06  35370404.011   184182975.471         202.736          44.000    35370388.322   142421896.034         156.632          47.000  
G25  20569102.216   108091371.138        2618.921          44.000    20569093.353    84227000.244        2040.693          41.000  
G10  19543594.887   102702279.767        1134.607          50.000    19543583.119    80027706.724         883.990          44.000  
G28  22108951.285   116183333.785        2633.337          40.000    22108940.330    90532448.319        2052.013          40.000  
C23  20735715.130   107976307.311         350.531          51.000                                                                  
C09  36841536.245   191843549.375         300.566          40.000    36841524.088   148345548.571         232.459          47.000  
C33  26030857.066   135549468.814       -2906.004          31.000                                                                  
C37  22946622.516   119489098.343        2730.546          43.000                                                                  
> 2025 10 27 02 48 04.8760000  0 19                     
G12  20777649.630   109187288.356         977.834          45.000    20777638.191    85080951.244         762.083          41.000  
G15  23155282.093   121681824.843       -3234.296          36.000    23155273.687    94816967.672       -2520.490          33.000  
G18  23471722.808   123344729.842       -3690.572          37.000    23471717.557    96112742.427       -2875.878          37.000  
G23  19200118.462   100897301.678       -1988.653          45.000    19200106.983    78621199.680       -1549.745          47.000  
G24  20842415.403                       -3331.002          28.000    20842408.029                       -2596.121          31.000  
G32  20942870.753   110055529.695        1522.961          45.000    20942860.127    85757500.959        1186.966          41.000  
C08  34701434.540   180699473.139        -310.187          46.000    34701417.731   139728215.896        -239.819          49.000  
C13  34711128.618   180749953.273         -17.474          47.000    34711119.775   139767283.177         -13.556          47.000  
C16  35672256.245   185754800.156          22.844          46.000    35672246.925   143637354.512          17.656          48.000  
C25  22185905.537   115527825.423       -2489.460          36.000                                                                  
C32  21076599.389   109751387.130         916.611          50.000                                                                  
C06  35370402.458   184182967.376         202.522          44.000    35370386.766   142421889.774         156.542          47.000  
G25  20569082.267   108091266.377        2618.929          44.000    20569073.411    84226918.604        2040.870          41.000  
G10  19543586.225   102702234.378        1134.686          50.000    19543574.474    80027671.351         884.253          44.000  
G28  22108931.234   116183228.441        2633.530          40.000    22108920.271    90532366.235        2052.076          40.000  
C23  20735712.392   107976293.294         350.416          51.000                                                                  
C09  36841533.937   191843537.348         300.661          40.000    36841521.770   148345539.275         232.420          47.000  
C33  26030879.396   135549585.034       -2905.664          31.000                                                                  
C37  22946601.542   119488989.125        2730.504          43.000                                                                  
> 2025 10 27 02 48 04.9160000  0 19                     
G12  20777642.190   109187249.238         977.881          45.000    20777630.732    85080920.758         762.137          41.000  
G15  23155306.715   121681954.222       -3234.450          36.000    23155298.272    94817068.456       -2519.874          33.000  
G18  23471750.898   123344877.478       -3690.792          37.000    23471745.645    96112857.457       -2875.823          37.000  
G23  19200133.617   100897381.229       -1988.752          45.000    19200122.120    78621261.665       -1549.664          47.000  
G24  20842440.482                       -3330.797          28.000    20842433.381                       -2596.553          32.000  
G32  20942859.164   110055468.780        1522.926          45.000    20942848.537    85757453.494        1186.787          41.000  
C08  34701436.935   180699485.546        -310.181          46.000    34701420.116   139728225.491        -239.856          48.000  
C13  34711128.753   180749953.972         -17.438          47.000    34711119.941   139767283.719         -13.525          47.000  
C16  35672256.096   185754799.238          22.940          46.000    35672246.744   143637353.804          17.660          47.000  
C25  22185924.648   115527924.971       -2488.961          36.000                                                                  
C32  21076592.324   109751350.465         916.592          50.000                                                                  
C06  35370400.916   184182959.280         202.416          44.000    35370385.203   142421883.504         156.654          46.000  
G25  20569062.304   108091161.616        2619.008          44.000    20569053.501    84226836.967        2040.889          41.000  
G10  19543577.571   102702188.990        1134.711          50.000    19543565.845    80027635.983         884.247          44.000  
G28  22108911.191   116183123.112        2633.392          40.000    22108900.232    90532284.156        2052.013          40.000  
C23  20735709.707   107976279.272         350.478          51.000                                                                  
C09  36841531.634   191843525.326         300.629          40.000    36841519.436   148345529.974         232.489          46.000  
C33  26030901.746   135549701.278       -2906.036          31.000                                                                  
C37  22946580.570   119488879.910        2730.416          43.000                                                                  
> 2025 10 27 02 48 04.9560000  0 19                     
G12  20777634.735   109187210.118         977.928          45.000    20777623.308    85080890.286         761.930          41.000  
G15  23155331.331   121682083.581       -3234.185          36.000    23155322.892    94817169.239       -2519.587          33.000  
G18  23471778.989   123345025.088       -3690.511          37.000    23471773.745    96112972.483       -2875.683          37.000  
G23  19200148.761   100897460.776       -1988.759          45.000    19200137.244    78621323.651       -1549.658          47.000  
G24  20842466.014                       -3330.758          28.000    20842458.741                       -2594.965          32.000  
G32  20942847.567   110055407.862        1522.937          45.000    20942836.961    85757406.027        1186.714          41.000  
C08  34701439.300   180699497.955        -310.242          46.000    34701422.522   139728235.082        -239.825          48.000  
C13  34711128.874   180749954.670         -17.468          47.000    34711120.082   139767284.257         -13.464          47.000  
C16  35672255.919   185754798.323          22.922          46.000    35672246.587   143637353.094          17.740          47.000  
C25  22185943.794   115528024.549       -2489.253          36.000                                                                  
C32  21076585.300   109751313.791         916.759          50.000                                                                  
C06  35370399.347   184182951.168         202.678          44.000    35370383.638   142421877.234         156.725          46.000  
G25  20569042.357   108091056.849        2619.101          44.000    20569033.579    84226755.335        2040.816          41.000  
G10  19543568.952   102702143.599        1134.760          50.000    19543557.220    80027600.608         884.344          44.000  
G28  22108891.150   116183017.760        2633.697          40.000    22108880.178    90532202.075        2051.975          40.000  
C23  20735707.035   107976265.243         350.632          51.000                                                                  
C09  36841529.332   191843513.304         300.572          40.000    36841517.106   148345520.672         232.552          46.000  
C33  26030924.076   135549817.531       -2906.414          31.000                                                                  
C37  22946559.581   119488770.685        2730.547          43.000                                                                  
> 2025 10 27 02 48 04.9960000  0 19                     
G12  20777627.291   109187171.017         977.650          45.000    20777615.860    85080859.806         761.953          41.000  
G15  23155355.977   121682212.971       -3234.564          36.000    23155347.530    94817270.058       -2520.005          33.000  
G18  23471807.085   123345172.707       -3690.608          37.000    23471801.833    96113087.517       -2875.779          37.000  
G23  19200163.903   100897540.325       -1988.777          45.000    19200152.397    78621385.642       -1549.751          47.000  
G24  20842491.054                       -3330.877          28.000    20842484.042                       -2595.415          32.000  
G32  20942835.971   110055346.952        1522.814          45.000    20942825.384    85757358.567        1186.534          41.000  
C08  34701441.714   180699510.367        -310.303          46.000    34701424.906   139728244.680        -239.911          48.000  
C13  34711128.999   180749955.377         -17.633          47.000    34711120.229   139767284.805         -13.635          47.000  
C16  35672255.715   185754797.418          22.717          46.000    35672246.390   143637352.393          17.573          47.000  
C25  22185962.916   115528124.142       -2489.728          36.000                                                                  
C32  21076578.219   109751277.125         916.698          50.000                                                                  
C06  35370397.765   184182943.068         202.566          44.000    35370382.059   142421870.970         156.621          46.000  
G25  20569022.427   108090952.088        2619.058          44.000    20569013.650    84226673.714        2040.594          41.000  
G10  19543560.345   102702098.221        1134.521          50.000    19543548.572    80027565.250         884.064          44.000  
G28  22108871.104   116182912.428        2633.470          40.000    22108860.136    90532120.000        2051.863          40.000  
C23  20735704.337   107976251.224         350.540          51.000                                                                  
C09  36841527.029   191843501.280         300.585          40.000    36841514.810   148345511.379         232.361          46.000  
C33  26030946.404                       -2905.444          31.000                                                                  
C37  22946538.586   119488661.469        2730.448          43.000                                                                  
> 2025 10 27 02 48 05.0360000  0 19                     
G12  20777619.846   109187131.902         977.740          45.000    20777608.399    85080829.336         761.778          41.000  
G15  23155380.600   121682342.379       -3235.117          36.000    23155372.181    94817370.890       -2520.503          33.000  
G18  23471835.183   123345320.343       -3690.837          37.000    23471829.931    96113202.562       -2876.074          37.000  
G23  19200179.057   100897619.895       -1989.159          45.000    19200167.526    78621447.642       -1549.979          47.000  
G24  20842516.009                       -3331.365          28.000    20842509.391                       -2595.907          32.000  
G32  20942824.387   110055286.045        1522.708          45.000    20942813.812    85757311.115        1186.313          42.000  
C08  34701444.110   180699522.783        -310.419          46.000    34701427.299   139728254.282        -240.027          48.000  
C13  34711129.121   180749956.091         -17.816          47.000    34711120.377   139767285.355         -13.776          47.000  
C16  35672255.534   185754796.512          22.622          46.000    35672246.205   143637351.698          17.393          47.000  
C25  22185982.033   115528223.695       -2489.183          36.000                                                                  
C32  21076571.144   109751240.468         916.486          50.000                                                                  
C06  35370396.203   184182934.975         202.382          44.000    35370380.497   142421864.709         156.503          46.000  
G25  20569002.505   108090847.346        2618.637          44.000    20568993.730    84226592.090        2040.464          41.000  
G10  19543551.719   102702052.843        1134.393          50.000    19543539.942    80027529.898         883.813          44.000  
G28  22108851.078   116182807.099        2633.278          40.000    22108840.083    90532037.931        2051.722          40.000  
C23  20735701.617   107976237.211         350.352          51.000                                                                  
C09  36841524.701   191843489.270         300.354          40.000    36841512.504   148345502.092         232.174          46.000  
C33  26030968.722                       -2905.680          31.000                                                                  
C37  22946517.607   119488552.253        2730.389          43.000                                                                  
> 2025 10 27 02 48 05.0760000  0 19                     
G12  20777612.417   109187092.802         977.541          45.000    20777600.952    85080798.865         761.683          41.000  
G15  23155405.211   121682471.739       -3234.547          36.000    23155396.808    94817471.720       -2520.781          33.000  
G18  23471863.285   123345467.974       -3690.854          37.000    23471858.010    96113317.587       -2875.894          37.000  
G23  19200194.203   100897699.463       -1989.292          45.000    19200182.672    78621509.637       -1549.959          47.000  
G24  20842541.209                       -3331.660          28.000    20842534.751                       -2596.368          32.000  
G32  20942812.807   110055225.145        1522.544          45.000    20942802.226    85757263.660        1186.275          42.000  
C08  34701446.487   180699535.205        -310.565          46.000    34701429.663   139728263.891        -240.234          48.000  
C13  34711129.237   180749956.810         -17.999          47.000    34711120.533   139767285.908         -13.892          47.000  
C16  35672255.348   185754795.611          22.503          46.000    35672246.016   143637350.999          17.366          47.000  
C25  22186001.155   115528323.268       -2489.283          36.000                                                                  
C32  21076564.105   109751203.816         916.271          50.000                                                                  
C06  35370394.642   184182926.876         202.393          44.000    35370378.936   142421858.453         156.362          46.000  
G25  20568982.569   108090742.600        2618.539          44.000    20568973.820    84226510.465        2040.458          41.000  
G10  19543543.109   102702007.472        1134.241          50.000    19543531.297    80027494.544         883.746          44.000  
G28  22108831.007   116182701.782        2632.911          40.000    22108820.056    90531955.857        2051.837          40.000  
C23  20735698.934   107976223.210         350.054          51.000                                                                  
C09  36841522.391   191843477.255         300.234          41.000    36841510.191   148345492.808         232.026          46.000  
C33  26030991.033   135550166.187       -2906.004          31.000                                                                  
C37  22946496.635   119488443.050        2730.091          43.000                                                                  
> 2025 10 27 02 48 05.1160000  0 19                     
G12  20777604.961   109187053.686         977.747          45.000    20777593.503    85080768.394         761.634          41.000  
G15  23155429.856   121682601.140       -3234.897          36.000    23155421.438    94817572.571       -2521.136          33.000  
G18  23471891.367   123345615.590       -3690.568          37.000    23471886.094    96113432.628       -2876.064          37.000  
G23  19200209.340   100897779.027       -1989.254          45.000    19200197.818    78621571.633       -1549.965          47.000  
G24  20842566.829                       -3331.681          28.000    20842560.110                       -2596.446          32.000  
G32  20942801.202   110055164.232        1522.685          45.000    20942790.647    85757216.197        1186.375          42.000  
C08  34701448.897   180699547.622        -310.529          46.000    34701432.014   139728273.495        -240.210          48.000  
C13  34711129.386   180749957.521         -17.908          47.000    34711120.690   139767286.464         -13.971          47.000  
C16  35672255.147   185754794.713          22.385          46.000    35672245.825   143637350.300          17.358          47.000  
C25  22186020.278   115528422.875       -2489.985          36.000                                                                  
C32  21076557.065   109751167.166         916.156          50.000                                                                  
C06  35370393.081   184182918.788         202.190          44.000    35370377.380   142421852.194         156.370          46.000  
G25  20568962.621   108090637.853        2618.507          44.000    20568953.861    84226428.823        2040.833          41.000  
G10  19543534.454   102701962.102        1134.167          50.000    19543522.660    80027459.185         883.826          44.000  
G28  22108810.987   116182596.460        2632.903          40.000    22108800.017    90531873.801        2051.520          40.000  
C23  20735696.292   107976209.200         350.082          51.000                                                                  
C09  36841520.083   191843465.237         300.313          40.000    36841507.884   148345483.507         232.307          46.000  
C33  26031013.357   135550282.431       -2906.208          31.000                                                                  
C37  22946475.674   119488333.837        2730.158          43.000                                                                  
> 2025 10 27 02 48 05.1560000  0 19                     
G12  20777597.528   109187014.586         977.579          45.000    20777586.064    85080737.920         761.738          41.000  
G15  23155454.466   121682730.509       -3234.469          36.000    23155446.078    94817673.411       -2521.216          33.000  
G18  23471919.454   123345763.221       -3690.676          37.000    23471914.164    96113547.680       -2876.354          37.000  
G23  19200224.479   100897858.589       -1989.123          45.000    19200212.952    78621633.627       -1549.897          47.000  
G24  20842592.462                       -3332.144          28.000    20842585.463                       -2595.895          32.000  
G32  20942789.623   110055103.321        1522.756          45.000    20942779.055    85757168.728        1186.604          42.000  
C08  34701451.271   180699560.039        -310.492          46.000    34701434.393   139728283.088        -239.966          48.000  
C13  34711129.514   180749958.222         -17.633          47.000    34711120.844   139767287.007         -13.757          47.000  
C16  35672254.998   185754793.802          22.587          46.000    35672245.624   143637349.592          17.577          47.000  
C25  22186039.406   115528522.456       -2489.767          36.000                                                                  
C32  21076550.033   109751130.504         916.354          50.000                                                                  
C06  35370391.532   184182910.695         202.234          44.000    35370375.833   142421845.930         156.478          46.000  
G25  20568942.693   108090533.094        2618.785          44.000    20568933.938    84226347.207        2040.608          41.000  
G10  19543525.830   102701916.727        1134.241          50.000    19543514.030    80027423.833         883.752          44.000  
G28  22108790.944   116182491.141        2632.862          40.000    22108779.961    90531791.714        2051.913          40.000  
C23  20735693.602   107976195.190         350.153          51.000                                                                  
C09  36841517.758   191843453.222         300.294          40.000    36841505.555   148345474.212         232.369          46.000  
C33  26031035.701   135550398.644       -2905.621          31.000                                                                  
C37  22946454.712   119488224.627        2730.191          43.000                                                                  
> 2025 10 27 02 48 05.1960000  0 19                     
G12  20777590.081   109186975.486         977.463          45.000    20777578.642    85080707.450         761.670          41.000  
G15  23155479.079   121682859.874       -3234.188          36.000    23155470.691    94817774.146       -2519.449          32.000  
G18  23471947.552   123345910.846       -3690.685          37.000    23471942.258    96113662.691       -2875.695          37.000  
G23  19200239.614   100897938.153       -1989.111          45.000    19200228.091    78621695.624       -1549.915          47.000  
G24  20842618.227                       -3332.214          28.000    20842610.801                       -2594.983          32.000  
G32  20942778.057   110055042.411        1522.759          45.000    20942767.476    85757121.266        1186.572          42.000  
C08  34701453.645   180699572.454        -310.413          46.000    34701436.781   139728292.683        -239.886          48.000  
C13  34711129.649   180749958.928         -17.621          47.000    34711121.003   139767287.548         -13.580          47.000  
C16  35672254.841   185754792.889          22.756          46.000    35672245.405   143637348.884          17.665          47.000  
C25  22186058.548   115528622.031       -2489.513          36.000                                                                  
C32  21076543.021   109751093.842         916.482          50.000                                                                  
C06  35370390.002   184182902.589         202.480          44.000    35370374.299   142421839.658         156.681          46.000  
G25  20568922.750   108090428.344        2618.733          44.000    20568913.997    84226265.593        2040.469          41.000  
G10  19543517.184   102701871.355        1134.253          50.000    19543505.397    80027388.473         883.899          44.000  
G28  22108770.881   116182385.800        2633.242          40.000    22108759.924    90531709.640        2051.861          40.000  
C23  20735690.892   107976181.173         350.329          51.000                                                                  
C09  36841515.448   191843441.198         300.452          40.000    36841503.223   148345464.916         232.385          46.000  
C33  26031058.006                       -2906.374          31.000                                                                  
C37  22946433.743   119488115.410        2730.294          43.000                                                                  
> 2025 10 27 02 48 05.2360000  0 19                     
G12  20777582.662   109186936.389         977.351          45.000    20777571.223    85080676.988         761.491          41.000  
G15  23155503.707   121682989.258       -3234.363          36.000    23155495.329    94817874.944       -2519.464          32.000  
G18  23471975.655   123346058.491       -3691.003          37.000    23471970.350    96113777.716       -2875.573          37.000  
G23  19200254.759   100898017.715       -1989.087          45.000    19200243.241    78621757.623       -1549.995          47.000  
G24  20842643.581                       -3331.226          28.000    20842636.164                       -2596.995          32.000  
G32  20942766.483   110054981.505        1522.660          45.000    20942755.897    85757073.810        1186.407          42.000  
C08  34701456.039   180699584.874        -310.486          46.000    34701439.181   139728302.288        -240.051          48.000  
C13  34711129.761   180749959.641         -17.767          47.000    34711121.108   139767288.101         -13.770          47.000  
C16  35672254.648   185754791.982          22.712          46.000    35672245.214   143637348.188          17.503          47.000  
C25  22186077.683   115528721.609       -2489.415          36.000                                                                  
C32  21076535.977   109751057.180         916.524          50.000                                                                  
C06  35370388.451   184182894.487         202.540          44.000    35370372.767   142421833.404         156.470          46.000  
G25  20568902.815   108090323.604        2618.551          44.000    20568894.049    84226183.974        2040.460          41.000  
G10  19543508.535   102701825.979        1134.308          50.000    19543496.774    80027353.114         883.972          44.000  
G28  22108750.842   116182280.479        2633.135          40.000    22108739.888    90531627.568        2051.830          40.000  
C23  20735688.191   107976167.160         350.331          51.000                                                                  
C09  36841513.106   191843429.185         300.331          41.000    36841500.928   148345455.630         232.209          46.000  
C33  26031080.352   135550631.137       -2905.723          31.000                                                                  
C37  22946412.760   119488006.192        2730.344          43.000                                                                  
> 2025 10 27 02 48 05.2760000  0 19                     
G12  20777575.220   109186897.288         977.396          45.000    20777563.769    85080646.511         761.724          41.000  
G15  23155528.350   121683118.672       -3235.035          36.000    23155519.967                       -2521.219          33.000  
G18  23472003.748   123346206.128       -3691.021          37.000    23471998.430    96113892.758       -2875.911          37.000  
G23  19200269.906   100898097.287       -1989.248          45.000    19200258.395    78621819.631       -1550.205          47.000  
G24  20842668.618                       -3331.704          28.000    20842661.510                       -2596.339          32.000  
G32  20942754.887   110054920.607        1522.496          45.000    20942744.318    85757026.356        1186.280          42.000  
C08  34701458.425   180699597.291        -310.492          46.000    34701441.587   139728311.897        -240.228          48.000  
C13  34711129.882   180749960.351         -17.792          47.000    34711121.249   139767288.650         -13.763          47.000  
C16  35672254.465   185754791.085          22.536          46.000    35672245.009   143637347.497          17.309          47.000  
C25  22186096.807   115528821.166       -2488.978          36.000                                                                  
C32  21076528.918   109751020.530         916.331          50.000                                                                  
C06  35370386.883   184182886.394         202.412          44.000    35370371.244   142421827.148         156.351          46.000  
G25  20568882.877   108090218.863        2618.492          44.000    20568874.080    84226102.356        2040.428          41.000  
G10  19543499.895   102701780.609        1134.247          50.000    19543488.130    80027317.758         883.899          44.000  
G28  22108730.801   116182175.152        2633.167          40.000    22108719.848    90531545.495        2051.767          40.000  
C23  20735685.483   107976153.156         350.168          51.000                                                                  
C09  36841510.759   191843417.178         300.169          40.000    36841498.603   148345446.350         231.984          46.000  
C33  26031102.642                       -2905.214          31.000                                                                  
C37  22946391.761   119487896.990        2730.131          43.000                                                                  
> 2025 10 27 02 48 05.3160000  0 19                     
G12  20777567.781   109186858.187         977.449          45.000    20777556.314    85080616.047         761.627          41.000  
G15  23155552.999   121683248.061       -3235.017          36.000    23155544.592    94818076.662       -2521.277          33.000  
G18  23472031.836   123346353.744       -3690.659          37.000    23472026.510    96114007.807       -2876.223          37.000  
G23  19200285.041   100898176.856       -1989.284          45.000    19200273.556    78621881.639       -1550.302          47.000  
G24  20842694.488                       -3331.640          28.000    20842686.839                       -2596.288          32.000  
G32  20942743.299   110054859.710        1522.377          45.000    20942732.732    85756978.895        1186.424          42.000  
C08  34701460.807   180699609.713        -310.541          46.000    34701443.975   139728321.506        -240.283          48.000  
C13  34711130.027   180749961.071         -17.975          47.000    34711121.411   139767289.205         -13.885          47.000  
C16  35672254.317   185754790.188          22.373          46.000    35672244.833   143637346.808          17.164          47.000  
C25  22186115.934   115528920.774       -2489.769          36.000                                                                  
C32  21076521.857   109750983.883         916.159          50.000                                                                  
C06  35370385.317   184182878.308         202.200          44.000    35370369.693   142421820.902         156.134          46.000  
G25  20568862.966   108090114.127        2618.350          44.000    20568854.130    84226020.746        2040.273          41.000  
G10  19543491.236   102701735.242        1134.167          50.000    19543479.502    80027282.417         883.618          44.000  
G28  22108710.776   116182069.829        2633.123          40.000    22108699.800    90531463.424        2051.724          40.000  
C23  20735682.780   107976139.153         350.066          51.000                                                                  
C09  36841508.455   191843405.173         300.064          41.000    36841496.298   148345437.062         232.050          46.000  
C33  26031124.991                       -2906.486          31.000                                                                  
C37  22946370.769   119487787.787        2730.053          43.000                                                                  
> 2025 10 27 02 48 05.3560000  0 19                     
G12  20777560.352   109186819.097         977.302          45.000    20777548.857    85080585.590         761.447          41.000  
G15  23155577.636   121683377.449       -3234.808          36.000    23155569.194    94818177.460       -2520.586          33.000  
G18  23472059.925   123346501.370       -3690.645          37.000    23472054.626    96114122.843       -2876.030          37.000  
G23  19200300.178   100898256.431       -1989.401          45.000    19200288.670    78621943.643       -1550.234          47.000  
G24  20842720.042                       -3331.117          28.000    20842712.187                       -2595.949          32.000  
G32  20942731.708   110054798.810        1522.403          45.000    20942721.149    85756931.452        1186.207          42.000  
C08  34701463.184   180699622.135        -310.602          46.000    34701446.363   139728331.117        -240.332          48.000  
C13  34711130.154   180749961.798         -18.164          47.000    34711121.550   139767289.758         -13.922          47.000  
C16  35672254.144   185754789.290          22.360          46.000    35672244.644   143637346.115          17.185          47.000  
C25  22186135.070   115529020.361       -2489.854          36.000                                                                  
C32  21076514.803   109750947.236         916.106          50.000                                                                  
C06  35370383.757   184182870.230         201.930          44.000    35370368.142   142421814.648         156.177          46.000  
G25  20568843.044   108090009.380        2618.542          44.000    20568834.193    84225939.128        2040.308          41.000  
G10  19543482.630   102701689.883        1133.978          50.000    19543470.855    80027247.079         883.405          44.000  
G28  22108690.740   116181964.524        2632.706          40.000    22108679.776    90531381.363        2051.583          40.000  
C23  20735680.112   107976125.159         349.865          51.000                                                                  
C09  36841506.144   191843393.171         299.973          40.000    36841494.005   148345427.779         232.008          46.000  
C33  26031147.335                       -2906.377          31.000                                                                  
C37  22946349.799   119487678.590        2729.884          43.000                                                                  
> 2025 10 27 02 48 05.3960000  0 19                     
G12  20777552.887   109186779.994         977.454          45.000    20777541.392    85080555.131         761.388          41.000  
G15  23155602.241   121683506.833       -3234.615          36.000    23155593.768    94818278.267       -2520.333          33.000  
G18  23472088.013   123346648.988       -3690.478          37.000    23472082.734    96114237.881       -2875.948          37.000  
G23  19200315.305   100898335.992       -1989.184          45.000    19200303.787    78622005.642       -1550.085          47.000  
G24  20842745.196                       -3331.223          28.000    20842737.560                       -2596.079          31.000  
G32  20942720.110   110054737.899        1522.639          45.000    20942709.551    85756883.979        1186.597          42.000  
C08  34701465.539   180699634.557        -310.583          46.000    34701448.718   139728340.719        -240.137          48.000  
C13  34711130.303   180749962.506         -17.859          47.000    34711121.695   139767290.311         -13.879          47.000  
C16  35672253.988   185754788.385          22.502          46.000    35672244.480   143637345.412          17.410          47.000  
C25  22186154.205   115529119.975       -2490.333          36.000                                                                  
C32  21076507.815   109750910.578         916.296          50.000                                                                  
C06  35370382.203   184182862.141         202.028          44.000    35370366.584   142421808.386         156.394          46.000  
G25  20568823.086   108089904.634        2618.628          44.000    20568814.271    84225857.513        2040.318          41.000  
G10  19543473.982   102701644.517        1134.033          50.000    19543462.220    80027211.726         883.600          44.000  
G28  22108670.693   116181859.195        2632.989          40.000    22108659.757    90531299.302        2051.485          40.000  
C23  20735677.438   107976111.157         349.950          51.000                                                                  
C09  36841503.837   191843381.149         300.353          40.000    36841491.684   148345418.487         232.210          46.000  
C33  26031169.664                       -2906.229          31.000                                                                  
C37  22946328.830   119487569.380        2730.068          43.000                                                                  
> 2025 10 27 02 48 05.4360000  0 19                     
G12  20777545.448   109186740.898         977.420          45.000    20777533.971    85080524.651         761.813          41.000  
G15  23155626.847   121683636.187       -3234.047          36.000    23155618.381    94818379.104       -2520.581          33.000  
G18  23472116.121   123346796.619       -3690.668          37.000    23472110.816    96114352.901       -2875.568          37.000  
G23  19200330.427   100898415.562       -1989.247          45.000    19200318.943    78622067.641       -1550.018          47.000  
G24  20842770.709                       -3331.053          28.000    20842762.900                       -2596.302          31.000  
G32  20942708.540   110054676.987        1522.796          45.000    20942697.949    85756836.517        1186.617          42.000  
C08  34701467.906   180699646.982        -310.626          46.000    34701451.067   139728350.316        -239.972          49.000  
C13  34711130.464   180749963.212         -17.682          47.000    34711121.845   139767290.862         -13.824          47.000  
C16  35672253.822   185754787.477          22.623          46.000    35672244.291   143637344.705          17.596          48.000  
C25  22186173.311   115529219.523       -2489.233          36.000                                                                  
C32  21076500.787   109750873.911         916.597          50.000                                                                  
C06  35370380.626   184182854.040         202.321          44.000    35370365.037   142421802.124         156.508          47.000  
G25  20568803.174   108089799.870        2618.933          44.000    20568794.321    84225775.889        2040.470          41.000  
G10  19543465.346   102701599.143        1134.235          50.000    19543453.589    80027176.366         883.881          44.000  
G28  22108650.651   116181753.873        2633.000          40.000    22108639.689    90531217.231        2051.673          40.000  
C23  20735674.759   107976097.149         350.107          51.000                                                                  
C09  36841501.554   191843369.118         300.643          40.000    36841489.379   148345409.189         232.378          47.000  
C33  26031191.978                       -2906.018          31.000                                                                  
C37  22946307.846   119487460.167        2730.236          43.000                                                                  
> 2025 10 27 02 48 05.4760000  0 19                     
G12  20777538.009   109186701.797         977.463          45.000    20777526.539    85080494.182         761.807          41.000  
G15  23155651.476   121683765.577       -3234.382          36.000    23155642.993    94818479.937       -2520.796          33.000  
G18  23472144.232   123346944.249       -3690.758          37.000    23472138.911    96114467.933       -2875.627          37.000  
G23  19200345.579   100898495.133       -1989.308          45.000    19200334.088    78622129.635       -1549.901          47.000  
G24  20842796.078                       -3331.019          29.000    20842788.272                       -2595.820          31.000  
G32  20942696.937   110054616.071        1522.900          45.000    20942686.360    85756789.056        1186.553          42.000  
C08  34701470.265   180699659.392        -310.382          46.000    34701453.440   139728359.917        -239.954          49.000  
C13  34711130.596   180749963.922         -17.706          47.000    34711121.997   139767291.413         -13.818          47.000  
C16  35672253.666   185754786.560          22.821          46.000    35672244.095   143637344.002          17.622          48.000  
C25  22186192.441   115529319.102       -2489.223          36.000                                                                  
C32  21076493.713   109750837.252         916.571          50.000                                                                  
C06  35370379.067   184182845.936         202.539          44.000    35370363.459   142421795.855         156.674          47.000  
G25  20568783.236   108089695.118        2618.911          44.000    20568774.386    84225694.254        2040.802          41.000  
G10  19543456.708   102701553.768        1134.332          50.000    19543444.945    80027141.003         884.033          44.000  
G28  22108630.596   116181648.545        2633.106          40.000    22108619.644    90531135.145        2052.039          40.000  
C23  20735672.046   107976083.138         350.227          51.000                                                                  
C09  36841499.257   191843357.093         300.625          40.000    36841487.095   148345399.888         232.507          47.000  
C33  26031214.302                       -2906.267          31.000                                                                  
C37  22946286.859   119487350.945        2730.487          43.000                                                                  
> 2025 10 27 02 48 05.5160000  0 19                     
G12  20777530.578   109186662.702         977.366          45.000    20777519.100    85080463.724         761.542          41.000  
G15  23155676.102   121683894.984       -3235.032          36.000    23155667.610    94818580.742       -2520.397          33.000  
G18  23472172.319   123347091.883       -3690.845          37.000    23472167.007    96114582.975       -2875.883          37.000  
G23  19200360.719   100898574.707       -1989.363          45.000    19200349.225    78622191.643       -1550.087          47.000  
G24  20842821.503                       -3331.116          29.000    20842813.641                       -2596.371          31.000  
G32  20942685.360   110054555.168        1522.707          45.000    20942674.794    85756741.602        1186.396          42.000  
C08  34701472.643   180699671.811        -310.449          46.000    34701455.815   139728369.521        -240.039          49.000  
C13  34711130.717   180749964.630         -17.682          47.000    34711122.119   139767291.963         -13.806          47.000  
C16  35672253.468   185754785.664          22.561          46.000    35672243.910   143637343.304          17.513          48.000  
C25  22186211.536   115529418.690       -2489.546          36.000                                                                  
C32  21076486.669   109750800.604         916.337          50.000                                                                  
C06  35370377.500   184182837.832         202.622          44.000    35370361.902   142421789.600         156.481          47.000  
G25  20568763.314   108089590.387        2618.475          44.000    20568754.468    84225612.637        2040.602          41.000  
G10  19543448.104   102701508.400        1134.241          50.000    19543436.323    80027105.655         883.844          44.000  
G28  22108610.562   116181543.213        2633.197          40.000    22108599.589    90531053.065        2052.092          40.000  
C23  20735669.336   107976069.134         350.131          51.000                                                                  
C09  36841496.939   191843345.088         300.279          40.000    36841484.803   148345390.602         232.271          47.000  
C33  26031236.606                       -2905.274          31.000                                                                  
C37  22946265.855   119487241.727        2730.478          43.000                                                                  
> 2025 10 27 02 48 05.5560000  0 19                     
G12  20777523.130   109186623.615         977.220          45.000    20777511.661    85080433.261         761.478          41.000  
G15  23155700.736   121684024.406       -3235.659          36.000    23155692.195    94818681.536       -2520.048          33.000  
G18  23472200.420   123347239.503       -3690.668          37.000    23472195.087    96114697.991       -2875.603          37.000  
G23  19200375.851   100898654.279       -1989.375          45.000    19200364.367    78622253.649       -1550.210          47.000  
G24  20842846.729                       -3331.264          29.000    20842839.001                       -2594.770          31.000  
G32  20942673.786   110054494.267        1522.525          45.000    20942663.188    85756694.154        1186.193          42.000  
C08  34701475.019   180699684.238        -310.614          46.000    34701458.192   139728379.130        -240.210          49.000  
C13  34711130.850   180749965.344         -17.804          47.000    34711122.261   139767292.516         -13.849          47.000  
C16  35672253.311   185754784.766          22.433          46.000    35672243.731   143637342.611          17.355          48.000  
C25  22186230.671   115529518.305       -2490.180          36.000                                                                  
C32  21076479.585   109750763.956         916.185          50.000                                                                  
C06  35370375.932   184182829.746         202.317          44.000    35370360.349   142421783.346         156.342          47.000  
G25  20568743.395   108089485.662        2618.123          44.000    20568734.540    84225531.021        2040.470          41.000  
G10  19543439.463   102701463.039        1134.045          50.000    19543427.717    80027070.309         883.643          44.000  
G28  22108590.532   116181437.888        2633.153          40.000    22108579.541    90530970.989        2052.028          40.000  
C23  20735666.592   107976055.139         349.930          51.000                                                                  
C09  36841494.650   191843333.084         300.080          40.000    36841482.506   148345381.319         232.097          47.000  
C33  26031258.904                       -2905.670          32.000                                                                  
C37  22946244.883   119487132.539        2729.948          43.000                                                                  
> 2025 10 27 02 48 05.5960000  0 19                     
G12  20777515.675   109186584.526         977.139          45.000    20777504.218    85080402.812         761.230          41.000  
G15  23155725.341   121684153.779       -3235.032          36.000    23155716.829    94818782.348       -2520.166          33.000  
G18  23472228.507   123347387.130       -3690.683          37.000    23472223.186    96114813.034       -2875.928          37.000  
G23  19200391.006   100898733.856       -1989.455          45.000    19200379.506    78622315.659       -1550.296          47.000  
G24  20842872.081                       -3332.061          29.000    20842864.316                       -2595.017          31.000  
G32  20942662.225   110054433.371        1522.396          45.000    20942651.603    85756646.695        1186.309          42.000  
C08  34701477.417   180699696.660        -310.602          46.000    34701460.619   139728388.740        -240.277          49.000  
C13  34711131.005   180749966.062         -17.957          47.000    34711122.409   139767293.066         -13.806          47.000  
C16  35672253.164   185754783.867          22.405          46.000    35672243.539   143637341.914          17.346          48.000  
C25  22186249.805   115529617.889       -2489.994          36.000                                                                  
C32  21076472.567   109750727.306         916.158          50.000                                                                  
C06  35370374.373   184182821.659         202.155          44.000    35370358.795   142421777.093         156.254          47.000  
G25  20568723.451   108089380.919        2618.293          44.000    20568714.625    84225449.398        2040.464          41.000  
G10  19543430.836   102701417.678        1133.966          50.000    19543419.095    80027034.973         883.417          44.000  
G28  22108570.492   116181332.573        2632.942          40.000    22108559.524    90530888.937        2051.542          40.000  
C23  20735663.918   107976041.145         349.813          51.000                                                                  
C09  36841492.356   191843321.065         300.298          40.000    36841480.196   148345372.036         232.017          46.000  
C33  26031281.218                       -2905.872          32.000                                                                  
C37  22946223.931   119487023.334        2729.962          43.000                                                                  
> 2025 10 27 02 48 05.6360000  0 19                     
G12  20777508.211   109186545.436         977.150          45.000    20777496.747    85080372.343         761.470          41.000  
G15  23155749.994   121684283.137       -3234.231          36.000    23155741.478    94818883.194       -2520.876          33.000  
G18  23472256.599   123347534.759       -3690.709          37.000    23472251.289    96114928.074       -2876.094          37.000  
G23  19200406.135   100898813.427       -1989.350          45.000    19200394.655    78622377.669       -1550.344          47.000  
G24  20842897.239                       -3331.814          29.000    20842889.723                       -2596.116          31.000  
G32  20942650.634   110054372.464        1522.543          45.000    20942639.998    85756599.232        1186.466          42.000  
C08  34701479.820   180699709.079        -310.553          46.000    34701463.032   139728398.344        -240.173          49.000  
C13  34711131.136   180749966.776         -17.957          47.000    34711122.560   139767293.616         -13.763          47.000  
C16  35672253.014   185754782.961          22.554          46.000    35672243.364   143637341.218          17.357          48.000  
C25  22186268.933   115529717.464       -2489.648          36.000                                                                  
C32  21076465.561   109750690.655         916.213          50.000                                                                  
C06  35370372.842   184182813.567         202.169          44.000    35370357.259   142421770.830         156.383          47.000  
G25  20568703.508   108089276.165        2618.659          44.000    20568694.709    84225367.790        2040.278          41.000  
G10  19543422.176   102701372.318        1133.911          50.000    19543410.462    80026999.621         883.600          44.000  
G28  22108550.446   116181227.249        2633.024          40.000    22108539.489    90530806.880        2051.390          40.000  
C23  20735661.256   107976027.144         349.909          51.000                                                                  
C09  36841490.022   191843309.050         300.419          40.000    36841477.902   148345362.746         232.107          46.000  
C33  26031303.581                       -2906.843          32.000                                                                  
C37  22946202.956   119486914.123        2730.151          43.000                                                                  
> 2025 10 27 02 48 05.6760000  0 19                     
G12  20777500.785   109186506.333         977.432          45.000    20777489.298    85080341.874         761.639          41.000  
G15  23155774.631   121684412.516       -3234.247          36.000    23155766.115    94818984.041       -2521.331          33.000  
G18  23472284.688   123347682.386       -3690.660          37.000    23472279.374    96115043.101       -2875.974          37.000  
G23  19200421.292   100898893.009       -1989.498          45.000    19200409.764    78622439.669       -1550.140          47.000  
G24  20842922.807                       -3332.025          29.000    20842915.091                       -2596.792          31.000  
G32  20942639.050   110054311.550        1522.737          45.000    20942628.390    85756551.769        1186.567          42.000  
C08  34701482.200   180699721.497        -310.486          46.000    34701465.445   139728407.943        -240.033          49.000  
C13  34711131.302   180749967.489         -17.914          47.000    34711122.716   139767294.167         -13.763          47.000  
C16  35672252.869   185754782.053          22.656          46.000    35672243.167   143637340.519          17.390          48.000  
C25  22186288.072   115529817.060       -2489.852          36.000                                                                  
C32  21076458.509   109750654.001         916.290          50.000                                                                  
C06  35370371.320   184182805.479         202.184          44.000    35370355.744   142421764.572         156.396          47.000  
G25  20568683.576   108089171.418        2618.739          44.000    20568674.764    84225286.180        2040.207          41.000  
G10  19543413.535   102701326.949        1134.106          50.000    19543401.795    80026964.272         883.704          44.000  
G28  22108530.406   116181121.937        2632.851          40.000    22108519.423    90530724.818        2051.417          40.000  
C23  20735658.598   107976013.139         350.032          51.000                                                                  
C09  36841487.686   191843297.042         300.272          40.000    36841475.599   148345353.447         232.334          46.000  
C33  26031325.929                       -2906.353          32.000                                                                  
C37  22946181.984   119486804.921        2730.049          43.000                                                                  
> 2025 10 27 02 48 05.7160000  0 19                     
G12  20777493.345   109186467.237         977.448          45.000    20777481.879    85080311.420         761.436          41.000  
G15  23155799.257   121684541.903       -3234.415          36.000    23155790.737    94819084.831       -2520.409          32.000  
G18  23472312.795   123347830.020       -3690.792          37.000    23472307.451    96115158.134       -2875.923          37.000  
G23  19200436.396   100898972.580       -1989.374          45.000    19200424.925    78622501.673       -1550.116          47.000  
G24  20842948.343                       -3332.058          29.000    20842940.447                       -2596.823          31.000  
G32  20942627.474   110054250.645        1522.674          45.000    20942616.802    85756504.300        1186.684          42.000  
C08  34701484.570   180699733.917        -310.510          46.000    34701467.762   139728417.547        -240.045          49.000  
C13  34711131.455   180749968.197         -17.737          47.000    34711122.859   139767294.715         -13.708          47.000  
C16  35672252.708   185754781.145          22.718          46.000    35672242.992   143637339.809          17.617          48.000  
C25  22186307.184   115529916.651       -2489.889          36.000                                                                  
C32  21076451.505   109750617.346         916.347          50.000                                                                  
C06  35370369.775   184182797.392         202.181          44.000    35370354.220   142421758.308         156.514          47.000  
G25  20568663.659   108089066.675        2618.673          44.000    20568654.841    84225204.560        2040.355          41.000  
G10  19543404.898   102701281.579        1134.247          50.000    19543393.161    80026928.914         883.881          44.000  
G28  22108510.362   116181016.612        2633.020          40.000    22108499.369    90530642.731        2051.917          40.000  
C23  20735655.917   107975999.135         350.095          51.000                                                                  
C09  36841485.360   191843285.022         300.397          40.000    36841473.284   148345344.151         232.387          46.000  
C33  26031348.249                       -2905.251          32.000                                                                  
C37  22946161.007   119486695.705        2730.269          43.000                                                                  
> 2025 10 27 02 48 05.7560000  0 19                     
G12  20777485.922   109186428.147         977.356          45.000    20777474.453    85080280.953         761.580          41.000  
G15  23155823.893   121684671.306       -3234.867          36.000    23155815.336    94819185.639       -2520.187          32.000  
G18  23472340.877   123347977.645       -3690.712          37.000    23472335.543    96115273.182       -2876.164          37.000  
G23  19200451.541   100899052.154       -1989.368          45.000    19200440.074    78622563.674       -1550.036          47.000  
G24  20842973.465                       -3331.636          29.000    20842965.792                       -2595.367          31.000  
G32  20942615.877   110054189.736        1522.678          45.000    20942605.221    85756456.831        1186.764          42.000  
C08  34701486.904   180699746.333        -310.443          46.000    34701470.162   139728427.148        -240.021          49.000  
C13  34711131.591   180749968.907         -17.737          47.000    34711122.996   139767295.262         -13.660          47.000  
C16  35672252.546   185754780.242          22.615          46.000    35672242.808   143637339.112          17.508          48.000  
C25  22186326.309   115530016.245       -2489.950          36.000                                                                  
C32  21076444.456   109750580.687         916.434          50.000                                                                  
C06  35370368.215   184182789.277         202.676          44.000    35370352.657   142421752.049         156.471          47.000  
G25  20568643.749   108088961.939        2618.475          44.000    20568634.899    84225122.931        2040.650          41.000  
G10  19543396.277   102701236.215        1134.161          50.000    19543384.558    80026893.561         883.862          44.000  
G28  22108490.303   116180911.273        2633.292          40.000    22108479.296    90530560.654        2052.020          40.000  
C23  20735653.196   107975985.135         350.028          51.000                                                                  
C09  36841483.065   191843273.004         300.434          40.000    36841470.988   148345334.863         232.222          46.000  
C33  26031370.571                       -2905.450          32.000                                                                  
C37  22946140.065   119486586.493        2730.324          43.000                                                                  
> 2025 10 27 02 48 05.7960000  0 19                     
G12  20777478.466   109186389.054         977.328          45.000    20777467.004    85080250.490         761.591          41.000  
G15  23155848.528   121684800.699       -3234.952          36.000    23155839.955    94819286.444       -2520.061          32.000  
G18  23472368.964   123348125.264       -3690.529          37.000    23472363.622    96115388.205       -2875.823          37.000  
G23  19200466.703   100899131.730       -1989.405          45.000    19200455.212    78622625.686       -1550.203          47.000  
G24  20842998.720                       -3331.467          29.000    20842991.111                       -2595.616          31.000  
G32  20942604.306   110054128.831        1522.605          45.000    20942593.645    85756409.390        1186.201          42.000  
C08  34701489.284   180699758.754        -310.541          46.000    34701472.543   139728436.749        -240.009          49.000  
C13  34711131.712   180749969.617         -17.743          47.000    34711123.120   139767295.813         -13.715          47.000  
C16  35672252.368   185754779.334          22.647          46.000    35672242.619   143637338.416          17.430          48.000  
C25  22186345.420   115530115.808       -2489.339          36.000                                                                  
C32  21076437.408   109750544.029         916.464          50.000                                                                  
C06  35370366.692   184182781.183         202.507          44.000    35370351.122   142421745.793         156.406          47.000  
G25  20568623.817   108088857.201        2618.427          44.000    20568614.959    84225041.319        2040.501          41.000  
G10  19543387.641   102701190.852        1134.082          50.000    19543375.953    80026858.219         883.618          44.000  
G28  22108470.258   116180805.961        2632.966          40.000    22108459.262    90530478.580        2051.961          40.000  
C23  20735650.450   107975971.137         349.950          51.000                                                                  
C09  36841480.736   191843260.981         300.533          40.000    36841468.683   148345325.573         232.191          46.000  
C33  26031392.872                       -2905.862          32.000                                                                  
C37  22946119.122   119486477.286        2730.261          43.000                                                                  
> 2025 10 27 02 48 05.8360000  0 19                     
G12  20777471.035   109186349.970         977.135          45.000    20777459.565    85080220.017         761.764          41.000  
G15  23155873.125   121684930.058       -3234.408          36.000    23155864.602    94819387.314       -2521.141          32.000  
G18  23472397.061   123348272.876       -3690.361          37.000    23472391.722    96115503.230       -2875.693          37.000  
G23  19200481.874   100899211.306       -1989.399          45.000    19200470.369    78622687.699       -1550.338          47.000  
G24  20843024.262                       -3331.350          28.000    20843016.465                       -2595.702          31.000  
G32  20942592.712   110054067.932        1522.477          45.000    20942582.033    85756361.937        1186.199          42.000  
C08  34701491.677   180699771.182        -310.706          46.000    34701474.913   139728446.353        -240.088          49.000  
C13  34711131.845   180749970.335         -17.908          47.000    34711123.250   139767296.369         -13.879          47.000  
C16  35672252.184   185754778.439          22.445          46.000    35672242.429   143637337.723          17.314          48.000  
C25  22186364.545   115530215.397       -2489.576          36.000                                                                  
C32  21076430.360   109750507.377         916.333          50.000                                                                  
C06  35370365.127   184182773.086         202.457          44.000    35370349.561   142421739.532         156.475          47.000  
G25  20568603.878   108088752.450        2618.639          44.000    20568595.010    84224959.701        2040.437          41.000  
G10  19543379.029   102701145.499        1133.868          50.000    19543367.304    80026822.872         883.588          44.000  
G28  22108450.249   116180700.644        2632.862          40.000    22108439.221    90530396.520        2051.674          40.000  
C23  20735647.733   107975957.140         349.892          51.000                                                                  
C09  36841478.426   191843248.970         300.310          40.000    36841466.374   148345316.288         232.098          46.000  
C33  26031415.187                       -2906.138          32.000                                                                  
C37  22946098.142   119486368.078        2730.147          43.000                                                                  
> 2025 10 27 02 48 05.8760000  0 19                     
G12  20777463.608   109186310.891         976.971          45.000    20777452.121    85080189.580         761.192          41.000  
G15  23155897.781   121685059.458       -3234.776          36.000    23155889.232    94819488.148       -2521.149          32.000  
G18  23472425.118   123348420.504       -3690.656          37.000    23472419.800    96115618.245       -2875.410          37.000  
G23  19200497.015   100899290.882       -1989.430          45.000    19200485.523    78622749.710       -1550.313          47.000  
G24  20843049.477                       -3331.385          28.000    20843041.850                       -2596.035          31.000  
G32  20942581.085   110054007.030        1522.469          45.000    20942570.451    85756314.489        1186.108          41.000  
C08  34701494.060   180699783.609        -310.760          46.000    34701477.329   139728455.968        -240.332          49.000  
C13  34711131.984   180749971.053         -18.018          47.000    34711123.374   139767296.923         -13.922          47.000  
C16  35672252.047   185754777.542          22.351          46.000    35672242.246   143637337.021          17.436          48.000  
C25  22186383.701   115530315.022       -2490.433          36.000                                                                  
C32  21076423.311   109750470.730         916.167          50.000                                                                  
C06  35370363.567   184182764.996         202.278          44.000    35370348.006   142421733.277         156.407          47.000  
G25  20568583.955   108088647.719        2618.388          44.000    20568575.104    84224878.100        2040.123          41.000  
G10  19543370.395   102701100.144        1133.801          50.000    19543358.650    80026787.538         883.331          44.000  
G28  22108430.219   116180595.331        2632.758          40.000    22108419.164    90530314.467        2051.352          40.000  
C23  20735645.033   107975943.148         349.772          51.000                                                                  
C09  36841476.104   191843236.971         299.953          40.000    36841464.045   148345307.004         232.050          46.000  
C33  26031437.504                       -2906.219          32.000                                                                  
C37  22946077.177   119486258.871        2730.119          43.000                                                                  
> 2025 10 27 02 48 05.9160000  0 19                     
G12  20777456.157   109186271.810         976.912          45.000    20777444.687    85080159.129         761.170          41.000  
G15  23155922.421   121685188.848       -3234.839          36.000    23155913.824    94819588.926       -2520.037          32.000  
G18  23472453.212   123348568.140       -3690.861          37.000    23472447.903    96115733.283       -2875.677          37.000  
G23  19200512.185   100899370.470       -1989.651          45.000    19200500.673    78622811.722       -1550.337          47.000  
G24  20843075.095                       -3331.311          28.000    20843067.196                       -2596.157          31.000  
G32  20942569.499   110053946.130        1522.433          45.000    20942558.837    85756267.024        1186.385          41.000  
C08  34701496.461   180699796.039        -310.767          46.000    34701479.741   139728465.579        -240.399          49.000  
C13  34711132.105   180749971.772         -18.030          47.000    34711123.518   139767297.478         -13.940          47.000  
C16  35672251.897   185754776.646          22.316          46.000    35672242.077   143637336.326          17.356          48.000  
C25  22186402.817   115530414.620       -2490.275          36.000                                                                  
C32  21076416.254   109750434.087         916.071          50.000                                                                  
C06  35370361.978   184182756.914         202.052          44.000    35370346.431   142421727.020         156.361          47.000  
G25  20568564.050   108088542.989        2618.229          44.000    20568555.150    84224796.481        2040.261          41.000  
G10  19543361.746   102701054.789        1133.807          50.000    19543350.022    80026752.196         883.417          44.000  
G28  22108410.152   116180490.012        2632.834          40.000    22108399.118    90530232.417        2051.149          40.000  
C23  20735642.344   107975929.164         349.589          51.000                                                                  
C09  36841473.784   191843224.966         299.972          40.000    36841461.734   148345297.711         232.216          46.000  
C33  26031459.835                       -2906.787          32.000                                                                  
C37  22946056.210   119486149.681        2729.825          43.000                                                                  
> 2025 10 27 02 48 05.9560000  0 19                     
G12  20777448.716   109186232.731         976.891          45.000    20777437.240    85080128.681         761.152          41.000  
G15  23155947.045   121685318.233       -3234.819          36.000    23155938.443    94819689.740       -2520.215          32.000  
G18  23472481.316   123348715.769       -3690.834          37.000    23472475.997    96115848.338       -2876.075          37.000  
G23  19200527.345   100899450.062       -1989.798          45.000    19200515.829    78622873.739       -1550.429          47.000  
G24  20843100.644                       -3331.414          28.000    20843092.535                       -2597.035          31.000  
G32  20942557.894   110053885.228        1522.481          45.000    20942547.227    85756219.563        1186.513          41.000  
C08  34701498.878   180699808.459        -310.583          46.000    34701482.142   139728475.189        -240.338          48.000  
C13  34711132.223   180749972.492         -18.079          47.000    34711123.666   139767298.034         -13.934          47.000  
C16  35672251.727   185754775.746          22.386          46.000    35672241.883   143637335.636          17.247          48.000  
C25  22186421.954   115530514.199       -2489.781          36.000                                                                  
C32  21076409.267   109750397.445         916.011          50.000                                                                  
C06  35370360.420   184182748.839         201.866          44.000    35370344.875   142421720.766         156.317          47.000  
G25  20568544.155   108088438.265        2618.065          44.000    20568535.233    84224714.875        2040.106          41.000  
G10  19543353.090   102701009.434        1133.801          50.000    19543341.392    80026716.850         883.533          44.000  
G28  22108390.113   116180384.699        2632.791          41.000    22108379.061    90530150.337        2051.676          40.000  
C23  20735639.665   107975915.175         349.609          51.000                                                                  
C09  36841471.473   191843212.956         300.108          40.000    36841459.416   148345288.428         232.126          46.000  
C33  26031482.145                       -2905.955          32.000                                                                  
C37  22946035.253   119486040.479        2729.874          43.000                                                                  
> 2025 10 27 02 48 05.9960000  0 19                     
G12  20777441.264   109186193.647         976.958          45.000    20777429.792    85080098.227         761.212          41.000  
G15  23155971.685   121685447.621       -3234.867          36.000    23155963.065    94819790.557       -2520.319          32.000  
G18  23472509.410   123348863.393       -3690.748          37.000    23472504.087    96115963.370       -2875.890          37.000  
G23  19200542.487   100899529.649       -1989.772          45.000    19200530.986    78622935.756       -1550.484          47.000  
G24  20843126.212                       -3331.742          28.000    20843117.876                       -2596.407          31.000  
G32  20942546.293   110053824.324        1522.565          45.000    20942535.630    85756172.092        1186.727          42.000  
C08  34701501.260   180699820.881        -310.541          46.000    34701484.517   139728484.799        -240.314          48.000  
C13  34711132.364   180749973.208         -17.975          47.000    34711123.784   139767298.588         -13.904          47.000  
C16  35672251.576   185754774.849          22.381          46.000    35672241.711   143637334.949          17.167          48.000  
C25  22186441.080   115530613.799       -2489.930          36.000                                                                  
C32  21076402.255   109750360.798         916.072          50.000                                                                  
C06  35370358.859   184182740.748         202.034          44.000    35370343.323   142421714.512         156.281          47.000  
G25  20568524.210   108088333.524        2618.344          44.000    20568515.276    84224633.262        2040.231          41.000  
G10  19543344.452   102700964.080        1133.807          50.000    19543332.741    80026681.509         883.472          44.000  
G28  22108370.066   116180279.383        2632.810          41.000    22108359.006    90530068.274        2051.656          40.000  
C23  20735637.019   107975901.184         349.677          51.000                                                                  
C09  36841469.165   191843200.943         300.246          40.000    36841457.081   148345279.139         232.139          46.000  
C33  26031504.476                       -2905.497          32.000                                                                  
C37  22946014.305   119485931.278        2729.912          43.000                                                                  
> 2025 10 27 02 48 06.0360000  0 19                     
G12  20777433.813   109186154.563         976.989          45.000    20777422.369    85080067.778         761.146          41.000  
G15  23155996.318   121685577.031       -3235.151          36.000    23155987.702    94819891.394       -2520.753          32.000  
G18  23472537.499   123349011.027       -3690.914          37.000    23472532.168    96116078.413       -2876.015          37.000  
G23  19200557.628   100899609.237       -1989.747          45.000    19200546.138    78622997.772       -1550.471          47.000  
G24  20843151.567                       -3331.740          28.000    20843143.250                       -2595.948          31.000  
G32  20942534.677   110053763.420        1522.591          45.000    20942524.053    85756124.642        1186.408          41.000  
C08  34701503.640   180699833.304        -310.559          46.000    34701486.887   139728494.407        -240.259          48.000  
C13  34711132.526   180749973.926         -17.963          47.000    34711123.944   139767299.145         -13.947          47.000  
C16  35672251.417   185754773.953          22.356          46.000    35672241.522   143637334.249          17.360          48.000  
C25  22186460.207   115530713.379       -2489.609          36.000                                                                  
C32  21076395.230   109750324.151         916.124          50.000                                                                  
C06  35370357.307   184182732.655         202.164          44.000    35370341.755   142421708.261         156.244          47.000  
G25  20568504.289   108088228.788        2618.380          44.000    20568495.350    84224551.666        2039.936          41.000  
G10  19543335.849   102700918.731        1133.734          50.000    19543324.117    80026646.173         883.380          44.000  
G28  22108350.024   116180174.070        2632.786          41.000    22108338.986    90529986.212        2051.561          40.000  
C23  20735634.337   107975887.197         349.639          51.000                                                                  
C09  36841466.847   191843188.919         300.540          40.000    36841454.774   148345269.848         232.208          46.000  
C33  26031526.809                       -2906.636          32.000                                                                  
C37  22945993.335   119485822.076        2729.969          43.000                                                                  
> 2025 10 27 02 48 06.0760000  0 19                     
G12  20777426.417   109186115.489         976.842          45.000    20777414.934    85080037.315         761.401          41.000  
G15  23156020.950   121685706.442       -3235.374          36.000    23156012.332    94819992.209       -2520.542          32.000  
G18  23472565.602   123349158.648       -3690.690          37.000    23472560.254    96116193.446       -2875.845          37.000  
G23  19200572.777   100899688.822       -1989.667          45.000    19200561.289    78623059.785       -1550.397          47.000  
G24  20843176.693                       -3331.953          28.000    20843168.577                       -2595.410          32.000  
G32  20942523.094   110053702.516        1522.609          45.000    20942512.485    85756077.202        1186.090          41.000  
C08  34701505.994   180699845.734        -310.712          46.000    34701489.260   139728504.011        -240.131          48.000  
C13  34711132.650   180749974.646         -18.011          47.000    34711124.094   139767299.706         -14.056          47.000  
C16  35672251.284   185754773.052          22.483          46.000    35672241.329   143637333.557          17.305          48.000  
C25  22186479.338   115530812.988       -2490.024          36.000                                                                  
C32  21076388.197   109750287.504         916.143          50.000                                                                  
C06  35370355.764   184182724.555         202.400          44.000    35370340.198   142421702.010         156.227          47.000  
G25  20568484.373   108088124.050        2618.414          44.000    20568475.411    84224470.040        2040.390          41.000  
G10  19543327.207   102700873.377        1133.777          50.000    19543315.487    80026610.833         883.453          44.000  
G28  22108329.990   116180068.761        2632.743          41.000    22108318.946    90529904.154        2051.430          40.000  
C23  20735631.669   107975873.203         349.750          51.000                                                                  
C09  36841464.526   191843176.910         300.392          40.000    36841452.476   148345260.571         231.993          46.000  
C33  26031549.139                       -2906.863          32.000                                                                  
C37  22945972.350   119485712.878        2729.958          43.000                                                                  
> 2025 10 27 02 48 06.1160000  0 19                     
G12  20777418.959   109186076.414         976.794          45.000    20777407.505    85080006.872         761.191          41.000  
G15  23156045.560   121685835.797       -3234.404          36.000    23156036.971    94820093.066       -2521.217          33.000  
G18  23472593.692   123349306.281       -3690.749          37.000    23472588.331    96116308.469       -2875.558          37.000  
G23  19200587.937   100899768.410       -1989.704          45.000    19200576.427    78623121.801       -1550.428          47.000  
G24  20843202.108                       -3332.171          28.000    20843193.956                       -2595.958          32.000  
G32  20942511.504   110053641.611        1522.634          45.000    20942500.901    85756029.755        1186.013          41.000  
C08  34701508.382   180699858.161        -310.754          46.000    34701491.611   139728513.618        -240.143          48.000  
C13  34711132.790   180749975.359         -17.896          47.000    34711124.219   139767300.258         -13.922          47.000  
C16  35672251.133   185754772.150          22.544          46.000    35672241.150   143637332.854          17.481          47.000  
C25  22186498.455   115530912.575       -2489.869          36.000                                                                  
C32  21076381.140   109750250.856         916.168          50.000                                                                  
C06  35370354.214   184182716.464         202.368          44.000    35370338.652   142421695.754         156.309          47.000  
G25  20568464.427   108088019.322        2618.237          44.000    20568455.478    84224388.432        2040.324          41.000  
G10  19543318.575   102700828.020        1133.887          50.000    19543306.851    80026575.493         883.484          44.000  
G28  22108309.945   116179963.439        2632.968          41.000    22108298.914    90529822.094        2051.444          40.000  
C23  20735628.992   107975859.212         349.774          51.000                                                                  
C09  36841462.234   191843164.902         300.246          40.000    36841450.171   148345251.281         232.115          46.000  
C33  26031571.440                       -2906.516          32.000                                                                  
C37  22945951.384   119485603.682        2729.918          43.000                                                                  
> 2025 10 27 02 48 06.1560000  0 19                     
G12  20777411.522   109186037.333         976.907          45.000    20777400.055    85079976.419         761.230          41.000  
G15  23156070.183   121685965.170       -3234.233          36.000    23156061.583    94820193.889       -2521.018          33.000  
G18  23472621.792   123349453.910       -3690.744          37.000    23472616.401    96116423.497       -2875.621          37.000  
G23  19200603.087   100899847.998       -1989.735          45.000    19200591.563    78623183.817       -1550.422          47.000  
G24  20843227.321                       -3332.065          28.000    20843219.305                       -2596.216          32.000  
G32  20942499.929   110053580.710        1522.567          45.000    20942489.319    85755982.290        1186.355          41.000  
C08  34701510.768   180699870.587        -310.724          46.000    34701493.985   139728523.227        -240.204          48.000  
C13  34711132.926   180749976.069         -17.780          47.000    34711124.365   139767300.813         -13.922          47.000  
C16  35672250.973   185754771.245          22.621          46.000    35672240.958   143637332.160          17.385          47.000  
C25  22186517.561   115531012.170       -2489.869          36.000                                                                  
C32  21076374.108   109750214.208         916.186          50.000                                                                  
C06  35370352.685   184182708.376         202.260          44.000    35370337.113   142421689.496         156.414          47.000  
G25  20568444.497   108087914.596        2618.185          44.000    20568435.548    84224306.822        2040.297          41.000  
G10  19543309.933   102700782.669        1133.807          50.000    19543298.220    80026540.150         883.545          44.000  
G28  22108289.893   116179858.129        2632.874          41.000    22108278.861    90529740.013        2051.836          40.000  
C23  20735626.291   107975845.225         349.681          51.000                                                                  
C09  36841459.920   191843152.895         300.139          40.000    36841447.858   148345241.991         232.196          46.000  
C33  26031593.760                       -2905.662          32.000                                                                  
C37  22945930.422   119485494.472        2730.154          43.000                                                                  
> 2025 10 27 02 48 06.1960000  0 19                     
G12  20777404.099   109185998.254         976.966          45.000    20777392.618    85079945.976         761.096          41.000  
G15  23156094.820   121686094.535       -3233.996          36.000    23156086.219    94820294.746       -2521.382          33.000  
G18  23472649.864   123349601.523       -3690.437          37.000    23472644.517    96116538.526       -2875.678          37.000  
G23  19200618.203   100899927.585       -1989.710          45.000    19200606.735    78623245.833       -1550.428          47.000  
G24  20843252.654                       -3331.893          28.000    20843244.683                       -2596.137          32.000  
G32  20942488.363   110053519.812        1522.444          45.000    20942477.710    85755934.830        1186.428          41.000  
C08  34701513.172   180699883.007        -310.583          46.000    34701496.397   139728532.832        -240.155          48.000  
C13  34711133.055   180749976.788         -17.896          47.000    34711124.474   139767301.357         -13.702          47.000  
C16  35672250.789   185754770.343          22.611          46.000    35672240.775   143637331.472          17.235          47.000  
C25  22186536.679   115531111.764       -2489.825          36.000                                                                  
C32  21076367.048   109750177.562         916.159          50.000                                                                  
C06  35370351.131   184182700.287         202.228          44.000    35370335.564   142421683.237         156.476          47.000  
G25  20568424.547   108087809.855        2618.396          44.000    20568415.621    84224225.214        2040.200          41.000  
G10  19543301.301   102700737.319        1133.728          50.000    19543289.620    80026504.810         883.508          44.000  
G28  22108269.865   116179752.809        2632.941          41.000    22108258.829    90529657.946        2051.809          40.000  
C23  20735623.626   107975831.237         349.664          51.000                                                                  
C09  36841457.603   191843140.885         300.160          40.000    36841445.588   148345232.696         232.321          46.000  
C33  26031616.093                       -2906.111          32.000                                                                  
C37  22945909.440   119485385.282        2729.907          43.000                                                                  
> 2025 10 27 02 48 06.2360000  0 19                     
G12  20777396.683   109185959.178         976.907          45.000    20777385.176    85079915.528         761.132          41.000  
G15  23156119.425   121686223.960       -3235.077          36.000    23156110.821    94820395.518       -2520.138          33.000  
G18  23472677.966   123349749.140       -3690.360          37.000    23472672.616    96116653.578       -2876.080          37.000  
G23  19200633.362   100900007.171       -1989.679          45.000    19200621.876    78623307.854       -1550.545          47.000  
G24  20843278.225                       -3331.753          28.000    20843270.043                       -2596.748          32.000  
G32  20942476.767   110053458.911        1522.480          45.000    20942466.124    85755887.369        1186.538          41.000  
C08  34701515.559   180699895.432        -310.602          46.000    34701498.798   139728542.441        -240.204          48.000  
C13  34711133.199   180749977.514         -18.115          47.000    34711124.600   139767301.915         -13.849          47.000  
C16  35672250.611   185754769.448          22.452          46.000    35672240.618   143637330.779          17.259          47.000  
C25  22186555.803   115531211.360       -2489.931          36.000                                                                  
C32  21076360.029   109750140.913         916.192          50.000                                                                  
C06  35370349.578   184182692.211         202.008          44.000    35370334.048   142421676.985         156.332          47.000  
G25  20568404.616   108087705.117        2618.457          44.000    20568395.688    84224143.589        2040.478          41.000  
G10  19543292.691   102700691.970        1133.673          50.000    19543281.015    80026469.479         883.331          44.000  
G28  22108249.840   116179647.499        2632.803          41.000    22108238.784    90529575.895        2051.447          40.000  
C23  20735620.913   107975817.253         349.575          51.000                                                                  
C09  36841455.308   191843128.869         300.287          40.000    36841443.267   148345223.415         232.118          46.000  
C33  26031638.410                       -2906.905          32.000                                                                  
C37  22945888.450   119485276.087        2729.860          43.000                                                                  
> 2025 10 27 02 48 06.2760000  0 19                     
G12  20777389.228   109185920.099         976.938          45.000    20777377.735    85079885.071         761.288          41.000  
G15  23156144.053   121686353.362       -3235.221          36.000    23156135.417    94820496.342       -2520.248          33.000  
G18  23472706.050   123349896.771       -3690.645          37.000    23472700.690    96116768.620       -2876.144          37.000  
G23  19200648.502   100900086.759       -1989.716          45.000    19200637.016    78623369.873       -1550.551          47.000  
G24  20843303.326                       -3331.456          28.000    20843295.420                       -2596.285          32.000  
G32  20942465.180   110053398.006        1522.572          45.000    20942454.550    85755839.914        1186.423          41.000  
C08  34701517.932   180699907.855        -310.596          46.000    34701501.217   139728552.050        -240.259          48.000  
C13  34711133.348   180749978.234         -18.097          47.000    34711124.747   139767302.467         -13.843          47.000  
C16  35672250.416   185754768.553          22.364          46.000    35672240.452   143637330.070          17.546          47.000  
C25  22186574.946   115531310.960       -2489.961          36.000                                                                  
C32  21076352.993   109750104.261         916.288          50.000                                                                  
C06  35370348.073   184182684.121         202.113          44.000    35370332.509   142421670.724         156.438          47.000  
G25  20568384.715   108087600.390        2618.265          44.000    20568375.752    84224061.989        2040.200          41.000  
G10  19543284.057   102700646.619        1133.716          50.000    19543272.387    80026434.144         883.325          44.000  
G28  22108229.771   116179542.181        2632.828          41.000    22108218.745    90529493.831        2051.479          40.000  
C23  20735618.208   107975803.267         349.604          51.000                                                                  
C09  36841452.992   191843116.858         300.286          40.000    36841440.960   148345214.130         232.056          46.000  
C33  26031660.755                       -2905.539          32.000                                                                  
C37  22945867.445   119485166.877        2730.092          43.000                                                                  
> 2025 10 27 02 48 06.3160000  0 19                     
G12  20777381.791   109185881.021         976.892          45.000    20777370.297    85079854.625         761.194          41.000  
G15  23156168.679   121686482.766       -3235.326          36.000    23156160.003    94820597.118       -2519.493          33.000  
G18  23472734.138   123350044.405       -3690.814          37.000    23472728.787    96116883.638       -2875.756          37.000  
G23  19200663.653   100900166.356       -1989.901          45.000    19200652.182    78623431.892       -1550.563          47.000  
G24  20843328.880                       -3331.453          28.000    20843320.749                       -2595.912          32.000  
G32  20942453.580   110053337.106        1522.531          45.000    20942442.952    85755792.454        1186.413          41.000  
C08  34701520.307   180699920.284        -310.730          46.000    34701503.620   139728561.659        -240.247          48.000  
C13  34711133.488   180749978.951         -18.024          47.000    34711124.878   139767303.027         -13.977          47.000  
C16  35672250.248   185754767.653          22.405          46.000    35672240.277   143637329.379          17.376          47.000  
C25  22186594.083   115531410.583       -2490.466          36.000                                                                  
C32  21076345.931   109750067.623         916.054          50.000                                                                  
C06  35370346.522   184182676.029         202.246          44.000    35370330.962   142421664.471         156.324          47.000  
G25  20568364.798   108087495.664        2618.130          44.000    20568355.851    84223980.392        2039.962          41.000  
G10  19543275.419   102700601.272        1133.661          50.000    19543263.755    80026398.797         883.545          44.000  
G28  22108209.753   116179436.872        2632.717          41.000    22108198.714    90529411.778        2051.312          40.000  
C23  20735615.522   107975789.279         349.624          51.000                                                                  
C09  36841450.687   191843104.846         300.331          40.000    36841438.657   148345204.841         232.133          46.000  
C33  26031683.095                       -2905.778          31.000                                                                  
C37  22945846.482   119485057.667        2730.199          43.000                                                                  
> 2025 10 27 02 48 06.3560000  0 19                     
G12  20777374.356   109185841.953         976.718          45.000    20777362.860    85079824.186         761.015          41.000  
G15  23156193.277   121686612.133       -3234.706          36.000    23156184.660    94820697.924       -2519.584          33.000  
G18  23472762.215   123350192.041       -3690.959          37.000    23472756.891    96116998.668       -2875.768          37.000  
G23  19200678.792   100900245.953       -1989.974          45.000    19200667.341    78623493.913       -1550.563          47.000  
G24  20843354.021                       -3331.405          28.000    20843346.089                       -2595.514          32.000  
G32  20942441.990   110053276.208        1522.460          45.000    20942431.345    85755745.011        1186.150          41.000  
C08  34701522.655   180699932.713        -310.748          46.000    34701505.986   139728571.259        -240.088          48.000  
C13  34711133.616   180749979.673         -18.079          47.000    34711125.009   139767303.583         -13.965          47.000  
C16  35672250.079   185754766.761          22.296          46.000    35672240.094   143637328.691          17.219          47.000  
C25  22186613.222   115531510.172       -2490.101          36.000                                                                  
C32  21076338.880   109750030.985         915.930          50.000                                                                  
C06  35370344.960   184182667.931         202.429          44.000    35370329.411   142421658.220         156.234          47.000  
G25  20568344.865   108087390.944        2618.014          44.000    20568335.928    84223898.791        2039.916          41.000  
G10  19543266.790   102700555.928        1133.569          50.000    19543255.124    80026363.472         883.282          44.000  
G28  22108189.709   116179331.556        2632.843          41.000    22108178.672    90529329.715        2051.432          40.000  
C23  20735612.828   107975775.303         349.450          51.000                                                                  
C09  36841448.369   191843092.846         300.097          40.000    36841436.358   148345195.554         232.146          46.000  
C33  26031705.418                       -2906.401          32.000                                                                  
C37  22945825.502   119484948.477        2729.885          43.000                                                                  
> 2025 10 27 02 48 06.3960000  0 19                     
G12  20777366.935   109185802.886         976.633          45.000    20777355.423    85079793.738         761.036          41.000  
G15  23156217.899   121686741.538       -3235.097          36.000    23156209.262    94820798.779       -2520.697          33.000  
G18  23472790.291   123350339.674       -3690.981          37.000    23472784.986    96117113.711       -2876.091          37.000  
G23  19200693.944   100900325.545       -1989.924          45.000    19200682.458    78623555.927       -1550.427          47.000  
G24  20843379.096                       -3331.607          28.000    20843371.452                       -2596.616          32.000  
G32  20942430.405   110053215.307        1522.508          45.000    20942419.744    85755697.558        1186.154          41.000  
C08  34701525.039   180699945.145        -310.809          46.000    34701508.369   139728580.876        -240.326          48.000  
C13  34711133.754   180749980.387         -17.950          47.000    34711125.156   139767304.144         -14.032          47.000  
C16  35672249.950   185754765.859          22.423          46.000    35672239.921   143637327.992          17.329          47.000  
C25  22186632.337   115531609.765       -2489.916          36.000                                                                  
C32  21076331.861   109749994.343         915.953          50.000                                                                  
C06  35370343.394   184182659.835         202.488          44.000    35370327.847   142421651.966         156.263          47.000  
G25  20568324.920   108087286.220        2618.032          44.000    20568316.011    84223817.186        2040.020          41.000  
G10  19543258.166   102700510.587        1133.496          50.000    19543246.503    80026328.142         883.221          44.000  
G28  22108169.647   116179226.243        2632.824          41.000    22108158.634    90529247.654        2051.470          40.000  
C23  20735610.152   107975761.325         349.402          51.000                                                                  
C09  36841446.055   191843080.833         300.225          40.000    36841434.044   148345186.266         232.171          46.000  
C33  26031727.741   135554002.171       -2907.028          32.000                                                                  
C37  22945804.544   119484839.277        2729.921          43.000                                                                  
> 2025 10 27 02 48 06.4360000  0 19                     
G12  20777359.501   109185763.812         976.741          45.000    20777347.980    85079763.300         760.930          41.000  
G15  23156242.512   121686870.907       -3234.586          36.000    23156233.909    94820899.646       -2521.563          33.000  
G18  23472818.382   123350487.275       -3690.367          37.000    23472813.079    96117228.717       -2875.555          37.000  
G23  19200709.100   100900405.143       -1989.955          45.000    19200697.595    78623617.954       -1550.587          47.000  
G24  20843404.474                       -3332.086          28.000    20843396.804                       -2596.238          32.000  
G32  20942418.804   110053154.394        1522.741          45.000    20942408.167    85755650.096        1186.405          41.000  
C08  34701527.411   180699957.570        -310.681          46.000    34701510.739   139728590.487        -240.326          48.000  
C13  34711133.923   180749981.100         -17.859          47.000    34711125.303   139767304.697         -13.898          47.000  
C16  35672249.766   185754764.962          22.458          46.000    35672239.707   143637327.297          17.342          47.000  
C25  22186651.469   115531709.374       -2490.188          36.000                                                                  
C32  21076324.831   109749957.695         916.096          50.000                                                                  
C06  35370341.820   184182651.743         202.408          44.000    35370326.263   142421645.713         156.266          47.000  
G25  20568304.999   108087181.489        2618.193          44.000    20568296.087    84223735.571        2040.251          41.000  
G10  19543249.522   102700465.241        1133.545          50.000    19543237.864    80026292.810         883.270          44.000  
G28  22108149.618   116179120.943        2632.556          41.000    22108138.599    90529165.590        2051.576          40.000  
C23  20735607.509   107975747.342         349.469          51.000                                                                  
C09  36841443.742   191843068.833         300.055          40.000    36841431.746   148345176.979         232.177          46.000  
C33  26031750.010   135554118.392       -2906.185          32.000                                                                  
C37  22945783.567   119484730.076        2729.972          43.000                                                                  
> 2025 10 27 02 48 06.4760000  0 19                     
G12  20777352.087   109185724.741         976.742          45.000    20777340.542    85079732.849         761.086          41.000  
G15  23156267.144   121687000.322       -3235.222          36.000    23156258.520    94821000.491       -2521.659          33.000  
G18  23472846.461   123350634.887       -3690.167          37.000    23472841.178    96117343.764       -2875.987          37.000  
G23  19200724.240   100900484.731       -1989.782          45.000    19200712.753    78623679.984       -1550.760          47.000  
G24  20843430.164                       -3332.198          28.000    20843422.147                       -2595.917          31.000  
G32  20942407.216   110053093.499        1522.536          45.000    20942396.561    85755602.641        1186.381          41.000  
C08  34701529.822   180699969.994        -310.626          46.000    34701513.129   139728600.097        -240.295          48.000  
C13  34711134.056   180749981.827         -18.066          47.000    34711125.400   139767305.255         -13.904          47.000  
C16  35672249.610   185754764.061          22.507          46.000    35672239.522   143637326.604          17.310          47.000  
C25  22186670.600   115531808.950       -2489.564          36.000                                                                  
C32  21076317.812   109749921.050         916.119          50.000                                                                  
C06  35370340.235   184182643.667         202.036          44.000    35370324.681   142421639.455         156.379          47.000  
G25  20568285.052   108087076.756        2618.301          44.000    20568276.123    84223653.965        2040.220          41.000  
G10  19543240.873   102700419.897        1133.563          50.000    19543229.243    80026257.471         883.429          44.000  
G28  22108129.567   116179015.631        2632.702          41.000    22108118.564    90529083.535        2051.419          40.000  
C23  20735604.862   107975733.356         349.574          51.000                                                                  
C09  36841441.421   191843056.828         300.115          40.000    36841429.462   148345167.696         232.114          46.000  
C33  26031772.331                       -2905.128          32.000                                                                  
C37  22945762.592   119484620.883        2729.865          43.000                                                                  
> 2025 10 27 02 48 06.5160000  0 19                     
G12  20777344.639   109185685.673         976.690          45.000    20777333.131    85079702.400         761.164          41.000  
G15  23156291.769   121687129.686       -3234.590          36.000    23156283.149    94821101.294       -2520.756          33.000  
G18  23472874.564   123350782.532       -3690.747          37.000    23472869.275    96117458.816       -2876.242          37.000  
G23  19200739.404   100900564.324       -1989.795          45.000    19200727.902    78623742.003       -1550.586          47.000  
G24  20843455.585                       -3332.236          28.000    20843447.501                       -2595.308          31.000  
G32  20942395.619   110053032.594        1522.588          45.000    20942384.982    85755555.178        1186.503          41.000  
C08  34701532.232   180699982.419        -310.620          46.000    34701515.539   139728609.705        -240.253          48.000  
C13  34711134.190   180749982.538         -17.914          47.000    34711125.558   139767305.806         -13.800          47.000  
C16  35672249.452   185754763.160          22.516          46.000    35672239.359   143637325.915          17.239          47.000  
C25  22186689.750   115531908.556       -2489.930          36.000                                                                  
C32  21076310.804   109749884.401         916.202          50.000                                                                  
C06  35370338.681   184182635.590         201.902          44.000    35370323.101   142421633.196         156.443          47.000  
G25  20568265.116   108086972.022        2618.348          44.000    20568256.200    84223572.364        2040.059          41.000  
G10  19543232.236   102700374.546        1133.704          50.000    19543220.594    80026222.129         883.539          44.000  
G28  22108109.520   116178910.330        2632.527          41.000    22108098.535    90529001.485        2051.214          40.000  
C23  20735602.154   107975719.375         349.533          51.000                                                                  
C09  36841439.109   191843044.804         300.460          40.000    36841427.178   148345158.411         232.076          46.000  
C33  26031794.661                       -2905.739          32.000                                                                  
C37  22945741.620   119484511.691        2729.794          43.000                                                                  
> 2025 10 27 02 48 06.5560000  0 19                     
G12  20777337.221   109185646.596         976.792          45.000    20777325.713    85079671.948         761.265          41.000  
G15  23156316.386   121687259.081       -3234.725          36.000    23156307.760    94821202.088       -2520.116          33.000  
G18  23472902.675   123350930.165       -3690.857          37.000    23472897.351    96117573.845       -2876.028          37.000  
G23  19200754.565   100900643.923       -1989.924          45.000    19200743.048    78623804.020       -1550.469          47.000  
G24  20843480.602                       -3331.719          28.000    20843472.838                       -2596.554          32.000  
G32  20942384.034   110052971.700        1522.393          45.000    20942373.395    85755507.721        1186.420          41.000  
C08  34701534.644   180699994.838        -310.522          46.000    34701517.947   139728619.313        -240.216          48.000  
C13  34711134.346   180749983.253         -17.908          47.000    34711125.697   139767306.361         -13.837          47.000  
C16  35672249.296   185754762.260          22.501          46.000    35672239.194   143637325.218          17.317          47.000  
C25  22186708.895   115532008.165       -2490.189          36.000                                                                  
C32  21076303.724   109749847.764         916.007          50.000                                                                  
C06  35370337.116   184182627.492         202.158          44.000    35370321.557   142421626.938         156.439          47.000  
G25  20568245.186   108086867.290        2618.331          44.000    20568236.296    84223490.763        2040.018          41.000  
G10  19543223.610   102700329.201        1133.667          50.000    19543211.989    80026186.798         883.331          44.000  
G28  22108089.484   116178805.009        2632.801          40.000    22108078.488    90528919.419        2051.471          40.000  
C23  20735599.456   107975705.391         349.565          51.000                                                                  
C09  36841436.793   191843032.786         300.499          40.000    36841424.864   148345149.124         232.121          46.000  
C33  26031816.953                       -2904.524          32.000                                                                  
C37  22945720.672   119484402.499        2729.759          43.000                                                                  
> 2025 10 27 02 48 06.5960000  0 19                     
G12  20777329.783   109185607.535         976.558          45.000    20777318.305    85079641.518         760.906          41.000  
G15  23156341.006   121687388.475       -3234.839          36.000    23156332.372    94821302.890       -2519.870          33.000  
G18  23472930.778   123351077.802       -3691.011          37.000    23472925.440    96117688.865       -2875.653          37.000  
G23  19200769.727   100900723.531       -1990.202          45.000    19200758.205    78623866.044       -1550.575          47.000  
G24  20843506.059                       -3331.442          28.000    20843498.180                       -2595.835          32.000  
G32  20942372.430   110052910.800        1522.396          45.000    20942361.828    85755460.273        1186.220          41.000  
C08  34701537.024   180700007.266        -310.632          46.000    34701520.362   139728628.926        -240.320          48.000  
C13  34711134.483   180749983.978         -18.085          47.000    34711125.858   139767306.919         -13.947          47.000  
C16  35672249.142   185754761.372          22.287          46.000    35672239.044   143637324.531          17.180          48.000  
C25  22186728.025   115532107.770       -2490.275          36.000                                                                  
C32  21076296.671   109749811.127         915.887          50.000                                                                  
C06  35370335.541   184182619.408         202.104          44.000    35370319.996   142421620.692         156.212          47.000  
G25  20568225.257   108086762.575        2617.968          44.000    20568216.365    84223409.144        2040.355          41.000  
G10  19543214.978   102700283.865        1133.441          50.000    19543203.398    80026151.479         883.020          44.000  
G28  22108069.463   116178699.696        2632.793          40.000    22108058.420    90528837.342        2051.819          40.000  
C23  20735596.734   107975691.420         349.351          51.000                                                                  
C09  36841434.503   191843020.793         300.031          40.000    36841422.568   148345139.838         232.147          46.000  
C33  26031839.288                       -2905.707          32.000                                                                  
C37  22945699.711   119484293.308        2729.722          43.000                                                                  
> 2025 10 27 02 48 06.6360000  0 19                     
G12  20777322.369   109185568.483         976.285          45.000    20777310.882    85079611.084         760.796          41.000  
G15  23156365.604   121687517.874       -3235.051          36.000    23156356.993    94821403.724       -2520.391          33.000  
G18  23472958.856   123351225.407       -3690.496          37.000    23472953.524    96117803.912       -2875.905          37.000  
G23  19200784.867   100900803.135       -1990.219          45.000    19200773.354    78623928.079       -1550.865          47.000  
G24  20843531.169                       -3331.547          28.000    20843523.562                       -2595.955          32.000  
G32  20942360.861   110052849.902        1522.385          45.000    20942350.260    85755412.818        1186.271          41.000  
C08  34701539.405   180700019.707        -310.956          46.000    34701522.742   139728638.539        -240.369          48.000  
C13  34711134.628   180749984.707         -18.237          47.000    34711125.966   139767307.477         -13.983          47.000  
C16  35672249.021   185754760.475          22.337          46.000    35672238.869   143637323.840          17.176          47.000  
C25  22186747.176   115532207.384       -2490.359          36.000                                                                  
C32  21076289.623   109749774.489         915.878          50.000                                                                  
C06  35370334.011   184182611.321         202.118          44.000    35370318.467   142421614.442         156.173          47.000  
G25  20568205.328   108086657.864        2617.733          44.000    20568196.437    84223327.549        2040.073          41.000  
G10  19543206.384   102700238.536        1133.191          50.000    19543194.775    80026116.152         883.057          44.000  
G28  22108049.429   116178594.394        2632.613          40.000    22108038.377    90528755.293        2051.373          40.000  
C23  20735594.018   107975677.450         349.213          51.000                                                                  
C09  36841432.214   191843008.798         299.790          40.000    36841420.256   148345130.554         232.109          46.000  
C33  26031861.636                       -2906.356          32.000                                                                  
C37  22945678.713   119484184.113        2729.778          43.000                                                                  
> 2025 10 27 02 48 06.6760000  0 19                     
G12  20777314.938   109185529.430         976.196          45.000    20777303.423    85079580.650         760.772          41.000  
G15  23156390.248   121687647.305       -3235.658          36.000    23156381.622    94821504.598       -2521.501          32.000  
G18  23472986.950   123351373.048       -3690.850          37.000    23472981.592    96117918.946       -2875.811          37.000  
G23  19200800.000   100900882.740       -1990.255          45.000    19200788.515    78623990.118       -1551.054          47.000  
G24  20843556.273                       -3331.631          28.000    20843548.912                       -2596.654          32.000  
G32  20942349.261   110052789.014        1522.233          45.000    20942338.687    85755365.376        1186.073          41.000  
C08  34701541.814   180700032.145        -311.023          46.000    34701525.095   139728648.152        -240.387          48.000  
C13  34711134.755   180749985.434         -18.250          47.000    34711126.106   139767308.042         -14.148          47.000  
C16  35672248.865   185754759.584          22.260          46.000    35672238.734   143637323.147          17.210          48.000  
C25  22186766.329   115532306.984       -2490.155          36.000                                                                  
C32  21076282.588   109749737.858         915.759          50.000                                                                  
C06  35370332.445   184182603.237         202.064          44.000    35370316.943   142421608.196         156.097          47.000  
G25  20568185.402   108086553.157        2617.549          44.000    20568176.512    84223245.967        2039.614          41.000  
G10  19543197.760   102700193.207        1133.124          50.000    19543186.143    80026080.832         882.983          44.000  
G28  22108029.388   116178489.095        2632.446          41.000    22108018.354    90528673.241        2051.257          40.000  
C23  20735591.340   107975663.482         349.121          51.000                                                                  
C09  36841429.917   191842996.786         300.033          40.000    36841417.957   148345121.278         231.933          46.000  
C33  26031883.961                       -2907.381          32.000                                                                  
C37  22945657.787   119484074.924        2729.706          43.000                                                                  
> 2025 10 27 02 48 06.7160000  0 19                     
G12  20777307.500   109185490.372         976.263          45.000    20777295.988    85079550.217         760.763          41.000  
G15  23156414.877   121687776.691       -3235.078          36.000    23156406.248    94821605.434       -2521.331          33.000  
G18  23473015.045   123351520.677       -3690.867          37.000    23473009.697    96118033.985       -2875.865          37.000  
G23  19200815.146   100900962.351       -1990.316          45.000    19200803.674    78624052.147       -1550.917          47.000  
G24  20843582.001                       -3332.042          28.000    20843574.287                       -2596.322          32.000  
G32  20942337.650   110052728.123        1522.213          45.000    20942327.081    85755317.930        1186.066          41.000  
C08  34701544.201   180700044.577        -310.938          46.000    34701527.472   139728657.773        -240.509          48.000  
C13  34711134.920   180749986.161         -18.274          47.000    34711126.223   139767308.607         -14.197          47.000  
C16  35672248.694   185754758.702          22.055          46.000    35672238.560   143637322.460          17.161          48.000  
C25  22186785.420   115532406.593       -2490.173          36.000                                                                  
C32  21076275.585   109749701.224         915.763          50.000                                                                  
C06  35370330.898   184182595.163         201.885          44.000    35370315.394   142421601.947         156.151          47.000  
G25  20568165.456   108086448.432        2617.835          44.000    20568156.596    84223164.369        2039.686          41.000  
G10  19543189.118   102700147.873        1133.209          50.000    19543177.502    80026045.503         883.136          44.000  
G28  22108009.349   116178383.800        2632.343          41.000    22107998.330    90528591.194        2051.148          40.000  
C23  20735588.693   107975649.514         349.095          51.000                                                                  
C09  36841427.613   191842984.790         299.967          40.000    36841415.656   148345111.996         231.993          46.000  
C33  26031906.284                       -2906.663          32.000                                                                  
C37  22945636.806   119483965.735        2729.681          43.000                                                                  
> 2025 10 27 02 48 06.7560000  0 19                     
G12  20777300.072   109185451.308         976.468          45.000    20777288.546    85079519.778         760.827          41.000  
G15  23156439.456   121687906.056       -3234.376          36.000    23156430.878    94821706.254       -2520.897          33.000  
G18  23473043.133   123351668.321       -3691.138          37.000    23473037.779    96118149.027       -2876.045          37.000  
G23  19200830.296   100901041.955       -1990.205          45.000    19200818.812    78624114.176       -1550.818          47.000  
G24  20843607.146                       -3331.824          28.000    20843599.670                       -2597.469          32.000  
G32  20942326.044   110052667.222        1522.404          45.000    20942315.505    85755270.474        1186.249          41.000  
C08  34701546.554   180700057.014        -310.956          46.000    34701529.819   139728667.388        -240.491          48.000  
C13  34711135.070   180749986.886         -18.195          47.000    34711126.346   139767309.176         -14.270          47.000  
C16  35672248.551   185754757.811          22.118          46.000    35672238.399   143637321.775          17.096          48.000  
C25  22186804.571   115532506.208       -2490.384          36.000                                                                  
C32  21076268.554   109749664.586         915.882          50.000                                                                  
C06  35370329.370   184182587.082         201.987          44.000    35370313.863   142421595.696         156.191          47.000  
G25  20568145.521   108086343.711        2617.952          44.000    20568136.646    84223082.772        2039.742          41.000  
G10  19543180.461   102700102.538        1133.301          50.000    19543168.878    80026010.171         883.246          44.000  
G28  22107989.287   116178278.496        2632.482          41.000    22107978.307    90528509.149        2051.056          40.000  
C23  20735586.020   107975635.548         349.060          51.000                                                                  
C09  36841425.290   191842972.800         299.772          40.000    36841413.347   148345102.714         232.024          46.000  
C33  26031928.593                       -2906.190          32.000                                                                  
C37  22945615.832   119483856.553        2729.550          43.000                                                                  
> 2025 10 27 02 48 06.7960000  0 19                     
G12  20777292.641   109185412.241         976.613          45.000    20777281.124    85079489.343         760.795          41.000  
G15  23156464.095   121688035.453       -3234.582          36.000    23156455.471    94821807.038       -2520.073          32.000  
G18  23473071.236   123351815.957       -3691.013          37.000    23473065.869    96118264.054       -2875.807          37.000  
G23  19200845.430   100901121.559       -1990.162          45.000    19200833.948    78624176.205       -1550.769          47.000  
G24  20843632.761                       -3332.108          28.000    20843625.013                       -2596.222          32.000  
G32  20942314.461   110052606.331        1522.330          45.000    20942303.932    85755223.028        1186.136          41.000  
C08  34701548.961   180700069.444        -310.840          46.000    34701532.227   139728677.005        -240.479          48.000  
C13  34711135.199   180749987.610         -18.127          47.000    34711126.473   139767309.730         -14.020          47.000  
C16  35672248.421   185754756.916          22.301          46.000    35672238.209   143637321.081          17.229          48.000  
C25  22186823.687   115532605.828       -2490.562          36.000                                                                  
C32  21076261.529   109749627.951         915.868          50.000                                                                  
C06  35370327.850   184182578.987         202.286          44.000    35370312.315   142421589.444         156.271          47.000  
G25  20568125.582   108086238.992        2617.948          44.000    20568116.724    84223001.167        2039.984          41.000  
G10  19543171.820   102700057.202        1133.356          50.000    19543160.248    80025974.853         883.057          44.000  
G28  22107969.241   116178173.190        2632.606          41.000    22107958.296    90528427.088        2051.351          41.000  
C23  20735583.364   107975621.573         349.252          51.000                                                                  
C09  36841422.983   191842960.795         299.982          40.000    36841411.050   148345093.430         232.061          47.000  
C33  26031950.860                       -2905.380          32.000                                                                  
C37  22945594.869   119483747.353        2729.839          43.000                                                                  
> 2025 10 27 02 48 06.8360000  0 19                     
G12  20777285.189   109185373.174         976.705          45.000    20777273.678    85079458.911         760.750          41.000  
G15  23156488.733   121688164.842       -3234.681          36.000    23156480.070    94821907.890       -2520.905          32.000  
G18  23473099.328   123351963.570       -3690.568          37.000    23473093.964    96118379.085       -2875.806          37.000  
G23  19200860.561   100901201.160       -1990.069          45.000    19200849.080    78624238.230       -1550.671          47.000  
G24  20843657.924                       -3332.589          28.000    20843650.371                       -2595.829          32.000  
G32  20942302.887   110052545.428        1522.512          45.000    20942292.342    85755175.559        1186.492          41.000  
C08  34701551.391   180700081.868        -310.657          46.000    34701534.597   139728686.611        -240.259          48.000  
C13  34711135.339   180749988.326         -17.950          47.000    34711126.581   139767310.277         -13.739          47.000  
C16  35672248.278   185754756.017          22.470          46.000    35672238.060   143637320.384          17.338          48.000  
C25  22186842.813   115532705.426       -2490.160          36.000                                                                  
C32  21076254.508   109749591.308         916.021          50.000                                                                  
C06  35370326.288   184182570.910         202.120          44.000    35370310.768   142421583.189         156.345          47.000  
G25  20568105.657   108086134.261        2618.177          44.000    20568096.785    84222919.565        2040.060          41.000  
G10  19543163.188   102700011.862        1133.472          50.000    19543151.626    80025939.521         883.179          44.000  
G28  22107949.191   116178067.877        2632.786          40.000    22107938.268    90528345.031        2051.405          41.000  
C23  20735580.713   107975607.591         349.497          51.000                                                                  
C09  36841420.674   191842948.775         300.345          41.000    36841408.760   148345084.145         232.118          46.000  
C33  26031973.214                       -2905.738          32.000                                                                  
C37  22945573.889   119483638.176        2729.588          43.000                                                                  
> 2025 10 27 02 48 06.8760000  0 19                     
G12  20777277.750   109185334.110         976.656          45.000    20777266.249    85079428.472         760.863          41.000  
G15  23156513.349   121688294.219       -3234.490          36.000    23156504.712    94822008.731       -2521.144          32.000  
G18  23473127.408   123352111.182       -3690.283          37.000    23473122.070    96118494.084       -2875.228          37.000  
G23  19200875.706   100901280.764       -1990.094          45.000    19200864.230    78624300.258       -1550.696          47.000  
G24  20843682.737                       -3332.121          28.000    20843675.740                       -2595.806          32.000  
G32  20942291.282   110052484.524        1522.604          45.000    20942280.754    85755128.115        1186.240          41.000  
C08  34701553.777   180700094.303        -310.773          46.000    34701536.998   139728696.215        -240.118          48.000  
C13  34711135.473   180749989.044         -17.914          47.000    34711126.705   139767310.835         -13.849          47.000  
C16  35672248.146   185754755.117          22.541          46.000    35672237.938   143637319.689          17.387          48.000  
C25  22186861.932   115532805.032       -2490.099          36.000                                                                  
C32  21076247.492   109749554.663         916.127          50.000                                                                  
C06  35370324.723   184182562.820         202.251          44.000    35370309.234   142421576.931         156.414          47.000  
G25  20568085.745   108086029.543        2618.046          44.000    20568076.853    84222837.954        2040.210          41.000  
G10  19543154.552   102699966.521        1133.539          50.000    19543142.996    80025904.192         883.234          44.000  
G28  22107929.163   116177962.563        2632.864          40.000    22107918.212    90528262.966        2051.566          40.000  
C23  20735577.964   107975593.618         349.431          51.000                                                                  
C09  36841418.372   191842936.764         300.359          41.000    36841406.435   148345074.854         232.236          47.000  
C33  26031995.544                       -2906.083          32.000                                                                  
C37  22945552.935   119483528.981        2729.738          43.000                                                                  
> 2025 10 27 02 48 06.9160000  0 19                     
G12  20777270.324   109185295.066         976.281          45.000    20777258.801    85079398.032         760.925          41.000  
G15  23156537.967   121688423.632       -3235.047          36.000    23156529.356    94822109.560       -2520.935          32.000  
G18  23473155.524   123352258.815       -3690.534          37.000    23473150.157    96118609.123       -2875.598          37.000  
G23  19200890.872   100901360.378       -1990.310          45.000    19200879.370    78624362.293       -1550.832          47.000  
G24  20843708.129                       -3332.280          28.000    20843701.092                       -2596.508          32.000  
G32  20942279.719   110052423.628        1522.469          45.000    20942269.186    85755080.657        1186.345          42.000  
C08  34701556.203   180700106.737        -310.864          46.000    34701539.419   139728705.832        -240.338          48.000  
C13  34711135.616   180749989.769         -18.048          47.000    34711126.849   139767311.396         -13.965          47.000  
C16  35672247.957   185754754.224          22.423          46.000    35672237.765   143637319.000          17.265          48.000  
C25  22186881.060   115532904.648       -2490.222          36.000                                                                  
C32  21076240.427   109749518.031         915.926          50.000                                                                  
C06  35370323.160   184182554.734         202.191          44.000    35370307.673   142421570.683         156.250          47.000  
G25  20568065.814   108085924.828        2617.936          44.000    20568056.933    84222756.354        2040.086          41.000  
G10  19543145.940   102699921.190        1133.331          50.000    19543134.363    80025868.877         882.953          44.000  
G28  22107909.124   116177857.270        2632.470          40.000    22107898.166    90528180.916        2051.416          40.000  
C23  20735575.246   107975579.653         349.207          51.000                                                                  
C09  36841416.051   191842924.757         300.211          41.000    36841404.149   148345065.575         232.052          47.000  
C33  26032017.889                       -2907.054          32.000                                                                  
C37  22945531.984   119483419.775        2730.048          43.000                                                                  
> 2025 10 27 02 48 06.9560000  0 19                     
G12  20777262.914   109185256.012         976.255          45.000    20777251.397    85079367.606         760.716          41.000  
G15  23156562.585   121688553.045       -3235.338          36.000    23156553.982    94822210.398       -2520.948          32.000  
G18  23473183.602   123352406.434       -3690.501          37.000    23473178.249    96118724.181       -2876.169          37.000  
G23  19200906.009   100901439.996       -1990.463          45.000    19200894.533    78624424.334       -1551.023          47.000  
G24  20843733.266                       -3331.719          28.000    20843726.417                       -2596.139          32.000  
G32  20942268.143   110052362.737        1522.315          45.000    20942257.600    85755033.206        1186.348          42.000  
C08  34701558.561   180700119.177        -311.035          46.000    34701541.789   139728715.452        -240.497          48.000  
C13  34711135.751   180749990.502         -18.262          47.000    34711126.962   139767311.967         -14.240          47.000  
C16  35672247.788   185754753.338          22.233          46.000    35672237.588   143637318.310          17.220          48.000  
C25  22186900.188   115533004.254       -2490.242          36.000                                                                  
C32  21076233.404   109749481.399         915.785          50.000                                                                  
C06  35370321.601   184182546.655         202.039          44.000    35370306.088   142421564.444         155.996          47.000  
G25  20568045.913   108085820.119        2617.755          44.000    20568037.019    84222674.763        2039.871          41.000  
G10  19543137.328   102699875.863        1133.154          50.000    19543125.728    80025833.550         883.038          44.000  
G28  22107889.116   116177751.981        2632.224          41.000    22107878.127    90528098.861        2051.410          41.000  
C23  20735572.533   107975565.691         349.042          51.000                                                                  
C09  36841413.698   191842912.755         300.093          41.000    36841401.886   148345056.296         231.945          47.000  
C33  26032040.208                       -2907.124          32.000                                                                  
C37  22945511.031   119483310.581        2729.949          43.000                                                                  
> 2025 10 27 02 48 06.9960000  0 19                     
G12  20777255.499   109185216.965         976.137          45.000    20777243.967    85079337.176         760.668          41.000  
G15  23156587.204   121688682.458       -3235.426          36.000    23156578.600    94822311.188       -2520.092          32.000  
G18  23473211.679   123352554.060       -3690.552          37.000    23473206.335    96118839.218       -2876.076          37.000  
G23  19200921.161   100901519.614       -1990.536          45.000    19200909.667    78624486.377       -1551.126          47.000  
G24  20843758.789                       -3332.083          28.000    20843751.783                       -2596.745          32.000  
G32  20942256.544   110052301.847        1522.214          45.000    20942246.008    85754985.759        1186.216          42.000  
C08  34701560.924   180700131.610        -310.968          46.000    34701544.161   139728725.073        -240.601          48.000  
C13  34711135.902   180749991.236         -18.384          47.000    34711127.115   139767312.532         -14.233          47.000  
C16  35672247.631   185754752.455          22.068          46.000    35672237.420   143637317.630          17.021          48.000  
C25  22186919.315   115533103.877       -2490.600          36.000                                                                  
C32  21076226.352   109749444.771         915.667          50.000                                                                  
C06  35370320.029   184182538.579         201.904          44.000    35370304.544   142421558.198         156.019          47.000  
G25  20568025.986   108085715.407        2617.667          44.000    20568017.092    84222593.164        2039.881          41.000  
G10  19543128.733   102699830.543        1132.959          50.000    19543117.091    80025798.234         882.892          44.000  
G28  22107869.086   116177646.682        2632.295          41.000    22107858.101    90528016.802        2051.466          40.000  
C23  20735569.855   107975551.733         348.892          51.000                                                                  
C09  36841411.409   191842900.762         299.907          41.000    36841399.585   148345047.015         231.941          47.000  
C33  26032062.533                       -2905.954          32.000                                                                  
C37  22945490.067   119483201.406        2729.562          43.000                                                                  
> 2025 10 27 02 48 07.0360000  0 19                     
G12  20777248.063   109185177.912         976.200          45.000    20777236.534    85079306.758         760.439          41.000  
G15  23156611.823   121688811.825       -3234.634          36.000    23156603.225    94822412.022       -2520.358          32.000  
G18  23473239.769   123352701.689       -3690.683          37.000    23473234.448    96118954.256       -2876.075          37.000  
G23  19200936.265   100901599.229       -1990.480          45.000    19200924.818    78624548.418       -1551.138          47.000  
G24  20843783.765                       -3331.848          28.000    20843777.179                       -2597.369          32.000  
G32  20942244.965   110052240.955        1522.199          45.000    20942234.412    85754938.316        1186.063          42.000  
C08  34701563.279   180700144.050        -311.029          46.000    34701546.533   139728734.686        -240.466          48.000  
C13  34711136.058   180749991.960         -18.231          47.000    34711127.255   139767313.091         -14.099          47.000  
C16  35672247.494   185754751.561          22.186          46.000    35672237.279   143637316.949          16.963          48.000  
C25  22186938.429   115533203.495       -2490.567          36.000                                                                  
C32  21076219.314   109749408.141         915.684          50.000                                                                  
C06  35370318.474   184182530.511         201.707          44.000    35370302.967   142421551.955         156.005          47.000  
G25  20568006.057   108085610.705        2617.505          44.000    20567997.176    84222511.586        2039.554          41.000  
G10  19543120.083   102699785.218        1132.996          50.000    19543108.473    80025762.914         882.910          44.000  
G28  22107849.054   116177541.379        2632.439          41.000    22107838.059    90527934.763        2051.161          41.000  
C23  20735567.187   107975537.771         348.919          51.000                                                                  
C09  36841409.111   191842888.765         299.885          41.000    36841397.269   148345037.735         231.942          47.000  
C33  26032084.817                       -2906.676          32.000                                                                  
C37  22945469.095   119483092.229        2729.391          43.000                                                                  
> 2025 10 27 02 48 07.0760000  0 19                     
G12  20777240.628   109185138.861         976.181          45.000    20777229.091    85079276.323         760.693          41.000  
G15  23156636.461   121688941.219       -3234.645          36.000    23156627.852    94822512.861       -2520.667          32.000  
G18  23473267.877   123352849.328       -3690.923          37.000    23473262.545    96119069.292       -2875.957          37.000  
G23  19200951.430   100901678.838       -1990.307          45.000    19200939.953    78624610.450       -1550.946          47.000  
G24  20843809.197                       -3331.691          28.000    20843802.568                       -2596.733          32.000  
G32  20942233.376   110052180.060        1522.307          45.000    20942222.821    85754890.871        1186.034          42.000  
C08  34701565.641   180700156.486        -310.962          46.000    34701548.914   139728744.304        -240.442          48.000  
C13  34711136.216   180749992.686         -18.152          47.000    34711127.383   139767313.650         -14.020          47.000  
C16  35672247.329   185754750.669          22.258          46.000    35672237.081   143637316.252          17.243          48.000  
C25  22186957.553   115533303.111       -2490.542          36.000                                                                  
C32  21076212.296   109749371.505         915.788          50.000                                                                  
C06  35370316.919   184182522.431         201.841          44.000    35370301.402   142421545.708         156.073          47.000  
G25  20567986.106   108085505.993        2617.587          44.000    20567977.285    84222429.990        2039.735          41.000  
G10  19543111.469   102699739.888        1133.136          50.000    19543099.855    80025727.589         883.063          44.000  
G28  22107829.024   116177436.075        2632.520          41.000    22107818.015    90527852.715        2051.144          41.000  
C23  20735564.510   107975523.810         348.949          51.000                                                                  
C09  36841406.823   191842876.761         299.974          41.000    36841394.965   148345028.451         232.043          47.000  
C33  26032107.172                       -2906.016          32.000                                                                  
C37  22945448.122   119482983.042        2729.482          43.000                                                                  
> 2025 10 27 02 48 07.1160000  0 19                     
G12  20777233.192   109185099.796         976.433          45.000    20777221.682    85079245.886         760.847          41.000  
G15  23156661.086   121689070.635       -3235.116          36.000    23156652.465    94822613.695       -2520.808          32.000  
G18  23473295.974   123352996.951       -3690.772          37.000    23473290.632    96119184.313       -2875.702          37.000  
G23  19200966.570   100901758.445       -1990.209          45.000    19200955.076    78624672.479       -1550.774          47.000  
G24  20843834.469                       -3331.492          28.000    20843827.922                       -2596.590          32.000  
G32  20942221.799   110052119.164        1522.358          45.000    20942211.212    85754843.410        1186.349          42.000  
C08  34701568.035   180700168.917        -310.828          46.000    34701551.292   139728753.916        -240.320          48.000  
C13  34711136.375   180749993.414         -18.195          47.000    34711127.525   139767314.206         -13.922          47.000  
C16  35672247.194   185754749.772          22.347          46.000    35672236.909   143637315.556          17.389          48.000  
C25  22186976.655   115533402.709       -2490.197          36.000                                                                  
C32  21076205.276   109749334.870         915.852          50.000                                                                  
C06  35370315.389   184182514.336         202.197          44.000    35370299.870   142421539.446         156.404          47.000  
G25  20567966.165   108085401.267        2617.930          44.000    20567957.334    84222348.392        2039.893          41.000  
G10  19543102.808   102699694.552        1133.319          50.000    19543091.235    80025692.268         883.057          44.000  
G28  22107809.006   116177330.772        2632.576          40.000    22107797.981    90527770.665        2051.220          41.000  
C23  20735561.851   107975509.840         349.118          51.000                                                                  
C09  36841404.549   191842864.750         300.161          41.000    36841392.664   148345019.168         232.055          47.000  
C33  26032129.464                       -2905.271          32.000                                                                  
C37  22945427.144   119482873.848        2729.692          43.000                                                                  
> 2025 10 27 02 48 07.1560000  0 19                     
G12  20777225.775   109185060.749         976.255          45.000    20777214.273    85079215.451         760.894          41.000  
G15  23156685.710   121689200.011       -3234.655          36.000    23156677.087    94822714.508       -2520.443          32.000  
G18  23473324.077   123353144.577       -3690.665          37.000    23473318.732    96119299.347       -2875.774          37.000  
G23  19200981.733   100901838.062       -1990.345          45.000    19200970.216    78624734.514       -1550.812          47.000  
G24  20843859.734                       -3331.962          28.000    20843853.320                       -2596.246          32.000  
G32  20942210.186   110052058.261        1522.505          45.000    20942199.604    85754795.958        1186.329          42.000  
C08  34701570.427   180700181.348        -310.748          46.000    34701553.701   139728763.530        -240.332          48.000  
C13  34711136.530   180749994.136         -18.085          47.000    34711127.676   139767314.769         -14.026          47.000  
C16  35672247.025   185754748.876          22.391          46.000    35672236.718   143637314.860          17.421          48.000  
C25  22186995.788   115533502.324       -2490.240          36.000                                                                  
C32  21076198.229   109749298.234         915.883          50.000                                                                  
C06  35370313.839   184182506.244         202.306          44.000    35370298.318   142421533.194         156.381          47.000  
G25  20567946.269   108085296.554        2617.893          44.000    20567937.391    84222266.797        2039.929          41.000  
G10  19543094.205   102699649.229        1133.160          50.000    19543082.602    80025656.948         883.008          44.000  
G28  22107788.961   116177225.461        2632.768          41.000    22107777.938    90527688.602        2051.469          41.000  
C23  20735559.199   107975495.870         349.224          51.000                                                                  
C09  36841402.234   191842852.753         300.029          41.000    36841390.370   148345009.888         231.998          47.000  
C33  26032151.809                       -2905.918          32.000                                                                  
C37  22945406.177   119482764.654        2729.821          43.000                                                                  
> 2025 10 27 02 48 07.1960000  0 19                     
G12  20777218.359   109185021.708         976.029          45.000    20777206.831    85079185.019         760.832          41.000  
G15  23156710.343   121689329.394       -3234.510          36.000    23156701.709    94822815.315       -2520.134          32.000  
G18  23473352.182   123353292.211       -3690.790          37.000    23473346.816    96119414.366       -2875.590          37.000  
G23  19200996.876   100901917.673       -1990.333          45.000    19200985.370    78624796.553       -1550.917          47.000  
G24  20843884.826                       -3332.164          28.000    20843878.661                       -2595.648          32.000  
G32  20942198.604   110051997.358        1522.606          45.000    20942188.016    85754748.503        1186.319          42.000  
C08  34701572.839   180700193.777        -310.718          46.000    34701556.106   139728773.146        -240.363          48.000  
C13  34711136.686   180749994.859         -18.073          47.000    34711127.832   139767315.333         -14.099          47.000  
C16  35672246.857   185754747.988          22.266          46.000    35672236.549   143637314.170          17.318          48.000  
C25  22187014.907   115533601.929       -2490.123          36.000                                                                  
C32  21076191.161   109749261.600         915.856          50.000                                                                  
C06  35370312.330   184182498.161         202.229          44.000    35370296.784   142421526.939         156.366          47.000  
G25  20567926.364   108085191.845        2617.781          44.000    20567917.467    84222185.200        2039.987          41.000  
G10  19543085.587   102699603.907        1133.051          50.000    19543073.964    80025621.637         882.782          44.000  
G28  22107768.921   116177120.170        2632.398          41.000    22107757.893    90527606.555        2051.305          41.000  
C23  20735556.479   107975481.907         349.136          51.000                                                                  
C09  36841399.922   191842840.744         300.128          41.000    36841388.050   148345000.603         232.067          47.000  
C33  26032174.115                       -2905.948          32.000                                                                  
C37  22945385.204   119482655.469        2729.696          43.000                                                                  
> 2025 10 27 02 48 07.2360000  0 19                     
G12  20777210.937   109184982.661         976.035          45.000    20777199.387    85079154.595         760.637          41.000  
G15  23156734.975   121689458.814       -3235.197          36.000    23156726.332    94822916.150       -2520.502          32.000  
G18  23473380.278   123353439.847       -3690.865          37.000    23473374.914    96119529.421       -2876.144          37.000  
G23  19201012.044   100901997.294       -1990.474          45.000    19201000.536    78624858.593       -1551.028          47.000  
G24  20843910.538                       -3332.124          28.000    20843904.032                       -2595.669          32.000  
G32  20942187.025   110051936.462        1522.504          45.000    20942176.415    85754701.047        1186.378          42.000  
C08  34701575.243   180700206.210        -310.797          46.000    34701558.511   139728782.761        -240.381          48.000  
C13  34711136.840   180749995.589         -18.231          47.000    34711127.956   139767315.893         -14.050          47.000  
C16  35672246.678   185754747.096          22.259          46.000    35672236.371   143637313.485          17.162          48.000  
C25  22187034.051   115533701.550       -2490.396          36.000                                                                  
C32  21076184.074   109749224.972         915.741          50.000                                                                  
C06  35370310.789   184182490.094         201.871          44.000    35370295.250   142421520.698         156.128          47.000  
G25  20567906.442   108085087.125        2617.905          44.000    20567897.519    84222103.606        2039.883          41.000  
G10  19543076.972   102699558.583        1133.051          50.000    19543065.330    80025586.314         882.947          44.000  
G28  22107748.886   116177014.891        2631.989          41.000    22107737.855    90527524.504        2051.198          41.000  
C23  20735553.789   107975467.945         349.058          51.000                                                                  
C09  36841397.607   191842828.747         299.977          41.000    36841385.729   148344991.326         231.954          47.000  
C33  26032196.436                       -2906.527          32.000                                                                  
C37  22945364.224   119482546.287        2729.576          43.000                                                                  
> 2025 10 27 02 48 07.2760000  0 19                     
G12  20777203.494   109184943.603         976.267          45.000    20777191.961    85079124.171         760.523          41.000  
G15  23156759.594   121689588.207       -3234.993          36.000    23156750.968    94823017.002       -2521.161          32.000  
G18  23473408.373   123353587.459       -3690.485          37.000    23473403.017    96119644.454       -2876.061          37.000  
G23  19201027.200   100902076.909       -1990.437          45.000    19201015.689    78624920.631       -1551.027          47.000  
G24  20843935.618                       -3331.839          28.000    20843929.436                       -2596.488          32.000  
G32  20942175.454   110051875.572        1522.314          45.000    20942164.839    85754653.605        1186.185          42.000  
C08  34701577.646   180700218.645        -310.870          46.000    34701560.909   139728792.374        -240.356          49.000  
C13  34711136.965   180749996.313         -18.176          47.000    34711128.120   139767316.456         -14.087          47.000  
C16  35672246.511   185754746.200          22.339          46.000    35672236.220   143637312.797          17.135          48.000  
C25  22187053.161   115533801.184       -2490.801          36.000                                                                  
C32  21076177.065   109749188.334         915.884          50.000                                                                  
C06  35370309.240   184182482.014         201.876          44.000    35370293.679   142421514.449         156.155          47.000  
G25  20567886.508   108084982.409        2617.908          44.000    20567877.623    84222022.017        2039.739          41.000  
G10  19543068.340   102699513.253        1133.154          50.000    19543056.685    80025550.991         883.020          44.000  
G28  22107728.862   116176909.587        2632.329          41.000    22107717.814    90527442.457        2051.131          41.000  
C23  20735551.114   107975453.985         348.976          51.000                                                                  
C09  36841395.315   191842816.737         300.128          41.000    36841383.425   148344982.044         231.993          47.000  
C33  26032218.758                       -2906.557          32.000                                                                  
C37  22945343.260   119482437.097        2729.660          43.000                                                                  
> 2025 10 27 02 48 07.3160000  0 19                     
G12  20777196.051   109184904.547         976.381          45.000    20777184.535    85079093.745         760.542          41.000  
G15  23156784.250   121689717.606       -3234.905          36.000    23156775.586    94823117.823       -2520.941          32.000  
G18  23473436.442   123353735.072       -3690.290          37.000    23473431.127    96119759.479       -2875.787          37.000  
G23  19201042.349   100902156.520       -1990.307          45.000    19201030.830    78624982.669       -1551.014          47.000  
G24  20843961.135                       -3331.751          28.000    20843954.811                       -2597.089          32.000  
G32  20942163.879   110051814.683        1522.209          45.000    20942153.270    85754606.154        1186.261          41.000  
C08  34701580.016   180700231.077        -310.840          46.000    34701563.284   139728801.985        -240.302          49.000  
C13  34711137.143   180749997.033         -18.073          47.000    34711128.243   139767317.012         -13.971          47.000  
C16  35672246.349   185754745.299          22.454          46.000    35672236.045   143637312.106          17.217          48.000  
C25  22187072.293   115533900.793       -2490.510          36.000                                                                  
C32  21076170.034   109749151.696         915.926          50.000                                                                  
C06  35370307.690   184182473.928         202.040          44.000    35370292.138   142421508.200         156.157          47.000  
G25  20567866.590   108084877.701        2617.770          44.000    20567857.691    84221940.411        2040.026          41.000  
G10  19543059.693   102699467.920        1133.276          50.000    19543048.065    80025515.672         882.983          44.000  
G28  22107708.805   116176804.279        2632.603          41.000    22107697.777    90527360.414        2051.039          40.000  
C23  20735548.444   107975440.022         348.999          51.000                                                                  
C09  36841393.005   191842804.729         300.190          41.000    36841381.111   148344972.758         232.093          47.000  
C33  26032241.108                       -2906.792          32.000                                                                  
C37  22945322.284   119482327.903        2729.828          43.000                                                                  
> 2025 10 27 02 48 07.3560000  0 19                     
G12  20777188.636   109184865.495         976.337          45.000    20777177.124    85079063.319         760.591          41.000  
G15  23156808.876   121689846.980       -3234.523          36.000    23156800.196    94823218.695       -2521.760          32.000  
G18  23473464.549   123353882.702       -3690.613          37.000    23473459.202    96119874.489       -2875.363          37.000  
G23  19201057.509   100902236.139       -1990.443          45.000    19201045.957    78625044.706       -1550.959          47.000  
G24  20843986.684                       -3332.144          28.000    20843980.180                       -2596.830          32.000  
G32  20942152.304   110051753.781        1522.408          45.000    20942141.704    85754558.702        1186.341          41.000  
C08  34701582.375   180700243.510        -310.858          46.000    34701565.644   139728811.598        -240.326          49.000  
C13  34711137.294   180749997.756         -18.079          47.000    34711128.368   139767317.571         -13.977          47.000  
C16  35672246.170   185754744.411          22.272          46.000    35672235.887   143637311.412          17.284          48.000  
C25  22187091.420   115534000.392       -2490.128          36.000                                                                  
C32  21076162.941   109749115.059         915.923          50.000                                                                  
C06  35370306.130   184182465.834         202.333          44.000    35370290.561   142421501.946         156.277          47.000  
G25  20567846.652   108084772.978        2617.955          44.000    20567837.766    84221858.817        2039.949          41.000  
G10  19543051.081   102699422.596        1133.148          50.000    19543039.456    80025480.351         883.002          44.000  
G28  22107688.783   116176698.977        2632.613          41.000    22107677.738    90527278.359        2051.227          40.000  
C23  20735545.756   107975426.058         349.012          51.000                                                                  
C09  36841390.678   191842792.724         300.164          41.000    36841378.787   148344963.473         232.097          47.000  
C33  26032263.446                       -2906.490          32.000                                                                  
C37  22945301.293   119482218.711        2729.835          43.000                                                                  
> 2025 10 27 02 48 07.3960000  0 19                     
G12  20777181.243   109184826.458         976.031          45.000    20777169.704    85079032.895         760.578          41.000  
G15  23156833.493   121689976.378       -3234.719          36.000    23156824.828    94823319.495       -2520.767          32.000  
G18  23473492.641   123354030.321       -3690.557          37.000    23473487.296    96119989.509       -2875.269          37.000  
G23  19201072.665   100902315.758       -1990.505          45.000    19201061.095    78625106.744       -1550.971          47.000  
G24  20844012.487                       -3332.080          28.000    20844005.547                       -2596.352          32.000  
G32  20942140.716   110051692.885        1522.386          45.000    20942130.111    85754511.248        1186.417          41.000  
C08  34701584.780   180700255.942        -310.822          46.000    34701568.006   139728821.218        -240.479          49.000  
C13  34711137.448   180749998.483         -18.158          47.000    34711128.493   139767318.129         -13.977          47.000  
C16  35672245.992   185754743.530          22.048          46.000    35672235.723   143637310.723          17.233          48.000  
C25  22187110.562   115534099.997       -2490.136          36.000                                                                  
C32  21076155.889   109749078.429         915.808          50.000                                                                  
C06  35370304.584   184182457.745         202.314          44.000    35370289.018   142421495.697         156.256          47.000  
G25  20567826.708   108084668.261        2617.925          44.000    20567817.848    84221777.231        2039.773          41.000  
G10  19543042.448   102699377.279        1132.928          50.000    19543030.852    80025445.049         882.678          44.000  
G28  22107668.744   116176593.666        2632.780          40.000    22107657.689    90527196.299        2051.432          40.000  
C23  20735543.058   107975412.102         348.917          51.000                                                                  
C09  36841388.384   191842780.719         300.081          41.000    36841376.483   148344954.196         231.946          47.000  
C33  26032285.717                       -2905.931          32.000                                                                  
C37  22945280.305   119482109.523        2729.778          43.000                                                                  
> 2025 10 27 02 48 07.4360000  0 19                     
G12  20777173.811   109184787.417         975.940          45.000    20777162.281    85079002.454         760.870          41.000  
G15  23156858.119   121690105.771       -3234.832          36.000    23156849.444    94823420.306       -2520.437          32.000  
G18  23473520.746   123354177.956       -3690.872          37.000    23473515.391    96120104.564       -2875.896          37.000  
G23  19201087.782   100902395.373       -1990.443          45.000    19201076.234    78625168.782       -1550.977          47.000  
G24  20844037.811                       -3332.073          28.000    20844030.925                       -2596.037          32.000  
G32  20942129.120   110051631.989        1522.392          45.000    20942118.515    85754463.785        1186.622          41.000  
C08  34701587.160   180700268.378        -310.907          46.000    34701570.409   139728830.832        -240.399          49.000  
C13  34711137.585   180749999.206         -18.146          47.000    34711128.636   139767318.689         -13.995          47.000  
C16  35672245.832   185754742.634          22.191          46.000    35672235.539   143637310.030          17.285          48.000  
C25  22187129.677   115534199.631       -2490.635          36.000                                                                  
C32  21076148.865   109749041.800         915.726          50.000                                                                  
C06  35370303.027   184182449.666         202.074          44.000    35370287.442   142421489.438         156.411          47.000  
G25  20567806.793   108084563.561        2617.645          44.000    20567797.912    84221695.632        2039.907          41.000  
G10  19543033.820   102699331.958        1132.935          50.000    19543022.225    80025409.725         882.874          44.000  
G28  22107648.691   116176488.364        2632.615          40.000    22107637.644    90527114.241        2051.467          40.000  
C23  20735540.380   107975398.142         348.938          51.000                                                                  
C09  36841386.077   191842768.717         300.026          41.000    36841374.185   148344944.919         231.891          47.000  
C33  26032308.021                       -2905.874          32.000                                                                  
C37  22945259.311   119482000.349        2729.442          43.000                                                                  
> 2025 10 27 02 48 07.4760000  0 19                     
G12  20777166.391   109184748.373         975.985          45.000    20777154.847    85078972.023         760.837          41.000  
G15  23156882.741   121690235.182       -3235.217          36.000    23156874.078    94823521.119       -2520.273          32.000  
G18  23473548.843   123354325.574       -3690.669          37.000    23473543.479    96120219.579       -2875.514          37.000  
G23  19201102.936   100902474.999       -1990.609          45.000    19201091.375    78625230.826       -1551.070          47.000  
G24  20844062.999                       -3332.300          28.000    20844056.290                       -2596.373          32.000  
G32  20942117.509   110051571.092        1522.410          45.000    20942106.924    85754416.342        1186.331          41.000  
C08  34701589.566   180700280.811        -310.870          46.000    34701572.807   139728840.443        -240.320          49.000  
C13  34711137.741   180749999.933         -18.213          47.000    34711128.775   139767319.256         -14.124          47.000  
C16  35672245.672   185754741.737          22.322          46.000    35672235.371   143637309.346          17.140          48.000  
C25  22187148.819   115534299.229       -2490.290          36.000                                                                  
C32  21076141.843   109749005.165         915.774          50.000                                                                  
C06  35370301.470   184182441.592         201.895          44.000    35370285.876   142421483.189         156.288          47.000  
G25  20567786.870   108084458.851        2617.672          44.000    20567777.989    84221614.035        2039.889          41.000  
G10  19543025.187   102699286.634        1133.002          50.000    19543013.588    80025374.407         882.904          44.000  
G28  22107628.675   116176383.082        2632.136          41.000    22107617.613    90527032.195        2051.242          41.000  
C23  20735537.706   107975384.183         348.960          51.000                                                                  
C09  36841383.765   191842756.716         299.983          40.000    36841371.860   148344935.634         232.031          47.000  
C33  26032330.367   135557140.829       -2905.977          32.000                                                                  
C37  22945238.352   119481891.164        2729.479          43.000                                                                  
> 2025 10 27 02 48 07.5160000  0 19                     
G12  20777158.956   109184709.324         976.098          45.000    20777147.449    85078941.611         760.412          41.000  
G15  23156907.358   121690364.599       -3235.488          36.000    23156898.713    94823621.950       -2520.576          32.000  
G18  23473576.920   123354473.192       -3690.565          37.000    23473571.569    96120334.612       -2875.637          37.000  
G23  19201118.087   100902554.615       -1990.516          45.000    19201106.558    78625292.873       -1551.186          47.000  
G24  20844088.211                       -3332.025          28.000    20844081.630                       -2596.122          32.000  
G32  20942105.919   110051510.194        1522.408          45.000    20942095.331    85754368.891        1186.293          41.000  
C08  34701591.920   180700293.253        -311.072          46.000    34701575.223   139728850.063        -240.466          49.000  
C13  34711137.889   180750000.663         -18.286          47.000    34711128.912   139767319.819         -14.136          47.000  
C16  35672245.473   185754740.846          22.322          46.000    35672235.212   143637308.663          17.052          48.000  
C25  22187167.913   115534398.854       -2490.567          36.000                                                                  
C32  21076134.777   109748968.537         915.717          50.000                                                                  
C06  35370299.907   184182433.509         201.926          44.000    35370284.294   142421476.942         156.182          47.000  
G25  20567766.952   108084354.153        2617.459          44.000    20567758.086    84221532.446        2039.754          41.000  
G10  19543016.561   102699241.312        1133.020          50.000    19543004.969    80025339.090         882.898          44.000  
G28  22107608.621   116176277.788        2632.101          40.000    22107597.567    90526950.146        2051.174          41.000  
C23  20735535.007   107975370.226         348.928          51.000                                                                  
C09  36841381.461   191842744.734         299.620          40.000    36841369.552   148344926.348         232.125          47.000  
C33  26032352.715   135557257.099       -2906.465          32.000                                                                  
C37  22945217.378   119481781.972        2729.615          43.000                                                                  
> 2025 10 27 02 48 07.5560000  0 19                     
G12  20777151.539   109184670.290         975.936          45.000    20777140.030    85078911.195         760.325          41.000  
G15  23156931.989   121690493.992       -3235.121          36.000    23156923.294    94823722.770       -2520.635          32.000  
G18  23473605.018   123354620.823       -3690.701          37.000    23473599.654    96120449.659       -2875.997          37.000  
G23  19201133.245   100902634.237       -1990.571          45.000    19201121.703    78625354.913       -1551.087          47.000  
G24  20844113.322                       -3331.809          28.000    20844107.002                       -2596.589          32.000  
G32  20942094.340   110051449.296        1522.428          45.000    20942083.732    85754321.458        1185.946          41.000  
C08  34701594.317   180700305.691        -311.053          46.000    34701577.639   139728859.682        -240.521          49.000  
C13  34711138.064   180750001.390         -18.231          47.000    34711129.056   139767320.384         -14.148          47.000  
C16  35672245.285   185754739.952          22.334          46.000    35672235.056   143637307.973          17.146          48.000  
C25  22187187.046   115534498.469       -2490.511          36.000                                                                  
C32  21076127.734   109748931.907         915.700          50.000                                                                  
C06  35370298.357   184182425.434         201.837          44.000    35370282.749   142421470.703         156.001          47.000  
G25  20567747.026   108084249.435        2617.766          44.000    20567738.166    84221450.857        2039.676          41.000  
G10  19543007.954   102699195.998        1132.892          50.000    19542996.342    80025303.779         882.764          44.000  
G28  22107588.594   116176172.495        2632.078          40.000    22107577.512    90526868.105        2050.962          41.000  
C23  20735532.337   107975356.270         348.884          51.000                                                                  
C09  36841379.178   191842732.721         300.072          40.000    36841367.248   148344917.068         232.067          47.000  
C33  26032375.048   135557373.340       -2906.139          32.000                                                                  
C37  22945196.428   119481672.794        2729.447          43.000                                                                  
> 2025 10 27 02 48 07.5960000  0 19                     
G12  20777144.113   109184631.253         975.860          45.000    20777132.598    85078880.778         760.333          41.000  
G15  23156956.591   121690623.368       -3234.688          36.000    23156947.913    94823823.627       -2521.281          32.000  
G18  23473633.123   123354768.440       -3690.466          37.000    23473627.739    96120564.702       -2876.168          37.000  
G23  19201148.421   100902713.864       -1990.707          45.000    19201136.858    78625416.966       -1551.278          47.000  
G24  20844138.948                       -3332.234          28.000    20844132.384                       -2597.003          32.000  
G32  20942082.791   110051388.410        1522.201          45.000    20942072.138    85754274.007        1186.068          41.000  
C08  34701596.708   180700318.131        -311.060          46.000    34701580.003   139728869.300        -240.497          49.000  
C13  34711138.188   180750002.120         -18.268          47.000    34711129.197   139767320.949         -14.154          47.000  
C16  35672245.123   185754739.065          22.242          46.000    35672234.888   143637307.274          17.340          48.000  
C25  22187206.176   115534598.089       -2490.522          36.000                                                                  
C32  21076120.694   109748895.278         915.681          50.000                                                                  
C06  35370296.843   184182417.349         201.989          44.000    35370281.220   142421464.457         156.022          47.000  
G25  20567727.093   108084144.731        2617.659          44.000    20567718.255    84221369.278        2039.465          41.000  
G10  19542999.343   102699150.680        1132.874          50.000    19542987.728    80025268.471         882.654          44.000  
G28  22107568.576   116176067.195        2632.267          40.000    22107557.456    90526786.057        2051.014          41.000  
C23  20735529.650   107975342.323         348.717          51.000                                                                  
C09  36841376.881   191842720.719         300.114          41.000    36841364.952   148344907.795         231.891          47.000  
C33  26032397.342   135557489.585       -2906.070          32.000                                                                  
C37  22945175.442   119481563.614        2729.419          43.000                                                                  
> 2025 10 27 02 48 07.6360000  0 19                     
G12  20777136.679   109184592.212         975.887          45.000    20777125.176    85078850.362         760.345          41.000  
G15  23156981.202   121690752.761       -3234.695          36.000    23156972.538    94823924.442       -2520.818          33.000  
G18  23473661.211   123354916.074       -3690.638          37.000    23473655.834    96120679.723       -2875.759          37.000  
G23  19201163.581   100902793.502       -1990.953          45.000    19201151.990    78625479.012       -1551.247          47.000  
G24  20844164.524                       -3332.410          28.000    20844157.739    85353334.374       -2596.609          32.000  
G32  20942071.180   110051327.518        1522.219          45.000    20942060.562    85754226.535        1186.541          41.000  
C08  34701599.098   180700330.575        -311.127          46.000    34701582.381   139728878.916        -240.472          49.000  
C13  34711138.316   180750002.855         -18.390          47.000    34711129.311   139767321.515         -14.178          47.000  
C16  35672244.929   185754738.186          22.034          46.000    35672234.729   143637306.594          17.094          48.000  
C25  22187225.293   115534697.727       -2490.874          36.000                                                                  
C32  21076113.670   109748858.657         915.534          50.000                                                                  
C06  35370295.276   184182409.276         201.869          44.000    35370279.691   142421458.206         156.158          47.000  
G25  20567707.174   108084040.028        2617.565          44.000    20567698.310    84221287.697        2039.428          41.000  
G10  19542990.725   102699105.370        1132.745          50.000    19542979.094    80025233.167         882.532          44.000  
G28  22107548.541   116175961.901        2632.311          40.000    22107537.412    90526704.015        2050.972          41.000  
C23  20735526.967   107975328.374         348.656          51.000                                                                  
C09  36841374.614   191842708.730         299.835          41.000    36841362.614   148344898.517         231.887          47.000  
C33  26032419.668   135557605.850       -2906.461          32.000                                                                  
C37  22945154.478   119481454.436        2729.384          43.000                                                                  
> 2025 10 27 02 48 07.6760000  0 19                     
G12  20777129.267   109184553.176         975.884          45.000    20777117.782    85078819.944         760.440          41.000  
G15  23157005.815   121690882.175       -3235.168          36.000    23156997.180    94824025.297       -2521.210          33.000  
G18  23473689.312   123355063.700       -3690.589          37.000    23473683.941    96120794.762       -2875.819          37.000  
G23  19201178.714   100902873.140       -1991.025          45.000    19201167.158    78625541.064       -1551.345          47.000  
G24  20844190.061                       -3332.660          28.000    20844183.104                       -2596.415          32.000  
G32  20942059.579   110051266.632        1522.090          45.000    20942048.977    85754179.092        1186.295          42.000  
C08  34701601.471   180700343.017        -311.121          46.000    34701584.728   139728888.540        -240.576          49.000  
C13  34711138.455   180750003.587         -18.384          47.000    34711129.420   139767322.085         -14.270          47.000  
C16  35672244.748   185754737.304          22.001          46.000    35672234.567   143637305.918          16.916          48.000  
C25  22187244.423   115534797.354       -2490.891          36.000                                                                  
C32  21076106.667   109748822.031         915.570          50.000                                                                  
C06  35370293.731   184182401.202         201.813          44.000    35370278.153   142421451.961         156.138          47.000  
G25  20567687.255   108083935.332        2617.400          44.000    20567678.386    84221206.113        2039.451          41.000  
G10  19542982.091   102699060.057        1132.739          50.000    19542970.486    80025197.858         882.605          44.000  
G28  22107528.490   116175856.609        2632.273          40.000    22107517.381    90526621.959        2051.222          41.000  
C23  20735524.283   107975314.426         348.642          51.000                                                                  
C09  36841372.301   191842696.733         299.849          40.000    36841360.330   148344889.244         231.819          47.000  
C33  26032442.003   135557722.136       -2907.101          32.000                                                                  
C37  22945133.532   119481345.256        2729.400          43.000                                                                  
> 2025 10 27 02 48 07.7160000  0 19                     
G12  20777121.840   109184514.151         975.640          45.000    20777110.346    85078789.528         760.390          41.000  
G15  23157030.428   121691011.604       -3235.736          36.000    23157021.786    94824126.121       -2520.844          33.000  
G18  23473717.442   123355211.359       -3691.156          37.000    23473712.019    96120909.805       -2875.959          37.000  
G23  19201193.851   100902952.773       -1990.987          45.000    19201182.313    78625603.118       -1551.400          47.000  
G24  20844215.754                       -3332.346          28.000    20844208.445    85353542.078       -2596.192          32.000  
G32  20942047.988   110051205.748        1522.032          45.000    20942037.410    85754131.655        1185.990          42.000  
C08  34701603.878   180700355.462        -311.169          46.000    34701587.112   139728898.168        -240.704          49.000  
C13  34711138.584   180750004.323         -18.433          47.000    34711129.568   139767322.651         -14.233          47.000  
C16  35672244.551   185754736.429          21.850          46.000    35672234.399   143637305.235          16.942          48.000  
C25  22187263.571   115534897.002       -2491.173          36.000                                                                  
C32  21076099.587   109748785.416         915.379          50.000                                                                  
C06  35370292.205   184182393.122         201.901          44.000    35370276.602   142421445.713         156.156          47.000  
G25  20567667.336   108083830.633        2617.380          44.000    20567658.477    84221124.542        2039.217          41.000  
G10  19542973.483   102699014.750        1132.635          50.000    19542961.841    80025162.550         882.648          44.000  
G28  22107508.463   116175751.324        2632.181          40.000    22107497.342    90526539.926        2050.878          41.000  
C23  20735521.577   107975300.480         348.618          51.000                                                                  
C09  36841369.963   191842684.736         299.817          41.000    36841358.027   148344879.977         231.663          47.000  
C33  26032464.329   135557838.424       -2907.364          32.000                                                                  
C37  22945112.550   119481236.073        2729.466          43.000                                                                  
> 2025 10 27 02 48 07.7560000  0 19                     
G12  20777114.434   109184475.125         975.568          45.000    20777102.918    85078759.116         760.252          41.000  
G15  23157055.041   121691140.999       -3235.422          36.000    23157046.418    94824226.941       -2520.650          33.000  
G18  23473745.521   123355358.967       -3690.607          37.000    23473740.113    96121024.832       -2875.844          37.000  
G23  19201209.013   100903032.409       -1990.950          45.000    19201197.451    78625665.169       -1551.350          47.000  
G24  20844241.383                       -3332.283          28.000    20844233.799                       -2596.124          32.000  
G32  20942036.398   110051144.856        1522.186          45.000    20942025.815    85754084.215        1185.934          42.000  
C08  34701606.287   180700367.907        -311.176          46.000    34701589.511   139728907.785        -240.533          49.000  
C13  34711138.743   180750005.066         -18.561          47.000    34711129.722   139767323.215         -14.154          47.000  
C16  35672244.385   185754735.537          22.130          46.000    35672234.245   143637304.554          16.965          48.000  
C25  22187282.704   115534996.614       -2490.604          36.000                                                                  
C32  21076092.560   109748748.790         915.512          50.000                                                                  
C06  35370290.674   184182385.050         201.792          44.000    35370275.070   142421439.476         155.997          47.000  
G25  20567647.401   108083725.942        2617.290          44.000    20567638.544    84221042.940        2039.703          41.000  
G10  19542964.862   102698969.440        1132.660          50.000    19542953.234    80025127.245         882.599          44.000  
G28  22107488.447   116175646.047        2632.002          40.000    22107477.313    90526457.872        2051.135          41.000  
C23  20735518.908   107975286.539         348.518          51.000                                                                  
C09  36841367.689   191842672.748         299.700          41.000    36841355.733   148344870.698         231.816          47.000  
C33  26032486.641                       -2906.595          32.000                                                                  
C37  22945091.562   119481126.904        2729.254          43.000                                                                  
> 2025 10 27 02 48 07.7960000  0 19                     
G12  20777106.983   109184436.091         975.683          45.000    20777095.493    85078728.714         760.008          41.000  
G15  23157079.665   121691270.411       -3235.404          36.000    23157071.074    94824327.824       -2521.674          33.000  
G18  23473773.593   123355506.600       -3690.809          37.000    23473768.213    96121139.879       -2876.114          37.000  
G23  19201224.158   100903112.030       -1990.654          45.000    19201212.571    78625727.222       -1551.350          47.000  
G24  20844266.929                       -3332.017          28.000    20844259.165                       -2596.316          32.000  
G32  20942024.803   110051083.964        1522.283          45.000    20942014.233    85754036.769        1185.982          42.000  
C08  34701608.669   180700380.349        -311.096          46.000    34701591.906   139728917.412        -240.643          49.000  
C13  34711138.906   180750005.801         -18.475          47.000    34711129.869   139767323.786         -14.270          47.000  
C16  35672244.205   185754734.646          22.238          46.000    35672234.071   143637303.865          17.125          48.000  
C25  22187301.840   115535096.235       -2490.569          36.000                                                                  
C32  21076085.522   109748712.165         915.562          50.000                                                                  
C06  35370289.138   184182376.984         201.624          44.000    35370273.539   142421433.237         155.942          47.000  
G25  20567627.461   108083621.248        2617.288          44.000    20567618.580    84220961.353        2039.736          41.000  
G10  19542956.229   102698924.131        1132.678          50.000    19542944.617    80025091.938         882.611          44.000  
G28  22107468.406   116175540.758        2632.091          41.000    22107457.273    90526375.845        2050.780          41.000  
C23  20735516.253   107975272.592         348.593          51.000                                                                  
C09  36841365.360   191842660.758         299.683          41.000    36841353.437   148344861.421         231.885          47.000  
C33  26032508.997   135558070.904       -2906.172          32.000                                                                  
C37  22945070.605   119481017.727        2729.309          43.000                                                                  
> 2025 10 27 02 48 07.8360000  0 19                     
G12  20777099.531   109184397.061         975.704          45.000    20777088.052    85078698.303         760.102          41.000  
G15  23157104.288   121691399.806       -3235.062          36.000    23157095.699    94824428.624       -2520.625          33.000  
G18  23473801.686   123355654.219       -3690.630          37.000    23473796.301    96121254.909       -2875.945          37.000  
G23  19201239.306   100903191.666       -1990.803          45.000    19201227.716    78625789.275       -1551.362          47.000  
G24  20844292.672                       -3332.038          28.000    20844284.534    85353853.664       -2596.677          32.000  
G32  20942013.218   110051023.079        1522.211          45.000    20942002.664    85753989.323        1186.061          42.000  
C08  34701611.076   180700392.793        -311.102          46.000    34701594.349   139728927.034        -240.588          49.000  
C13  34711139.057   180750006.529         -18.292          47.000    34711130.036   139767324.355         -14.313          47.000  
C16  35672244.032   185754733.762          22.188          46.000    35672233.910   143637303.176          17.206          48.000  
C25  22187320.987   115535195.891       -2491.192          36.000                                                                  
C32  21076078.508   109748675.541         915.594          50.000                                                                  
C06  35370287.562   184182368.911         201.685          44.000    35370271.971   142421426.991         156.046          47.000  
G25  20567607.542   108083516.541        2617.560          44.000    20567598.658    84220879.781        2039.474          41.000  
G10  19542947.587   102698878.821        1132.703          50.000    19542936.005    80025056.635         882.587          44.000  
G28  22107448.363   116175435.462        2632.315          41.000    22107437.235    90526293.801        2050.918          41.000  
C23  20735513.629   107975258.643         348.662          51.000                                                                  
C09  36841363.060   191842648.750         299.985          41.000    36841351.113   148344852.141         231.966          47.000  
C33  26032531.340   135558187.142       -2905.949          32.000                                                                  
C37  22945049.660   119480908.553        2729.326          43.000                                                                  
> 2025 10 27 02 48 07.8760000  0 19                     
G12  20777092.096   109184358.033         975.692          45.000    20777080.627    85078667.887         760.266          41.000  
G15  23157128.895   121691529.176       -3234.509          36.000    23157120.327    94824529.444       -2520.315          33.000  
G18  23473829.787   123355801.857       -3690.854          37.000    23473824.404    96121369.943       -2875.892          37.000  
G23  19201254.454   100903271.295       -1990.791          45.000    19201242.886    78625851.327       -1551.343          47.000  
G24  20844318.006                       -3331.957          28.000    20844309.901    85353957.508       -2596.312          32.000  
G32  20942001.631   110050962.187        1522.281          45.000    20941991.083    85753941.879        1186.014          42.000  
C08  34701613.482   180700405.234        -311.066          46.000    34701596.747   139728936.652        -240.491          49.000  
C13  34711139.219   180750007.254         -18.158          47.000    34711130.144   139767324.922         -14.258          47.000  
C16  35672243.827   185754732.875          22.185          46.000    35672233.748   143637302.491          17.183          48.000  
C25  22187340.109   115535295.503       -2490.623          36.000                                                                  
C32  21076071.476   109748638.916         915.607          50.000                                                                  
C06  35370286.005   184182360.833         201.796          44.000    35370270.423   142421420.747         156.073          47.000  
G25  20567587.615   108083411.836        2617.644          44.000    20567578.742    84220798.196        2039.549          41.000  
G10  19542938.955   102698833.509        1132.751          50.000    19542927.379    80025021.327         882.660          44.000  
G28  22107428.316   116175330.158        2632.524          41.000    22107417.191    90526211.758        2051.019          41.000  
C23  20735510.937   107975244.695         348.688          51.000                                                                  
C09  36841360.741   191842636.755         299.933          40.000    36841348.821   148344842.867         231.882          47.000  
C33  26032553.663   135558303.383       -2905.884          32.000                                                                  
C37  22945028.711   119480799.379        2729.313          43.000                                                                  
> 2025 10 27 02 48 07.9160000  0 19                     
G12  20777084.655   109184319.005         975.687          45.000    20777073.197    85078637.466         760.439          41.000  
G15  23157153.530   121691658.610       -3235.386          36.000    23157144.934    94824630.281       -2520.571          33.000  
G18  23473857.904   123355949.479       -3690.623          37.000    23473852.484    96121484.963       -2875.676          37.000  
G23  19201269.637   100903350.937       -1991.025          45.000    19201258.065    78625913.376       -1551.276          47.000  
G24  20844343.510                       -3332.351          28.000    20844335.242    85354061.385       -2596.786          32.000  
G32  20941990.046   110050901.307        1522.098          45.000    20941979.474    85753894.434        1186.069          42.000  
C08  34701615.863   180700417.676        -311.060          46.000    34701599.127   139728946.272        -240.497          49.000  
C13  34711139.361   180750007.994         -18.384          47.000    34711130.266   139767325.487         -14.172          47.000  
C16  35672243.620   185754731.993          22.100          46.000    35672233.599   143637301.806          17.135          48.000  
C25  22187359.242   115535395.119       -2490.471          36.000                                                                  
C32  21076064.443   109748602.291         915.633          50.000                                                                  
C06  35370284.454   184182352.755         201.875          44.000    35370268.840   142421414.496         156.202          47.000  
G25  20567567.678   108083307.137        2617.582          44.000    20567558.809    84220716.602        2039.770          41.000  
G10  19542930.334   102698788.203        1132.697          50.000    19542918.727    80024986.012         882.782          44.000  
G28  22107408.285   116175224.886        2632.030          41.000    22107397.147    90526129.714        2051.049          41.000  
C23  20735508.228   107975230.755         348.530          51.000                                                                  
C09  36841358.427   191842624.755         300.009          40.000    36841346.528   148344833.593         231.832          47.000  
C33  26032575.979   135558419.644       -2906.273          32.000                                                                  
C37  22945007.732   119480690.189        2729.602          43.000                                                                  
> 2025 10 27 02 48 07.9560000  0 19                     
G12  20777077.219   109184279.979         975.655          45.000    20777065.764    85078607.046         760.532          41.000  
G15  23157178.162   121691788.014       -3235.326          36.000    23157169.560    94824731.124       -2520.890          33.000  
G18  23473885.990   123356097.117       -3690.817          37.000    23473880.567    96121600.022       -2876.321          37.000  
G23  19201284.793   100903430.583       -1991.184          45.000    19201273.253    78625975.426       -1551.263          47.000  
G24  20844368.706                       -3332.414          28.000    20844360.576    85354165.236       -2596.544          32.000  
G32  20941978.461   110050840.420        1522.086          45.000    20941967.904    85753846.995        1186.011          42.000  
C08  34701618.228   180700430.122        -311.157          46.000    34701601.534   139728955.894        -240.533          49.000  
C13  34711139.501   180750008.729         -18.402          47.000    34711130.429   139767326.055         -14.178          47.000  
C16  35672243.419   185754731.117          21.953          46.000    35672233.428   143637301.123          17.075          48.000  
C25  22187378.349   115535494.746       -2490.657          36.000                                                                  
C32  21076057.400   109748565.670         915.573          50.000                                                                  
C06  35370282.892   184182344.678         201.892          44.000    35370267.278   142421408.252         156.130          47.000  
G25  20567547.779   108083202.441        2617.475          44.000    20567538.884    84220635.017        2039.733          41.000  
G10  19542921.712   102698742.896        1132.654          50.000    19542910.103    80024950.711         882.568          44.000  
G28  22107388.246   116175119.596        2632.114          41.000    22107377.096    90526047.666        2051.225          41.000  
C23  20735505.538   107975216.819         348.385          51.000                                                                  
C09  36841356.151   191842612.752         300.063          41.000    36841344.223   148344824.315         231.903          47.000  
C33  26032598.331   135558535.927       -2906.848          32.000                                                                  
C37  22944986.755   119480581.023        2729.313          43.000                                                                  
> 2025 10 27 02 48 07.9960000  0 19                     
G12  20777069.773   109184240.951         975.648          45.000    20777058.347    85078576.637         760.368          41.000  
G15  23157202.761   121691917.412       -3235.178          36.000    23157194.177    94824831.955       -2520.860          33.000  
G18  23473914.100   123356244.743       -3690.708          37.000    23473908.649    96121715.031       -2875.635          37.000  
G23  19201299.965   100903510.218       -1991.022          45.000    19201288.410    78626037.485       -1551.405          47.000  
G24  20844394.054                       -3332.500          28.000    20844385.951    85354269.115       -2596.860          32.000  
G32  20941966.881   110050779.531        1522.153          45.000    20941956.306    85753799.556        1185.982          42.000  
C08  34701620.614   180700442.561        -311.072          46.000    34701603.910   139728965.517        -240.576          49.000  
C13  34711139.640   180750009.463         -18.402          47.000    34711130.556   139767326.623         -14.209          47.000  
C16  35672243.245   185754730.230          22.075          46.000    35672233.284   143637300.443          16.985          48.000  
C25  22187397.473   115535594.365       -2490.515          36.000                                                                  
C32  21076050.325   109748529.049         915.510          50.000                                                                  
C06  35370281.334   184182336.596         201.989          44.000    35370265.708   142421402.010         156.085          47.000  
G25  20567527.854   108083097.758        2617.183          44.000    20567518.956    84220553.443        2039.460          41.000  
G10  19542913.094   102698697.592        1132.568          50.000    19542901.506    80024915.413         882.416          44.000  
G28  22107368.209   116175014.314        2632.027          40.000    22107357.036    90525965.623        2051.161          41.000  
C23  20735502.894   107975202.876         348.474          51.000                                                                  
C09  36841353.824   191842600.759         299.879          41.000    36841341.916   148344815.037         231.921          47.000  
C33  26032620.676   135558652.190       -2906.846          32.000                                                                  
C37  22944965.763   119480471.843        2729.416          43.000                                                                  
> 2025 10 27 02 48 08.0360000  0 19                     
G12  20777062.312   109184201.919         975.720          45.000    20777050.931    85078546.232         760.194          41.000  
G15  23157227.353   121692046.803       -3234.926          36.000    23157218.783    94824932.777       -2520.568          33.000  
G18  23473942.198   123356392.355       -3690.368          37.000    23473936.746    96121830.066       -2875.719          37.000  
G23  19201315.116   100903589.852       -1990.918          45.000    19201303.554    78626099.540       -1551.399          47.000  
G24  20844419.525                       -3332.751          28.000    20844411.334    85354372.975       -2596.560          32.000  
G32  20941955.283   110050718.642        1522.204          45.000    20941944.689    85753752.103        1186.201          42.000  
C08  34701622.975   180700455.010        -311.200          46.000    34701606.286   139728975.141        -240.625          49.000  
C13  34711139.771   180750010.198         -18.384          47.000    34711130.658   139767327.195         -14.301          47.000  
C16  35672243.047   185754729.345          22.086          46.000    35672233.122   143637299.764          16.931          48.000  
C25  22187416.618   115535694.011       -2491.077          36.000                                                                  
C32  21076043.307   109748492.425         915.556          50.000                                                                  
C06  35370279.774   184182328.516         202.034          44.000    35370264.148   142421395.773         155.927          47.000  
G25  20567507.914   108082993.060        2617.302          44.000    20567499.067    84220471.871        2039.263          41.000  
G10  19542904.465   102698652.287        1132.574          50.000    19542892.888    80024880.113         882.379          44.000  
G28  22107348.172   116174909.024        2632.159          40.000    22107337.027    90525883.574        2051.209          41.000  
C23  20735500.234   107975188.934         348.488          51.000                                                                  
C09  36841351.528   191842588.775         299.648          40.000    36841339.603   148344805.764         231.846          47.000  
C33  26032642.973   135558768.433       -2906.471          32.000                                                                  
C37  22944944.791   119480362.665        2729.405          43.000                                                                  
> 2025 10 27 02 48 08.0760000  0 19                     
G12  20777054.885   109184162.900         975.572          45.000    20777043.514    85078515.833         760.026          41.000  
G15  23157251.976   121692176.216       -3235.232          36.000    23157243.397    94825033.631       -2521.147          33.000  
G18  23473970.281   123356539.983       -3690.504          37.000    23473964.833    96121945.107       -2875.926          37.000  
G23  19201330.279   100903669.491       -1990.943          45.000    19201318.706    78626161.602       -1551.515          47.000  
G24  20844444.832                       -3332.329          28.000    20844436.685    85354476.847       -2596.735          32.000  
G32  20941943.706   110050657.751        1522.241          45.000    20941933.074    85753704.650        1186.340          42.000  
C08  34701625.370   180700467.456        -311.200          46.000    34701608.681   139728984.765        -240.625          49.000  
C13  34711139.934   180750010.936         -18.433          47.000    34711130.770   139767327.764         -14.246          47.000  
C16  35672242.865   185754728.456          22.142          46.000    35672232.946   143637299.078          17.046          48.000  
C25  22187435.751   115535793.647       -2491.074          36.000                                                                  
C32  21076036.290   109748455.808         915.459          50.000                                                                  
C06  35370278.269   184182320.452         201.740          44.000    35370262.621   142421389.526         156.045          47.000  
G25  20567487.989   108082888.357        2617.467          44.000    20567479.141    84220390.293        2039.318          41.000  
G10  19542895.844   102698606.983        1132.550          50.000    19542884.274    80024844.816         882.355          44.000  
G28  22107328.157   116174803.737        2632.146          40.000    22107317.002    90525801.537        2051.016          41.000  
C23  20735497.536   107975174.993         348.495          51.000                                                                  
C09  36841349.232   191842576.771         299.929          40.000    36841337.322   148344796.493         231.790          47.000  
C33  26032665.339   135558884.725       -2907.163          32.000                                                                  
C37  22944923.826   119480253.493        2729.279          43.000                                                                  
> 2025 10 27 02 48 08.1160000  0 19                     
G12  20777047.470   109184123.871         975.651          45.000    20777036.077    85078485.417         760.258          41.000  
G15  23157276.595   121692305.602       -3234.913          36.000    23157267.979    94825134.470       -2521.128          33.000  
G18  23473998.387   123356687.619       -3690.761          37.000    23473992.954    96122060.149       -2876.116          37.000  
G23  19201345.424   100903749.126       -1990.912          45.000    19201333.862    78626223.656       -1551.447          47.000  
G24  20844470.406                       -3332.235          28.000    20844462.029    85354580.699       -2596.498          32.000  
G32  20941932.137   110050596.865        1522.176          45.000    20941921.478    85753657.197        1186.372          42.000  
C08  34701627.778   180700479.902        -311.212          46.000    34701611.085   139728994.383        -240.540          49.000  
C13  34711140.095   180750011.670         -18.396          47.000    34711130.895   139767328.325         -14.087          47.000  
C16  35672242.665   185754727.575          22.043          46.000    35672232.813   143637298.386          17.213          48.000  
C25  22187454.876   115535893.279       -2490.975          36.000                                                                  
C32  21076029.242   109748419.179         915.609          50.000                                                                  
C06  35370276.737   184182312.381         201.705          44.000    35370261.087   142421383.275         156.176          47.000  
G25  20567468.074   108082783.664        2617.392          44.000    20567459.219    84220308.693        2039.781          41.000  
G10  19542887.211   102698561.672        1132.690          50.000    19542875.635    80024809.508         882.574          44.000  
G28  22107308.131   116174698.437        2632.363          40.000    22107296.966    90525719.496        2050.986          41.000  
C23  20735494.903   107975161.044         348.637          51.000                                                                  
C09  36841346.898   191842564.781         299.827          40.000    36841335.020   148344787.222         231.714          47.000  
C33  26032687.678                       -2906.302          32.000                                                                  
C37  22944902.856   119480144.320        2729.221          43.000                                                                  
> 2025 10 27 02 48 08.1560000  0 19                     
G12  20777040.053   109184084.849         975.594          45.000    20777028.656    85078455.016         760.093          41.000  
G15  23157301.214   121692435.019       -3235.214          36.000    23157292.591    94825235.321       -2521.384          33.000  
G18  23474026.487   123356835.242       -3690.658          37.000    23474021.066    96122175.178       -2875.919          37.000  
G23  19201360.591   100903828.770       -1991.091          45.000    19201349.047    78626285.715       -1551.484          47.000  
G24  20844496.066                       -3332.160          28.000    20844487.374    85354684.573       -2596.691          32.000  
G32  20941920.569   110050535.971        1522.288          45.000    20941909.901    85753609.750        1186.259          42.000  
C08  34701630.187   180700492.339        -310.999          46.000    34701613.487   139729003.998        -240.411          49.000  
C13  34711140.236   180750012.403         -18.347          47.000    34711131.049   139767328.893         -14.136          47.000  
C16  35672242.482   185754726.688          22.117          46.000    35672232.659   143637297.698          17.227          48.000  
C25  22187473.988   115535992.906       -2490.808          36.000                                                                  
C32  21076022.156   109748382.559         915.549          50.000                                                                  
C06  35370275.186   184182304.304         201.780          44.000    35370259.565   142421377.032         156.119          47.000  
G25  20567448.161   108082678.967        2617.370          44.000    20567439.309    84220227.109        2039.760          41.000  
G10  19542878.592   102698516.371        1132.587          50.000    19542866.991    80024774.197         882.727          44.000  
G28  22107288.106   116174593.151        2632.250          40.000    22107276.944    90525637.461        2050.837          41.000  
C23  20735492.228   107975147.109         348.472          51.000                                                                  
C09  36841344.557   191842552.785         299.827          40.000    36841332.715   148344777.937         231.967          47.000  
C33  26032710.019                       -2906.178          32.000                                                                  
C37  22944881.909   119480035.150        2729.175          43.000                                                                  
> 2025 10 27 02 48 08.1960000  0 19                     
G12  20777032.626   109184045.826         975.549          45.000    20777021.224    85078424.608         760.119          41.000  
G15  23157325.815   121692564.403       -3234.829          36.000    23157317.212    94825336.137       -2520.796          32.000  
G18  23474054.571   123356982.873       -3690.715          37.000    23474049.146    96122290.199       -2875.687          37.000  
G23  19201375.766   100903908.405       -1990.992          45.000    19201364.191    78626347.770       -1551.428          47.000  
G24  20844521.305                       -3331.958          28.000    20844512.751    85354788.460       -2597.052          32.000  
G32  20941908.972   110050475.082        1522.272          45.000    20941898.319    85753562.309        1186.079          41.000  
C08  34701632.576   180700504.779        -310.968          46.000    34701615.878   139729013.619        -240.472          49.000  
C13  34711140.375   180750013.134         -18.298          47.000    34711131.185   139767329.463         -14.227          47.000  
C16  35672242.310   185754725.794          22.287          46.000    35672232.486   143637297.016          17.101          48.000  
C25  22187493.108   115536092.527       -2490.636          36.000                                                                  
C32  21076015.137   109748345.937         915.549          50.000                                                                  
C06  35370273.662   184182296.227         201.853          44.000    35370258.013   142421370.790         156.045          47.000  
G25  20567428.241   108082574.277        2617.273          44.000    20567419.373    84220145.533        2039.594          41.000  
G10  19542869.988   102698471.073        1132.440          50.000    19542858.391    80024738.897         882.568          44.000  
G28  22107268.057   116174487.868        2632.082          40.000    22107256.925    90525555.424        2050.762          41.000  
C23  20735489.530   107975133.172         348.404          51.000                                                                  
C09  36841342.251   191842540.777         300.084          40.000    36841330.418   148344768.665         231.839          47.000  
C33  26032732.367                       -2906.427          32.000                                                                  
C37  22944860.949   119479925.970        2729.367          43.000                                                                  
> 2025 10 27 02 48 08.2360000  0 19                     
G12  20777025.201   109184006.811         975.374          45.000    20777013.800    85078394.197         760.239          41.000  
G15  23157350.446   121692693.782       -3234.513          36.000    23157341.843    94825436.928       -2520.078          32.000  
G18  23474082.650   123357130.489       -3690.541          37.000    23474077.224    96122405.236       -2875.828          37.000  
G23  19201390.940   100903988.045       -1991.029          45.000    19201379.353    78626409.823       -1551.373          47.000  
G24  20844546.452                       -3331.751          28.000    20844538.148    85354892.293       -2596.336          32.000  
G32  20941897.407   110050414.193        1522.224          45.000    20941886.738    85753514.862        1186.122          41.000  
C08  34701634.952   180700517.221        -310.992          46.000    34701618.243   139729023.243        -240.588          49.000  
C13  34711140.500   180750013.869         -18.365          47.000    34711131.325   139767330.030         -14.221          47.000  
C16  35672242.114   185754724.908          22.244          46.000    35672232.349   143637296.326          17.188          48.000  
C25  22187512.248   115536192.152       -2490.612          36.000                                                                  
C32  21076008.090   109748309.317         915.518          50.000                                                                  
C06  35370272.096   184182288.147         201.909          44.000    35370256.460   142421364.547         156.035          47.000  
G25  20567408.310   108082469.575        2617.405          44.000    20567399.459    84220063.959        2039.416          41.000  
G10  19542861.364   102698425.771        1132.458          50.000    19542849.756    80024703.603         882.404          44.000  
G28  22107248.023   116174382.592        2631.896          40.000    22107236.874    90525473.377        2050.956          41.000  
C23  20735486.860   107975119.232         348.447          51.000                                                                  
C09  36841339.965   191842528.777         300.063          40.000    36841328.113   148344759.387         231.909          47.000  
C33  26032754.695                       -2906.575          32.000                                                                  
C37  22944839.991   119479816.794        2729.390          43.000                                                                  
> 2025 10 27 02 48 08.2760000  0 19                     
G12  20777017.792   109183967.789         975.437          45.000    20777006.369    85078363.776         760.449          41.000  
G15  23157375.072   121692823.201       -3235.051          36.000    23157366.444    94825537.713       -2519.563          32.000  
G18  23474110.731   123357278.095       -3690.294          37.000    23474105.316    96122520.261       -2875.725          37.000  
G23  19201406.107   100904067.680       -1990.943          45.000    19201394.528    78626471.882       -1551.448          47.000  
G24  20844571.571                       -3332.167          28.000    20844563.490    85354996.118       -2595.822          32.000  
G32  20941885.835   110050353.304        1522.219          45.000    20941875.148    85753467.414        1186.168          41.000  
C08  34701637.332   180700529.661        -311.011          46.000    34701620.599   139729032.864        -240.582          49.000  
C13  34711140.664   180750014.600         -18.311          47.000    34711131.444   139767330.599         -14.240          47.000  
C16  35672241.911   185754724.025          22.097          46.000    35672232.168   143637295.644          17.081          48.000  
C25  22187531.369   115536291.761       -2490.417          36.000                                                                  
C32  21076001.059   109748272.689         915.634          50.000                                                                  
C06  35370270.539   184182280.067         202.010          44.000    35370254.882   142421358.296         156.174          47.000  
G25  20567388.394   108082364.868        2617.582          44.000    20567379.539    84219982.382        2039.396          41.000  
G10  19542852.750   102698380.465        1132.599          50.000    19542841.141    80024668.312         882.227          44.000  
G28  22107227.975   116174277.299        2632.135          40.000    22107216.853    90525391.325        2051.175          41.000  
C23  20735484.170   107975105.289         348.518          51.000                                                                  
C09  36841337.643   191842516.787         299.841          40.000    36841325.828   148344750.110         231.921          47.000  
C33  26032776.996                       -2906.670          32.000                                                                  
C37  22944819.028   119479707.607        2729.608          43.000                                                                  
> 2025 10 27 02 48 08.3160000  0 19                     
G12  20777010.343   109183928.756         975.644          45.000    20776998.951    85078333.385         759.997          41.000  
G15  23157399.715   121692952.623       -3235.439          36.000    23157391.047    94825638.588       -2521.023          32.000  
G18  23474138.830   123357425.718       -3690.443          37.000    23474133.411    96122635.287       -2875.710          37.000  
G23  19201421.268   100904147.316       -1990.906          45.000    19201409.668    78626533.940       -1551.460          47.000  
G24  20844596.688                       -3332.535          28.000    20844588.856    85355099.995       -2596.530          32.000  
G32  20941874.243   110050292.406        1522.375          45.000    20941863.560    85753419.961        1186.299          41.000  
C08  34701639.701   180700542.095        -310.870          46.000    34701622.996   139729042.487        -240.613          49.000  
C13  34711140.799   180750015.323         -18.134          47.000    34711131.581   139767331.159         -14.081          47.000  
C16  35672241.757   185754723.133          22.224          46.000    35672231.996   143637294.955          17.162          48.000  
C25  22187550.497   115536391.417       -2491.232          36.000                                                                  
C32  21075994.015   109748236.060         915.715          50.000                                                                  
C06  35370268.990   184182271.983         202.111          44.000    35370253.288   142421352.048         156.204          47.000  
G25  20567368.479   108082260.173        2617.443          44.000    20567359.616    84219900.784        2039.762          41.000  
G10  19542844.111   102698335.153        1132.764          50.000    19542832.519    80024633.006         882.446          44.000  
G28  22107207.921   116174172.012        2632.178          40.000    22107196.813    90525309.292        2050.943          41.000  
C23  20735481.503   107975091.344         348.593          51.000                                                                  
C09  36841335.356   191842504.777         300.126          40.000    36841323.520   148344740.828         231.989          47.000  
C33  26032799.347                       -2906.103          32.000                                                                  
C37  22944798.063   119479598.426        2729.607          43.000                                                                  
> 2025 10 27 02 48 08.3560000  0 19                     
G12  20777002.909   109183889.729         975.653          45.000    20776991.506    85078302.966         760.226          41.000  
G15  23157424.341   121693082.000       -3234.761          36.000    23157415.665    94825739.442       -2521.344          33.000  
G18  23474166.925   123357573.346       -3690.633          37.000    23474161.517    96122750.315       -2875.830          37.000  
G23  19201436.418   100904226.958       -1991.023          45.000    19201424.796    78626595.995       -1551.423          47.000  
G24  20844622.228                       -3332.197          28.000    20844614.262    85355203.894       -2597.373          32.000  
G32  20941862.632   110050231.505        1522.508          45.000    20941851.975    85753372.515        1186.197          41.000  
C08  34701642.095   180700554.535        -310.944          46.000    34701625.361   139729052.106        -240.546          49.000  
C13  34711140.924   180750016.054         -18.250          47.000    34711131.711   139767331.719         -14.020          47.000  
C16  35672241.586   185754722.237          22.339          46.000    35672231.835   143637294.267          17.160          48.000  
C25  22187569.621   115536491.048       -2491.049          36.000                                                                  
C32  21075986.960   109748199.436         915.648          50.000                                                                  
C06  35370267.436   184182263.899         202.124          44.000    35370251.708   142421345.793         156.327          47.000  
G25  20567348.559   108082155.471        2617.455          44.000    20567339.674    84219819.209        2039.546          41.000  
G10  19542835.491   102698289.843        1132.776          50.000    19542823.894    80024597.687         882.813          44.000  
G28  22107187.891   116174066.709        2632.470          40.000    22107176.770    90525227.245        2051.099          41.000  
C23  20735478.780   107975077.406         348.494          51.000                                                                  
C09  36841333.066   191842492.782         300.000          40.000    36841321.231   148344731.550         231.957          47.000  
C33  26032821.653                       -2906.590          32.000                                                                  
C37  22944777.101   119479489.248        2729.521          43.000                                                                  
> 2025 10 27 02 48 08.3960000  0 19                     
G12  20776995.498   109183850.705         975.620          45.000    20776984.110    85078272.560         760.134          41.000  
G15  23157448.960   121693211.401       -3234.932          36.000    23157440.264    94825840.318       -2521.895          32.000  
G18  23474195.015   123357720.958       -3690.418          37.000    23474189.617    96122865.325       -2875.437          37.000  
G23  19201451.575   100904306.605       -1991.189          45.000    19201439.961    78626658.050       -1551.392          47.000  
G24  20844648.245                       -3332.116          28.000    20844639.645    85355307.778       -2597.461          32.000  
G32  20941851.046   110050170.617        1522.328          45.000    20941840.383    85753325.069        1186.151          42.000  
C08  34701644.486   180700566.976        -311.005          46.000    34701627.748   139729061.726        -240.527          49.000  
C13  34711141.078   180750016.789         -18.378          47.000    34711131.849   139767332.282         -14.032          47.000  
C16  35672241.401   185754721.354          22.193          46.000    35672231.670   143637293.581          17.146          48.000  
C25  22187588.732   115536590.678       -2490.894          36.000                                                                  
C32  21075979.905   109748162.816         915.540          50.000                                                                  
C06  35370265.871   184182255.824         201.969          44.000    35370250.156   142421339.542         156.328          47.000  
G25  20567328.639   108082050.786        2617.175          44.000    20567319.751    84219737.626        2039.560          41.000  
G10  19542826.900   102698244.544        1132.556          50.000    19542815.282    80024562.383         882.715          44.000  
G28  22107167.880   116173961.416        2632.405          40.000    22107156.721    90525145.202        2051.093          41.000  
C23  20735476.073   107975063.470         348.412          51.000                                                                  
C09  36841330.802   191842480.782         299.954          40.000    36841318.920   148344722.269         231.988          47.000  
C33  26032843.974                       -2906.385          32.000                                                                  
C37  22944756.120   119479380.075        2729.374          43.000                                                                  
> 2025 10 27 02 48 08.4360000  0 19                     
G12  20776988.066   109183811.687         975.463          45.000    20776976.686    85078242.157         760.047          41.000  
G15  23157473.602   121693340.809       -3235.172          36.000    23157464.899    94825941.074       -2519.873          32.000  
G18  23474223.134   123357868.593       -3690.735          37.000    23474217.701    96122980.365       -2875.775          37.000  
G23  19201466.718   100904386.243       -1991.090          45.000    19201455.106    78626720.103       -1551.343          47.000  
G24  20844673.296                       -3332.142          28.000    20844664.969    85355411.590       -2596.133          32.000  
G32  20941839.466   110050109.723        1522.322          45.000    20941828.809    85753277.613        1186.287          42.000  
C08  34701646.882   180700579.420        -311.115          46.000    34701630.115   139729071.339        -240.381          49.000  
C13  34711141.203   180750017.524         -18.433          47.000    34711131.969   139767332.853         -14.203          47.000  
C16  35672241.193   185754720.462          22.260          46.000    35672231.507   143637292.890          17.204          48.000  
C25  22187607.875   115536690.318       -2490.987          36.000                                                                  
C32  21075972.840   109748126.193         915.529          50.000                                                                  
C06  35370264.313   184182247.744         201.970          44.000    35370248.581   142421333.297         156.201          47.000  
G25  20567308.703   108081946.089        2617.281          44.000    20567299.845    84219656.047        2039.481          41.000  
G10  19542818.270   102698199.244        1132.465          50.000    19542806.659    80024527.086         882.513          44.000  
G28  22107147.847   116173856.131        2632.179          40.000    22107136.690    90525063.157        2051.130          41.000  
C23  20735473.445   107975049.529         348.465          51.000                                                                  
C09  36841328.475   191842468.775         300.119          40.000    36841316.621   148344712.989         232.006          47.000  
C33  26032866.257                       -2906.353          32.000                                                                  
C37  22944735.146   119479270.894        2729.411          43.000                                                                  
> 2025 10 27 02 48 08.4760000  0 19                     
G12  20776980.638   109183772.669         975.402          45.000    20776969.222    85078211.751         760.055          41.000  
G15  23157498.235   121693470.212       -3235.156          36.000    23157489.532    94826041.885       -2519.851          32.000  
G18  23474251.225   123358016.206       -3690.537          37.000    23474245.804    96123095.403       -2875.963          37.000  
G23  19201481.903   100904465.891       -1991.201          45.000    19201470.270    78626782.165       -1551.528          47.000  
G24  20844699.017                       -3332.301          28.000    20844690.336    85355515.437       -2595.960          32.000  
G32  20941827.890   110050048.836        1522.188          45.000    20941817.204    85753230.170        1186.145          42.000  
C08  34701649.297   180700591.864        -311.163          46.000    34701632.506   139729080.959        -240.466          49.000  
C13  34711141.356   180750018.254         -18.353          47.000    34711132.090   139767333.425         -14.325          47.000  
C16  35672241.008   185754719.571          22.279          46.000    35672231.373   143637292.205          17.131          48.000  
C25  22187627.011   115536789.933       -2490.605          36.000                                                                  
C32  21075965.828   109748089.571         915.517          50.000                                                                  
C06  35370262.761   184182239.664         201.980          44.000    35370247.040   142421327.060         155.972          47.000  
G25  20567288.753   108081841.396        2617.285          44.000    20567279.915    84219574.471        2039.405          41.000  
G10  19542809.645   102698153.946        1132.404          50.000    19542798.059    80024491.803         882.172          44.000  
G28  22107127.826   116173750.862        2631.770          40.000    22107116.658    90524981.108        2051.223          41.000  
C23  20735470.732   107975035.593         348.394          51.000                                                                  
C09  36841326.177   191842456.777         299.990          40.000    36841314.323   148344703.704         232.093          47.000  
C33  26032888.592                       -2906.120          32.000                                                                  
C37  22944714.167   119479161.726        2729.274          43.000                                                                  
> 2025 10 27 02 48 08.5160000  0 19                     
G12  20776973.216   109183733.648         975.452          45.000    20776961.784    85078181.344         760.089          41.000  
G15  23157522.854   121693599.627       -3235.386          36.000    23157514.160    94826142.728       -2520.609          32.000  
G18  23474279.310   123358163.809       -3690.244          37.000    23474273.896    96123210.425       -2875.677          37.000  
G23  19201497.040   100904545.536       -1991.200          45.000    19201485.425    78626844.234       -1551.737          47.000  
G24  20844724.061                       -3332.387          28.000    20844715.707    85355619.294       -2596.246          32.000  
G32  20941816.338   110049987.953        1522.076          45.000    20941805.640    85753182.729        1186.063          42.000  
C08  34701651.677   180700604.304        -311.102          46.000    34701634.887   139729090.582        -240.582          49.000  
C13  34711141.486   180750018.984         -18.304          47.000    34711132.234   139767333.992         -14.240          47.000  
C16  35672240.827   185754718.685          22.187          46.000    35672231.229   143637291.521          17.094          48.000  
C25  22187646.156   115536889.545       -2490.291          36.000                                                                  
C32  21075958.785   109748052.952         915.452          50.000                                                                  
C06  35370261.195   184182231.593         201.843          44.000    35370245.479   142421320.818         155.966          47.000  
G25  20567268.826   108081736.694        2617.477          44.000    20567259.998    84219492.892        2039.402          41.000  
G10  19542801.009   102698108.648        1132.379          50.000    19542789.416    80024456.504         882.306          44.000  
G28  22107107.786   116173645.576        2631.923          40.000    22107096.616    90524899.076        2050.910          41.000  
C23  20735468.043   107975021.660         348.332          51.000                                                                  
C09  36841323.866   191842444.779         299.948          40.000    36841312.039   148344694.421         232.099          47.000  
C33  26032910.949                       -2906.370          32.000                                                                  
C37  22944693.195   119479052.551        2729.286          43.000                                                                  
> 2025 10 27 02 48 08.5560000  0 19                     
G12  20776965.772   109183694.631         975.408          45.000    20776954.361    85078150.941         760.031          41.000  
G15  23157547.457   121693728.992       -3234.603          36.000    23157538.794    94826243.572       -2521.028          32.000  
G18  23474307.410   123358311.433       -3690.453          37.000    23474301.983    96123325.443       -2875.463          37.000  
G23  19201512.192   100904625.183       -1991.218          45.000    19201500.567    78626906.301       -1551.798          47.000  
G24  20844749.441                       -3332.291          28.000    20844741.065    85355723.168       -2596.618          32.000  
G32  20941804.757   110049927.058        1522.254          45.000    20941794.062    85753135.278        1186.202          42.000  
C08  34701654.045   180700616.746        -311.090          46.000    34701637.244   139729100.203        -240.582          49.000  
C13  34711141.621   180750019.716         -18.317          47.000    34711132.395   139767334.561         -14.215          47.000  
C16  35672240.641   185754717.804          22.071          46.000    35672231.106   143637290.842          16.979          48.000  
C25  22187665.279   115536989.177       -2490.564          36.000                                                                  
C32  21075951.761   109748016.334         915.430          50.000                                                                  
C06  35370259.652   184182223.517         201.826          44.000    35370243.918   142421314.575         155.989          47.000  
G25  20567248.920   108081632.003        2617.354          44.000    20567240.070    84219411.308        2039.536          41.000  
G10  19542792.387   102698063.353        1132.318          50.000    19542780.784    80024421.208         882.336          44.000  
G28  22107087.742   116173540.287        2632.042          40.000    22107076.600    90524817.044        2050.724          41.000  
C23  20735465.406   107975007.722         348.379          51.000                                                                  
C09  36841321.553   191842432.786         299.830          40.000    36841309.713   148344685.143         232.004          47.000  
C33  26032933.262                       -2906.613          32.000                                                                  
C37  22944672.204   119478943.379        2729.269          43.000                                                                  
> 2025 10 27 02 48 08.5960000  0 19                     
G12  20776958.377   109183655.628         975.144          45.000    20776946.944    85078120.545         759.911          41.000  
G15  23157572.075   121693858.409       -3235.056          36.000    23157563.422    94826344.470       -2522.152          32.000  
G18  23474335.498   123358459.056       -3690.475          37.000    23474330.069    96123440.488       -2875.836          37.000  
G23  19201527.350   100904704.832       -1991.249          44.000    19201515.722    78626968.363       -1551.692          47.000  
G24  20844774.988                       -3332.114          28.000    20844766.419    85355827.042       -2596.796          32.000  
G32  20941793.174   110049866.159        1522.400          45.000    20941782.462    85753087.830        1186.130          42.000  
C08  34701656.413   180700629.193        -311.200          46.000    34701639.631   139729109.832        -240.729          49.000  
C13  34711141.764   180750020.452         -18.396          47.000    34711132.519   139767335.124         -14.136          47.000  
C16  35672240.458   185754716.920          22.054          46.000    35672230.934   143637290.148          17.192          48.000  
C25  22187684.418   115537088.830       -2491.132          36.000                                                                  
C32  21075944.781   109747979.709         915.540          50.000                                                                  
C06  35370258.112   184182215.444         201.810          44.000    35370242.399   142421308.328         156.084          47.000  
G25  20567229.026   108081527.318        2617.158          44.000    20567220.145    84219329.735        2039.418          41.000  
G10  19542783.751   102698018.060        1132.257          50.000    19542772.161    80024385.901         882.581          44.000  
G28  22107067.707   116173435.002        2632.085          40.000    22107056.583    90524735.008        2050.752          41.000  
C23  20735462.699   107974993.795         348.232          51.000                                                                  
C09  36841319.245   191842420.784         299.957          40.000    36841307.420   148344675.877         231.716          47.000  
C33  26032955.591                       -2906.675          32.000                                                                  
C37  22944651.247   119478834.202        2729.373          43.000                                                                  
> 2025 10 27 02 48 08.6360000  0 19                     
G12  20776950.948   109183616.610         975.301          45.000    20776939.522    85078090.140         759.985          41.000  
G15  23157596.719   121693987.820       -3235.238          36.000    23157588.034                       -2520.623          32.000  
G18  23474363.591   123358606.692       -3690.723          37.000    23474358.169    96123555.509       -2875.698          37.000  
G23  19201542.489   100904784.475       -1991.150          45.000    19201530.855    78627030.426       -1551.630          47.000  
G24  20844800.383                       -3332.330          28.000    20844791.785    85355930.896       -2596.544          32.000  
G32  20941781.607   110049805.272        1522.267          45.000    20941770.873    85753040.388        1186.008          42.000  
C08  34701658.798   180700641.640        -311.224          46.000    34701642.020   139729119.455        -240.643          49.000  
C13  34711141.887   180750021.184         -18.353          47.000    34711132.661   139767335.690         -14.172          47.000  
C16  35672240.300   185754716.031          22.129          46.000    35672230.807   143637289.461          17.182          48.000  
C25  22187703.546   115537188.477       -2491.339          36.000                                                                  
C32  21075937.764   109747943.092         915.456          50.000                                                                  
C06  35370256.579   184182207.363         201.915          44.000    35370240.823   142421302.075         156.240          47.000  
G25  20567209.116   108081422.636        2617.041          44.000    20567200.245    84219248.161        2039.360          41.000  
G10  19542775.123   102697972.764        1132.330          50.000    19542763.547    80024350.603         882.513          44.000  
G28  22107047.678   116173329.714        2632.192          40.000    22107036.558    90524652.967        2050.960          41.000  
C23  20735460.043   107974979.863         348.242          51.000                                                                  
C09  36841316.920   191842408.785         299.956          40.000    36841305.100   148344666.606         231.701          47.000  
C33  26032977.923                       -2906.411          32.000                                                                  
C37  22944630.297   119478725.022        2729.492          43.000                                                                  
> 2025 10 27 02 48 08.6760000  0 19                     
G12  20776943.516   109183577.592         975.344          45.000    20776932.125    85078059.744         759.904          41.000  
G15  23157621.338   121694117.237       -3235.479          36.000    23157612.634                       -2521.012          33.000  
G18  23474391.694   123358754.303       -3690.312          37.000    23474386.276    96123670.539       -2875.758          37.000  
G23  19201557.645   100904864.123       -1991.200          45.000    19201546.004    78627092.486       -1551.531          47.000  
G24  20844826.019                       -3331.698          28.000    20844817.183    85356034.777       -2596.777          32.000  
G32  20941769.999   110049744.377        1522.327          45.000    20941759.288    85752992.940        1186.091          42.000  
C08  34701661.215   180700654.078        -311.053          46.000    34701644.416   139729129.075        -240.558          49.000  
C13  34711142.034   180750021.914         -18.298          47.000    34711132.799   139767336.250         -14.056          47.000  
C16  35672240.143   185754715.140          22.191          46.000    35672230.657   143637288.774          17.200          48.000  
C25  22187722.688   115537288.102       -2490.918          36.000                                                                  
C32  21075930.718   109747906.475         915.398          50.000                                                                  
C06  35370255.030   184182199.288         201.881          44.000    35370239.249   142421295.834         156.110          47.000  
G25  20567189.169   108081317.945        2617.153          44.000    20567180.299    84219166.586        2039.349          41.000  
G10  19542766.510   102697927.467        1132.367          50.000    19542754.935    80024315.313         882.318          44.000  
G28  22107027.636   116173224.418        2632.409          40.000    22107016.522    90524570.915        2051.226          41.000  
C23  20735457.419   107974965.932         348.251          51.000                                                                  
C09  36841314.620   191842396.790         299.893          40.000    36841302.777   148344657.329         231.829          47.000  
C33  26033000.206   135560628.548       -2906.614          32.000                                                                  
C37  22944609.299   119478615.855        2729.301          43.000                                                                  
> 2025 10 27 02 48 08.7160000  0 19                     
G12  20776936.086   109183538.565         975.577          45.000    20776924.699    85078029.333         760.111          41.000  
G15  23157645.946   121694246.614       -3234.812          36.000    23157637.236                       -2519.978          33.000  
G18  23474419.785   123358901.919       -3690.293          37.000    23474414.377    96123785.565       -2875.648          37.000  
G23  19201572.801   100904943.767       -1991.144          44.000    19201561.203    78627154.550       -1551.575          47.000  
G24  20844851.207                       -3332.144          28.000    20844842.570    85356138.650       -2596.820          32.000  
G32  20941758.391   110049683.485        1522.292          45.000    20941747.692    85752945.486        1186.246          42.000  
C08  34701663.642   180700666.515        -310.950          46.000    34701646.856   139729138.689        -240.411          49.000  
C13  34711142.158   180750022.639         -18.146          47.000    34711132.973   139767336.814         -14.063          47.000  
C16  35672239.949   185754714.248          22.281          46.000    35672230.525   143637288.090          17.120          48.000  
C25  22187741.828   115537387.725       -2490.647          36.000                                                                  
C32  21075923.724   109747869.849         915.568          50.000                                                                  
C06  35370253.461   184182191.211         201.901          44.000    35370237.697   142421289.582         156.201          47.000  
G25  20567169.231   108081213.254        2617.247          44.000    20567160.384    84219084.993        2039.691          41.000  
G10  19542757.885   102697882.171        1132.391          50.000    19542746.314    80024280.025         882.202          44.000  
G28  22107007.607   116173119.118        2632.512          40.000    22106996.483    90524488.864        2051.336          41.000  
C23  20735454.789   107974951.992         348.412          51.000                                                                  
C09  36841312.316   191842384.790         299.885          40.000    36841300.450   148344648.043         232.062          47.000  
C33  26033022.555   135560744.746       -2905.330          32.000                                                                  
C37  22944588.345   119478506.684        2729.225          43.000                                                                  
> 2025 10 27 02 48 08.7560000  0 19                     
G12  20776928.671   109183499.546         975.527          45.000    20776917.303    85077998.934         760.016          41.000  
G15  23157670.563   121694375.993       -3234.375          36.000    23157661.867                       -2520.112          33.000  
G18  23474447.874   123359049.546       -3690.492          37.000    23474442.460    96123900.603       -2875.848          37.000  
G23  19201587.949   100905023.410       -1991.114          45.000    19201576.353    78627216.607       -1551.483          47.000  
G24  20844876.210                       -3332.492          28.000    20844867.935    85356242.467       -2595.823          32.000  
G32  20941746.792   110049622.591        1522.312          45.000    20941736.090    85752898.034        1186.280          42.000  
C08  34701666.055   180700678.946        -310.809          46.000    34701649.250   139729148.304        -240.350          49.000  
C13  34711142.265   180750023.366         -18.121          47.000    34711133.096   139767337.371         -13.959          47.000  
C16  35672239.747   185754713.358          22.260          46.000    35672230.348   143637287.403          17.147          48.000  
C25  22187760.983   115537487.364       -2490.858          36.000                                                                  
C32  21075916.707   109747833.221         915.653          50.000                                                                  
C06  35370251.941   184182183.117         202.231          44.000    35370236.162   142421283.331         156.244          47.000  
G25  20567149.275   108081108.550        2617.510          44.000    20567140.465    84219003.423        2039.462          41.000  
G10  19542749.260   102697836.871        1132.489          50.000    19542737.699    80024244.729         882.300          44.000  
G28  22106987.568   116173013.830        2632.335          40.000    22106976.456    90524406.823        2051.222          41.000  
C23  20735452.123   107974938.053         348.480          51.000                                                                  
C09  36841310.002   191842372.787         299.942          40.000    36841298.144   148344638.756         232.197          47.000  
C33  26033044.920                       -2905.667          32.000                                                                  
C37  22944567.368   119478397.510        2729.271          43.000                                                                  
> 2025 10 27 02 48 08.7960000  0 19                     
G12  20776921.257   109183460.533         975.383          45.000    20776909.873    85077968.532         760.010          41.000  
G15  23157695.169   121694505.410       -3234.978          36.000    23157686.464                       -2520.251          33.000  
G18  23474475.955   123359197.162       -3690.441          37.000    23474470.553    96124015.612       -2875.454          37.000  
G23  19201603.118   100905103.055       -1991.139          44.000    19201591.507    78627278.669       -1551.533          47.000  
G24  20844901.495                       -3332.426          28.000    20844893.277    85356346.339       -2596.266          32.000  
G32  20941735.192   110049561.698        1522.305          45.000    20941724.506    85752850.580        1186.324          42.000  
C08  34701668.439   180700691.388        -310.980          46.000    34701651.652   139729157.923        -240.424          49.000  
C13  34711142.406   180750024.096         -18.213          47.000    34711133.246   139767337.939         -14.130          47.000  
C16  35672239.565   185754712.471          22.192          46.000    35672230.200   143637286.712          17.232          48.000  
C25  22187780.099   115537586.980       -2490.581          36.000                                                                  
C32  21075909.661   109747796.597         915.624          50.000                                                                  
C06  35370250.379   184182175.044         201.984          44.000    35370234.590   142421277.082         156.207          47.000  
G25  20567129.351   108081003.857        2617.430          44.000    20567120.523    84218921.844        2039.484          41.000  
G10  19542740.632   102697791.573        1132.458          50.000    19542729.061    80024209.427         882.458          44.000  
G28  22106967.530   116172908.563        2631.800          40.000    22106956.442    90524324.785        2051.035          41.000  
C23  20735449.416   107974924.118         348.430          51.000                                                                  
C09  36841307.679   191842360.803         299.647          40.000    36841295.863   148344629.470         232.199          47.000  
C33  26033067.238                       -2906.582          32.000                                                                  
C37  22944546.416   119478288.329        2729.423          43.000                                                                  
> 2025 10 27 02 48 08.8360000  0 19                     
G12  20776913.825   109183421.530         975.140          45.000    20776902.452    85077938.145         759.746          41.000  
G15  23157719.811   121694634.817       -3235.251          36.000    23157711.100    94826949.378       -2520.714          33.000  
G18  23474504.057   123359344.777       -3690.370          37.000    23474498.656    96124130.634       -2875.420          37.000  
G23  19201618.275   100905182.714       -1991.447          44.000    19201606.643    78627340.733       -1551.607          47.000  
G24  20844926.361                       -3332.828          28.000    20844918.639    85356450.202       -2596.320          32.000  
G32  20941723.601   110049500.806        1522.266          45.000    20941712.935    85752803.143        1186.044          42.000  
C08  34701670.822   180700703.835        -311.182          46.000    34701654.029   139729167.546        -240.546          49.000  
C13  34711142.553   180750024.828         -18.298          47.000    34711133.406   139767338.512         -14.313          47.000  
C16  35672239.382   185754711.595          21.924          46.000    35672229.998   143637286.030          17.115          48.000  
C25  22187799.208   115537686.621       -2490.859          36.000                                                                  
C32  21075902.598   109747759.982         915.425          50.000                                                                  
C06  35370248.842   184182166.972         201.818          44.000    35370233.008   142421270.837         156.116          47.000  
G25  20567109.441   108080899.168        2617.284          44.000    20567100.612    84218840.270        2039.385          41.000  
G10  19542732.045   102697746.282        1132.312          50.000    19542720.441    80024174.132         882.398          44.000  
G28  22106947.499   116172803.295        2631.561          40.000    22106936.419    90524242.764        2050.618          41.000  
C23  20735446.725   107974910.192         348.217          51.000                                                                  
C09  36841305.386   191842348.802         299.762          40.000    36841293.581   148344620.194         231.990          47.000  
C33  26033089.568                       -2906.996          32.000                                                                  
C37  22944525.431   119478179.148        2729.485          43.000                                                                  
> 2025 10 27 02 48 08.8760000  0 19                     
G12  20776906.433   109183382.527         975.025          45.000    20776895.058    85077907.756         759.651          41.000  
G15  23157744.457   121694764.224       -3235.220          36.000    23157735.746                       -2521.385          33.000  
G18  23474532.146   123359492.398       -3690.444          37.000    23474526.762    96124245.665       -2875.586          37.000  
G23  19201633.441   100905262.379       -1991.667          45.000    19201621.788    78627402.806       -1551.785          47.000  
G24  20844951.656                       -3333.044          28.000    20844944.003    85356554.123       -2597.302          32.000  
G32  20941712.019   110049439.918        1522.189          45.000    20941701.346    85752755.690        1186.165          42.000  
C08  34701673.172   180700716.292        -311.432          46.000    34701656.415   139729177.173        -240.692          49.000  
C13  34711142.681   180750025.566         -18.427          47.000    34711133.548   139767339.081         -14.319          47.000  
C16  35672239.195   185754710.712          21.958          46.000    35672229.815   143637285.339          17.207          48.000  
C25  22187818.344   115537786.279       -2491.345          36.000                                                                  
C32  21075895.560   109747723.367         915.346          50.000                                                                  
C06  35370247.257   184182158.903         201.714          44.000    35370231.438   142421264.605         155.876          47.000  
G25  20567089.554   108080794.492        2616.971          44.000    20567080.677    84218758.695        2039.285          41.000  
G10  19542723.451   102697700.993        1132.220          50.000    19542711.850    80024138.838         882.349          44.000  
G28  22106927.455   116172698.002        2631.989          40.000    22106916.386    90524160.723        2050.783          41.000  
C23  20735444.038   107974896.274         347.982          51.000                                                                  
C09  36841303.091   191842336.804         299.858          40.000    36841291.295   148344610.919         231.878          47.000  
C33  26033111.886   135561209.797       -2906.357          32.000                                                                  
C37  22944504.472   119478069.989        2729.121          43.000                                                                  
> 2025 10 27 02 48 08.9160000  0 19                     
G12  20776899.000   109183343.526         974.934          45.000    20776887.642    85077877.356         759.851          41.000  
G15  23157769.055   121694893.625       -3235.151          36.000    23157760.386                       -2521.573          33.000  
G18  23474560.259   123359640.027       -3690.681          37.000    23474554.844    96124360.713       -2876.059          37.000  
G23  19201648.589   100905342.035       -1991.579          45.000    19201636.937    78627464.880       -1551.901          48.000  
G24  20844977.095                       -3332.671          28.000    20844969.359    85356657.993       -2597.063          32.000  
G32  20941700.437   110049379.032        1522.147          45.000    20941689.749    85752708.251        1185.989          42.000  
C08  34701675.565   180700728.742        -311.432          46.000    34701658.808   139729186.805        -240.820          49.000  
C13  34711142.796   180750026.307         -18.585          47.000    34711133.708   139767339.646         -14.215          47.000  
C16  35672239.014   185754709.825          22.062          46.000    35672229.640   143637284.663          16.976          48.000  
C25  22187837.495   115537885.915       -2491.171          36.000                                                                  
C32  21075888.528   109747686.753         915.304          50.000                                                                  
C06  35370245.676   184182150.827         201.786          44.000    35370229.863   142421258.362         155.931          47.000  
G25  20567069.607   108080689.800        2617.076          44.000    20567060.753    84218677.133        2039.054          41.000  
G10  19542714.840   102697655.705        1132.135          50.000    19542703.230    80024103.553         882.159          44.000  
G28  22106907.395   116172592.721        2631.962          41.000    22106896.333    90524078.683        2050.871          41.000  
C23  20735441.371   107974882.354         347.878          51.000                                                                  
C09  36841300.782   191842324.790         300.190          40.000    36841289.002   148344601.653         231.654          47.000  
C33  26033134.223                       -2905.974          32.000                                                                  
C37  22944483.492   119477960.820        2729.147          43.000                                                                  
> 2025 10 27 02 48 08.9560000  0 19                     
G12  20776891.546   109183304.513         975.112          45.000    20776880.236    85077846.959         759.881          41.000  
G15  23157793.672   121695023.034       -3235.302          36.000    23157785.036    94827251.913       -2520.969          32.000  
G18  23474588.351   123359787.642       -3690.525          37.000    23474582.916    96124475.738       -2875.879          37.000  
G23  19201663.724   100905421.688       -1991.437          45.000    19201652.082    78627526.949       -1551.839          48.000  
G24  20845002.551                       -3332.765          28.000    20844994.718    85356761.821       -2596.082          32.000  
G32  20941688.877   110049318.148        1522.057          45.000    20941678.148    85752660.807        1186.000          42.000  
C08  34701677.931   180700741.189        -311.316          46.000    34701661.197   139729196.426        -240.674          49.000  
C13  34711142.955   180750027.040         -18.457          47.000    34711133.879   139767340.210         -14.148          47.000  
C16  35672238.830   185754708.939          22.114          46.000    35672229.472   143637283.987          16.870          48.000  
C25  22187856.623   115537985.549       -2490.954          36.000                                                                  
C32  21075881.530   109747650.133         915.423          50.000                                                                  
C06  35370244.121   184182142.764         201.617          44.000    35370228.316   142421252.119         155.995          47.000  
G25  20567049.690   108080585.123        2616.903          44.000    20567040.823    84218595.566        2039.010          41.000  
G10  19542706.210   102697610.418        1132.117          50.000    19542694.611    80024068.263         882.159          44.000  
G28  22106887.349   116172487.433        2632.080          41.000    22106876.300    90523996.653        2050.760          41.000  
C23  20735438.735   107974868.427         347.988          51.000                                                                  
C09  36841298.496   191842312.800         299.904          40.000    36841286.697   148344592.383         231.639          47.000  
C33  26033156.530                       -2906.479          32.000                                                                  
C37  22944462.539   119477851.661        2728.964          43.000                                                                  
