     3.04           OBSERVATION DATA    M: Mixed            RINEX VERSION / TYPE
RTKCONV 2.4.3 b34                       20251027 032853 UTC PGM / RUN BY / DATE 
format: u-blox UBX                                          COMMENT             
log: D:\GPdata\10_27\fingure_190_10_27_2.ubx                COMMENT             
                                                            MARKER NAME         
                                                            MARKER NUMBER       
                                                            MARKER TYPE         
                                                            OBSERVER / AGENCY   
                                                            REC # / TYPE / VERS 
                                                            ANT # / TYPE        
        0.0000        0.0000        0.0000                  APPROX POSITION XYZ 
        0.0000        0.0000        0.0000                  ANTENNA: DELTA H/E/N
G    8 C1C L1C D1C S1C C2L L2L D2L S2L                      SYS / # / OBS TYPES 
C    8 C2I L2I D2I S2I C7I L7I D7I S7I                      SYS / # / OBS TYPES 
  2025    10    27    02    53   46.7960000     GPS         TIME OF FIRST OBS   
  2025    10    27    02    54   12.3960000     GPS         TIME OF LAST OBS    
G L1C                                                       SYS / PHASE SHIFT   
G L2L  0.00000                                              SYS / PHASE SHIFT   
C L2I                                                       SYS / PHASE SHIFT   
C L7I                                                       SYS / PHASE SHIFT   
  0                                                         GLONASS SLOT / FRQ #
 C1C    0.000 C1P    0.000 C2C    0.000 C2P    0.000        GLONASS COD/PHS/BIS 
                                                            END OF HEADER       
> 2025 10 27 02 53 46.7960000  0 19                     
G12  20721215.714   108890725.6061        755.227          35.000    20721204.385    84849870.4051        589.004          42.000  
G15  23367074.724                3      -3271.842          22.000    23367074.044                       -2552.533          31.000  
G18  23711134.406                3      -3665.645          23.000    23711131.301    97093111.3611      -2856.789          38.000  
G23  19336228.402   101612561.1481      -2193.356          36.000    19336217.147    79178543.9861      -1709.523          46.000  
G24  21061713.012                3      -3409.923          18.000    21061706.136                       -2655.538          30.000  
G32  20845157.680   109542042.6011       1480.944          34.000    20845148.552    85357400.9211       1153.829          41.000  
C08  34723865.851   180816262.6751       -372.864          36.000    34723846.252   139818524.6101       -288.318          48.000  
C13  34714074.820   180765280.8041        -71.893          37.000    34714063.596   139779135.0811        -55.786          47.000  
C16  35672245.141   185754735.5011        -21.599          38.000    35672232.055   143637295.9461        -16.877          47.000  
C25  22353560.176                3      -2614.979          23.000                                                                  
C32  21019485.780   109453972.0111        822.369          40.000                                                                  
C06  35358619.001   184121602.4311        156.935          35.000    35358600.196   142374432.6881        121.428          45.000  
G25  20403501.582   107221139.2131       2469.265          34.000    20403493.678    83548897.8461       1923.771          42.000  
G10  19476062.237   102347401.4521        939.911          38.000    19476051.913    79751175.6851        732.218          44.000  
G28  21941005.263                1       2527.950          31.000    21940994.763    89844718.6571       1970.033          43.000  
C23  20718951.673   107889005.8881        160.584          40.000                                                                  
C09  36823275.253                         256.825          32.000    36823260.616   148272011.8641        198.088          47.000  
C33  26223299.250                3      -2942.671          19.000                                                                  
C37  22770437.032   118571645.6961       2634.418          35.000                                                                  
> 2025 10 27 02 53 46.8360000  0 19                     
G12  20721209.968   108890695.342         755.937          35.000    20721198.626    84849846.834         589.184          42.000  
G15  23367099.439                3      -3271.842          22.000    23367098.937                       -2551.947          31.000  
G18  23711162.424                3      -3667.572          23.000    23711159.182    97093225.612       -2856.570          38.000  
G23  19336245.100   101612648.924       -2194.228          33.000    19336233.827    79178612.357       -1709.399          46.000  
G24  21061738.879                3      -3402.754          18.000    21061732.063                       -2656.044          30.000  
G32  20845146.405   109541983.354        1481.101          34.000    20845137.279    85357354.763        1153.882          41.000  
C08  34723868.707   180816277.562        -372.339          33.000    34723849.105   139818536.135        -288.202          48.000  
C13  34714075.368   180765283.691         -72.192          37.000    34714064.136   139779137.307         -55.731          47.000  
C16  35672245.312   185754736.381         -21.776          36.000    35672232.243   143637296.613         -16.776          47.000  
C25  22353580.192                3      -2608.031          23.000                                                                  
C32  21019479.464   109453939.109         822.465          39.000                                                                  
C06  35358617.781   184121596.135         157.026          35.000    35358599.013   142374427.832         121.401          45.000  
G25  20403482.806   107221040.417        2469.812          34.000    20403474.911    83548820.897        1923.711          42.000  
G10  19476055.099   102347363.869         939.814          38.000    19476044.760    79751146.394         732.206          44.000  
G28  21940985.996                        2527.261          30.000    21940975.512    89844639.859        1969.913          42.000  
C23  20718950.422   107888999.477         160.357          39.000                                                                  
C09  36823273.296                         257.266          32.000    36823258.626   148272003.939         198.120          47.000  
C33  26223321.807                3      -2942.671          19.000                                                                  
C37  22770416.787   118571540.349        2633.868          35.000                                                                  
> 2025 10 27 02 53 46.8760000  0 19                     
G12  20721204.187   108890665.051         756.913          32.000    20721192.885    84849823.276         589.011          42.000  
G15  23367124.236                3      -3271.842          21.000    23367123.856                       -2551.912          31.000  
G18  23711190.398                3      -3667.572          23.000    23711187.098    97093339.876       -2856.630          38.000  
G23  19336261.806   101612736.703       -2194.607          33.000    19336250.526    79178680.737       -1709.455          46.000  
G24  21061764.725                3      -3402.754          18.000    21061757.995                       -2655.488          30.000  
G32  20845135.138   109541924.164        1479.923          33.000    20845126.011    85357308.603        1153.977          41.000  
C08  34723871.577   180816292.491        -373.077          33.000    34723851.993   139818547.670        -288.330          48.000  
C13  34714075.911   180765286.576         -72.162          35.000    34714064.704   139779139.528         -55.573          47.000  
C16  35672245.480   185754737.233         -21.568          36.000    35672232.419   143637297.277         -16.679          47.000  
C25  22353600.409                3      -2603.432          23.000                                                                  
C32  21019473.136   109453906.214         822.462          39.000                                                                  
C06  35358616.563   184121589.855         156.921          32.000    35358597.794   142374422.970         121.521          45.000  
G25  20403464.038   107220941.706        2468.849          34.000    20403456.124    83548743.942        1923.799          42.000  
G10  19476047.952   102347326.270         939.893          36.000    19476037.597    79751117.097         732.343          44.000  
G28  21940966.739                        2529.357          30.000    21940956.270    89844561.056        1969.950          42.000  
C23  20718949.178   107888993.068         160.158          37.000                                                                  
C09  36823271.334                         255.557          31.000    36823256.626   148271996.007         198.245          47.000  
C33  26223344.729                3      -2942.671          19.000                                                                  
C37  22770396.535   118571434.957        2634.509          35.000                                                                  
> 2025 10 27 02 53 46.9160000  0 19                     
G12  20721198.431   108890634.829         756.102          32.000    20721187.132    84849799.721         588.879          42.000  
G15  23367149.507                3      -3271.842          21.000    23367148.790                       -2552.362          31.000  
G18  23711218.219                3      -3667.572          23.000    23711214.990    97093454.119       -2856.314          38.000  
G23  19336278.491   101612824.433       -2193.815          33.000    19336267.224    79178749.117       -1709.517          46.000  
G24  21061790.698                3      -3402.754          18.000    21061783.929                       -2654.390          30.000  
G32  20845123.882   109541864.947        1479.950          33.000    20845114.760    85357262.446        1153.948          41.000  
C08  34723874.454   180816307.395        -372.870          33.000    34723854.895   139818559.195        -288.202          48.000  
C13  34714076.437   180765289.436         -71.741          35.000    34714065.267   139779141.755         -55.621          47.000  
C16  35672245.640   185754738.089         -21.426          36.000    35672232.617   143637297.949         -16.767          47.000  
C25  22353620.302                3      -2603.713          23.000                                                                  
C32  21019466.844   109453873.303         822.724          39.000                                                                  
C06  35358615.360   184121583.610         156.243          32.000    35358596.574   142374418.105         121.646          45.000  
G25  20403445.238   107220842.983        2468.204          33.000    20403437.313    83548666.985        1923.851          42.000  
G10  19476040.806   102347288.658         940.219          36.000    19476030.425    79751087.801         732.410          44.000  
G28  21940947.525                        2528.180          30.000    21940936.993    89844482.261        1969.819          42.000  
C23  20718947.943   107888986.654         160.191          37.000                                                                  
C09  36823269.360                         255.728          31.000    36823254.680   148271988.079         198.237          47.000  
C33  26223367.259                3      -2942.671          19.000                                                                  
C37  22770376.289   118571329.556        2635.022          35.000                                                                  
> 2025 10 27 02 53 46.9560000  0 19                     
G12  20721192.689   108890604.604         755.706          32.000    20721181.364    84849776.163         588.835          42.000  
G15  23367174.472                3      -3271.842          21.000    23367173.734                       -2552.532          31.000  
G18  23711246.101                3      -3667.572          23.000    23711242.896    97093568.379       -2856.499          38.000  
G23  19336295.202   101612912.183       -2193.761          33.000    19336283.897    79178817.491       -1709.437          46.000  
G24  21061816.508                3      -3402.754          18.000    21061809.841                       -2653.192          30.000  
G32  20845112.627   109541805.668        1481.270          33.000    20845103.482    85357216.271        1154.237          41.000  
C08  34723877.299   180816322.335        -373.322          33.000    34723857.740   139818570.719        -288.098          48.000  
C13  34714076.993   180765292.334         -72.253          35.000    34714065.821   139779143.977         -55.566          47.000  
C16  35672245.829   185754738.956         -21.525          36.000    35672232.786   143637298.616         -16.739          47.000  
C25  22353640.702                3      -2601.005          23.000                                                                  
C32  21019460.517   109453840.406         822.585          39.000                                                                  
C06  35358614.151   184121577.291         157.333          32.000    35358595.364   142374413.246         121.553          45.000  
G25  20403426.443   107220744.226        2468.544          33.000    20403418.526    83548590.027        1923.915          42.000  
G10  19476033.648   102347251.072         939.810          36.000    19476023.249    79751058.501         732.503          44.000  
G28  21940928.305                        2528.510          30.000    21940917.744    89844403.464        1969.820          42.000  
C23  20718946.730   107888980.236         160.366          37.000                                                                  
C09  36823267.346                         256.049          31.000    36823252.711   148271980.156         198.116          47.000  
C33  26223389.893                3      -2963.763          19.000                                                                  
C37  22770356.039   118571224.166        2635.071          35.000                                                                  
> 2025 10 27 02 53 46.9960000  0 19                     
G12  20721186.934   108890574.354         755.865          32.000    20721175.605    84849752.586         589.222          42.000  
G15  23367199.215                3      -3271.842          21.000    23367198.672                       -2551.143          31.000  
G18  23711273.986                3      -3667.572          23.000    23711270.818    97093682.636       -2856.523          38.000  
G23  19336311.905   101612999.943       -2193.978          33.000    19336300.585    79178885.867       -1709.443          46.000  
G24  21061842.362                3      -3402.754          18.000    21061835.775                       -2655.517          30.000  
G32  20845101.362   109541746.450        1480.830          33.000    20845092.210    85357170.132        1153.726          41.000  
C08  34723880.151   180816337.219        -372.491          33.000    34723860.583   139818582.246        -288.171          48.000  
C13  34714077.564   180765295.239         -72.620          35.000    34714066.373   139779146.206         -55.707          47.000  
C16  35672245.998   185754739.863         -22.349          36.000    35672232.970   143637299.288         -16.792          47.000  
C25  22353660.751                3      -2604.791          23.000                                                                  
C32  21019454.204   109453807.509         822.488          39.000                                                                  
C06  35358612.963   184121571.035         156.819          32.000    35358594.148   142374408.383         121.555          45.000  
G25  20403407.645   107220645.445        2469.295          33.000    20403399.729    83548513.092        1923.472          42.000  
G10  19476026.512   102347213.489         939.583          36.000    19476016.094    79751029.211         732.348          44.000  
G28  21940909.063                        2527.682          30.000    21940898.479    89844324.660        1970.002          42.000  
C23  20718945.505   107888973.824         160.373          37.000                                                                  
C09  36823265.352                         256.081          31.000    36823250.753   148271972.237         197.985          47.000  
C33  26223412.639                3      -2963.763          19.000                                                                  
C37  22770335.795   118571118.775        2634.961          35.000                                                                  
> 2025 10 27 02 53 47.0360000  0 19                     
G12  20721181.192   108890544.159         755.038          32.000    20721169.831    84849729.028         589.108          42.000  
G15  23367224.130                3      -3271.842          21.000    23367223.604                       -2551.842          31.000  
G18  23711301.758                3      -3667.572          22.000    23711298.736    97093796.898       -2856.612          38.000  
G23  19336328.590   101613087.685       -2193.825          33.000    19336317.293    79178954.256       -1709.684          46.000  
G24  21061868.273                3      -3402.754          17.000    21061861.744                       -2655.804          30.000  
G32  20845090.086   109541687.195        1481.187          33.000    20845080.929    85357123.989        1153.471          41.000  
C08  34723883.007   180816352.131        -372.559          33.000    34723863.435   139818593.779        -288.300          48.000  
C13  34714078.097   180765298.082         -71.692          35.000    34714066.913   139779148.440         -55.841          47.000  
C16  35672246.168   185754740.715         -21.845          36.000    35672233.152   143637299.960         -16.810          47.000  
C25  22353680.529                3      -2600.160          22.000                                                                  
C32  21019447.899   109453774.616         822.346          39.000                                                                  
C06  35358611.737   184121564.699         157.771          32.000    35358592.922   142374403.532         121.329          45.000  
G25  20403388.826   107220546.697        2468.979          33.000    20403380.945    83548436.152        1923.373          42.000  
G10  19476019.371   102347175.901         939.554          36.000    19476008.945    79750999.925         732.156          44.000  
G28  21940889.817                        2527.833          30.000    21940879.224    89844245.854        1970.138          42.000  
C23  20718944.270   107888967.389         160.677          37.000                                                                  
C09  36823263.410                         256.517          31.000    36823248.796   148271964.312         198.012          47.000  
C33  26223435.359                3      -2963.763          19.000                                                                  
C37  22770315.571   118571013.409        2634.442          34.000                                                                  
> 2025 10 27 02 53 47.0760000  0 19                     
G12  20721175.430   108890513.932         755.288          32.000    20721164.095    84849705.480         588.856          42.000  
G15  23367248.965                3      -3271.842          21.000    23367248.557                       -2551.802          31.000  
G18  23711329.627                3      -3667.572          22.000    23711326.654    97093911.175       -2856.885          38.000  
G23  19336345.281   101613175.439       -2193.805          33.000    19336333.995    79179022.637       -1709.646          46.000  
G24  21061894.217                3      -3402.754          17.000    21061887.678                       -2656.351          30.000  
G32  20845078.800   109541627.954        1481.182          33.000    20845069.655    85357077.840        1153.500          41.000  
C08  34723885.870   180816367.037        -372.510          33.000    34723866.286   139818605.315        -288.409          48.000  
C13  34714078.644   180765300.966         -71.960          35.000    34714067.475   139779150.667         -55.786          47.000  
C16  35672246.313   185754741.560         -21.256          36.000    35672233.311   143637300.629         -16.776          47.000  
C25  22353700.810                3      -2604.913          22.000                                                                  
C32  21019441.591   109453741.711         822.538          38.000                                                                  
C06  35358610.535   184121558.394         157.836          32.000    35358591.729   142374398.687         121.140          45.000  
G25  20403370.046   107220447.957        2468.601          33.000    20403362.166    83548359.212        1923.336          42.000  
G10  19476012.224   102347138.315         939.580          38.000    19476001.789    79750970.640         732.059          44.000  
G28  21940870.564                        2527.735          30.000    21940859.992    89844167.080        1969.558          42.000  
C23  20718943.047   107888960.975         160.488          37.000                                                                  
C09  36823261.457                         256.820          31.000    36823246.825   148271956.395         197.899          47.000  
C33  26223458.140                3      -2963.763          19.000                                                                  
C37  22770295.359   118570908.054        2633.911          34.000                                                                  
> 2025 10 27 02 53 47.1160000  0 19                     
G12  20721169.673   108890483.690         755.768          32.000    20721158.353    84849681.938         588.554          42.000  
G15  23367273.996                3      -3271.842          21.000    23367273.483                       -2552.745          31.000  
G18  23711357.408                3      -3662.093          22.000    23711354.544    97094025.421       -2856.408          38.000  
G23  19336362.001   101613263.205       -2194.039          33.000    19336350.692    79179091.018       -1709.589          46.000  
G24  21061920.292                3      -3402.754          17.000    21061913.630                       -2656.256          30.000  
G32  20845067.542   109541568.731        1480.796          33.000    20845058.373    85357031.668        1153.972          41.000  
C08  34723888.730   180816381.951        -372.729          33.000    34723869.135   139818616.848        -288.403          48.000  
C13  34714079.221   180765303.877         -72.632          35.000    34714068.009   139779152.891         -55.695          47.000  
C16  35672246.476   185754742.400         -20.947          36.000    35672233.491   143637301.300         -16.789          47.000  
C25  22353720.678                3      -2600.539          22.000                                                                  
C32  21019435.278   109453708.828         822.208          36.000                                                                  
C06  35358609.369   184121552.190         155.892          32.000    35358590.524   142374393.831         121.221          45.000  
G25  20403351.262   107220349.241        2467.934          33.000    20403343.360    83548282.254        1923.709          42.000  
G10  19476005.083   102347100.718         939.802          38.000    19475994.638    79750941.356         732.041          44.000  
G28  21940851.321                        2527.724          30.000    21940840.747    89844088.274        1969.847          42.000  
C23  20718941.801   107888954.576         160.080          37.000                                                                  
C09  36823259.516                         256.342          31.000    36823244.892   148271948.477         197.857          47.000  
C33  26223481.237                3      -2963.763          19.000                                                                  
C37  22770275.128   118570802.678        2634.161          31.000                                                                  
> 2025 10 27 02 53 47.1560000  0 19                     
G12  20721163.907   108890453.459         755.703          32.000    20721152.612    84849658.381         588.753          42.000  
G15  23367298.815                3      -3271.842          21.000    23367298.418    95685166.888       -2552.616          31.000  
G18  23711385.231                3      -3662.093          22.000    23711382.451    97094139.692       -2856.655          38.000  
G23  19336378.703   101613350.957       -2193.909          33.000    19336367.388    79179159.400       -1709.596          46.000  
G24  21061946.055                3      -3402.754          17.000    21061939.579                       -2656.453          30.000  
G32  20845056.273   109541509.491        1480.989          33.000    20845047.089    85356985.514        1153.948          41.000  
C08  34723891.608   180816396.857        -372.644          33.000    34723872.016   139818628.381        -288.379          48.000  
C13  34714079.765   180765306.731         -71.747          32.000    34714068.547   139779155.114         -55.609          47.000  
C16  35672246.649   185754743.289         -21.716          35.000    35672233.684   143637301.971         -16.789          47.000  
C25  22353740.658                3      -2600.539          22.000                                                                  
C32  21019428.967   109453675.939         822.176          36.000                                                                  
C06  35358608.169   184121545.913         156.101          32.000    35358589.314   142374388.963         121.514          45.000  
G25  20403332.468   107220250.488        2468.308          33.000    20403324.545    83548205.302        1923.776          42.000  
G10  19475997.904   102347063.125         939.801          36.000    19475987.490    79750912.058         732.288          44.000  
G28  21940832.058                        2527.799          30.000    21940821.538    89844009.497        1969.530          42.000  
C23  20718940.565   107888948.179         159.789          37.000                                                                  
C09  36823257.564                         257.623          30.000    36823242.911   148271940.554         197.959          47.000  
C33  26223503.979                3      -2963.763          19.000                                                                  
C37  22770254.860   118570697.258        2635.321          31.000                                                                  
> 2025 10 27 02 53 47.1960000  0 19                     
G12  20721158.171   108890423.203         756.221          32.000    20721146.843    84849634.823         588.849          42.000  
G15  23367323.746                3      -3271.842          21.000    23367323.350                       -2552.411          31.000  
G18  23711413.159                3      -3662.093          23.000    23711410.328    97094253.952       -2856.595          38.000  
G23  19336395.412   101613438.723       -2194.119          34.000    19336384.084    79179227.782       -1709.589          46.000  
G24  21061971.979                3      -3402.754          18.000    21061965.541                       -2656.199          30.000  
G32  20845044.999   109541450.279        1480.486          33.000    20845035.820    85356939.356        1153.937          41.000  
C08  34723894.461   180816411.759        -372.589          33.000    34723874.886   139818639.912        -288.287          48.000  
C13  34714080.321   180765309.599         -71.722          32.000    34714069.111   139779157.345         -55.713          47.000  
C16  35672246.822   185754744.177         -22.157          33.000    35672233.883   143637302.643         -16.835          47.000  
C25  22353760.794                3      -2600.539          22.000                                                                  
C32  21019422.651   109453643.043         822.207          36.000                                                                  
C06  35358606.950   184121539.603         156.995          31.000    35358588.125   142374384.101         121.538          45.000  
G25  20403313.689   107220151.742        2468.498          33.000    20403305.733    83548128.360        1923.625          42.000  
G10  19475990.748   102347025.547         939.517          36.000    19475980.312    79750882.769         732.232          44.000  
G28  21940812.803                        2527.769          30.000    21940802.283    89843930.695        1969.831          42.000  
C23  20718939.343   107888941.763         160.046          35.000                                                                  
C09  36823255.606                         256.697          30.000    36823240.944   148271932.627         198.091          47.000  
C33  26223526.688                3      -2932.513          19.000                                                                  
C37  22770234.622   118570591.861        2635.480          31.000                                                                  
> 2025 10 27 02 53 47.2360000  0 19                     
G12  20721152.434   108890393.002         755.593          32.000    20721141.107    84849611.263         588.923          42.000  
G15  23367348.463                3      -3271.842          21.000    23367348.253                       -2551.904          31.000  
G18  23711441.041                3      -3662.093          23.000    23711438.219    97094368.201       -2856.303          38.000  
G23  19336412.126   101613526.485       -2194.056          34.000    19336400.787    79179296.174       -1709.787          46.000  
G24  21061997.896                3      -3402.754          17.000    21061991.450                       -2655.251          30.000  
G32  20845033.739   109541391.068        1480.251          33.000    20845024.536    85356893.205        1153.779          41.000  
C08  34723897.328   180816426.655        -372.314          33.000    34723877.742   139818651.443        -288.245          48.000  
C13  34714080.866   180765312.479         -71.863          32.000    34714069.668   139779159.578         -55.823          47.000  
C16  35672247.001   185754745.063         -22.290          33.000    35672234.079   143637303.322         -16.972          47.000  
C25  22353780.825                3      -2600.539          22.000                                                                  
C32  21019416.354   109453610.139         822.433          36.000                                                                  
C06  35358605.774   184121533.384         155.970          31.000    35358586.903   142374379.253         121.267          45.000  
G25  20403294.900   107220052.977        2468.926          33.000    20403286.949    83548051.415        1923.573          42.000  
G10  19475983.592   102346987.967         939.457          36.000    19475973.163    79750853.491         731.992          44.000  
G28  21940793.558                        2527.677          30.000    21940783.033    89843851.895        1969.930          42.000  
C23  20718938.129   107888935.358         160.042          35.000                                                                  
C09  36823253.648                         256.848          30.000    36823238.966   148271924.699         198.178          47.000  
C33  26223549.340                3      -2932.513          19.000                                                                  
C37  22770214.386   118570486.507        2635.016          31.000                                                                  
> 2025 10 27 02 53 47.2760000  0 19                     
G12  20721146.668   108890362.765         755.795          32.000    20721135.371    84849587.714         588.786          42.000  
G18  23711468.860                3      -3662.093          23.000    23711466.113    97094482.454       -2856.243          38.000  
G23  19336428.819   101613614.253       -2194.079          34.000    19336417.461    79179364.570       -1709.909          46.000  
G24  21062023.955                3      -3402.754          17.000    21062017.360                       -2654.782          30.000  
G32  20845022.479   109541331.841        1480.490          33.000    20845013.276    85356847.056        1153.725          41.000  
C08  34723900.215   180816441.592        -373.041          33.000    34723880.586   139818662.974        -288.245          48.000  
C13  34714081.424   180765315.374         -72.229          32.000    34714070.221   139779161.814         -55.902          47.000  
C16  35672247.170   185754745.934         -22.070          33.000    35672234.251   143637303.997         -16.966          47.000  
C25  22353800.546                3      -2600.539          22.000                                                                  
C32  21019410.049   109453577.246         822.327          36.000                                                                  
C06  35358604.553   184121527.037         157.549          31.000    35358585.700   142374374.396         121.279          45.000  
G25  20403276.117   107219954.206        2469.242          33.000    20403268.169    83547974.476        1923.473          42.000  
G10  19475976.421   102346950.381         939.550          36.000    19475966.017    79750824.199         732.190          44.000  
G28  21940774.333                        2527.868          30.000    21940763.814    89843773.103        1969.841          42.000  
C23  20718936.897   107888928.931         160.575          35.000                                                                  
C09  36823251.709                         256.727          30.000    36823236.980   148271916.774         198.112          47.000  
C33  26223572.164                3      -2932.513          19.000                                                                  
C37  22770194.204                        2634.113          31.000                                                                  
G15                                                                  23367373.169                       -2550.988          31.000  
> 2025 10 27 02 53 47.3160000  0 19                     
G12  20721140.911   108890332.548         755.562          32.000    20721129.598    84849564.163         588.737          42.000  
G18  23711496.714                3      -3667.243          23.000    23711494.003    97094596.710       -2856.286          38.000  
G23  19336445.517   101613702.014       -2194.055          33.000    19336434.175    79179432.950       -1709.668          46.000  
G24  21062049.677                3      -3402.754          17.000    21062043.284                       -2654.769          30.000  
G32  20845011.210   109541272.601        1480.943          33.000    20845002.003    85356800.901        1153.819          41.000  
C08  34723903.080   180816456.521        -373.340          33.000    34723883.449   139818674.503        -288.214          48.000  
C13  34714081.976   180765318.273         -72.528          32.000    34714070.779   139779164.032         -55.615          47.000  
C16  35672247.325   185754746.772         -21.254          33.000    35672234.417   143637304.662         -16.748          47.000  
C25  22353820.401                3      -2600.539          22.000                                                                  
C32  21019403.713   109453544.342         822.487          36.000                                                                  
C06  35358603.356   184121520.685         158.602          31.000    35358584.492   142374369.534         121.409          45.000  
G25  20403257.354   107219855.509        2468.104          33.000    20403249.387    83547897.532        1923.467          42.000  
G10  19475969.271   102346912.792         939.624          36.000    19475958.857    79750794.912         732.177          44.000  
G28  21940755.101                        2527.911          30.000    21940744.572    89843694.301        1969.946          42.000  
C23  20718935.661   107888922.504         160.742          35.000                                                                  
C09  36823249.750                         256.271          30.000    36823234.998   148271908.851         198.081          47.000  
C33  26223594.632                3      -2932.513          19.000                                                                  
C37  22770173.978   118570275.780        2634.344          31.000                                                                  
G15                                                                  23367398.116                       -2551.888          31.000  
> 2025 10 27 02 53 47.3560000  0 19                     
G12  20721135.171   108890302.370         754.768          32.000    20721123.829    84849540.602         588.900          42.000  
G18  23711524.798                3      -3667.243          22.000    23711521.910    97094710.992       -2856.820          38.000  
G23  19336462.202   101613789.767       -2193.833          33.000    19336450.851    79179501.333       -1709.576          46.000  
G24  21062075.494                3      -3402.754          17.000    21062069.214                       -2654.666          30.000  
G32  20844999.906   109541213.350        1480.941          33.000    20844990.730    85356754.739        1154.015          41.000  
C08  34723905.953   180816471.450        -373.346          32.000    34723886.290   139818686.033        -288.245          48.000  
C13  34714082.538   180765321.150         -72.229          32.000    34714071.331   139779166.259         -55.640          47.000  
C16  35672247.473   185754747.591         -20.546          33.000    35672234.582   143637305.330         -16.694          47.000  
C25  22353840.389                3      -2615.839          22.000                                                                  
C32  21019397.409   109453511.446         822.475          36.000                                                                  
C06  35358602.145                         156.387          31.000    35358583.306   142374364.669         121.595          45.000  
G25  20403238.555   107219756.710        2469.211          33.000    20403230.596    83547820.590        1923.505          42.000  
G10  19475962.117   102346875.196         939.865          36.000    19475951.684    79750765.620         732.232          44.000  
G28  21940735.865                        2527.590          30.000    21940725.328    89843615.511        1969.803          42.000  
C23  20718934.441   107888916.123         159.922          35.000                                                                  
C09  36823247.808                         255.888          30.000    36823233.033   148271900.933         197.955          47.000  
C33  26223616.958                3      -2932.513          19.000                                                                  
C37  22770153.757                        2633.838          31.000                                                                  
G15                                                                  23367423.041                       -2552.214          31.000  
> 2025 10 27 02 53 47.3960000  0 19                     
G12  20721129.417   108890272.137         755.397          32.000    20721118.081    84849517.053         588.761          42.000  
G18  23711552.714                3      -3667.243          22.000    23711549.820    97094825.245       -2856.634          38.000  
G23  19336478.904   101613877.529       -2194.008          33.000    19336467.549    79179569.718       -1709.589          46.000  
G24  21062101.368                3      -3402.754          17.000    21062095.145                       -2654.777          30.000  
G32  20844988.651   109541154.124        1480.784          33.000    20844979.448    85356708.575        1154.140          41.000  
C08  34723908.803   180816486.357        -373.010          32.000    34723889.169   139818697.569        -288.397          48.000  
C13  34714083.079   180765324.019         -71.906          32.000    34714071.868   139779168.484         -55.640          47.000  
C16  35672247.642   185754748.474         -21.243          33.000    35672234.756   143637305.994         -16.633          47.000  
C25  22353860.442                3      -2615.839          22.000                                                                  
C32  21019391.097   109453478.557         822.286          36.000                                                                  
C06  35358600.933                         156.373          31.000    35358582.109   142374359.819         121.357          45.000  
G25  20403219.756   107219657.968        2468.697          33.000    20403211.789    83547743.626        1923.868          42.000  
G10  19475954.964   102346837.623         939.450          36.000    19475944.537    79750736.325         732.288          44.000  
G28  21940716.627                        2528.511          30.000    21940706.059    89843536.714        1969.841          42.000  
C23  20718933.221   107888909.718         159.967          35.000                                                                  
C09  36823245.882                         255.992          30.000    36823231.093   148271893.012         197.924          47.000  
C33  26223639.672                3      -2932.513          19.000                                                                  
C37  22770133.481                        2634.406          31.000                                                                  
G15                                                                  23367447.965                       -2551.748          31.000  
> 2025 10 27 02 53 47.4360000  0 19                     
G12  20721123.659   108890241.854         756.660          32.000    20721112.324    84849493.507         588.669          42.000  
G18  23711580.553                3      -3667.243          22.000    23711577.735    97094939.493       -2856.317          38.000  
G23  19336495.600   101613965.297       -2194.149          33.000    19336484.258    79179638.105       -1709.682          46.000  
G24  21062127.063                3      -3402.754          17.000    21062121.066                       -2655.000          30.000  
G32  20844977.419   109541094.906        1480.468          33.000    20844968.187    85356662.422        1153.931          41.000  
C08  34723911.631   180816501.247        -372.485          32.000    34723892.028   139818709.103        -288.428          48.000  
C13  34714083.635   180765326.911         -72.223          32.000    34714072.411   139779170.711         -55.695          47.000  
C16  35672247.790   185754749.390         -22.429          33.000    35672234.916   143637306.665         -16.736          47.000  
C25  22353880.502                3      -2615.839          22.000                                                                  
C32  21019384.771   109453445.666         822.218          36.000                                                                  
C06  35358599.780                         155.502          31.000    35358580.908   142374354.963         121.340          45.000  
G25  20403201.006   107219559.253        2468.011          33.000    20403192.989    83547666.675        1923.819          42.000  
G10  19475947.810   102346800.044         939.346          36.000    19475937.386    79750707.046         732.091          44.000  
G28  21940697.364                        2528.423          30.000    21940686.812    89843457.915        1969.916          42.000  
C23  20718931.991   107888903.318         159.896          35.000                                                                  
C09  36823243.939                         255.933          30.000    36823229.130   148271885.080         198.126          47.000  
C33  26223662.135                3      -2932.513          19.000                                                                  
C37  22770113.266                        2633.405          31.000                                                                  
G15                                                                  23367472.898                       -2552.138          31.000  
> 2025 10 27 02 53 47.4760000  0 19                     
G12  20721117.897   108890211.618         756.415          32.000    20721106.558    84849469.957         588.711          42.000  
G18  23711608.491                3      -3678.192          22.000    23711605.630    97095053.739       -2856.183          38.000  
G23  19336512.307   101614053.079       -2194.512          33.000    19336500.992    79179706.493       -1709.718          46.000  
G24  21062152.894                3      -3402.754          17.000    21062147.039                       -2655.609          30.000  
G32  20844966.150   109541035.712        1479.893          33.000    20844956.930    85356616.277        1153.673          41.000  
C08  34723914.476   180816516.157        -372.601          32.000    34723894.899   139818720.634        -288.361          48.000  
C13  34714084.190   180765329.774         -71.802          32.000    34714072.975   139779172.940         -55.750          47.000  
C16  35672247.954   185754750.275         -22.573          33.000    35672235.077   143637307.339         -16.859          47.000  
C25  22353900.446                3      -2615.839          21.000                                                                  
C32  21019378.457   109453412.773         822.261          36.000                                                                  
C06  35358598.566                         156.552          31.000    35358579.700   142374350.100         121.453          45.000  
G25  20403182.201   107219460.448        2469.326          33.000    20403174.199    83547589.732        1923.640          42.000  
G10  19475940.666   102346762.460         939.532          36.000    19475930.250    79750677.767         731.937          44.000  
G28  21940678.107                        2528.805          30.000    21940667.580    89843379.125        1969.778          42.000  
C23  20718930.765   107888896.906         160.072          35.000                                                                  
C09  36823241.981                         255.730          30.000    36823227.155   148271877.154         198.151          47.000  
C33  26223684.500                3      -2932.513          18.000                                                                  
C37  22770093.026                        2633.728          31.000                                                                  
G15                                                                  23367497.839                       -2552.406          31.000  
> 2025 10 27 02 53 47.5160000  0 19                     
G12  20721112.154   108890181.442         754.921          32.000    20721100.815    84849446.415         588.583          42.000  
G18  23711636.645                3      -3678.192          22.000    23711633.559    97095167.999       -2856.405          38.000  
G23  19336529.027   101614140.881       -2195.171          33.000    19336517.707    79179774.880       -1709.718          46.000  
G24  21062178.666                3      -3402.754          17.000    21062173.010                       -2655.504          30.000  
G32  20844954.861   109540976.440        1480.971          33.000    20844945.647    85356570.128        1153.648          41.000  
C08  34723917.329   180816531.075        -372.858          32.000    34723897.743   139818732.166        -288.348          48.000  
C13  34714084.742   180765332.672         -72.150          32.000    34714073.522   139779175.170         -55.780          47.000  
C16  35672248.116   185754751.146         -22.222          33.000    35672235.269   143637308.018         -16.985          47.000  
C25  22353920.422                3      -2615.839          21.000                                                                  
C32  21019372.142   109453379.875         822.411          36.000                                                                  
C06  35358597.336                         158.380          31.000    35358578.487   142374345.242         121.429          45.000  
G25  20403163.403   107219361.727        2468.487          33.000    20403155.404    83547512.811        1923.160          42.000  
G10  19475933.506   102346724.897         939.119          36.000    19475923.101    79750648.497         731.710          44.000  
G28  21940658.864                        2528.630          30.000    21940648.351    89843300.344        1969.524          42.000  
C23  20718929.533   107888890.508         159.915          35.000                                                                  
C09  36823240.032                         256.115          29.000    36823225.173   148271869.238         197.968          47.000  
C33  26223706.986                3      -2932.513          18.000                                                                  
C37  22770072.747                        2633.575          31.000                                                                  
G15                                                                  23367522.738                       -2551.687          31.000  
> 2025 10 27 02 53 47.5560000  0 19                     
G12  20721106.418   108890151.249         754.588          32.000    20721095.059    84849422.863         588.723          42.000  
G18  23711664.649                3      -3678.192          22.000    23711661.492    97095282.270       -2856.727          38.000  
G23  19336545.728   101614228.595       -2193.632          33.000    19336534.401    79179843.280       -1709.939          46.000  
G24  21062204.419                3      -3402.754          17.000    21062198.945                       -2655.929          30.000  
G32  20844943.564   109540917.171        1481.677          33.000    20844934.365    85356523.981        1153.607          41.000  
C08  34723920.213   180816545.986        -372.876          32.000    34723900.600   139818743.703        -288.458          48.000  
C13  34714085.310   180765335.562         -72.247          32.000    34714074.082   139779177.399         -55.756          47.000  
C16  35672248.310   185754752.016         -21.935          33.000    35672235.430   143637308.689         -16.888          47.000  
C25  22353940.242                3      -2615.839          21.000                                                                  
C32  21019365.806   109453346.968         822.531          36.000                                                                  
C06  35358596.151                         158.375          31.000    35358577.233   142374340.390         121.326          45.000  
G25  20403144.625   107219263.007        2468.120          33.000    20403136.600    83547435.875        1923.208          42.000  
G10  19475926.357   102346687.309         939.372          36.000    19475915.948    79750619.218         731.797          44.000  
G28  21940639.638                        2528.123          30.000    21940629.111    89843221.554        1969.594          42.000  
C23  20718928.296   107888884.099         160.000          35.000                                                                  
C09  36823238.054                         255.914          29.000    36823223.209   148271861.312         198.064          47.000  
C33  26223729.526                3      -2932.513          18.000                                                                  
C37  22770052.534                        2634.113          31.000                                                                  
G15                                                                  23367547.644                       -2551.190          31.000  
> 2025 10 27 02 53 47.5960000  0 19                     
G12  20721100.660   108890121.024         754.933          32.000    20721089.316    84849399.312         588.774          42.000  
G18  23711692.636                3      -3678.192          22.000    23711689.386    97095396.526       -2856.651          38.000  
G23  19336562.427   101614316.374       -2194.142          33.000    19336551.102    79179911.667       -1709.784          46.000  
G24  21062230.406                3      -3402.754          17.000    21062224.892                       -2655.742          30.000  
G32  20844932.285   109540857.954        1480.996          33.000    20844923.086    85356477.813        1153.904          41.000  
C08  34723923.113   180816560.922        -373.291          32.000    34723903.456   139818755.236        -288.397          48.000  
C13  34714085.862   180765338.423         -71.735          32.000    34714074.631   139779179.631         -55.780          47.000  
C16  35672248.454   185754752.849         -21.013          33.000    35672235.603   143637309.357         -16.768          47.000  
C25  22353960.671                3      -2615.839          21.000                                                                  
C32  21019359.490   109453314.112         821.689          36.000                                                                  
C06  35358594.938                         158.367          31.000    35358576.018   142374335.539         121.278          45.000  
G25  20403125.821   107219164.262        2468.357          32.000    20403117.787    83547358.928        1923.457          42.000  
G10  19475919.223   102346649.721         939.632          36.000    19475908.806    79750589.931         732.038          44.000  
G28  21940620.388                        2527.759          30.000    21940609.860    89843142.764        1969.639          42.000  
C23  20718927.069   107888877.699         159.930          35.000                                                                  
C09  36823236.076                         255.983          29.000    36823221.256   148271853.388         198.083          47.000  
C33  26223751.974                3      -2932.513          18.000                                                                  
C37  22770032.273                        2634.283          30.000                                                                  
G15                                                                  23367572.574                       -2552.011          31.000  
> 2025 10 27 02 53 47.6360000  0 19                     
G12  20721094.907   108890090.775         755.931          32.000    20721083.562    84849375.762         588.813          42.000  
G18  23711720.573                3      -3678.192          22.000    23711717.269    97095510.781       -2856.550          38.000  
G23  19336579.119   101614404.150       -2194.395          33.000    19336567.812    79179980.057       -1709.772          46.000  
G24  21062256.301                3      -3402.754          17.000    21062250.843                       -2655.552          30.000  
G32  20844921.039   109540798.728        1480.676          33.000    20844911.823    85356431.644        1154.187          41.000  
C08  34723925.987   180816575.824        -372.986          32.000    34723906.333   139818766.769        -288.348          48.000  
C13  34714086.414   180765341.298         -71.716          32.000    34714075.184   139779181.856         -55.676          47.000  
C16  35672248.616   185754753.703         -21.127          33.000    35672235.759   143637310.026         -16.719          47.000  
C25  22353980.786                3      -2615.839          21.000                                                                  
C32  21019353.177   109453281.198         822.337          36.000                                                                  
C06  35358593.731                         158.171          31.000    35358574.802   142374330.684         121.299          45.000  
G25  20403107.026   107219065.527        2468.444          32.000    20403098.983    83547281.981        1923.611          42.000  
G10  19475912.064   102346612.154         939.329          36.000    19475901.655    79750560.646         732.130          44.000  
G28  21940601.150                        2527.248          30.000    21940590.620    89843063.960        1969.969          42.000  
C23  20718925.854   107888871.307         159.792          35.000                                                                  
C09  36823234.091                         256.340          29.000    36823219.290   148271845.464         198.057          47.000  
C33  26223774.358                3      -2932.513          18.000                                                                  
C37  22770012.015                        2634.216          30.000                                                                  
G15                                                                  23367597.504                       -2552.118          31.000  
> 2025 10 27 02 53 47.6760000  0 19                     
G12  20721089.132   108890060.565         755.564          32.000    20721077.820    84849352.218         588.672          42.000  
G18  23711748.613                3      -3659.859          22.000    23711745.172    97095625.041       -2856.467          38.000  
G23  19336595.827   101614491.926       -2194.561          33.000    19336584.519    79180048.447       -1709.778          46.000  
G24  21062282.296                3      -3402.754          17.000    21062276.774                       -2655.131          30.000  
G32  20844909.780   109540739.527        1479.905          32.000    20844900.537    85356385.494        1153.932          41.000  
C08  34723928.855   180816590.706        -372.327          32.000    34723909.220   139818778.302        -288.293          48.000  
C13  34714086.974   180765344.185         -72.052          32.000    34714075.731   139779184.085         -55.725          47.000  
C16  35672248.796   185754754.571         -21.523          33.000    35672235.924   143637310.702         -16.862          47.000  
C25  22354000.921                3      -2619.616          21.000                                                                  
C32  21019346.869   109453248.324         821.962          36.000                                                                  
C06  35358592.538                         157.823          31.000    35358573.581   142374325.823         121.418          45.000  
G25  20403088.247   107218966.784        2468.664          32.000    20403080.174    83547205.034        1923.685          42.000  
G10  19475904.924   102346574.598         938.941          36.000    19475894.518    79750531.364         732.061          44.000  
G28  21940581.901                        2527.559          30.000    21940571.366    89842985.169        1969.848          42.000  
C23  20718924.630   107888864.904         159.940          35.000                                                                  
C09  36823232.124                         256.301          29.000    36823217.316   148271837.539         198.082          47.000  
C33  26223797.144                3      -2932.513          18.000                                                                  
C37  22769991.750                        2634.613          30.000                                                                  
G15                                                                  23367622.437                       -2551.741          31.000  
> 2025 10 27 02 53 47.7160000  0 19                     
G12  20721083.393   108890030.363         755.206          32.000    20721072.054    84849328.679         588.456          42.000  
G18  23711776.487                3      -3659.859          22.000    23711773.074    97095739.297       -2856.445          38.000  
G23  19336612.510   101614579.662       -2193.851          33.000    19336601.242    79180116.839       -1709.791          46.000  
G24  21062308.217                3      -3402.754          17.000    21062302.694                       -2655.247          30.000  
G32  20844898.534   109540680.320        1479.953          32.000    20844889.263    85356339.357        1153.554          41.000  
C08  34723931.722   180816605.675        -373.480          32.000    34723912.089   139818789.837        -288.354          48.000  
C13  34714087.539   180765347.078         -72.382          32.000    34714076.275   139779186.314         -55.725          47.000  
C16  35672248.954   185754755.461         -22.203          33.000    35672236.087   143637311.377         -16.905          47.000  
C25  22354021.183                3      -2619.616          21.000                                                                  
C32  21019340.548   109453215.408         822.655          36.000                                                                  
C06  35358591.337                         156.870          30.000    35358572.394   142374320.971         121.322          45.000  
G25  20403069.465   107218868.063        2468.330          32.000    20403061.397    83547128.099        1923.469          42.000  
G10  19475897.764   102346537.010         939.393          36.000    19475887.365    79750502.079         732.067          44.000  
G28  21940562.638                        2527.677          30.000    21940552.136    89842906.371        1969.904          42.000  
C23  20718923.380   107888858.512         159.810          35.000                                                                  
C09  36823230.143                         256.309          29.000    36823215.377   148271829.623         197.950          47.000  
C33  26223819.826                3      -2932.513          18.000                                                                  
C37  22769971.487                        2634.802          30.000                                                                  
G15                                                                  23367647.404                       -2552.164          31.000  
> 2025 10 27 02 53 47.7560000  0 19                     
G12  20721077.662   108890000.139         755.475          32.000    20721066.311    84849305.135         588.462          42.000  
G18  23711804.288                3      -3659.859          22.000    23711800.988    97095853.548       -2856.324          38.000  
G23  19336629.226   101614667.442       -2194.246          33.000    19336617.964    79180185.234       -1709.865          46.000  
G24  21062334.088                3      -3402.754          17.000    21062328.617                       -2654.914          30.000  
G32  20844887.274   109540621.085        1480.429          32.000    20844877.976    85356293.208        1153.600          41.000  
C08  34723934.576   180816620.614        -373.547          32.000    34723914.932   139818801.362        -288.190          48.000  
C13  34714088.105   180765349.967         -72.382          32.000    34714076.840   139779188.547         -55.811          47.000  
C16  35672249.149   185754756.346         -22.456          33.000    35672236.245   143637312.056         -17.014          47.000  
C25  22354041.361                3      -2619.616          21.000                                                                  
C32  21019334.235   109453182.523         822.376          36.000                                                                  
C06  35358590.122                         156.938          30.000    35358571.185   142374316.107         121.482          45.000  
G25  20403050.662   107218769.325        2468.373          32.000    20403042.594    83547051.165        1923.355          42.000  
G10  19475890.607   102346499.439         939.318          36.000    19475880.219    79750472.801         731.969          44.000  
G28  21940543.401                        2527.566          30.000    21940532.898    89842827.583        1969.766          42.000  
C23  20718922.146   107888852.094         160.192          35.000                                                                  
C09  36823228.195                         256.092          29.000    36823213.396   148271821.701         197.958          47.000  
C33  26223842.068                3      -2932.513          18.000                                                                  
C37  22769951.275                        2634.509          30.000                                                                  
G15                                                                  23367672.326                       -2552.759          31.000  
> 2025 10 27 02 53 47.7960000  0 19                     
G12  20721071.912   108889969.903         755.861          32.000    20721060.548    84849281.594         588.434          42.000  
G18  23711832.106                3      -3662.456          22.000    23711828.893    97095967.799       -2856.276          38.000  
G23  19336645.906   101614755.209       -2194.289          33.000    19336634.668    79180253.628       -1709.877          46.000  
G24  21062359.839                3      -3402.754          17.000    21062354.532                       -2654.942          30.000  
G32  20844875.987   109540561.821        1481.250          32.000    20844866.688    85356247.045        1153.826          41.000  
C08  34723937.435   180816635.489        -372.522          32.000    34723917.761   139818812.890        -288.165          48.000  
C13  34714088.669   180765352.847         -72.052          32.000    34714077.378   139779190.774         -55.737          47.000  
C16  35672249.331   185754757.197         -21.673          33.000    35672236.394   143637312.719         -16.748          47.000  
C25  22354061.637                3      -2617.606          21.000                                                                  
C32  21019327.905   109453149.630         822.330          36.000                                                                  
C06  35358588.955                         156.418          30.000    35358569.974   142374311.250         121.451          45.000  
G25  20403031.864   107218670.569        2468.724          32.000    20403023.810    83546974.224        1923.397          42.000  
G10  19475883.443   102346461.834         939.816          36.000    19475873.062    79750443.524         731.889          44.000  
G28  21940524.142                        2527.790          29.000    21940513.636    89842748.797        1969.618          42.000  
C23  20718920.918   107888845.675         160.431          35.000                                                                  
C09  36823226.242                         255.680          29.000    36823211.462   148271813.772         198.128          47.000  
C33  26223864.303                3      -2945.523          18.000                                                                  
C37  22769931.051                        2634.290          30.000                                                                  
G15                                                                  23367697.278                       -2552.346          31.000  
> 2025 10 27 02 53 47.8360000  0 19                     
G12  20721066.167   108889939.739         754.624          32.000    20721054.788    84849258.051         588.455          42.000  
G18  23711859.790                3      -3662.456          22.000    23711856.812    97096082.055       -2856.315          38.000  
G23  19336662.620   101614842.983       -2194.437          33.000    19336651.363    79180322.017       -1709.784          46.000  
G24  21062385.735                3      -3402.754          17.000    21062380.485                       -2654.819          30.000  
G32  20844864.731   109540502.578        1481.276          32.000    20844855.408    85356200.886        1153.901          41.000  
C08  34723940.307   180816650.358        -371.722          32.000    34723920.628   139818824.423        -288.287          48.000  
C13  34714089.238   180765355.734         -72.101          32.000    34714077.931   139779193.000         -55.682          47.000  
C16  35672249.481   185754758.071         -21.776          33.000    35672236.559   143637313.380         -16.584          47.000  
C25  22354081.600                3      -2617.606          21.000                                                                  
C32  21019321.578   109453116.730         822.473          36.000                                                                  
C06  35358587.776                         156.726          30.000    35358568.795   142374306.391         121.458          45.000  
G25  20403013.087   107218571.837        2468.432          32.000    20403005.001    83546897.273        1923.628          42.000  
G10  19475876.297   102346424.268         939.390          36.000    19475865.901    79750414.243         731.957          44.000  
G28  21940504.899                        2527.926          29.000    21940494.389    89842670.001        1969.756          42.000  
C23  20718919.699   107888839.280         159.970          35.000                                                                  
C09  36823224.283                         255.708          29.000    36823209.521   148271805.853         198.033          47.000  
C33  26223887.026                3      -2945.523          18.000                                                                  
C37  22769910.847                        2633.124          31.000                                                                  
G15                                                                  23367722.180                       -2551.857          31.000  
> 2025 10 27 02 53 47.8760000  0 19                     
G12  20721060.417   108889909.499         755.390          32.000    20721049.023    84849234.496         588.702          42.000  
G18  23711887.946                3      -3662.456          22.000    23711884.726    97096196.326       -2856.667          38.000  
G23  19336679.305   101614930.774       -2194.868          33.000    19336668.052    79180390.414       -1709.901          46.000  
G24  21062411.652                3      -3402.754          16.000    21062406.405                       -2654.916          30.000  
G32  20844853.444   109540443.322        1481.341          32.000    20844844.122    85356154.734        1153.822          41.000  
C08  34723943.163   180816665.266        -372.198          32.000    34723923.527   139818835.969        -288.580          48.000  
C13  34714089.810   180765358.615         -71.967          32.000    34714078.472   139779195.234         -55.811          47.000  
C16  35672249.642   185754758.932         -21.643          33.000    35672236.746   143637314.058         -16.861          47.000  
C25  22354101.724                3      -2617.606          21.000                                                                  
C32  21019315.267   109453083.838         822.306          36.000                                                                  
C06  35358586.562                         157.587          30.000    35358567.620   142374301.536         121.392          45.000  
G25  20402994.307   107218473.109        2468.172          32.000    20402986.215    83546820.341        1923.400          42.000  
G10  19475869.131   102346386.698         939.125          36.000    19475858.751    79750384.972         731.791          44.000  
G28  21940485.651                        2527.814          29.000    21940475.155    89842591.211        1969.725          42.000  
C23  20718918.482   107888832.901         159.484          35.000                                                                  
C09  36823222.361                         255.928          29.000    36823207.551   148271797.930         198.058          47.000  
C33  26223909.587                3      -2945.523          18.000                                                                  
C37  22769890.605                        2633.911          31.000                                                                  
G15                                                                  23367747.124                       -2551.840          31.000  
> 2025 10 27 02 53 47.9160000  0 19                     
G12  20721054.659   108889879.291         755.268          32.000    20721043.286    84849210.959         588.524          42.000  
G18  23711915.594                3      -3662.456          22.000    23711912.636    97096310.574       -2856.422          38.000  
G23  19336695.993   101615018.529       -2194.374          33.000    19336684.758    79180458.816       -1710.018          46.000  
G24  21062437.599                3      -3402.754          16.000    21062432.339                       -2655.232          30.000  
G32  20844842.178   109540384.151        1479.970          32.000    20844832.844    85356108.591        1153.636          41.000  
C08  34723946.020   180816680.205        -373.059          31.000    34723926.405   139818847.502        -288.470          48.000  
C13  34714090.362   180765361.480         -71.558          32.000    34714079.045   139779197.466         -55.853          47.000  
C16  35672249.800   185754759.797         -21.708          33.000    35672236.912   143637314.736         -16.980          47.000  
C25  22354122.073                3      -2617.606          21.000                                                                  
C32  21019308.926   109453050.967         821.893          35.000                                                                  
C06  35358585.360                         157.681          30.000    35358566.403   142374296.684         121.313          45.000  
G25  20402975.505   107218374.407        2467.668          32.000    20402967.429    83546743.422        1923.025          42.000  
G10  19475861.974   102346349.128         939.083          36.000    19475851.622    79750355.688         731.983          44.000  
G28  21940466.407                        2527.758          29.000    21940455.926    89842512.424        1969.701          42.000  
C23  20718917.265   107888826.533         159.046          35.000                                                                  
C09  36823220.393                         256.503          29.000    36823205.593   148271790.005         198.089          47.000  
C33  26223932.259                3      -2945.523          18.000                                                                  
C37  22769870.401                        2634.235          31.000                                                                  
G15                                                                  23367772.006                       -2551.477          31.000  
> 2025 10 27 02 53 47.9560000  0 19                     
G12  20721048.897   108889849.080         755.250          32.000    20721037.557    84849187.431         588.235          42.000  
G18  23711943.512                3      -3661.390          22.000    23711940.542    97096424.827       -2856.338          38.000  
G23  19336712.707   101615106.304       -2194.342          33.000    19336701.464    79180527.215       -1710.067          46.000  
G24  21062463.564                3      -3402.754          16.000    21062458.296                       -2655.643          30.000  
G32  20844830.923   109540324.965        1479.459          32.000    20844821.585    85356062.440        1153.658          41.000  
C08  34723948.888   180816695.138        -373.315          31.000    34723929.282   139818859.036        -288.422          48.000  
C13  34714090.911   180765364.370         -71.997          32.000    34714079.608   139779199.698         -55.835          47.000  
C16  35672249.986   185754760.670         -21.863          33.000    35672237.048   143637315.409         -16.943          47.000  
C25  22354142.554                3      -2611.504          21.000                                                                  
C32  21019302.612   109453018.076         822.083          35.000                                                                  
C06  35358584.175                         157.560          30.000    35358565.211   142374291.833         121.245          45.000  
G25  20402956.687   107218275.673        2467.993          32.000    20402948.657    83546666.487        1923.184          42.000  
G10  19475854.819   102346311.559         939.034          36.000    19475844.511    79750326.418         731.822          44.000  
G28  21940447.163                        2527.894          29.000    21940436.707    89842433.645        1969.508          42.000  
C23  20718916.023   107888820.109         160.047          35.000                                                                  
C09  36823218.395                         256.422          29.000    36823203.617   148271782.085         198.026          47.000  
C33  26223954.628                3      -2945.523          17.000                                                                  
C37  22769850.219                        2633.850          30.000                                                                  
G15                                                                  23367796.913                       -2553.280          31.000  
> 2025 10 27 02 53 47.9960000  0 19                     
G12  20721043.142   108889818.868         755.221          32.000    20721031.808    84849163.897         588.242          42.000  
G18  23711971.701                3      -3661.390          22.000    23711968.463    97096539.080       -2856.281          38.000  
G23  19336729.384   101615194.062       -2194.040          33.000    19336718.168    79180595.609       -1709.943          46.000  
G24  21062489.438                3      -3402.754          16.000    21062484.231                       -2655.708          30.000  
G32  20844819.648                        1480.907          32.000    20844810.331    85356016.277        1153.892          41.000  
C08  34723951.754   180816710.071        -373.419          31.000    34723932.148   139818870.568        -288.354          48.000  
C13  34714091.461   180765367.281         -72.772          32.000    34714080.159   139779201.927         -55.768          47.000  
C16  35672250.164   185754761.541         -21.835          33.000    35672237.199   143637316.085         -16.959          47.000  
C25  22354162.604                3      -2611.504          21.000                                                                  
C32  21019296.285   109452985.182         822.237          35.000                                                                  
C06  35358582.984                         156.000          30.000    35358564.035   142374286.975         121.340          45.000  
G25  20402937.878   107218176.891        2469.164          32.000    20402929.856    83546589.543        1923.475          42.000  
G10  19475847.685   102346273.991         939.116          36.000    19475837.372    79750297.144         731.817          44.000  
G28  21940427.920                        2528.110          29.000    21940417.493    89842354.852        1969.697          42.000  
C23  20718914.789   107888813.729         159.800          35.000                                                                  
C09  36823216.395                         256.740          29.000    36823201.653   148271774.162         198.039          47.000  
C33  26223977.230                3      -2945.523          17.000                                                                  
C37  22769829.982                        2635.199          30.000                                                                  
G15                                                                  23367821.851                       -2552.019          31.000  
> 2025 10 27 02 53 48.0360000  0 19                     
G12  20721037.388   108889788.649         755.325          32.000    20721026.040    84849140.356         588.390          42.000  
G18  23711999.568                3      -3661.390          22.000    23711996.370    97096653.341       -2856.357          38.000  
G23  19336746.064   101615281.864       -2194.732          33.000    19336734.865    79180664.001       -1709.832          46.000  
G24  21062515.464                3      -3407.879          17.000    21062510.163                       -2655.579          30.000  
G32  20844808.394                        1481.134          32.000    20844799.057    85355970.132        1153.717          41.000  
C08  34723954.622                        -373.859          31.000    34723935.002   139818882.098        -288.251          48.000  
C13  34714092.026   180765370.158         -72.333          32.000    34714080.722   139779204.154         -55.701          47.000  
C16  35672250.345   185754762.410         -21.766          33.000    35672237.370   143637316.755         -16.853          47.000  
C25  22354182.389                3      -2611.504          21.000                                                                  
C32  21019289.963   109452952.271         822.659          35.000                                                                  
C06  35358581.782                         156.384          30.000    35358562.824   142374282.118         121.365          45.000  
G25  20402919.082   107218078.144        2469.159          32.000    20402911.047    83546512.592        1923.715          42.000  
G10  19475840.528   102346236.415         939.314          36.000    19475830.211    79750267.871         731.786          44.000  
G28  21940408.683                        2528.035          29.000    21940398.261    89842276.047        1970.038          42.000  
C23  20718913.572   107888807.331         159.960          35.000                                                                  
C09  36823214.441                         256.518          29.000    36823199.669   148271766.239         198.013          47.000  
C33  26223999.788                3      -2945.523          17.000                                                                  
C37  22769809.750                        2635.309          30.000                                                                  
G15                                                                  23367846.789                       -2551.813          31.000  
> 2025 10 27 02 53 48.0760000  0 19                     
G12  20721031.647   108889758.477         754.500          32.000    20721020.277    84849116.812         588.525          42.000  
G18  23712027.246                3      -3661.390          22.000    23712024.258    97096767.606       -2856.527          38.000  
G23  19336762.764   101615369.640       -2194.688          33.000    19336751.586    79180732.397       -1709.888          46.000  
G24  21062541.085                3      -3407.879          17.000    21062536.103                       -2655.339          30.000  
G32  20844797.106                        1481.465          32.000    20844787.779    85355923.970        1153.958          41.000  
C08  34723957.490                        -373.145          31.000    34723937.858   139818893.637        -288.416          48.000  
C13  34714092.581   180765373.038         -72.046          32.000    34714081.274   139779206.385         -55.725          47.000  
C16  35672250.503   185754763.288         -22.002          32.000    35672237.518   143637317.425         -16.816          47.000  
C25  22354202.459                3      -2611.504          21.000                                                                  
C32  21019283.638   109452919.395         822.249          35.000                                                                  
C06  35358580.582                         156.152          30.000    35358561.653   142374277.265         121.296          45.000  
G25  20402900.284                        2468.434          32.000    20402892.265    83546435.655        1923.568          42.000  
G10  19475833.376   102346198.855         939.035          36.000    19475823.065    79750238.598         731.761          44.000  
G28  21940389.406                        2527.441          29.000    21940379.009    89842197.260        1969.843          42.000  
C23  20718912.339   107888800.929         160.070          34.000                                                                  
C09  36823212.535                         255.213          29.000    36823197.690   148271758.311         198.127          47.000  
C33  26224022.349                3      -2945.523          17.000                                                                  
C37  22769789.503                        2633.862          30.000                                                                  
G15                                                                  23367871.713                       -2552.164          31.000  
> 2025 10 27 02 53 48.1160000  0 19                     
G12  20721025.910   108889728.232         755.711          32.000    20721014.520    84849093.266         588.610          42.000  
G18  23712055.139                3      -3661.390          21.000    23712052.158    97096881.868       -2856.570          38.000  
G23  19336779.471   101615457.418       -2194.656          33.000    19336768.279    79180800.798       -1710.024          46.000  
G24  21062567.150                3      -3407.879          17.000    21062562.037                       -2655.251          30.000  
G32  20844785.825                        1481.708          32.000    20844776.513    85355877.816        1153.927          41.000  
C08  34723960.348                        -372.198          31.000    34723940.712   139818905.175        -288.464          48.000  
C13  34714093.155   180765375.889         -71.252          32.000    34714081.865   139779208.618         -55.817          47.000  
C16  35672250.676   185754764.146         -21.730          33.000    35672237.701   143637318.100         -16.856          47.000  
C25  22354222.319                3      -2611.504          21.000                                                                  
C32  21019277.314   109452886.512         822.109          35.000                                                                  
C06  35358579.390                         156.269          30.000    35358560.449   142374272.407         121.357          45.000  
G25  20402881.514   107217880.734        2467.637          31.000    20402873.494    83546358.729        1923.272          42.000  
G10  19475826.243   102346161.297         938.875          36.000    19475815.908    79750209.327         731.718          44.000  
G28  21940370.154                        2527.615          29.000    21940359.750    89842118.485        1969.462          42.000  
C23  20718911.108   107888794.535         159.927          34.000                                                                  
C09  36823210.601                         255.479          29.000    36823195.714   148271750.396         197.930          47.000  
C33  26224045.103                3      -2945.523          17.000                                                                  
C37  22769769.308                        2633.282          30.000                                                                  
G15                                                                  23367896.652                       -2552.639          31.000  
> 2025 10 27 02 53 48.1560000  0 19                     
G12  20721020.145   108889698.036         755.579          32.000    20721008.770    84849069.749         588.148          42.000  
G18  23712082.974                3      -3661.390          21.000    23712080.063    97096996.126       -2856.542          38.000  
G23  19336796.178   101615545.224       -2195.118          33.000    19336784.980    79180869.202       -1710.141          46.000  
G24  21062593.171                3      -3407.879          17.000    21062587.956                       -2655.654          30.000  
G32  20844774.561                        1481.320          32.000    20844765.257    85355831.674        1153.633          41.000  
C08  34723963.223                        -373.535          31.000    34723943.545   139818916.711        -288.464          48.000  
C13  34714093.744   180765378.802         -72.290          32.000    34714082.421   139779210.857         -55.981          47.000  
C16  35672250.862   185754765.010         -21.723          33.000    35672237.882   143637318.776         -16.888          47.000  
C25  22354242.193                3      -2611.504          21.000                                                                  
C32  21019271.019   109452853.642         821.738          35.000                                                                  
C06  35358578.172                         156.160          30.000    35358559.241   142374267.560         121.249          45.000  
G25  20402862.741                        2469.202          31.000    20402854.695    83546281.804        1923.122          42.000  
G10  19475819.094   102346123.727         939.037          36.000    19475808.754    79750180.054         731.781          44.000  
G28  21940350.933                        2527.783          29.000    21940340.509    89842039.706        1969.403          42.000  
C23  20718909.873   107888788.134         159.916          34.000                                                                  
C09  36823208.622                         255.974          28.000    36823193.715   148271742.476         197.926          47.000  
C33  26224067.740                3      -2945.523          17.000                                                                  
C37  22769749.038                        2633.655          30.000                                                                  
G15                                                                  23367921.578                       -2551.171          31.000  
> 2025 10 27 02 53 48.1960000  0 19                     
G12  20721014.393                         755.821          32.000    20721003.025    84849046.210         588.265          42.000  
G18  23712111.144                3      -3679.294          21.000    23712107.954    97097110.370       -2856.237          38.000  
G23  19336812.897   101615632.998       -2194.596          33.000    19336801.688    79180937.612       -1710.294          46.000  
G24  21062618.949                3      -3407.879          17.000    21062613.905                       -2655.232          30.000  
G32  20844763.286                        1481.132          32.000    20844753.984    85355785.526        1153.633          41.000  
C08  34723966.085                        -373.224          31.000    34723946.428   139818928.250        -288.501          48.000  
C13  34714094.300                         -72.162          32.000    34714082.999   139779213.093         -55.981          47.000  
C16  35672251.032   185754765.916         -22.399          33.000    35672238.046   143637319.453         -16.946          47.000  
C25  22354262.141                3      -2611.504          20.000                                                                  
C32  21019264.719   109452820.781         821.441          35.000                                                                  
C06  35358576.988                         156.109          30.000    35358557.999   142374262.707         121.250          45.000  
G25  20402843.941                        2468.435          31.000    20402835.893    83546204.865        1923.314          42.000  
G10  19475811.933   102346086.161         938.980          36.000    19475801.609    79750150.786         731.725          44.000  
G28  21940331.712                        2527.697          29.000    21940321.255    89841960.922        1969.486          42.000  
C23  20718908.638   107888781.754         159.679          34.000                                                                  
C09  36823206.660                         255.927          28.000    36823191.761   148271734.557         197.895          47.000  
C33  26224090.329                3      -2945.523          17.000                                                                  
C37  22769728.769                        2634.271          30.000                                                                  
G15                                                                  23367946.506                       -2551.862          31.000  
> 2025 10 27 02 53 48.2360000  0 19                     
G12  20721008.641                         754.091          32.000    20720997.289    84849022.675         588.335          42.000  
G18  23712138.917                3      -3679.294          21.000    23712135.852    97097224.627       -2856.363          38.000  
G23  19336829.604   101615720.789       -2194.783          33.000    19336818.382    79181006.015       -1710.182          46.000  
G24  21062645.179                3      -3403.750          17.000    21062639.836                       -2655.868          30.000  
G32  20844752.034                        1480.936          32.000    20844742.725    85355739.371        1153.710          41.000  
C08  34723968.934                        -372.638          31.000    34723949.303   139818939.784        -288.409          48.000  
C13  34714094.838                         -72.150          32.000    34714083.572   139779215.322         -55.835          47.000  
C16  35672251.217   185754766.794         -22.301          33.000    35672238.199   143637320.126         -16.886          47.000  
C25  22354282.122                3      -2611.504          20.000                                                                  
C32  21019258.408   109452787.883         822.102          35.000                                                                  
C06  35358575.756                         156.599          30.000    35358556.766   142374257.844         121.462          45.000  
G25  20402825.127                        2468.358          31.000    20402817.079    83546127.932        1923.354          42.000  
G10  19475804.789   102346048.587         939.185          36.000    19475794.460    79750121.508         731.873          44.000  
G28  21940312.446                        2527.764          29.000    21940302.020    89841882.128        1969.691          42.000  
C23  20718907.430   107888775.381         159.505          34.000                                                                  
C09  36823204.687                         255.946          28.000    36823189.810   148271726.639         197.897          47.000  
C33  26224113.004                3      -2945.523          17.000                                                                  
C37  22769708.517                        2634.644          30.000                                                                  
G15                                                                  23367971.451                       -2551.813          31.000  
> 2025 10 27 02 53 48.2760000  0 19                     
G12  20721002.929                         753.510          32.000    20720991.530    84848999.145         588.263          42.000  
G18  23712166.866                3      -3679.294          21.000    23712163.740    97097338.862       -2856.020          38.000  
G23  19336846.324   101615808.575       -2194.740          33.000    19336835.072    79181074.419       -1710.176          46.000  
G24  21062671.095                3      -3403.750          17.000    21062665.792                       -2656.445          30.000  
G32  20844740.801                        1480.249          31.000    20844731.455    85355693.216        1153.774          41.000  
C08  34723971.777                        -373.102          31.000    34723952.162   139818951.318        -288.373          48.000  
C13  34714095.399                         -72.699          32.000    34714084.118   139779217.555         -55.835          47.000  
C16  35672251.396   185754767.648         -21.701          32.000    35672238.373   143637320.798         -16.841          47.000  
C25  22354302.065                3      -2611.504          20.000                                                                  
C32  21019252.082   109452754.986         822.450          35.000                                                                  
C06  35358574.553                         156.913          30.000    35358555.551   142374252.984         121.489          45.000  
G25  20402806.337                        2468.311          31.000    20402798.297    83546050.997        1923.412          42.000  
G10  19475797.641   102346011.024         939.179          36.000    19475787.314    79750092.244         731.663          44.000  
G28  21940293.203                        2527.418          29.000    21940282.760    89841803.334        1969.827          42.000  
C23  20718906.218   107888768.980         159.838          34.000                                                                  
C09  36823202.697                         256.333          28.000    36823187.831   148271718.717         197.980          47.000  
C33  26224135.281                3      -2945.523          17.000                                                                  
C37  22769688.240                        2632.941          30.000                                                                  
G15                                                                  23367996.395                       -2552.003          31.000  
> 2025 10 27 02 53 48.3160000  0 19                     
G12  20720997.180                         756.327          32.000    20720985.792    84848975.610         588.322          42.000  
G18  23712194.718                3      -3679.294          21.000    23712191.658    97097453.112       -2856.043          38.000  
G23  19336863.042   101615896.366       -2194.751          33.000    19336851.786    79181142.820       -1710.095          46.000  
G24  21062697.048                3      -3403.750          17.000    21062691.761                       -2655.301          30.000  
G32  20844729.559                        1480.401          31.000    20844720.191    85355647.064        1153.789          41.000  
C08  34723974.637                        -373.431          31.000    34723954.997   139818962.852        -288.361          48.000  
C13  34714095.943   180765390.380         -72.583          32.000    34714084.674   139779219.781         -55.682          47.000  
C16  35672251.555   185754768.526         -21.812          33.000    35672238.541   143637321.472         -16.862          47.000  
C25  22354321.988                3      -2618.022          20.000                                                                  
C32  21019245.742   109452722.077         822.859          35.000                                                                  
C06  35358573.323                         157.520          30.000    35358554.339   142374248.142         121.161          45.000  
G25  20402787.537                        2468.849          31.000    20402779.517    83545974.067        1923.312          42.000  
G10  19475790.499   102345973.479         938.871          36.000    19475780.151    79750062.981         731.509          44.000  
G28  21940273.992                        2527.463          29.000    21940263.524    89841724.560        1969.508          42.000  
C23  20718904.992   107888762.587         159.815          34.000                                                                  
C09  36823200.714                         256.676          28.000    36823185.903   148271710.795         198.042          47.000  
C33  26224157.666                3      -2945.523          17.000                                                                  
C37  22769668.056                        2633.313          30.000                                                                  
G15                                                                  23368021.330                       -2552.947          31.000  
> 2025 10 27 02 53 48.3560000  0 19                     
G12  20720991.417                         756.390          31.000    20720980.053    84848952.067         588.517          42.000  
G18  23712222.649                3      -3679.294          21.000    23712219.586    97097567.375       -2856.412          38.000  
G23  19336879.732   101615984.136       -2194.295          33.000    19336868.488    79181211.221       -1710.046          46.000  
G24  21062723.056                3      -3403.750          17.000    21062717.669                       -2654.857          30.000  
G32  20844718.273                        1480.513          31.000    20844708.921    85355600.920        1153.640          41.000  
C08  34723977.502                        -373.505          31.000    34723957.854   139818974.390        -288.416          48.000  
C13  34714096.497   180765393.245         -71.851          32.000    34714085.211   139779222.011         -55.725          47.000  
C16  35672251.705   185754769.395         -21.623          33.000    35672238.743   143637322.146         -16.877          47.000  
C25  22354342.160                3      -2618.022          20.000                                                                  
C32  21019239.443   109452689.172         822.914          35.000                                                                  
C06  35358572.086                         157.602          30.000    35358553.129   142374243.288         121.221          45.000  
G25  20402768.771                        2467.791          31.000    20402760.736    83545897.138        1923.219          42.000  
G10  19475783.337   102345935.921         938.865          36.000    19475773.001    79750033.710         731.652          44.000  
G28  21940254.752                        2527.779          29.000    21940244.291    89841645.774        1969.540          42.000  
C23  20718903.788   107888756.217         159.454          34.000                                                                  
C09  36823198.740                         256.557          28.000    36823183.948   148271702.869         198.167          47.000  
C33  26224180.126                3      -2945.523          17.000                                                                  
C37  22769647.789                        2633.130          30.000                                                                  
G15                                                                  23368046.255                       -2551.336          31.000  
> 2025 10 27 02 53 48.3960000  0 19                     
G12  20720985.654                         755.217          31.000    20720974.324    84848928.543         588.233          42.000  
G18  23712250.653                3      -3679.294          21.000    23712247.492    97097681.640       -2856.674          38.000  
G23  19336896.422   101616071.906       -2194.118          33.000    19336885.197    79181279.622       -1710.028          46.000  
G24  21062748.774                3      -3403.750          17.000    21062743.643                       -2654.710          30.000  
G32  20844706.989                        1481.011          31.000    20844697.646    85355554.759        1153.889          41.000  
C08  34723980.378                        -372.852          31.000    34723960.723   139818985.925        -288.403          48.000  
C13  34714097.038   180765396.113         -71.558          32.000    34714085.755   139779224.246         -55.853          47.000  
C16  35672251.872   185754770.266         -21.748          33.000    35672238.914   143637322.821         -16.903          47.000  
C25  22354362.288                3      -2618.022          20.000                                                                  
C32  21019233.125   109452656.303         822.187          35.000                                                                  
C06  35358570.893                         157.417          30.000    35358551.928   142374238.428         121.348          45.000  
G25  20402749.985                        2468.678          31.000    20402741.940    83545820.206        1923.201          42.000  
G10  19475776.218   102345898.365         938.735          36.000    19475765.865    79750004.439         731.720          44.000  
G28  21940235.523                        2527.921          29.000    21940225.040    89841566.993        1969.460          42.000  
C23  20718902.575   107888749.837         159.334          34.000                                                                  
C09  36823196.776                         255.797          28.000    36823181.975   148271694.947         198.089          47.000  
C33  26224202.967                3      -2959.736          17.000                                                                  
C37  22769627.510                        2633.661          30.000                                                                  
G15                                                                  23368071.145                       -2551.215          31.000  
> 2025 10 27 02 53 48.4360000  0 19                     
G12  20720979.914                         754.995          31.000    20720968.589    84848905.023         587.997          42.000  
G18  23712278.539                3      -3673.700          21.000    23712275.412    97097795.923       -2857.071          38.000  
G23  19336913.108   101616159.684       -2194.206          33.000    19336901.914    79181348.032       -1710.182          46.000  
G24  21062774.667                3      -3403.750          17.000    21062769.604                       -2655.688          30.000  
G32  20844695.715                        1480.971          31.000    20844686.365    85355508.606        1153.852          41.000  
C08  34723983.208                        -373.108          31.000    34723963.614   139818997.462        -288.458          48.000  
C13  34714097.587   180765398.990         -71.674          32.000    34714086.326   139779226.484         -55.981          47.000  
C16  35672252.033   185754771.144         -21.800          33.000    35672239.092   143637323.498         -16.972          47.000  
C25  22354382.233                3      -2618.022          20.000                                                                  
C32  21019226.834   109452623.444         821.571          35.000                                                                  
C06  35358569.668                         157.088          30.000    35358550.719   142374233.581         121.223          45.000  
G25  20402731.206                        2467.135          31.000    20402723.161    83545743.278        1923.171          42.000  
G10  19475769.078   102345860.800         938.952          36.000    19475758.709    79749975.170         731.732          44.000  
G28  21940216.281                        2527.784          29.000    21940205.799    89841488.201        1969.698          42.000  
C23  20718901.371   107888743.457         159.321          34.000                                                                  
C09  36823194.837                         255.814          28.000    36823179.998   148271687.032         197.944          47.000  
C33  26224225.929                3      -2959.736          16.000                                                                  
C37  22769607.282                        2633.984          30.000                                                                  
G15                                                                  23368096.098                       -2552.166          31.000  
> 2025 10 27 02 53 48.4760000  0 19                     
G12  20720974.179                         753.896          31.000    20720962.847    84848881.498         588.046          42.000  
G18  23712306.676                3      -3673.700          21.000    23712303.306    97097910.171       -2856.598          38.000  
G23  19336929.823   101616247.505       -2195.106          33.000    19336918.616    79181416.438       -1710.200          46.000  
G24  21062800.562                3      -3403.750          17.000    21062795.562                       -2655.696          30.000  
G32  20844684.462                        1479.957          31.000    20844675.102    85355462.455        1153.744          41.000  
C08  34723986.086                        -372.992          31.000    34723966.500   139819009.003        -288.538          48.000  
C13  34714098.169   180765401.904         -72.595          32.000    34714086.890   139779228.720         -55.975          47.000  
C16  35672252.194   185754771.955         -20.729          33.000    35672239.262   143637324.177         -16.988          47.000  
C25  22354402.440                3      -2618.022          20.000                                                                  
C32  21019220.534   109452590.582         821.451          35.000                                                                  
C06  35358568.446                         156.973          30.000    35358549.513   142374228.723         121.357          45.000  
G25  20402712.438                        2467.618          31.000    20402704.373    83545666.349        1923.161          42.000  
G10  19475761.926   102345823.236         939.069          36.000    19475751.556    79749945.905         731.621          44.000  
G28  21940197.067                        2527.858          29.000    21940186.550    89841409.419        1969.628          42.000  
C23  20718900.138   107888737.082         159.376          34.000                                                                  
C09  36823192.868                         255.599          28.000    36823178.035   148271679.112         197.926          47.000  
C33  26224248.679                3      -2959.736          16.000                                                                  
C37  22769587.036                        2634.076          30.000                                                                  
G15                                                                  23368121.059                       -2552.429          31.000  
> 2025 10 27 02 53 48.5160000  0 19                     
G12  20720968.465                         754.716          31.000    20720957.077    84848857.964         588.278          42.000  
G18  23712334.525                3      -3673.700          20.000    23712331.197    97098024.408       -2856.115          38.000  
G23  19336946.517   101616335.246       -2194.087          32.000    19336935.305    79181484.847       -1710.249          46.000  
G24  21062826.412                3      -3403.750          16.000    21062821.513                       -2655.232          30.000  
G32  20844673.204                        1481.038          31.000    20844663.844    85355416.310        1153.576          41.000  
C08  34723988.977                        -372.827          31.000    34723969.364   139819020.541        -288.507          48.000  
C13  34714098.725   180765404.785         -72.333          32.000    34714087.460   139779230.953         -55.902          47.000  
C16  35672252.362   185754772.862         -21.840          33.000    35672239.429   143637324.847         -16.835          47.000  
C25  22354422.541                3      -2618.022          20.000                                                                  
C32  21019214.226   109452557.676         822.218          35.000                                                                  
C06  35358567.256                         156.627          30.000    35358548.316   142374223.865         121.427          45.000  
G25  20402693.638                        2468.656          31.000    20402685.594    83545589.430        1922.971          42.000  
G10  19475754.769   102345785.689         938.748          35.000    19475744.394    79749916.638         731.602          44.000  
G28  21940177.832                        2527.962          28.000    21940167.298    89841330.631        1969.684          42.000  
C23  20718898.924   107888730.699         159.446          34.000                                                                  
C09  36823190.912                         255.947          28.000    36823176.056   148271671.190         197.990          47.000  
C33  26224271.276                3      -2959.736          16.000                                                                  
C37  22769566.813                        2634.076          30.000                                                                  
G15                                                                  23368146.000                       -2551.976          31.000  
> 2025 10 27 02 53 48.5560000  0 19                     
G12  20720962.708                         755.490          31.000    20720951.313    84848834.433         588.300          42.000  
G15  23368170.084                3      -3286.750          18.000    23368170.930                       -2551.811          31.000  
G18  23712362.393                3      -3673.700          20.000    23712359.097    97098138.649       -2855.938          38.000  
G23  19336963.217   101616423.077       -2195.335          32.000    19336952.040    79181553.256       -1710.230          46.000  
G24  21062852.522                3      -3403.750          16.000    21062847.433                       -2655.230          30.000  
G32  20844661.925                        1480.030          31.000    20844652.558    85355370.168        1153.460          41.000  
C08  34723991.841                        -373.413          31.000    34723972.218   139819032.080        -288.544          48.000  
C13  34714099.292   180765407.686         -72.571          32.000    34714088.028   139779233.180         -55.750          47.000  
C16  35672252.548   185754773.743         -22.135          33.000    35672239.595   143637325.521         -16.833          47.000  
C25  22354442.613                3      -2609.824          20.000                                                                  
C32  21019207.914   109452524.797         822.091          35.000                                                                  
C06  35358566.050                         156.531          30.000    35358547.121   142374219.023         121.147          45.000  
G25  20402674.849                        2468.431          31.000    20402666.790    83545512.497        1923.168          42.000  
G10  19475747.625   102345748.126         938.922          35.000    19475737.279    79749887.379         731.467          44.000  
G28  21940158.592                        2527.770          28.000    21940148.053    89841251.845        1969.621          42.000  
C23  20718897.708   107888724.324         159.448          35.000                                                                  
C09  36823188.927                         255.796          28.000    36823174.084   148271663.285         197.708          47.000  
C33  26224293.960                3      -2959.736          16.000                                                                  
C37  22769546.550                        2634.131          30.000                                                                  
> 2025 10 27 02 53 48.5960000  0 19                     
G12  20720956.936                         755.027          31.000    20720945.582    84848810.911         588.106          42.000  
G15  23368195.325                3      -3286.750          18.000    23368195.861                       -2552.721          31.000  
G18  23712390.398                3      -3673.700          20.000    23712386.999    97098252.931       -2856.716          38.000  
G23  19336979.944   101616510.949       -2196.731          32.000    19336968.762    79181621.670       -1710.354          46.000  
G32  20844650.693                        1480.733          31.000    20844641.280    85355324.013        1153.679          41.000  
C08  34723994.730                        -373.181          30.000    34723975.080   139819043.621        -288.580          48.000  
C13  34714099.875   180765410.602         -72.913          31.000    34714088.579   139779235.413         -55.762          47.000  
C16  35672252.722   185754774.675         -23.026          32.000    35672239.736   143637326.198         -16.900          47.000  
C25  22354462.813                3      -2609.824          19.000                                                                  
C32  21019201.606   109452491.929         821.739          34.000                                                                  
C06  35358564.857                         156.557          29.000    35358545.911   142374214.174         121.119          45.000  
G25  20402656.049                        2467.105          31.000    20402648.008    83545435.571        1923.155          42.000  
G10  19475740.472   102345710.562         938.995          35.000    19475730.138    79749858.122         731.363          44.000  
G28  21940139.358                        2527.240          28.000    21940128.820    89841173.066        1969.453          42.000  
C23  20718896.486   107888717.929         159.620          34.000                                                                  
C09  36823186.960                         256.311          27.000    36823172.124   148271655.374         197.654          47.000  
C33  26224316.412                3      -2959.736          16.000                                                                  
C37  22769526.318                        2634.210          29.000                                                                  
G24                                                                  21062873.387                       -2655.715          30.000  
> 2025 10 27 02 53 48.6360000  0 19                     
G12  20720951.195                         755.625          31.000    20720939.828    84848787.396         587.910          42.000  
G15  23368220.368                3      -3286.750          18.000    23368220.800                       -2552.355          31.000  
G18  23712418.524                3      -3673.700          20.000    23712414.911    97098367.183       -2856.515          38.000  
G23  19336996.640                       -2193.755          32.000    19336985.494    79181690.085       -1710.433          46.000  
G32  20844639.439                        1480.067          30.000    20844630.010    85355277.860        1153.789          41.000  
C08  34723997.594                        -373.053          30.000    34723977.931   139819055.161        -288.531          48.000  
C13  34714100.433   180765413.475         -72.272          31.000    34714089.110   139779237.653         -55.939          47.000  
C16  35672252.915   185754775.554         -22.349          32.000    35672239.890   143637326.878         -16.997          47.000  
C25  22354482.884                3      -2609.824          19.000                                                                  
C32  21019195.291   109452459.033         822.144          34.000                                                                  
C06  35358563.645                         157.081          29.000    35358544.734   142374209.324         121.173          45.000  
G25  20402637.258                        2467.223          30.000    20402629.194    83545358.643        1923.158          42.000  
G10  19475733.328   102345672.993         939.298          35.000    19475722.970    79749828.855         731.537          44.000  
G28  21940120.146                        2526.747          28.000    21940109.590    89841094.294        1969.312          42.000  
C23  20718895.277   107888711.571         159.121          34.000                                                                  
C09  36823184.972                         256.120          27.000    36823170.164   148271647.456         197.827          47.000  
C33  26224339.107                3      -2959.736          15.000                                                                  
C37  22769506.075                        2634.283          29.000                                                                  
G24                                                                  21062899.317                       -2655.631          30.000  
> 2025 10 27 02 53 48.6760000  0 19                     
G12  20720945.414                         754.469          31.000    20720934.093    84848763.883         587.773          42.000  
G15  23368245.526                3      -3286.750          17.000    23368245.743                       -2552.028          31.000  
G18  23712446.560                3      -3660.108          19.000    23712442.806    97098481.426       -2856.249          38.000  
G23  19337013.312                       -2194.895          32.000    19337002.190    79181758.498       -1710.402          46.000  
G32  20844628.127                        1481.028          30.000    20844618.750    85355231.712        1153.754          41.000  
C08  34724000.431                        -372.864          30.000    34723980.842   139819066.696        -288.446          48.000  
C13  34714101.000   180765416.368         -72.192          31.000    34714089.666   139779239.891         -55.988          47.000  
C16  35672253.069   185754776.397         -21.443          32.000    35672240.033   143637327.551         -16.888          47.000  
C25  22354503.009                3      -2609.824          19.000                                                                  
C32  21019188.968   109452426.166         821.780          31.000                                                                  
C06  35358562.441                         157.220          29.000    35358543.523   142374204.475         121.193          45.000  
G25  20402618.426                        2471.033          30.000    20402610.406    83545281.719        1923.099          42.000  
G10  19475726.172   102345635.450         938.921          35.000    19475715.821    79749799.592         731.530          44.000  
G28  21940100.890                        2527.620          28.000    21940090.362    89841015.517        1969.332          42.000  
C23  20718894.028   107888705.179         159.707          34.000                                                                  
C09  36823182.978                         256.305          27.000    36823168.187   148271639.540         197.876          47.000  
C33  26224361.829                3      -2959.736          15.000                                                                  
C37  22769485.826                        2634.064          29.000                                                                  
G24                                                                  21062925.223                       -2655.565          30.000  
> 2025 10 27 02 53 48.7160000  0 19                     
G12  20720939.663                         752.918          30.000    20720928.330    84848740.356         587.959          42.000  
G15  23368270.773                3      -3286.750          17.000    23368270.658                       -2552.201          31.000  
G18  23712474.409                3      -3660.108          19.000    23712470.695    97098595.699       -2856.635          38.000  
G23  19337030.017                       -2195.099          31.000    19337018.892    79181826.903       -1710.229          46.000  
G32  20844616.840                        1481.583          30.000    20844607.484    85355185.564        1153.728          41.000  
C08  34724003.304                        -372.467          29.000    34723983.728   139819078.235        -288.452          48.000  
C13  34714101.541   180765419.266         -72.174          31.000    34714090.218   139779242.127         -55.951          47.000  
C16  35672253.221   185754777.236         -20.959          32.000    35672240.169   143637328.228         -16.922          47.000  
C25  22354522.914                3      -2609.824          19.000                                                                  
C32  21019182.678   109452393.284         821.860          31.000                                                                  
C06  35358561.249                         157.210          29.000    35358542.351   142374199.615         121.377          45.000  
G25  20402599.591                        2470.441          30.000    20402591.623    83545204.793        1923.087          42.000  
G10  19475719.021   102345597.910         938.552          32.000    19475708.673    79749770.324         731.591          44.000  
G28  21940081.613                        2528.058          28.000    21940071.123    89840936.723        1969.637          42.000  
C23  20718892.825   107888698.786         159.991          33.000                                                                  
C09  36823181.033                         256.368          27.000    36823166.249   148271631.612         198.102          47.000  
C33  26224384.725                3      -2959.736          15.000                                                                  
C37  22769465.591                        2633.868          29.000                                                                  
G24                                                                  21062951.168                       -2654.795          30.000  
> 2025 10 27 02 53 48.7560000  0 19                     
G12  20720933.924                         752.699          30.000    20720922.576    84848716.813         588.352          42.000  
G15  23368295.665                3      -3286.750          17.000    23368295.584                       -2552.046          31.000  
G18  23712502.101                3      -3660.108          19.000    23712498.593    97098709.951       -2856.542          38.000  
G23  19337046.726                       -2195.906          31.000    19337035.614    79181895.317       -1710.297          46.000  
G32  20844605.567                        1481.108          30.000    20844596.190    85355139.412        1153.746          41.000  
C08  34724006.166                        -372.638          29.000    34723986.596   139819089.775        -288.507          48.000  
C13  34714102.103   180765422.124         -71.710          31.000    34714090.764   139779244.363         -55.939          47.000  
C16  35672253.389   185754778.116         -21.480          32.000    35672240.328   143637328.906         -16.949          47.000  
C25  22354542.949                3      -2609.824          19.000                                                                  
C32  21019176.358   109452360.447         821.262          31.000                                                                  
C06  35358560.048                         156.648          29.000    35358541.098   142374194.766         121.309          45.000  
G25  20402580.825                        2470.345          30.000    20402572.822    83545127.866        1923.116          42.000  
G10  19475711.883   102345560.382         938.239          32.000    19475701.526    79749741.070         731.382          44.000  
G28  21940062.380                        2527.921          28.000    21940051.879    89840857.947        1969.461          42.000  
C23  20718891.597   107888692.414         159.722          33.000                                                                  
C09  36823179.056                         256.227          27.000    36823164.247   148271623.693         198.048          47.000  
C33  26224407.090                3      -2959.736          15.000                                                                  
C37  22769445.352                        2633.356          29.000                                                                  
G24                                                                  21062977.095                       -2655.066          30.000  
> 2025 10 27 02 53 48.7960000  0 19                     
G12  20720928.211                         753.679          30.000    20720916.826    84848693.289         588.174          42.000  
G15  23368320.916                3      -3286.750          17.000    23368320.517                       -2552.370          31.000  
G18  23712529.710                3      -3660.108          19.000    23712526.495    97098824.198       -2856.333          38.000  
G23  19337063.444                       -2195.344          31.000    19337052.309    79181963.732       -1710.371          46.000  
G32  20844594.314                        1480.792          30.000    20844584.925    85355093.265        1153.694          41.000  
C08  34724009.022                        -373.163          29.000    34723989.433   139819101.318        -288.586          48.000  
C13  34714102.656                         -72.064          30.000    34714091.296   139779246.599         -55.920          47.000  
C16  35672253.553   185754778.963         -21.228          31.000    35672240.480   143637329.589         -17.059          47.000  
C25  22354562.748                3      -2609.824          19.000                                                                  
C32  21019170.022   109452327.529         822.528          31.000                                                                  
C06  35358558.846                         156.779          29.000    35358539.875   142374189.914         121.265          45.000  
G25  20402562.043                        2469.151          30.000    20402554.040    83545050.952        1922.900          42.000  
G10  19475704.728   102345522.793         939.314          32.000    19475694.382    79749711.814         731.333          44.000  
G28  21940043.087                        2527.894          28.000    21940032.658    89840779.167        1969.456          42.000  
C23  20718890.362   107888686.021         159.818          33.000                                                                  
C09  36823177.116                         255.520          27.000    36823162.272   148271615.779         197.903          47.000  
C33  26224429.711                3      -2959.736          15.000                                                                  
C37  22769425.116                        2633.917          29.000                                                                  
G24                                                                  21063003.053                       -2655.239          30.000  
> 2025 10 27 02 53 48.8360000  0 19                     
G12  20720922.475                         753.557          30.000    20720911.084    84848669.771         587.973          42.000  
G15  23368345.966                3      -3286.750          17.000    23368345.439                       -2552.340          31.000  
G18  23712557.688                3      -3660.108          19.000    23712554.402    97098938.456       -2856.399          38.000  
G23  19337080.149                       -2195.323          31.000    19337069.027    79182032.154       -1710.519          46.000  
G32  20844583.049                        1480.270          30.000    20844573.664    85355047.133        1153.385          41.000  
C08  34724011.915                        -374.310          29.000    34723992.292   139819112.865        -288.684          48.000  
C13  34714103.231                         -72.504          30.000    34714091.811   139779248.833         -55.878          47.000  
C16  35672253.736                         -23.005          31.000    35672240.638   143637330.267         -17.024          47.000  
C25  22354582.790                3      -2609.824          18.000                                                                  
C32  21019163.700   109452294.663         822.090          31.000                                                                  
C06  35358557.590                         156.562          29.000    35358538.650   142374185.065         121.226          45.000  
G25  20402543.278                        2468.620          30.000    20402535.260    83544974.033        1922.866          42.000  
G10  19475697.588   102345485.247         939.103          32.000    19475687.245    79749682.557         731.296          44.000  
G28  21940023.876                        2526.943          28.000    21940013.414    89840700.389        1969.432          42.000  
C23  20718889.145   107888679.702         158.425          33.000                                                                  
C09  36823175.177                         256.014          27.000    36823160.307   148271607.860         197.922          47.000  
C33  26224452.470                3      -2959.736          15.000                                                                  
C37  22769404.865                        2633.997          29.000                                                                  
G24                                                                  21063029.002                       -2655.956          30.000  
> 2025 10 27 02 53 48.8760000  0 19                     
G12  20720916.750                         754.269          30.000    20720905.359    84848646.266         587.656          42.000  
G15  23368371.254                3      -3286.750          17.000    23368370.362                       -2551.654          31.000  
G18  23712585.276                3      -3660.108          19.000    23712582.307    97099052.706       -2856.337          38.000  
G23  19337096.846                       -2195.671          31.000    19337085.716    79182100.569       -1710.444          46.000  
G32  20844571.771                        1480.001          30.000    20844562.392    85355000.980        1153.583          41.000  
C08  34724014.781                        -374.011          29.000    34723995.132   139819124.407        -288.629          48.000  
C13  34714103.746                         -71.484          30.000    34714092.366   139779251.071         -55.927          47.000  
C16  35672253.889                         -22.468          31.000    35672240.792   143637330.942         -16.958          47.000  
C25  22354602.905                3      -2609.824          19.000                                                                  
C32  21019157.392   109452261.805         821.630          31.000                                                                  
C06  35358556.406                         156.671          29.000    35358537.447   142374180.217         121.176          45.000  
G25  20402524.485                        2468.269          30.000    20402516.481    83544897.126        1922.697          42.000  
G10  19475690.437   102345447.695         939.127          32.000    19475680.122    79749653.309         731.193          44.000  
G28  21940004.674                        2527.031          28.000    21939994.189    89840621.615        1969.370          43.000  
C23  20718887.941   107888673.316         158.940          33.000                                                                  
C09  36823173.225                         255.917          27.000    36823158.348   148271599.942         197.935          47.000  
C33  26224475.133                3      -2959.736          15.000                                                                  
C37  22769384.648                        2633.905          29.000                                                                  
G24                                                                  21063054.964                       -2656.162          30.000  
> 2025 10 27 02 53 48.9160000  0 19                     
G12  20720910.980                         754.739          30.000    20720899.607    84848622.755         587.653          42.000  
G15  23368396.366                3      -3286.750          17.000    23368395.274                       -2552.024          31.000  
G18  23712612.930                3      -3670.455          19.000    23712610.211    97099166.963       -2856.395          38.000  
G23  19337113.573                       -2195.449          31.000    19337102.408    79182168.983       -1710.407          46.000  
G32  20844560.495                        1479.938          30.000    20844551.107    85354954.826        1153.725          41.000  
C08  34724017.629                        -373.242          29.000    34723998.031   139819135.951        -288.641          48.000  
C13  34714104.317                         -71.375          30.000    34714092.906   139779253.313         -56.067          47.000  
C16  35672254.080                         -22.671          31.000    35672240.917   143637331.620         -16.952          47.000  
C25  22354623.029                3      -2609.824          18.000                                                                  
C32  21019151.078   109452228.934         821.690          31.000                                                                  
C06  35358555.198                         156.456          29.000    35358536.235   142374175.369         121.152          45.000  
G25  20402505.688                        2467.252          30.000    20402497.668    83544820.202        1922.926          42.000  
G10  19475683.275   102345410.193         938.060          32.000    19475672.977    79749624.053         731.311          44.000  
G28  21939985.407                        2527.144          27.000    21939974.934    89840542.845        1969.252          43.000  
C23  20718886.712   107888666.959         158.745          33.000                                                                  
C09  36823171.275                         255.738          27.000    36823156.389   148271592.026         197.891          47.000  
C33  26224497.870                3      -2959.736          14.000                                                                  
C37  22769364.417                        2633.923          29.000                                                                  
G24                                                                  21063080.895                       -2656.002          30.000  
> 2025 10 27 02 53 48.9560000  0 19                     
G12  20720905.236                         755.171          30.000    20720893.872    84848599.232         587.871          42.000  
G15  23368421.284                3      -3265.359          17.000    23368420.197                       -2552.394          31.000  
G18  23712640.941                3      -3670.455          19.000    23712638.139    97099281.218       -2856.407          38.000  
G23  19337130.267                       -2195.119          31.000    19337119.117    79182237.399       -1710.388          46.000  
G32  20844549.230                        1479.811          30.000    20844539.849    85354908.679        1153.737          41.000  
C08  34724020.511                        -371.887          29.000    34724000.891   139819147.494        -288.654          48.000  
C13  34714104.913                         -71.881          30.000    34714093.463   139779255.549         -56.000          47.000  
C16  35672254.255                         -22.482          31.000    35672241.056   143637332.305         -17.088          47.000  
C25  22354642.897                3      -2609.824          18.000                                                                  
C32  21019144.770   109452196.026         822.288          31.000                                                                  
C06  35358553.980                         156.913          29.000    35358535.024   142374170.516         121.273          45.000  
G25  20402486.872                        2467.256          30.000    20402478.877    83544743.278        1923.040          42.000  
G10  19475676.136   102345372.656         938.199          32.000    19475665.820    79749594.788         731.551          44.000  
G28  21939966.186                        2526.731          27.000    21939955.694    89840464.071        1969.253          43.000  
C23  20718885.477   107888660.578         159.203          33.000                                                                  
C09  36823169.336                         255.110          26.000    36823154.416   148271584.112         197.854          47.000  
C33  26224520.541                3      -2959.736          14.000                                                                  
C37  22769344.142                        2633.917          29.000                                                                  
G24                                                                  21063106.828                       -2655.833          30.000  
> 2025 10 27 02 53 48.9960000  0 19                     
G12  20720899.498                         754.587          30.000    20720888.118    84848575.701         588.161          42.000  
G15  23368445.904                3      -3265.359          17.000    23368445.129                       -2551.963          31.000  
G18  23712668.937                3      -3670.455          19.000    23712666.038    97099395.468       -2856.281          38.000  
G23  19337146.951                       -2195.420          31.000    19337135.857    79182305.815       -1710.401          46.000  
G32  20844537.962                        1480.157          30.000    20844528.587    85354862.527        1153.781          41.000  
C08  34724023.410                        -374.500          29.000    34724003.772   139819159.033        -288.538          48.000  
C13  34714105.454                         -71.875          30.000    34714094.014   139779257.786         -55.969          47.000  
C16  35672254.410                         -22.484          31.000    35672241.194   143637332.988         -17.097          47.000  
C25  22354662.934                3      -2641.074          18.000                                                                  
C32  21019138.443   109452163.145         822.307          31.000                                                                  
C06  35358552.808                         157.452          28.000    35358533.814   142374165.670         121.187          45.000  
G25  20402468.093                        2467.546          30.000    20402460.090    83544666.350        1923.130          42.000  
G10  19475668.968   102345335.114         938.385          32.000    19475658.663    79749565.533         731.451          44.000  
G28  21939946.997                        2526.721          27.000    21939936.450    89840385.286        1969.497          43.000  
C23  20718884.255   107888654.172         160.041          33.000                                                                  
C09  36823167.370                         255.167          26.000    36823152.419   148271576.192         197.924          47.000  
C33  26224543.139                3      -2959.736          14.000                                                                  
C37  22769323.887                        2633.856          29.000                                                                  
G24                                                                  21063132.725                       -2654.680          30.000  
> 2025 10 27 02 53 49.0360000  0 19                     
G12  20720893.756                         754.404          30.000    20720882.370    84848552.181         588.130          42.000  
G15  23368470.574                3      -3265.359          17.000    23368470.085                       -2552.400          31.000  
G18  23712696.830                3      -3670.455          19.000    23712693.937    97099509.735       -2856.482          38.000  
G23  19337163.662                       -2195.648          31.000    19337152.552    79182374.233       -1710.469          46.000  
G32  20844526.686                        1480.235          30.000    20844517.319    85354816.383        1153.635          41.000  
C08  34724026.294                        -374.176          29.000    34724006.649   139819170.586        -288.770          48.000  
C13  34714106.026                         -72.418          30.000    34714094.575   139779260.024         -55.963          47.000  
C16  35672254.582                         -21.825          31.000    35672241.346   143637333.662         -16.973          47.000  
C25  22354683.095                3      -2641.074          18.000                                                                  
C32  21019132.098   109452130.298         821.470          31.000                                                                  
C06  35358551.601                         157.124          28.000    35358532.618   142374160.826         121.101          45.000  
G25  20402449.314                        2467.567          30.000    20402441.316    83544589.425        1923.112          42.000  
G10  19475661.816   102345297.570         938.439          32.000    19475651.518    79749536.287         731.229          44.000  
G28  21939927.769                        2527.341          27.000    21939917.202    89840306.505        1969.495          43.000  
C23  20718883.013   107888647.823         159.259          33.000                                                                  
C09  36823165.398                         256.561          26.000    36823150.455   148271568.274         197.936          47.000  
C33  26224565.728                3      -2959.736          13.000                                                                  
C37  22769303.661                        2633.612          28.000                                                                  
G24                                                                  21063158.634                       -2654.976          30.000  
> 2025 10 27 02 53 49.0760000  0 19                     
G12  20720888.013                         754.608          30.000    20720876.646    84848528.672         587.868          42.000  
G15  23368495.317                3      -3265.359          17.000    23368495.017                       -2552.833          31.000  
G18  23712724.665                3      -3670.455          19.000    23712721.850    97099623.992       -2856.495          38.000  
G23  19337180.374                       -2194.996          31.000    19337169.244    79182442.654       -1710.536          46.000  
G32  20844515.381                        1480.634          29.000    20844506.055    85354770.241        1153.513          41.000  
C08  34724029.154                        -373.694          29.000    34724009.509   139819182.127        -288.660          48.000  
C13  34714106.561                         -72.296          30.000    34714095.113   139779262.268         -56.085          47.000  
C16  35672254.730                         -21.759          31.000    35672241.513   143637334.349         -17.117          47.000  
C25  22354703.341                3      -2641.074          18.000                                                                  
C32  21019125.780   109452097.425         821.450          31.000                                                                  
C06  35358550.417                         156.557          28.000    35358531.425   142374155.984         121.024          45.000  
G25  20402430.527                        2467.487          30.000    20402422.553    83544512.517        1922.771          42.000  
G10  19475654.665   102345260.004         938.944          32.000    19475644.400    79749507.038         731.144          44.000  
G28  21939908.506                        2527.710          27.000    21939897.965    89840227.733        1969.332          43.000  
C23  20718881.807   107888641.483         158.627          33.000                                                                  
C09  36823163.413                         256.322          26.000    36823148.470   148271560.359         197.879          47.000  
C33  26224588.531                3      -2959.736          13.000                                                                  
C37  22769283.421                        2633.636          28.000                                                                  
G24                                                                  21063184.546                       -2656.077          30.000  
> 2025 10 27 02 53 49.1160000  0 19                     
G12  20720882.274                         754.690          30.000    20720870.924    84848505.174         587.488          42.000  
G15  23368520.334                3      -3265.359          17.000    23368519.949                       -2551.520          32.000  
G18  23712752.414                3      -3670.455          19.000    23712749.758    97099738.249       -2856.453          38.000  
G23  19337197.077                       -2194.787          31.000    19337185.968    79182511.083       -1710.721          46.000  
G32  20844504.077                        1481.168          29.000    20844494.784    85354724.109        1153.313          41.000  
C08  34724032.057                        -374.133          29.000    34724012.378   139819193.670        -288.617          48.000  
C13  34714107.110                         -72.467          30.000    34714095.681   139779264.506         -56.049          47.000  
C16  35672254.899                         -21.391          31.000    35672241.668   143637335.030         -17.076          47.000  
C25  22354723.538                3      -2641.074          18.000                                                                  
C32  21019119.492   109452064.559         821.489          31.000                                                                  
C06  35358549.247                         156.551          28.000    35358530.231   142374151.143         120.990          45.000  
G25  20402411.761                        2467.711          30.000    20402403.770    83544435.600        1922.806          42.000  
G10  19475647.521   102345222.483         938.407          32.000    19475637.262    79749477.789         731.125          44.000  
G28  21939889.263                        2527.918          27.000    21939878.743    89840148.953        1969.414          43.000  
C23  20718880.585   107888635.112         158.910          33.000                                                                  
C09  36823161.422                         255.755          26.000    36823146.499   148271552.455         197.634          47.000  
C33  26224611.371                3      -2959.736          13.000                                                                  
C37  22769263.172                        2634.137          28.000                                                                  
G24                                                                  21063210.457                       -2656.219          30.000  
> 2025 10 27 02 53 49.1560000  0 19                     
G12  20720876.533                         754.145          30.000    20720865.195    84848481.672         587.443          42.000  
G15  23368545.150                3      -3265.359          16.000    23368544.891                       -2552.155          31.000  
G18  23712780.424                3      -3670.455          19.000    23712777.669    97099852.513       -2856.605          38.000  
G23  19337213.768                       -2194.936          31.000    19337202.678    79182579.505       -1710.683          46.000  
G32  20844492.811                        1480.579          29.000    20844483.513    85354677.962        1153.515          41.000  
C08  34724034.937                        -374.091          29.000    34724015.242   139819205.214        -288.611          48.000  
C13  34714107.664                         -72.833          30.000    34714096.268   139779266.751         -56.122          47.000  
C16  35672255.065                         -21.425          31.000    35672241.835   143637335.708         -17.003          47.000  
C25  22354743.697                3      -2641.074          18.000                                                                  
C32  21019113.172   109452031.700         821.532          32.000                                                                  
C06  35358548.069                         156.619          28.000    35358529.033   142374146.290         121.205          45.000  
G25  20402392.970                        2467.686          29.000    20402384.978    83544358.694        1922.633          42.000  
G10  19475640.367   102345184.935         938.630          32.000    19475630.111    79749448.536         731.200          44.000  
G28  21939870.044                        2527.466          27.000    21939859.525    89840070.185        1969.290          43.000  
C23  20718879.370   107888628.761         158.815          33.000                                                                  
C09  36823159.460                         255.711          26.000    36823144.535   148271544.547         197.606          47.000  
C33  26224634.097                3      -2959.736          13.000                                                                  
C37  22769242.934                        2633.948          29.000                                                                  
G24                                                                  21063236.420                       -2655.809          30.000  
> 2025 10 27 02 53 49.1960000  0 19                     
G12  20720870.802                         754.143          30.000    20720859.446    84848458.162         587.607          42.000  
G15  23368570.021                3      -3265.359          16.000    23368569.833                       -2552.090          32.000  
G18  23712808.547                3      -3670.455          18.000    23712805.581    97099966.760       -2856.328          38.000  
G23  19337230.485                       -2195.024          31.000    19337219.420    79182647.931       -1710.682          46.000  
G32  20844481.545                        1480.635          29.000    20844472.251    85354631.815        1153.644          41.000  
C08  34724037.792                        -373.749          29.000    34724018.118   139819216.754        -288.538          48.000  
C13  34714108.222                         -72.760          30.000    34714096.824   139779268.993         -56.091          47.000  
C16  35672255.230                         -21.666          32.000    35672241.984   143637336.386         -16.946          47.000  
C25  22354764.026                3      -2641.074          18.000                                                                  
C32  21019106.869   109451998.824         821.793          32.000                                                                  
C06  35358546.873                         156.374          29.000    35358527.829   142374141.434         121.372          45.000  
G25  20402374.192                        2467.654          29.000    20402366.208    83544281.787        1922.561          42.000  
G10  19475633.215   102345147.408         938.278          32.000    19475622.972    79749419.288         731.126          44.000  
G28  21939850.800                        2527.386          27.000    21939840.292    89839991.416        1969.236          43.000  
C23  20718878.156   107888622.396         159.076          33.000                                                                  
C09  36823157.484                         255.706          27.000    36823142.562   148271536.643         197.539          47.000  
C33  26224656.730                3      -2959.736          13.000                                                                  
C37  22769222.707                        2633.594          29.000                                                                  
G24                                                                  21063262.367                       -2656.074          30.000  
> 2025 10 27 02 53 49.2360000  0 19                     
G12  20720865.075                         753.969          29.000    20720853.701    84848434.641         587.903          42.000  
G15  23368594.761                3      -3265.359          16.000    23368594.791                       -2552.510          31.000  
G18  23712836.505                3      -3670.455          18.000    23712833.488    97100081.028       -2856.550          38.000  
G23  19337247.199                       -2195.020          31.000    19337236.132    79182716.357       -1710.694          46.000  
G32  20844470.283                        1480.534          29.000    20844460.986    85354585.670        1153.667          41.000  
C08  34724040.657                        -373.260          29.000    34724021.004   139819228.303        -288.702          48.000  
C13  34714108.778                         -72.589          31.000    34714097.381   139779271.237         -56.116          47.000  
C16  35672255.448                         -22.356          32.000    35672242.140   143637337.071         -17.094          47.000  
C25  22354784.313                3      -2641.074          18.000                                                                  
C32  21019100.558   109451965.949         821.883          35.000                                                                  
C06  35358545.690                         156.077          29.000    35358526.636   142374136.588         121.273          45.000  
G25  20402355.421                        2467.368          29.000    20402347.415    83544204.869        1922.777          42.000  
G10  19475626.070   102345109.879         938.218          32.000    19475615.830    79749390.034         731.250          44.000  
G28  21939831.535                        2527.336          27.000    21939821.053    89839912.646        1969.230          43.000  
C23  20718876.939   107888616.026         159.188          33.000                                                                  
C09  36823155.534                         255.782          27.000    36823140.631   148271528.729         197.718          47.000  
C33  26224679.401                3      -2959.736          13.000                                                                  
C37  22769202.487                        2633.417          29.000                                                                  
G24                                                                  21063288.278                       -2655.557          30.000  
> 2025 10 27 02 53 49.2760000  0 19                     
G12  20720859.349                         754.029          29.000    20720847.969    84848411.127         587.904          42.000  
G15  23368619.545                3      -3265.359          16.000    23368619.724                       -2552.472          32.000  
G18  23712864.528                3      -3670.455          18.000    23712861.385    97100195.291       -2856.641          38.000  
G23  19337263.923                       -2195.280          31.000    19337252.855    79182784.781       -1710.614          46.000  
G32  20844459.020                        1480.199          29.000    20844449.727    85354539.522        1153.709          41.000  
C08  34724043.493                        -373.297          30.000    34724023.881   139819239.851        -288.727          48.000  
C13  34714109.317                         -72.668          31.000    34714097.953   139779273.474         -55.988          47.000  
C16  35672255.615                         -22.485          32.000    35672242.295   143637337.763         -17.274          47.000  
C25  22354804.553                3      -2641.074          18.000                                                                  
C32  21019094.256   109451933.078         821.826          36.000                                                                  
C06  35358544.482                         156.407          29.000    35358525.412   142374131.751         121.021          45.000  
G25  20402336.651                        2467.759          29.000    20402328.632    83544127.950        1922.913          42.000  
G10  19475618.918   102345072.335         938.471          32.000    19475608.681    79749360.784         731.262          44.000  
G28  21939812.290                        2527.157          27.000    21939801.822    89839833.882        1969.145          43.000  
C23  20718875.702   107888609.662         159.144          34.000                                                                  
C09  36823153.561                         255.610          27.000    36823138.652   148271520.806         197.968          47.000  
C33  26224702.212                3      -2959.736          13.000                                                                  
C37  22769182.285                        2633.337          30.000                                                                  
G24                                                                  21063314.187                       -2655.744          30.000  
> 2025 10 27 02 53 49.3160000  0 19                     
G12  20720853.633                         754.032          29.000    20720842.202    84848387.603         588.094          42.000  
G15  23368644.380                3      -3265.359          16.000    23368644.674                       -2552.090          32.000  
G18  23712892.510                3      -3670.455          18.000    23712889.278    97100309.536       -2856.335          38.000  
G23  19337280.626                       -2195.301          31.000    19337269.569    79182853.201       -1710.528          46.000  
G32  20844447.752                        1480.316          29.000    20844438.436    85354493.379        1153.588          41.000  
C08  34724046.345                        -372.553          30.000    34724026.735   139819251.395        -288.672          48.000  
C13  34714109.892                         -72.455          31.000    34714098.516   139779275.709         -55.884          47.000  
C16  35672255.779                         -22.415          32.000    35672242.453   143637338.439         -17.092          47.000  
C25  22354824.951                3      -2641.074          18.000                                                                  
C32  21019087.938   109451900.187         822.117          36.000                                                                  
C06  35358543.283                         156.747          29.000    35358524.242   142374126.904         121.071          45.000  
G25  20402317.855                        2467.663          29.000    20402309.875    83544051.026        1923.057          42.000  
G10  19475611.778   102345034.807         938.317          32.000    19475601.537    79749331.536         731.225          44.000  
G28  21939793.065                        2527.177          27.000    21939782.569    89839755.086        1969.686          43.000  
C23  20718874.478   107888603.312         158.870          34.000                                                                  
C09  36823151.610                         255.867          27.000    36823136.716   148271512.887         198.027          47.000  
C33  26224724.918                3      -2959.736          13.000                                                                  
C37  22769162.055                        2633.624          30.000                                                                  
G24                                                                  21063340.136                       -2655.519          30.000  
> 2025 10 27 02 53 49.3560000  0 19                     
G12  20720847.893                         754.014          29.000    20720836.460    84848364.106         587.592          42.000  
G15  23368669.197                3      -3265.359          16.000    23368669.600                       -2551.719          32.000  
G18  23712920.471                3      -3670.455          18.000    23712917.177    97100423.793       -2856.357          38.000  
G23  19337297.341                       -2195.454          30.000    19337286.301    79182921.633       -1710.701          46.000  
G32  20844436.479                        1480.260          29.000    20844427.174    85354447.241        1153.460          41.000  
C08  34724049.214                        -373.462          30.000    34724029.581   139819262.939        -288.629          48.000  
C13  34714110.435                         -72.327          31.000    34714099.086   139779277.948         -55.939          47.000  
C16  35672255.941   185754791.364         -22.477          32.000    35672242.603   143637339.121         -17.067          47.000  
C25  22354845.057                3      -2641.074          18.000                                                                  
C32  21019081.624   109451867.322         821.838          36.000                                                                  
C06  35358542.083                         156.909          29.000    35358523.010   142374122.050         121.224          45.000  
G25  20402299.077                        2467.528          29.000    20402291.091    83543974.117        1922.843          42.000  
G10  19475604.630   102344997.266         938.490          32.000    19475594.400    79749302.295         731.077          44.000  
G28  21939773.840                        2527.387          27.000    21939763.350    89839676.315        1969.458          43.000  
C23  20718873.259   107888596.950         158.899          34.000                                                                  
C09  36823149.627                         255.938          27.000    36823134.770   148271504.981         197.753          47.000  
C33  26224747.656                3      -2959.736          13.000                                                                  
C37  22769141.803                        2633.728          30.000                                                                  
G24                                                                  21063366.064                       -2654.959          30.000  
> 2025 10 27 02 53 49.3960000  0 19                     
G12  20720842.152                         754.187          29.000    20720830.724    84848340.617         587.198          42.000  
G15  23368694.031                3      -3265.359          16.000    23368694.547                       -2553.442          32.000  
G18  23712948.483                3      -3670.455          18.000    23712945.074    97100538.062       -2856.631          38.000  
G23  19337314.048                       -2195.573          30.000    19337302.993    79182990.063       -1710.774          46.000  
G32  20844425.222                        1480.161          29.000    20844415.903    85354401.100        1153.445          41.000  
C08  34724052.077                        -372.833          31.000    34724032.400   139819274.487        -288.715          48.000  
C13  34714111.000   180765468.483         -72.614          32.000    34714099.640   139779280.191         -56.049          47.000  
C16  35672256.105   185754792.247         -22.246          33.000    35672242.768   143637339.806         -17.106          47.000  
C25  22354865.240                3      -2641.074          18.000                                                                  
C32  21019075.306   109451834.462         821.552          36.000                                                                  
C06  35358540.868                         156.801          29.000    35358521.785   142374117.208         121.104          45.000  
G25  20402280.290                        2467.650          29.000    20402272.318    83543897.207        1922.726          42.000  
G10  19475597.481   102344959.728         938.458          32.000    19475587.252    79749273.059         730.880          44.000  
G28  21939754.590                        2527.473          27.000    21939744.130    89839597.549        1969.227          43.000  
C23  20718872.038   107888590.597         158.814          35.000                                                                  
C09  36823147.673                         255.667          28.000    36823132.802   148271497.074         197.604          47.000  
C33  26224770.407                3      -2959.736          14.000                                                                  
C37  22769121.569                        2633.649          30.000                                                                  
G24                                                                  21063392.002                       -2656.055          30.000  
> 2025 10 27 02 53 49.4360000  0 19                     
G12  20720836.401                         754.205          29.000    20720824.991    84848317.131         587.021          42.000  
G15  23368718.983                3      -3265.359          16.000    23368719.474                       -2552.993          32.000  
G18  23712976.446                3      -3670.455          18.000    23712972.960    97100652.309       -2856.341          38.000  
G23  19337330.788                       -2195.679          30.000    19337319.684    79183058.499       -1710.953          46.000  
G32  20844413.957                        1480.359          29.000    20844404.635    85354354.963        1153.390          41.000  
C08  34724054.946                        -373.022          31.000    34724035.268   139819286.038        -288.776          48.000  
C13  34714111.569   180765471.385         -72.632          32.000    34714100.243   139779282.440         -56.183          47.000  
C16  35672256.282   185754793.136         -22.242          33.000    35672242.943   143637340.492         -17.150          47.000  
C25  22354885.574                3      -2641.074          18.000                                                                  
C32  21019068.994   109451801.606         821.373          36.000                                                                  
C06  35358539.658                         156.640          30.000    35358520.548   142374112.367         121.027          45.000  
G25  20402261.511                        2467.503          29.000    20402253.555    83543820.309        1922.504          42.000  
G10  19475590.341   102344922.210         938.107          33.000    19475580.110    79749243.811         731.042          44.000  
G28  21939735.356                        2527.263          27.000    21939724.883    89839518.792        1968.930          43.000  
C23  20718870.816   107888584.241         158.802          35.000                                                                  
C09  36823145.742                         255.697          28.000    36823130.841   148271489.173         197.450          47.000  
C33  26224793.115                3      -2959.736          14.000                                                                  
C37  22769101.346                        2633.368          30.000                                                                  
G24                                                                  21063417.958                       -2655.917          30.000  
> 2025 10 27 02 53 49.4760000  0 19                     
G12  20720830.676                         754.059          29.000    20720819.257    84848293.628         587.354          42.000  
G15  23368743.861                3      -3265.359          16.000    23368744.398                       -2551.013          32.000  
G18  23713004.263                3      -3660.992          18.000    23713000.857    97100766.572       -2856.508          38.000  
G23  19337347.491                       -2195.828          31.000    19337336.408    79183126.932       -1710.921          46.000  
G32  20844402.678                        1480.321          29.000    20844393.385    85354308.837        1153.151          41.000  
C08  34724057.783                        -373.511          31.000    34724038.157   139819297.588        -288.806          48.000  
C13  34714112.130   180765474.306         -72.961          33.000    34714100.821   139779284.688         -56.238          47.000  
C16  35672256.446   185754794.003         -21.812          34.000    35672243.133   143637341.182         -17.220          47.000  
C25  22354905.834                3      -2619.016          19.000                                                                  
C32  21019062.703   109451768.750         821.291          37.000                                                                  
C06  35358538.463                         156.587          30.000    35358519.332   142374107.530         120.912          45.000  
G25  20402242.745                        2467.371          29.000    20402234.768    83543743.400        1922.557          42.000  
G10  19475583.217   102344884.699         937.831          36.000    19475572.971    79749214.574         730.937          44.000  
G28  21939716.129                        2527.059          27.000    21939705.632    89839440.033        1968.827          43.000  
C23  20718869.591   107888577.886         158.785          36.000                                                                  
C09  36823143.768                         255.711          28.000    36823128.909   148271481.265         197.548          47.000  
C33  26224815.845                3      -2959.736          14.000                                                                  
C37  22769081.114                        2633.661          31.000                                                                  
G24                                                                  21063443.915                       -2655.586          30.000  
> 2025 10 27 02 53 49.5160000  0 19                     
G12  20720824.947                         753.977          30.000    20720813.489    84848270.107         587.808          42.000  
G15  23368768.722                3      -3265.359          16.000    23368769.322                       -2551.033          32.000  
G18  23713032.035                3      -3660.992          19.000    23713028.755    97100880.822       -2856.363          38.000  
G23  19337364.190                       -2195.723          31.000    19337353.099    79183195.358       -1710.767          46.000  
G32  20844391.406                        1480.359          30.000    20844382.124    85354262.694        1153.372          41.000  
C08  34724060.652                        -373.694          31.000    34724041.043   139819309.139        -288.782          48.000  
C13  34714112.694   180765477.212         -72.925          33.000    34714101.410   139779286.927         -56.073          47.000  
C16  35672256.596   185754794.877         -21.740          34.000    35672243.294   143637341.868         -17.199          47.000  
C25  22354925.887                3      -2619.016          19.000                                                                  
C32  21019056.393   109451735.891         821.367          37.000                                                                  
C06  35358537.248                         156.499          31.000    35358518.116   142374102.687         120.975          45.000  
G25  20402223.965                        2467.683          30.000    20402215.969    83543666.488        1922.665          42.000  
G10  19475576.081   102344847.174         937.956          38.000    19475565.817    79749185.331         731.005          44.000  
G28  21939696.897                        2527.042          27.000    21939686.380    89839361.266        1969.023          43.000  
C23  20718868.366   107888571.542         158.588          36.000                                                                  
C09  36823141.808                         255.728          28.000    36823126.940   148271473.355         197.675          47.000  
C33  26224838.518                3      -2959.736          14.000                                                                  
C37  22769060.850                        2634.149          31.000                                                                  
G24                                                                  21063469.882                       -2656.059          30.000  
> 2025 10 27 02 53 49.5560000  0 19                     
G12  20720819.217                         753.760          30.000    20720807.761    84848246.596         587.850          42.000  
G15  23368793.630                3      -3278.522          16.000    23368794.278                       -2552.112          32.000  
G18  23713059.836                3      -3660.992          19.000    23713056.667    97100995.088       -2856.525          38.000  
G23  19337380.903                       -2195.495          34.000    19337369.801    79183263.787       -1710.730          46.000  
G32  20844380.147                        1480.395          30.000    20844370.846    85354216.534        1153.833          41.000  
C08  34724063.506                        -373.883          31.000    34724043.915   139819320.688        -288.751          48.000  
C13  34714113.264   180765480.107         -72.595          33.000    34714101.972   139779289.168         -56.049          47.000  
C16  35672256.753   185754795.775         -22.213          34.000    35672243.472   143637342.550         -17.114          47.000  
C25  22354946.035                3      -2619.016          19.000                                                                  
C32  21019050.074   109451703.011         821.772          37.000                                                                  
C06  35358536.038                         157.035          31.000    35358516.921   142374097.849         120.924          45.000  
G25  20402205.173                        2467.017          30.000    20402197.173    83543589.569        1922.816          42.000  
G10  19475568.923   102344809.648         938.093          38.000    19475558.672    79749156.092         730.956          44.000  
G28  21939677.670                        2526.894          28.000    21939667.132    89839282.495        1969.217          43.000  
C23  20718867.134   107888565.209         158.301          36.000                                                                  
C09  36823139.849                         255.886          28.000    36823124.972   148271465.448         197.667          47.000  
C33  26224861.258                3      -2959.736          14.000                                                                  
C37  22769040.621                        2633.936          31.000                                                                  
G24                                                                  21063495.817                       -2656.040          30.000  
> 2025 10 27 02 53 49.5960000  0 19                     
G12  20720813.467                         753.554          31.000    20720802.024    84848223.105         587.521          42.000  
G15  23368818.498                3      -3278.522          16.000    23368819.243                       -2552.472          32.000  
G18  23713087.703                3      -3660.992          19.000    23713084.570    97101109.322       -2855.998          38.000  
G23  19337397.602   101618706.079       -2195.175          34.000    19337386.520    79183332.217       -1710.730          46.000  
G32  20844368.885                        1480.493          30.000    20844359.581    85354170.396        1153.689          41.000  
C08  34724066.375                        -373.761          31.000    34724046.754   139819332.239        -288.806          48.000  
C13  34714113.826   180765482.994         -72.339          33.000    34714102.539   139779291.412         -56.085          47.000  
C16  35672256.916   185754796.674         -22.495          34.000    35672243.651   143637343.240         -17.193          47.000  
C25  22354966.157                3      -2619.016          19.000                                                                  
C32  21019043.769   109451670.155         821.554          37.000                                                                  
C06  35358534.877                         156.040          31.000    35358515.717   142374093.009         120.953          45.000  
G25  20402186.403                        2467.321          30.000    20402178.423    83543512.664        1922.676          42.000  
G10  19475561.784   102344772.117         938.240          38.000    19475551.501    79749126.856         730.882          44.000  
G28  21939658.444                        2526.907          28.000    21939647.910    89839203.725        1969.258          43.000  
C23  20718865.909   107888558.865         158.355          36.000                                                                  
C09  36823137.876                         255.699          28.000    36823123.006   148271457.532         197.824          47.000  
C33  26224883.992                3      -2959.736          14.000                                                                  
C37  22769020.400                        2633.118          31.000                                                                  
G24                                                                  21063521.752                       -2655.512          30.000  
> 2025 10 27 02 53 49.6360000  0 19                     
G12  20720807.741                         753.898          31.000    20720796.272    84848199.608         587.414          42.000  
G15  23368843.468                3      -3278.522          16.000    23368844.198                       -2553.085          32.000  
G18  23713115.579                3      -3667.370          19.000    23713112.449    97101223.590       -2856.417          38.000  
G23  19337414.293   101618793.901       -2195.361          34.000    19337403.238    79183400.648       -1710.767          46.000  
G32  20844357.632                        1480.641          30.000    20844348.320    85354124.260        1153.509          41.000  
C08  34724069.254                        -373.749          31.000    34724049.633   139819343.784        -288.690          48.000  
C13  34714114.379   180765485.883         -72.192          33.000    34714103.091   139779293.654         -56.061          47.000  
C16  35672257.101   185754797.566         -22.441          34.000    35672243.807   143637343.930         -17.264          47.000  
C25  22354986.221                3      -2619.016          19.000                                                                  
C32  21019037.470   109451637.296         821.463          37.000                                                                  
C06  35358533.663                         156.122          31.000    35358514.529   142374088.149         121.323          45.000  
G25  20402167.595                        2467.570          31.000    20402159.635    83543435.759        1922.559          42.000  
G10  19475554.638   102344734.589         938.239          38.000    19475544.357    79749097.613         730.975          44.000  
G28  21939639.206                        2527.081          28.000    21939628.675    89839124.955        1969.282          43.000  
C23  20718864.686   107888552.485         159.165          36.000                                                                  
C09  36823135.889                         255.614          28.000    36823121.028   148271449.617         197.886          47.000  
C33  26224906.687                3      -2959.736          14.000                                                                  
C37  22769000.152                        2633.154          31.000                                                                  
G24                                                                  21063547.702                       -2655.725          30.000  
> 2025 10 27 02 53 49.6760000  0 19                     
G12  20720802.001                         754.104          31.000    20720790.532    84848176.117         587.237          42.000  
G15  23368868.295                3      -3278.522          16.000    23368869.130                       -2552.860          32.000  
G18  23713143.574                3      -3667.370          19.000    23713140.341    97101337.872       -2856.940          38.000  
G23  19337431.016   101618881.724       -2195.553          35.000    19337419.955    79183469.082       -1710.841          46.000  
G32  20844346.366                        1480.568          34.000    20844337.057    85354078.108        1153.644          41.000  
C08  34724072.099                        -373.248          32.000    34724052.490   139819355.334        -288.739          48.000  
C13  34714114.940   180765488.789         -72.546          34.000    34714103.610   139779295.906         -56.274          47.000  
C16  35672257.289   185754798.441         -22.076          35.000    35672243.979   143637344.610         -17.126          47.000  
C25  22355006.437                3      -2619.016          19.000                                                                  
C32  21019031.173   109451604.427         821.633          39.000                                                                  
C06  35358532.472                         156.616          32.000    35358513.346   142374083.292         121.465          45.000  
G25  20402148.805                        2467.456          31.000    20402140.874    83543358.854        1922.539          42.000  
G10  19475547.469   102344697.064         938.152          40.000    19475537.213    79749068.373         730.969          44.000  
G28  21939619.981                        2526.896          28.000    21939609.422    89839046.183        1969.287          43.000  
C23  20718863.445   107888546.109         159.459          39.000                                                                  
C09  36823133.920                         255.598          29.000    36823119.047   148271441.703         197.889          47.000  
C33  26224929.377                3      -2959.736          15.000                                                                  
C37  22768979.938                        2633.508          32.000                                                                  
G24                                                                  21063573.626                       -2655.801          30.000  
> 2025 10 27 02 53 49.7160000  0 19                     
G12  20720796.265                         754.210          34.000    20720784.815    84848152.640         586.927          42.000  
G15  23368893.193                3      -3276.396          16.000    23368894.050                       -2552.610          32.000  
G18  23713171.442                3      -3667.370          19.000    23713168.251    97101452.133       -2856.805          38.000  
G23  19337447.734   101618969.553       -2195.743          37.000    19337436.664    79183537.519       -1710.933          46.000  
G32  20844335.104                        1479.926          34.000    20844325.781    85354031.982        1153.314          41.000  
C08  34724074.975                        -373.309          35.000    34724055.344   139819366.887        -288.824          48.000  
C13  34714115.457   180765491.702         -72.809          37.000    34714104.161   139779298.154         -56.268          47.000  
C16  35672257.464   185754799.314         -21.833          37.000    35672244.163   143637345.296         -17.154          47.000  
C25  22355026.461                3      -2616.780          20.000                                                                  
C32  21019024.859   109451571.573         821.406          41.000                                                                  
C06  35358531.257                         156.437          34.000    35358512.135   142374078.449         121.243          45.000  
G25  20402130.008                        2467.150          34.000    20402122.095    83543281.957        1922.399          42.000  
G10  19475540.329   102344659.548         937.937          41.000    19475530.069    79749039.133         730.975          44.000  
G28  21939600.712                        2526.865          28.000    21939590.185    89838967.414        1969.199          43.000  
C23  20718862.211   107888539.769         158.894          40.000                                                                  
C09  36823131.938                         255.626          29.000    36823117.089   148271433.800         197.676          47.000  
C33  26224952.094                3      -2959.736          15.000                                                                  
C37  22768959.727                        2633.734          35.000                                                                  
G24                                                                  21063599.566                       -2655.867          30.000  
> 2025 10 27 02 53 49.7560000  0 19                     
G12  20720790.534                         753.696          35.000    20720779.062    84848129.139         587.241          42.000  
G15  23368918.133                3      -3276.396          17.000    23368918.959                       -2552.100          32.000  
G18  23713199.130                3      -3669.448          20.000    23713196.152    97101566.389       -2856.559          38.000  
G23  19337464.445   101619057.400       -2196.130          38.000    19337453.386    79183605.961       -1711.037          46.000  
G32  20844323.848   109537659.933        1480.020          37.000    20844314.494    85353985.841        1153.370          41.000  
C08  34724077.839                        -373.474          35.000    34724058.225   139819378.444        -288.953          48.000  
C13  34714116.019   180765494.621         -73.102          37.000    34714104.715   139779300.405         -56.317          47.000  
C16  35672257.637   185754800.199         -21.996          39.000    35672244.333   143637345.979         -17.130          47.000  
C25  22355046.410                3      -2616.780          20.000                                                                  
C32  21019018.525   109451538.714         821.437          41.000                                                                  
C06  35358530.048                         156.747          35.000    35358510.953   142374073.620         120.847          45.000  
G25  20402111.242                        2467.026          35.000    20402103.318    83543205.061        1922.341          42.000  
G10  19475533.194   102344622.038         937.747          42.000    19475522.919    79749009.905         730.728          44.000  
G28  21939581.475                        2527.183          33.000    21939570.955    89838888.660        1968.907          43.000  
C23  20718860.991   107888533.435         158.452          40.000                                                                  
C09  36823129.976                         255.722          30.000    36823115.131   148271425.895         197.583          47.000  
C33  26224974.771                3      -2959.736          15.000                                                                  
C37  22768939.493                        2633.563          35.000                                                                  
G24                                                                  21063625.500                       -2656.222          30.000  
> 2025 10 27 02 53 49.7960000  0 19                     
G12  20720784.789                         753.113          35.000    20720773.308    84848105.623         587.768          42.000  
G15  23368942.949                3      -3276.396          17.000    23368943.873                       -2551.913          32.000  
G18  23713227.223                3      -3669.448          21.000    23713224.034    97101680.649       -2856.495          38.000  
G23  19337481.151   101619145.230       -2195.974          38.000    19337470.089    79183674.399       -1711.018          46.000  
G32  20844312.563   109537600.719        1480.144          37.000    20844303.234    85353939.710        1153.222          41.000  
C08  34724080.696   180817381.792        -373.041          35.000    34724061.125   139819389.993        -288.861          48.000  
C13  34714116.561   180765497.529         -73.010          37.000    34714105.259   139779302.647         -56.128          47.000  
C16  35672257.814   185754801.095         -22.312          39.000    35672244.475   143637346.667         -17.195          47.000  
C25  22355066.361                3      -2616.780          20.000                                                                  
C32  21019012.235   109451505.857         821.400          41.000                                                                  
C06  35358528.857                         155.988          35.000    35358509.738   142374068.795         120.575          45.000  
G25  20402092.436                        2467.318          35.000    20402084.545    83543128.155        1922.481          42.000  
G10  19475526.040   102344584.516         937.908          42.000    19475515.780    79748980.669         730.760          44.000  
G28  21939562.252                        2527.105          33.000    21939551.727    89838809.904        1968.811          43.000  
C23  20718859.775   107888527.092         158.418          40.000                                                                  
C09  36823128.031                         256.112          33.000    36823113.180   148271417.982         197.710          47.000  
C33  26224997.552                3      -2959.736          15.000                                                                  
C37  22768919.267                        2633.698          35.000                                                                  
G24                                                                  21063651.468                       -2656.287          30.000  
> 2025 10 27 02 53 49.8360000  0 19                     
G12  20720779.049   108888430.630         753.357          35.000    20720767.576    84848082.121         587.729          42.000  
G15  23368967.490                3      -3271.635          18.000    23368968.802                       -2551.238          32.000  
G18  23713255.365                3      -3668.588          21.000    23713251.935    97101794.906       -2856.414          38.000  
G23  19337497.848   101619233.063       -2195.918          38.000    19337486.801    79183742.837       -1711.006          46.000  
G32  20844301.286   109537541.533        1479.814          37.000    20844291.998    85353893.577        1153.217          41.000  
C08  34724083.543   180817396.718        -373.108          35.000    34724063.975   139819401.542        -288.757          48.000  
C13  34714117.110   180765500.413         -72.388          37.000    34714105.787   139779304.885         -55.975          47.000  
C16  35672257.958   185754801.954         -21.854          39.000    35672244.629   143637347.356         -17.274          47.000  
C25  22355086.783                3      -2616.054          20.000                                                                  
C32  21019005.933   109451473.016         821.059          41.000                                                                  
C06  35358527.646                         156.918          35.000    35358508.545   142374063.960         120.648          45.000  
G25  20402073.660                        2467.351          35.000    20402065.754    83543051.246        1922.611          42.000  
G10  19475518.879   102344546.993         938.000          42.000    19475508.634    79748951.423         730.945          44.000  
G28  21939543.030                        2527.173          33.000    21939532.469    89838731.126        1969.217          43.000  
C23  20718858.580   107888520.765         158.149          40.000                                                                  
C09  36823126.081                         254.941          33.000    36823111.216   148271410.071         197.735          47.000  
C33  26225020.498                3      -2959.736          15.000                                                                  
C37  22768899.042                        2633.667          35.000                                                                  
G24                                                                  21063677.393                       -2655.924          30.000  
> 2025 10 27 02 53 49.8760000  0 18                     
G12  20720773.311   108888400.467         753.808          35.000    20720761.828    84848058.610         587.833          42.000  
G15  23368992.607                3      -3271.635          18.000    23368993.715                       -2550.950          32.000  
G18  23713283.174                3      -3660.493          21.000    23713279.842    97101909.160       -2856.356          38.000  
G23  19337514.562   101619320.889       -2195.720          38.000    19337503.525    79183811.279       -1711.042          46.000  
G32  20844290.012   109537482.307        1480.330          37.000    20844280.724    85353847.432        1153.452          41.000  
C08  34724086.426   180817411.687        -374.011          36.000    34724066.830   139819413.090        -288.708          48.000  
C13  34714117.676   180765503.314         -72.406          37.000    34714106.340   139779307.127         -56.000          47.000  
C16  35672258.140   185754802.882         -22.735          39.000    35672244.822   143637348.046         -17.304          47.000  
C25  22355106.952                3      -2616.054          20.000                                                                  
C32  21018999.615   109451440.138         821.571          41.000                                                                  
C06  35358526.410                         156.514          35.000    35358507.334   142374059.101         121.150          45.000  
G25  20402054.863   107213537.382        2467.739          35.000    20402046.966    83542974.336        1922.704          42.000  
G10  19475511.744   102344509.465         938.142          42.000    19475501.490    79748922.188         730.895          44.000  
G28  21939523.788                        2526.857          33.000    21939513.235    89838652.355        1969.252          43.000  
C23  20718857.360   107888514.418         158.446          40.000                                                                  
C09  36823124.083                         255.510          33.000    36823109.262   148271402.157         197.803          47.000  
C37  22768878.835                        2633.325          35.000                                                                  
G24                                                                  21063703.336                       -2655.670          30.000  
> 2025 10 27 02 53 49.9160000  0 18                     
G12  20720767.574   108888370.302         754.025          37.000    20720756.104    84848035.119         587.517          42.000  
G15  23369017.395                3      -3271.635          18.000    23369018.649                       -2551.884          32.000  
G18  23713311.105                3      -3660.493          21.000    23713307.728    97102023.400       -2856.093          38.000  
G23  19337531.262   101619408.704       -2195.438          38.000    19337520.229    79183879.714       -1710.950          46.000  
G32  20844278.739   109537423.084        1480.534          37.000    20844269.462    85353801.269        1153.922          41.000  
C08  34724089.289   180817426.610        -373.450          36.000    34724069.681   139819424.645        -288.837          48.000  
C13  34714118.242   180765506.221         -72.552          37.000    34714106.897   139779309.374         -56.146          47.000  
C16  35672258.312   185754803.784         -22.789          39.000    35672244.995   143637348.730         -17.215          47.000  
C25  22355127.134                3      -2616.054          20.000                                                                  
C32  21018993.291   109451407.263         821.836          41.000                                                                  
C06  35358525.211                         156.895          35.000    35358506.091   142374054.257         121.173          45.000  
G25  20402036.076   107213438.692        2467.487          37.000    20402028.194    83542897.426        1922.746          42.000  
G10  19475504.589   102344471.956         937.833          42.000    19475494.347    79748892.959         730.766          44.000  
G28  21939504.557                        2526.901          33.000    21939494.005    89838573.605        1968.859          43.000  
C23  20718856.143   107888508.060         158.814          40.000                                                                  
C09  36823122.104                         257.093          33.000    36823107.269   148271394.257         197.576          47.000  
C37  22768858.598   118563427.485        2633.319          36.000                                                                  
G24                                                                  21063729.258                       -2655.710          30.000  
> 2025 10 27 02 53 49.9560000  0 18                     
G12  20720761.853   108888340.138         754.169          37.000    20720750.380    84848011.615         587.552          42.000  
G15  23369042.525                3      -3277.547          18.000    23369043.602                       -2552.776          32.000  
G18  23713338.847                3      -3660.493          21.000    23713335.618    97102137.646       -2856.172          38.000  
G23  19337547.972   101619496.531       -2195.575          38.000    19337536.918    79183948.150       -1710.919          46.000  
G32  20844267.464   109537363.861        1480.630          37.000    20844258.200    85353755.131        1153.711          41.000  
C08  34724092.161   180817441.546        -373.505          35.000    34724072.565   139819436.197        -288.843          48.000  
C13  34714118.819   180765509.128         -72.662          36.000    34714107.463   139779311.621         -56.189          47.000  
C16  35672258.461   185754804.672         -22.504          38.000    35672245.161   143637349.410         -17.086          47.000  
C25  22355147.247                3      -2612.487          20.000                                                                  
C32  21018986.995   109451374.397         821.778          40.000                                                                  
C06  35358524.006                         156.837          34.000    35358504.876   142374049.407         121.251          45.000  
G25  20402017.302   107213339.997        2467.408          37.000    20402009.409    83542820.518        1922.729          42.000  
G10  19475497.456   102344434.438         937.840          42.000    19475487.206    79748863.726         730.748          44.000  
G28  21939485.319                        2526.783          33.000    21939474.794    89838494.852        1968.724          43.000  
C23  20718854.944   107888501.720         158.671          40.000                                                                  
C09  36823120.160                         255.264          32.000    36823105.298   148271386.356         197.490          47.000  
C37  22768838.379   118563322.143        2633.453          35.000                                                                  
G24                                                                  21063755.219                       -2655.635          30.000  
> 2025 10 27 02 53 49.9960000  0 18                     
G12  20720756.121   108888309.985         753.985          37.000    20720744.625    84847988.120         587.417          42.000  
G15  23369067.382                3      -3277.547          19.000    23369068.535                       -2553.026          32.000  
G18  23713366.689                3      -3661.182          21.000    23713363.506    97102251.918       -2856.700          38.000  
G23  19337564.701   101619584.367       -2195.809          38.000    19337553.637    79184016.593       -1711.024          46.000  
G32  20844256.205   109537304.658        1480.322          37.000    20844246.951    85353708.992        1153.552          41.000  
C08  34724095.034   180817456.487        -373.389          35.000    34724075.481   139819447.748        -288.794          48.000  
C13  34714119.395   180765512.045         -72.913          37.000    34714108.019   139779313.867         -56.195          47.000  
C16  35672258.628   185754805.552         -22.199          38.000    35672245.297   143637350.092         -17.063          47.000  
C25  22355167.354                3      -2612.487          20.000                                                                  
C32  21018980.691   109451341.545         821.454          40.000                                                                  
C06  35358522.810                         156.488          34.000    35358503.697   142374044.566         121.113          45.000  
G25  20401998.532   107213241.323        2467.021          37.000    20401990.639    83542743.631        1922.338          42.000  
G10  19475490.318   102344396.928         937.711          42.000    19475480.081    79748834.490         730.816          44.000  
G28  21939466.050                        2527.069          33.000    21939455.541    89838416.086        1968.938          43.000  
C23  20718853.717   107888495.370         158.710          40.000                                                                  
C09  36823118.186                         255.990          32.000    36823103.343   148271378.443         197.688          47.000  
C37  22768818.150   118563216.821        2633.063          35.000                                                                  
G24                                                                  21063781.181                       -2655.674          30.000  
> 2025 10 27 02 53 50.0360000  0 18                     
G12  20720750.381   108888279.846         753.638          37.000    20720738.892    84847964.646         586.995          42.000  
G15  23369092.476                3      -3277.547          19.000    23369093.480                       -2552.323          32.000  
G18  23713394.422                3      -3661.182          22.000    23713391.417    97102366.185       -2856.858          38.000  
G23  19337581.413   101619672.206       -2196.012          38.000    19337570.347    79184085.032       -1711.011          46.000  
G32  20844244.925   109537245.448        1480.268          37.000    20844235.695    85353662.862        1153.314          41.000  
C08  34724097.896   180817471.417        -373.242          35.000    34724078.349   139819459.293        -288.672          48.000  
C13  34714119.942   180765514.933         -72.473          37.000    34714108.556   139779316.117         -56.262          47.000  
C16  35672258.790   185754806.424         -21.809          38.000    35672245.448   143637350.783         -17.223          47.000  
C25  22355187.235                3      -2612.487          20.000                                                                  
C32  21018974.377   109451308.693         821.285          40.000                                                                  
C06  35358521.620   184121094.244         156.266          34.000    35358502.484   142374039.736         120.845          45.000  
G25  20401979.754   107213142.637        2467.058          37.000    20401971.855    83542666.737        1922.241          42.000  
G10  19475483.177   102344359.413         937.755          42.000    19475472.944    79748805.257         730.760          44.000  
G28  21939446.819   115292567.2561       2527.012          33.000    21939436.301    89838337.310        1969.223          43.000  
C23  20718852.492   107888489.029         158.559          40.000                                                                  
C09  36823116.242                         255.074          32.000    36823101.405   148271370.531         197.761          47.000  
C37  22768797.930   118563111.483        2633.295          35.000                                                                  
G24                                                                  21063807.132                       -2655.906          30.000  
> 2025 10 27 02 53 50.0760000  0 18                     
G12  20720744.646   108888249.716         753.234          37.000    20720733.161    84847941.172         586.800          42.000  
G15  23369117.397                3      -3275.018          19.000    23369118.394                       -2552.042          32.000  
G18  23713422.452                3      -3661.182          22.000    23713419.325    97102480.449       -2856.847          38.000  
G23  19337598.101   101619760.048       -2196.147          38.000    19337587.082    79184153.474       -1711.048          46.000  
G32  20844233.664   109537186.240        1480.210          37.000    20844224.423    85353616.730        1153.223          41.000  
C08  34724100.768   180817486.358        -373.236          35.000    34724081.228   139819470.832        -288.525          48.000  
C13  34714120.497   180765517.854         -72.906          37.000    34714109.121   139779318.368         -56.281          47.000  
C16  35672258.926   185754807.292         -21.686          38.000    35672245.603   143637351.481         -17.429          47.000  
C25  22355207.511                3      -2612.487          20.000                                                                  
C32  21018968.073   109451275.838         821.224          40.000                                                                  
C06  35358520.430   184121087.994         156.077          34.000    35358501.285   142374034.898         120.867          45.000  
G25  20401960.981   107213043.954        2466.925          37.000    20401953.073    83542589.849        1922.133          42.000  
G10  19475476.045   102344321.900         937.742          42.000    19475465.788    79748776.021         730.847          44.000  
G28  21939427.590   115292466.180        2526.850          33.000    21939417.089    89838258.551        1969.085          43.000  
C23  20718851.265   107888482.690         158.474          40.000                                                                  
C09  36823114.299                         254.933          32.000    36823099.444   148271362.625         197.685          47.000  
C37  22768777.707   118563006.146        2633.398          35.000                                                                  
G24                                                                  21063833.044                       -2655.813          30.000  
> 2025 10 27 02 53 50.1160000  0 18                     
G12  20720738.912   108888219.579         753.063          35.000    20720727.444    84847917.700         586.668          42.000  
G15  23369142.452                3      -3275.018          19.000    23369143.340                       -2552.760          32.000  
G18  23713450.326                3      -3660.585          22.000    23713447.243    97102594.713       -2856.638          38.000  
G23  19337614.816   101619847.882       -2196.028          38.000    19337603.811    79184221.914       -1711.042          46.000  
G32  20844222.396   109537127.055        1479.707          37.000    20844213.151    85353570.580        1153.485          41.000  
C08  34724103.632   180817501.300        -373.438          35.000    34724084.074   139819482.383        -288.690          48.000  
C13  34714121.069   180765520.747         -72.565          37.000    34714109.674   139779320.610         -56.134          47.000  
C16  35672259.106   185754808.209         -22.436          38.000    35672245.735   143637352.165         -17.286          47.000  
C25  22355227.537                3      -2613.291          20.000                                                                  
C32  21018961.761   109451243.007         820.753          40.000                                                                  
C06  35358519.201   184121081.745         156.115          34.000    35358500.091   142374030.054         120.975          45.000  
G25  20401942.209   107212945.249        2467.365          35.000    20401934.313    83542512.929        1922.675          42.000  
G10  19475468.902   102344284.398         937.533          42.000    19475458.650    79748746.799         730.637          44.000  
G28  21939408.385   115292365.111        2526.557          33.000    21939397.853    89838179.793        1968.998          43.000  
C23  20718850.039   107888476.349         158.463          40.000                                                                  
C09  36823112.333                         256.334          32.000    36823097.493   148271354.722         197.584          47.000  
C37  22768757.492   118562900.773        2634.125          35.000                                                                  
G24                                                                  21063859.006                       -2655.756          30.000  
> 2025 10 27 02 53 50.1560000  0 18                     
G12  20720733.190   108888189.426         753.407          35.000    20720721.724    84847894.200         587.162          42.000  
G15  23369167.401                3      -3275.018          19.000    23369168.291                       -2552.428          31.000  
G18  23713478.160                3      -3660.354          23.000    23713475.140    97102708.951       -2856.150          38.000  
G23  19337631.534   101619935.721       -2196.096          38.000    19337620.536    79184290.369       -1711.307          46.000  
G32  20844211.124   109537067.825        1480.224          37.000    20844201.870    85353524.455        1153.184          41.000  
C08  34724106.526   180817516.253        -373.718          35.000    34724086.944   139819493.942        -288.959          48.000  
C13  34714121.616   180765523.670         -73.016          37.000    34714110.190   139779322.861         -56.238          47.000  
C16  35672259.294   185754809.111         -22.642          38.000    35672245.903   143637352.859         -17.335          47.000  
C25  22355247.623                3      -2613.291          20.000                                                                  
C32  21018955.460   109451210.148         821.126          40.000                                                                  
C06  35358517.991   184121075.491         156.299          34.000    35358498.869   142374025.217         120.892          45.000  
G25  20401923.435   107212846.646        2465.789          35.000    20401915.528    83542436.026        1922.653          42.000  
G10  19475461.769   102344246.879         937.774          41.000    19475451.533    79748717.582         730.404          44.000  
G28  21939389.194   115292264.035        2526.718          33.000    21939378.629    89838101.038        1968.849          43.000  
C23  20718848.824   107888470.028         158.145          40.000                                                                  
C09  36823110.385                         255.609          32.000    36823095.555   148271346.824         197.448          47.000  
C37  22768737.256   118562795.454        2633.484          35.000                                                                  
G24                                                                  21063884.948                       -2655.969          30.000  
> 2025 10 27 02 53 50.1960000  0 18                     
G12  20720727.451   108888159.281         753.561          35.000    20720715.975    84847870.703         587.389          42.000  
G15  23369192.239                3      -3275.018          19.000    23369193.234                       -2552.815          27.000  
G18  23713506.197                3      -3664.332          23.000    23713503.029    97102823.203       -2856.107          38.000  
G23  19337648.234   101620023.553       -2195.967          38.000    19337637.231    79184358.821       -1711.386          46.000  
G32  20844199.867   109537008.622        1480.133          37.000    20844190.621    85353478.321        1153.183          41.000  
C08  34724109.394   180817531.194        -373.608          35.000    34724089.794   139819505.502        -289.093          48.000  
C13  34714122.166   180765526.573         -72.845          37.000    34714110.737   139779325.113         -56.311          47.000  
C16  35672259.466   185754810.013         -22.674          38.000    35672246.096   143637353.551         -17.333          47.000  
C25  22355267.724                3      -2613.291          20.000                                                                  
C32  21018949.125   109451177.285         821.440          40.000                                                                  
C06  35358516.765   184121069.227         156.488          34.000    35358497.684   142374020.383         120.817          45.000  
G25  20401904.655   107212747.906        2467.501          35.000    20401896.759    83542359.123        1922.622          42.000  
G10  19475454.624   102344209.371         937.669          41.000    19475444.397    79748688.353         730.547          44.000  
G28  21939369.953   115292162.976        2526.482          33.000    21939359.390    89838022.281        1968.888          43.000  
C23  20718847.584   107888463.701         158.082          40.000                                                                  
C09  36823108.438                         255.653          32.000    36823093.586   148271338.928         197.337          47.000  
C37  22768717.039   118562690.150        2632.861          35.000                                                                  
G24                                                                  21063910.908                       -2655.678          30.000  
> 2025 10 27 02 53 50.2360000  0 18                     
G12  20720721.719   108888129.169         752.981          35.000    20720710.239    84847847.220         587.198          42.000  
G15  23369217.320                3      -3275.018          18.000    23369218.141                3      -2551.234          27.000  
G18  23713534.216                3      -3667.430          23.000    23713530.960    97102937.467       -2856.312          38.000  
G23  19337664.933   101620111.397       -2196.127          38.000    19337653.962    79184427.274       -1711.428          46.000  
G32  20844188.594   109536949.401        1480.448          37.000    20844179.374    85353432.179        1153.394          41.000  
C08  34724112.270   180817546.150        -373.828          35.000    34724092.644   139819517.060        -289.093          48.000  
C13  34714122.715   180765529.474         -72.650          37.000    34714111.322   139779327.362         -56.293          47.000  
C16  35672259.648   185754810.912         -22.612          38.000    35672246.220   143637354.240         -17.281          47.000  
C25  22355287.606                3      -2622.933          20.000                                                                  
C32  21018942.820   109451144.420         821.647          40.000                                                                  
C06  35358515.565   184121062.953         156.857          34.000    35358496.469   142374015.550         120.782          45.000  
G25  20401885.860   107212649.202        2467.735          35.000    20401877.980    83542282.239        1922.248          42.000  
G10  19475447.499   102344171.862         937.638          42.000    19475437.267    79748659.125         730.602          44.000  
G28  21939350.700   115292061.880        2527.075          33.000    21939340.134    89837943.520        1968.938          43.000  
C23  20718846.380   107888457.357         158.420          40.000                                                                  
C09  36823106.483                         255.444          32.000    36823091.619   148271331.022         197.515          47.000  
C37  22768696.815   118562584.827        2632.886          35.000                                                                  
G24                                                                  21063936.852                       -2655.680          30.000  
> 2025 10 27 02 53 50.2760000  0 18                     
G12  20720715.982   108888099.040         752.997          35.000    20720704.520    84847823.741         587.002          42.000  
G15  23369242.235                3      -3275.018          19.000    23369243.205                3      -2551.907          27.000  
G18  23713561.981                3      -3665.941          23.000    23713558.879    97103051.721       -2856.268          38.000  
G23  19337681.635   101620199.236       -2196.077          38.000    19337670.669    79184495.721       -1711.304          46.000  
G32  20844177.318   109536890.203        1480.136          37.000    20844168.114    85353386.050        1153.263          41.000  
C08  34724115.145   180817561.080        -373.438          35.000    34724095.531   139819528.609        -288.879          48.000  
C13  34714123.256   180765532.399         -72.931          37.000    34714111.873   139779329.614         -56.317          47.000  
C16  35672259.802   185754811.776         -21.906          38.000    35672246.404   143637354.922         -17.140          47.000  
C25  22355307.883                3      -2622.933          20.000                                                                  
C32  21018936.521   109451111.580         821.303          40.000                                                                  
C06  35358514.358   184121056.696         156.711          34.000    35358495.249   142374010.711         120.870          45.000  
G25  20401867.080   107212550.506        2467.641          35.000    20401859.207    83542205.368        1921.784          42.000  
G10  19475440.350   102344134.357         937.596          42.000    19475430.141    79748629.896         730.708          44.000  
G28  21939331.474   115291960.801        2527.091          33.000    21939320.892    89837864.762        1968.907          43.000  
C23  20718845.150   107888451.024         158.403          40.000                                                                  
C09  36823104.530                         255.833          32.000    36823089.617   148271323.107         197.753          47.000  
C37  22768676.591   118562479.486        2633.215          35.000                                                                  
G24                                                                  21063962.814                       -2655.914          30.000  
> 2025 10 27 02 53 50.3160000  0 18                     
G12  20720710.243   108888068.891         753.453          36.000    20720698.808    84847800.268         586.835          42.000  
G15  23369267.051                3      -3278.417          18.000    23369268.256                3      -2552.297          27.000  
G18  23713590.041                3      -3666.333          23.000    23713586.789    97103165.977       -2856.322          38.000  
G23  19337698.349   101620287.082       -2196.169          38.000    19337687.383    79184564.165       -1711.175          46.000  
G32  20844166.062   109536830.983        1480.336          37.000    20844156.819    85353339.916        1153.277          41.000  
C08  34724118.034   180817576.021        -373.468          36.000    34724098.397   139819540.161        -288.806          48.000  
C13  34714123.814   180765535.318         -72.974          37.000    34714112.433   139779331.866         -56.335          47.000  
C16  35672259.955   185754812.662         -21.940          38.000    35672246.567   143637355.611         -17.203          47.000  
C25  22355327.927                3      -2622.933          20.000                                                                  
C32  21018930.224   109451078.740         821.088          40.000                                                                  
C06  35358513.165   184121050.465         156.056          34.000    35358494.054   142374005.873         120.922          45.000  
G25  20401848.317   107212451.847        2466.891          36.000    20401840.434    83542128.488        1921.735          42.000  
G10  19475433.207   102344096.857         937.529          42.000    19475422.985    79748600.663         730.793          44.000  
G28  21939312.239   115291859.722        2527.141          33.000    21939301.661    89837786.003        1968.900          43.000  
C23  20718843.941   107888444.694         158.296          40.000                                                                  
C09  36823102.587                         255.705          32.000    36823087.644   148271315.193         197.889          47.000  
C37  22768656.368   118562374.158        2633.197          35.000                                                                  
G24                                                                  21063988.757                       -2656.095          30.000  
> 2025 10 27 02 53 50.3560000  0 18                     
G12  20720704.504   108888038.745         753.615          36.000    20720693.077    84847776.779         587.068          42.000  
G15  23369292.074                3      -3278.417          19.000    23369293.257                3      -2552.651          27.000  
G18  23713617.940                3      -3666.678          23.000    23713614.684    97103280.223       -2856.235          38.000  
G23  19337715.067   101620374.927       -2196.162          38.000    19337704.101    79184632.615       -1711.200          46.000  
G32  20844154.801   109536771.787        1480.085          37.000    20844145.539    85353293.772        1153.465          41.000  
C08  34724120.906   180817590.977        -373.755          36.000    34724101.271   139819551.713        -288.794          47.000  
C13  34714124.367   180765538.207         -72.504          37.000    34714113.015   139779334.112         -56.232          47.000  
C16  35672260.128   185754813.535         -21.856          38.000    35672246.743   143637356.294         -17.132          47.000  
C25  22355348.244                3      -2610.622          20.000                                                                  
C32  21018923.913   109451045.869         821.560          40.000                                                                  
C06  35358511.965   184121044.193         156.453          34.000    35358492.856   142374001.028         121.060          45.000  
G25  20401829.527   107212353.167        2466.811          36.000    20401821.651    83542051.583        1922.257          42.000  
G10  19475426.065   102344059.349         937.634          42.000    19475415.873    79748571.435         730.693          44.000  
G28  21939292.996   115291758.652        2526.902          33.000    21939282.412    89837707.236        1969.075          43.000  
C23  20718842.735   107888438.369         158.147          40.000                                                                  
C09  36823100.625                         255.517          32.000    36823085.635   148271307.283         197.829          47.000  
C37  22768636.150   118562268.806        2633.612          35.000                                                                  
G24                                                                  21064014.706                       -2656.115          30.000  
> 2025 10 27 02 53 50.3960000  0 18                     
G12  20720698.773   108888008.586         753.911          35.000    20720687.340    84847753.280         587.363          42.000  
G15  23369316.975                3      -3278.417          19.000    23369318.444                3      -2552.904          27.000  
G18  23713645.972                3      -3666.958          23.000    23713642.594    97103394.485       -2856.478          38.000  
G23  19337731.766   101620462.761       -2195.977          38.000    19337720.827    79184701.061       -1711.182          46.000  
G32  20844143.536   109536712.569        1480.289          37.000    20844134.271    85353247.631        1153.513          41.000  
C08  34724123.786   180817605.898        -373.199          36.000    34724104.159   139819563.267        -288.831          47.000  
C13  34714124.913   180765541.092         -72.260          37.000    34714113.603   139779336.362         -56.232          47.000  
C16  35672260.297   185754814.441         -22.445          38.000    35672246.909   143637356.973         -17.009          47.000  
C25  22355368.514                3      -2610.622          20.000                                                                  
C32  21018917.611   109451013.019         821.346          40.000                                                                  
C06  35358510.767   184121037.935         156.444          34.000    35358491.670   142373996.187         121.047          45.000  
G25  20401810.764   107212254.486        2466.888          36.000    20401802.863    83541974.672        1922.669          42.000  
G10  19475418.924   102344021.845         937.603          42.000    19475408.748    79748542.213         730.539          44.000  
G28  21939273.753   115291657.603        2526.342          33.000    21939263.214    89837628.475        1969.043          43.000  
C23  20718841.503   107888432.039         158.136          40.000                                                                  
C09  36823098.669                         255.460          32.000    36823083.664   148271299.380         197.658          47.000  
C37  22768615.911   118562163.478        2633.362          35.000                                                                  
G24                                                                  21064040.658                       -2655.531          30.000  
> 2025 10 27 02 53 50.4360000  0 18                     
G12  20720693.050   108887978.456         753.519          36.000    20720681.594    84847729.788         587.342          42.000  
G15  23369341.905                3      -3278.417          19.000    23369343.430                3      -2553.003          27.000  
G18  23713673.810                3      -3666.078          23.000    23713670.498    97103508.766       -2856.912          38.000  
G23  19337748.484   101620550.595       -2195.867          38.000    19337737.550    79184769.503       -1711.121          46.000  
G32  20844132.251   109536653.360        1480.199          37.000    20844123.005    85353201.494        1153.466          41.000  
C08  34724126.657   180817620.840        -373.346          36.000    34724107.025   139819574.820        -288.855          47.000  
C13  34714125.478   180765544.009         -72.760          37.000    34714114.162   139779338.605         -56.097          47.000  
C16  35672260.460   185754815.329         -22.380          38.000    35672247.076   143637357.660         -17.119          47.000  
C25  22355388.630                3      -2610.622          20.000                                                                  
C32  21018911.305   109450980.174         821.194          40.000                                                                  
C06  35358509.596   184121031.649         157.035          34.000    35358490.491   142373991.338         121.196          45.000  
G25  20401791.982   107212155.815        2466.783          36.000    20401784.066    83541897.762        1922.838          42.000  
G10  19475411.778   102343984.328         937.812          42.000    19475401.621    79748512.996         730.355          44.000  
G28  21939254.520   115291556.541        2526.334          33.000    21939243.968    89837549.719        1968.969          43.000  
C23  20718840.293   107888425.695         158.423          40.000                                                                  
C09  36823096.724                         255.419          32.000    36823081.682   148271291.484         197.426          47.000  
C37  22768595.698   118562058.101        2634.344          35.000                                                                  
G24                                                                  21064066.604                       -2656.149          30.000  
> 2025 10 27 02 53 50.4760000  0 18                     
G12  20720687.316   108887948.322         753.318          36.000    20720675.858    84847706.314         586.967          42.000  
G15  23369367.008                3      -3278.417          19.000    23369368.739                       -2553.003          27.000  
G18  23713701.873                3      -3668.781          23.000    23713698.399    97103623.017       -2856.598          38.000  
G23  19337765.192   101620638.444       -2196.108          38.000    19337754.271    79184837.955       -1711.306          46.000  
G32  20844120.974   109536594.136        1480.458          36.000    20844111.723    85353155.364        1153.304          41.000  
C08  34724129.541   180817635.797        -373.627          36.000    34724109.899   139819586.375        -288.879          47.000  
C13  34714126.034   180765546.931         -73.071          37.000    34714114.714   139779340.851         -56.122          47.000  
C16  35672260.619   185754816.238         -22.703          38.000    35672247.256   143637358.352         -17.255          47.000  
C25  22355408.571                3      -2612.303          21.000                                                                  
C32  21018905.035   109450947.304         821.494          40.000                                                                  
C06  35358508.392   184121025.398         156.484          34.000    35358489.277   142373986.501         121.018          45.000  
G25  20401773.216   107212057.129        2467.011          36.000    20401765.299    83541820.855        1922.818          42.000  
G10  19475404.650   102343946.823         937.726          42.000    19475394.483    79748483.771         730.480          44.000  
G28  21939235.303   115291455.507        2525.801          33.000    21939224.736    89837470.952        1969.118          43.000  
C23  20718839.077   107888419.356         158.498          40.000                                                                  
C09  36823094.795                         255.509          32.000    36823079.749   148271283.588         197.310          47.000  
C37  22768575.474   118561952.791        2633.466          35.000                                                                  
G24                                                                  21064092.537                       -2656.401          30.000  
> 2025 10 27 02 53 50.5160000  0 18                     
G12  20720681.569   108887918.183         753.358          35.000    20720670.124    84847682.840         586.764          42.000  
G15  23369391.966                3      -3276.173          19.000    23369393.477                       -2552.738          27.000  
G18  23713729.849                3      -3666.011          23.000    23713726.299    97103737.237       -2855.807          38.000  
G23  19337781.919   101620726.312       -2196.588          38.000    19337770.989    79184906.404       -1711.274          46.000  
G32  20844109.692   109536534.913        1480.502          36.000    20844100.464    85353109.231        1153.248          41.000  
C08  34724132.408   180817650.740        -373.706          35.000    34724112.800   139819597.930        -288.904          47.000  
C13  34714126.582   180765549.863         -73.352          37.000    34714115.284   139779343.096         -56.128          47.000  
C16  35672260.792   185754817.142         -22.664          38.000    35672247.421   143637359.043         -17.310          47.000  
C25  22355429.239                3      -2612.303          21.000                                                                  
C32  21018898.713   109450914.451         821.409          40.000                                                                  
C06  35358507.180   184121019.167         156.022          34.000    35358488.087   142373981.658         121.025          45.000  
G25  20401754.426   107211958.402        2467.860          36.000    20401746.530    83541743.958        1922.562          42.000  
G10  19475397.547   102343909.327         937.479          40.000    19475387.349    79748454.548         730.529          44.000  
G28  21939216.045   115291354.380        2527.190          33.000    21939205.494    89837392.186        1969.173          43.000  
C23  20718837.845   107888413.029         158.334          38.000                                                                  
C09  36823092.842                         256.294          32.000    36823077.789   148271275.686         197.414          47.000  
C37  22768555.241   118561847.486        2632.825          35.000                                                                  
G24                                                                  21064118.453                       -2655.482          30.000  
> 2025 10 27 02 53 50.5560000  0 18                     
G12  20720675.834   108887888.072         752.787          35.000    20720664.394    84847659.362         586.773          42.000  
G15  23369416.513                3      -3276.173          19.000    23369418.109                       -2552.628          27.000  
G18  23713757.748                3      -3664.490          23.000    23713754.183    97103851.473       -2855.695          38.000  
G23  19337798.648   101620814.138       -2196.106          38.000    19337787.727    79184974.848       -1711.182          46.000  
G32  20844098.416   109536475.678        1480.833          33.000    20844089.187    85353063.087        1153.424          41.000  
C08  34724135.261   180817665.644        -372.888          34.000    34724115.691   139819609.485        -288.892          47.000  
C13  34714127.154   180765552.745         -72.510          36.000    34714115.835   139779345.344         -56.201          47.000  
C16  35672260.968   185754818.004         -21.883          37.000    35672247.577   143637359.729         -17.242          47.000  
C25  22355449.053                3      -2606.609          20.000                                                                  
C32  21018892.424   109450881.595         821.309          39.000                                                                  
C06  35358505.926   184121012.907         156.204          33.000    35358486.870   142373976.812         121.071          45.000  
G25  20401735.637   107211859.711        2467.661          36.000    20401727.756    83541667.063        1922.387          42.000  
G10  19475390.400   102343871.799         937.960          40.000    19475380.199    79748425.315         730.720          44.000  
G28  21939196.819   115291253.307        2526.845          33.000    21939186.265    89837313.436        1968.860          43.000  
C23  20718836.627   107888406.680         158.599          37.000                                                                  
C09  36823090.900                         256.165          31.000    36823075.815   148271267.782         197.528          47.000  
C37  22768535.030   118561742.158        2632.935          34.000                                                                  
G24                                                                  21064144.425                       -2656.058          30.000  
> 2025 10 27 02 53 50.5960000  0 18                     
G12  20720670.110   108887857.913         753.359          35.000    20720658.650    84847635.868         587.116          42.000  
G15  23369441.502                3      -3276.173          19.000    23369443.244                       -2551.731          27.000  
G18  23713785.716                3      -3665.942          23.000    23713782.069    97103965.710       -2855.768          38.000  
G23  19337815.377   101620901.988       -2196.105          38.000    19337804.430    79185043.297       -1711.256          46.000  
G32  20844087.130   109536416.493        1480.027          33.000    20844077.932    85353016.943        1153.565          41.000  
C08  34724138.114   180817680.603        -373.627          34.000    34724118.549   139819621.033        -288.782          47.000  
C13  34714127.697   180765555.632         -72.156          36.000    34714116.394   139779347.596         -56.317          47.000  
C16  35672261.125   185754818.871         -21.644          36.000    35672247.758   143637360.422         -17.346          47.000  
C25  22355469.118                3      -2606.609          20.000                                                                  
C32  21018886.120   109450848.741         821.334          39.000                                                                  
C06  35358504.757   184121006.642         156.492          33.000    35358485.641   142373971.972         121.005          45.000  
G25  20401716.840   107211760.999        2467.827          36.000    20401708.963    83541590.156        1922.502          42.000  
G10  19475383.256   102343834.302         937.626          40.000    19475373.049    79748396.093         730.646          44.000  
G28  21939177.596   115291152.176        2527.867          33.000    21939167.032    89837234.683        1968.776          43.000  
C23  20718835.424   107888400.357         158.264          37.000                                                                  
C09  36823088.951                         255.784          31.000    36823073.844   148271259.866         197.804          47.000  
C37  22768514.824   118561636.805        2633.459          34.000                                                                  
G24                                                                  21064170.381                       -2655.500          30.000  
> 2025 10 27 02 53 50.6360000  0 18                     
G12  20720664.379   108887827.758         753.742          35.000    20720652.914    84847612.380         587.265          42.000  
G15  23369466.350                3      -3276.173          19.000    23369468.211                       -2551.319          27.000  
G18  23713813.587                3      -3667.120          23.000    23713809.976    97104079.970       -2856.238          38.000  
G23  19337832.093   101620989.829       -2195.988          38.000    19337821.149    79185111.739       -1711.152          46.000  
G32  20844075.860   109536357.316        1479.465          34.000    20844066.660    85352970.798        1153.599          41.000  
C08  34724140.971   180817695.550        -373.828          34.000    34724121.398   139819632.584        -288.770          47.000  
C13  34714128.260   180765558.539         -72.400          36.000    34714116.956   139779349.843         -56.250          47.000  
C16  35672261.286   185754819.760         -21.988          36.000    35672247.919   143637361.115         -17.375          47.000  
C25  22355489.340                3      -2606.609          20.000                                                                  
C32  21018879.814   109450815.884         821.406          39.000                                                                  
C06  35358503.539   184121000.380         156.624          33.000    35358484.420   142373967.132         120.953          45.000  
G25  20401698.058   107211662.363        2466.625          36.000    20401690.200    83541513.275        1922.119          42.000  
G10  19475376.099   102343796.799         937.516          40.000    19475365.910    79748366.863         730.725          44.000  
G28  21939158.372   115291051.113        2527.158          33.000    21939147.780    89837155.921        1968.933          43.000  
C23  20718834.197   107888394.032         158.154          37.000                                                                  
C09  36823086.974                         254.804          31.000    36823071.889   148271251.937         198.165          47.000  
C37  22768494.581   118561531.450        2633.795          34.000                                                                  
G24                                                                  21064196.323                       -2655.517          30.000  
> 2025 10 27 02 53 50.6760000  0 18                     
G12  20720658.615   108887797.603         753.928          35.000    20720647.180    84847588.891         587.276          42.000  
G15  23369491.314                3      -3276.173          19.000    23369493.074                       -2550.428          27.000  
G18  23713841.510                3      -3666.438          23.000    23713837.894    97104194.241       -2856.689          38.000  
G23  19337848.798   101621077.654       -2195.656          38.000    19337837.872    79185180.183       -1711.127          46.000  
G32  20844064.579   109536298.115        1479.706          36.000    20844055.394    85352924.662        1153.459          41.000  
C08  34724143.826   180817710.476        -373.547          34.000    34724124.258   139819644.132        -288.708          47.000  
C13  34714128.807   180765561.447         -72.589          36.000    34714117.511   139779352.082         -56.073          47.000  
C16  35672261.470   185754820.645         -22.113          36.000    35672248.055   143637361.791         -17.085          47.000  
C25  22355509.397                3      -2606.609          20.000                                                                  
C32  21018873.489   109450783.020         821.619          39.000                                                                  
C06  35358502.300   184120994.066         157.596          33.000    35358483.208   142373962.288         121.014          45.000  
G25  20401679.276   107211563.706        2466.280          36.000    20401671.425    83541436.383        1922.115          42.000  
G10  19475368.962   102343759.291         937.578          40.000    19475358.774    79748337.646         730.491          44.000  
G28  21939139.161   115290950.050        2526.838          33.000    21939128.536    89837077.166        1968.908          43.000  
C23  20718832.986   107888387.698         158.186          37.000                                                                  
C09  36823085.024                         254.930          31.000    36823069.916   148271244.029         197.926          47.000  
C37  22768474.361   118561426.105        2633.691          34.000                                                                  
G24                                                                  21064222.285                       -2655.524          30.000  
> 2025 10 27 02 53 50.7160000  0 18                     
G12  20720652.876   108887767.458         753.892          35.000    20720641.426    84847565.393         587.440          42.000  
G15  23369516.092                3      -3276.173          19.000    23369518.015                       -2550.597          27.000  
G18  23713869.238                3      -3665.654          24.000    23713865.793    97104308.500       -2856.627          38.000  
G23  19337865.510   101621165.485       -2195.577          38.000    19337854.581    79185248.628       -1711.140          46.000  
G32  20844053.295   109536238.874        1480.583          36.000    20844044.126    85352878.525        1153.389          41.000  
C08  34724146.706   180817725.392        -373.120          34.000    34724127.122   139819655.678        -288.660          47.000  
C13  34714129.359   180765564.351         -72.748          36.000    34714118.069   139779354.320         -55.951          47.000  
C16  35672261.632   185754821.521         -21.978          36.000    35672248.212   143637362.474         -17.053          47.000  
C25  22355529.313                3      -2606.609          20.000                                                                  
C32  21018867.183   109450750.163         821.577          39.000                                                                  
C06  35358501.103   184120987.809         156.967          33.000    35358481.989   142373957.441         121.078          45.000  
G25  20401660.485   107211465.037        2466.512          36.000    20401652.639    83541359.492        1922.128          42.000  
G10  19475361.837   102343721.791         937.461          40.000    19475351.634    79748308.416         730.652          44.000  
G28  21939119.972   115290848.972        2526.738          33.000    21939109.295    89836998.389        1969.307          43.000  
C23  20718831.769   107888381.376         158.060          37.000                                                                  
C09  36823083.082                         255.874          31.000    36823067.956   148271236.124         197.730          47.000  
C37  22768454.139   118561320.779        2633.301          34.000                                                                  
G24                                                                  21064248.207                       -2654.991          30.000  
> 2025 10 27 02 53 50.7560000  0 18                     
G12  20720647.145   108887737.318         753.582          35.000    20720635.675    84847541.905         587.270          42.000  
G18  23713897.131                3      -3666.304          24.000    23713893.698    97104422.748       -2856.340          38.000  
G23  19337882.211   101621253.316       -2195.653          38.000    19337871.295    79185317.079       -1711.263          46.000  
G32  20844042.006   109536179.633        1480.929          36.000    20844032.850    85352832.376        1153.593          41.000  
C08  34724149.595   180817740.332        -373.334          34.000    34724129.985   139819667.227        -288.721          47.000  
C13  34714129.920   180765567.245         -72.662          36.000    34714118.617   139779356.557         -55.914          47.000  
C16  35672261.801   185754822.436         -22.618          37.000    35672248.390   143637363.151         -16.934          47.000  
C25  22355549.528                3      -2606.609          20.000                                                                  
C32  21018860.878   109450717.296         821.702          39.000                                                                  
C06  35358499.901   184120981.570         156.189          33.000    35358480.768   142373952.592         121.156          45.000  
G25  20401641.697   107211366.355        2466.730          36.000    20401633.841    83541282.586        1922.487          42.000  
G10  19475354.697   102343684.280         937.647          41.000    19475344.488    79748279.184         730.744          44.000  
G28  21939100.761                        2527.043          33.000    21939090.064    89836919.616        1969.415          43.000  
C23  20718830.534   107888375.032         158.408          39.000                                                                  
C09  36823081.105                         256.631          31.000    36823065.985   148271228.215         197.694          47.000  
C37  22768433.897   118561215.470        2632.849          34.000                                                                  
G24                                                                  21064274.169                       -2656.375          30.000  
G15                                                                  23369543.034                       -2550.738          27.000  
> 2025 10 27 02 53 50.7960000  0 18                     
G12  20720641.426   108887707.166         753.765          35.000    20720629.940    84847518.436         586.836          42.000  
G18  23713925.067                3      -3666.611          24.000    23713921.595    97104536.986       -2856.022          38.000  
G23  19337898.934   101621341.162       -2196.024          38.000    19337888.002    79185385.523       -1711.188          46.000  
G32  20844030.729   109536120.394        1481.068          36.000    20844021.599    85352786.222        1153.782          41.000  
C08  34724152.462   180817755.260        -373.273          34.000    34724132.863   139819678.773        -288.678          47.000  
C13  34714130.461   180765570.144         -72.626          36.000    34714119.184   139779358.807         -56.152          47.000  
C16  35672261.973   185754823.316         -22.253          37.000    35672248.550   143637363.833         -16.992          47.000  
C25  22355569.098                3      -2612.138          20.000                                                                  
C32  21018854.588   109450684.442         821.500          39.000                                                                  
C06  35358498.686   184120975.317         156.100          33.000    35358479.573   142373947.747         121.105          45.000  
G25  20401622.906   107211267.666        2467.111          36.000    20401615.052    83541205.685        1922.516          42.000  
G10  19475347.574   102343646.780         937.535          42.000    19475337.347    79748249.958         730.669          44.000  
G28  21939081.532                        2527.153          33.000    21939070.830    89836840.857        1969.151          43.000  
C23  20718829.309   107888368.682         158.783          39.000                                                                  
C09  36823079.134                         255.831          31.000    36823064.026   148271220.303         197.720          47.000  
C37  22768413.639   118561110.134        2633.020          34.000                                                                  
G24                                                                  21064300.127                       -2656.444          30.000  
G15                                                                  23369568.001                       -2551.358          27.000  
> 2025 10 27 02 53 50.8360000  0 18                     
G12  20720635.705   108887677.075         752.757          35.000    20720624.216    84847494.964         586.678          42.000  
G18  23713952.890                3      -3664.545          23.000    23713949.491    97104651.239       -2856.161          38.000  
G23  19337915.649   101621429.034       -2196.614          37.000    19337904.709    79185453.975       -1711.318          46.000  
G32  20844019.475   109536061.189        1480.435          36.000    20844010.335    85352740.086        1153.462          41.000  
C08  34724155.363   180817770.217        -373.816          34.000    34724135.735   139819690.323        -288.739          47.000  
C13  34714131.008   180765573.033         -72.339          36.000    34714119.748   139779361.047         -56.091          47.000  
C16  35672262.148   185754824.193         -21.985          37.000    35672248.702   143637364.523         -17.224          47.000  
C25  22355589.260                3      -2612.138          20.000                                                                  
C32  21018848.287   109450651.594         821.317          39.000                                                                  
C06  35358497.479   184120969.030         156.685          33.000    35358478.362   142373942.904         121.040          45.000  
G25  20401604.137   107211168.986        2467.067          35.000    20401596.259    83541128.789        1922.461          42.000  
G10  19475340.432   102343609.265         937.764          41.000    19475330.197    79748220.740         730.459          44.000  
G28  21939062.283                        2527.266          32.000    21939051.605    89836762.096        1969.053          43.000  
C23  20718828.091   107888362.350         158.563          39.000                                                                  
C09  36823077.147                         255.709          31.000    36823062.064   148271212.390         197.751          47.000  
C37  22768393.395   118561004.774        2633.728          34.000                                                                  
G24                                                                  21064326.040                       -2656.303          30.000  
G15                                                                  23369592.932                       -2551.777          27.000  
> 2025 10 27 02 53 50.8760000  0 18                     
G12  20720629.975   108887646.971         752.528          35.000    20720618.482    84847471.481         586.856          42.000  
G18  23713980.916                3      -3665.010          23.000    23713977.397    97104765.485       -2856.137          38.000  
G23  19337932.351   101621516.847       -2195.716          37.000    19337921.440    79185522.429       -1711.398          46.000  
G24  21064359.195                3      -3410.592          17.000    21064352.011                       -2656.089          30.000  
G32  20844008.225   109536001.987        1480.157          36.000    20843999.058    85352693.945        1153.456          41.000  
C08  34724158.202   180817785.149        -373.621          34.000    34724138.570   139819701.880        -288.916          47.000  
C13  34714131.564   180765575.944         -72.711          36.000    34714120.299   139779363.297         -56.244          47.000  
C16  35672262.335   185754825.065         -21.700          37.000    35672248.897   143637365.209         -17.238          47.000  
C25  22355609.573                3      -2612.138          20.000                                                                  
C32  21018841.988   109450618.730         821.513          39.000                                                                  
C06  35358496.265   184120962.757         156.676          33.000    35358477.159   142373938.058         121.088          45.000  
G25  20401585.360   107211070.293        2467.242          35.000    20401577.476    83541051.894        1922.415          42.000  
G10  19475333.285   102343571.775         937.412          41.000    19475323.064    79748191.523         730.337          44.000  
G28  21939043.017                        2526.585          32.000    21939032.356    89836683.341        1968.892          43.000  
C23  20718826.869   107888356.034         158.081          39.000                                                                  
C09  36823075.218                         255.647          31.000    36823060.107   148271204.473         197.852          47.000  
C37  22768373.170   118560899.428        2633.844          34.000                                                                  
G15                                                                  23369617.992                       -2552.187          27.000  
> 2025 10 27 02 53 50.9160000  0 18                     
G12  20720624.235   108887616.842         752.859          35.000    20720612.759    84847447.995         587.006          42.000  
G18  23714008.778                3      -3665.505          23.000    23714005.300    97104879.726       -2856.009          38.000  
G23  19337949.063   101621604.696       -2195.909          37.000    19337938.145    79185590.880       -1711.372          46.000  
G24  21064385.457                3      -3410.592          17.000    21064377.931                       -2655.490          30.000  
G32  20843996.930   109535942.760        1480.541          36.000    20843987.802    85352647.804        1153.438          41.000  
C08  34724161.084   180817800.091        -373.590          34.000    34724141.438   139819713.429        -288.843          47.000  
C13  34714132.135   180765578.845         -72.607          36.000    34714120.861   139779365.545         -56.250          47.000  
C16  35672262.510   185754825.955         -21.942          36.000    35672249.073   143637365.891         -17.122          47.000  
C25  22355629.651                3      -2612.138          20.000                                                                  
C32  21018835.667   109450585.858         821.761          39.000                                                                  
C06  35358495.063   184120956.510         156.132          33.000    35358475.956   142373933.215         121.034          45.000  
G25  20401566.591   107210971.591        2467.406          35.000    20401558.705    83540975.007        1922.260          42.000  
G10  19475326.147   102343534.268         937.530          41.000    19475315.916    79748162.295         730.542          44.000  
G28  21939023.812                        2526.012          32.000    21939013.133    89836604.591        1968.744          43.000  
C23  20718825.659   107888349.720         157.832          39.000                                                                  
C09  36823073.268                         255.277          31.000    36823058.161   148271196.556         197.902          47.000  
C37  22768352.920   118560794.106        2633.411          34.000                                                                  
G15                                                                  23369642.940                       -2552.618          28.000  
> 2025 10 27 02 53 50.9560000  0 18                     
G12  20720618.505   108887586.718         752.991          35.000    20720607.001    84847424.506         587.118          42.000  
G18  23714036.786                3      -3666.872          23.000    23714033.200    97104993.991       -2856.503          38.000  
G23  19337965.776   101621692.565       -2196.458          37.000    19337954.831    79185659.325       -1711.249          46.000  
G24  21064411.411                3      -3410.592          17.000    21064403.873                       -2656.181          30.000  
G32  20843985.676   109535883.556        1480.215          36.000    20843976.522    85352601.656        1153.591          41.000  
C08  34724163.950   180817815.026        -373.560          34.000    34724144.314   139819724.982        -288.855          48.000  
C13  34714132.685   180765581.743         -72.546          36.000    34714121.415   139779367.785         -56.110          47.000  
C16  35672262.662   185754826.819         -21.637          36.000    35672249.254   143637366.576         -17.142          47.000  
C25  22355649.518                3      -2612.138          20.000                                                                  
C32  21018829.338   109450553.018         821.322          39.000                                                                  
C06  35358493.888   184120950.233         156.674          33.000    35358474.771   142373928.376         120.951          45.000  
G25  20401547.831   107210872.935        2466.864          35.000    20401539.932    83540898.128        1921.988          42.000  
G10  19475319.001   102343496.763         937.585          41.000    19475308.786    79748133.067         730.646          44.000  
G28  21939004.557                        2527.008          32.000    21938993.920    89836525.821        1969.031          43.000  
C23  20718824.435   107888343.382         158.166          39.000                                                                  
C09  36823071.282                         255.506          31.000    36823056.213   148271188.651         197.698          47.000  
C37  22768332.676   118560688.762        2633.514          34.000                                                                  
G15                                                                  23369667.822                       -2553.417          28.000  
> 2025 10 27 02 53 50.9960000  0 18                     
G12  20720612.765   108887556.545         754.034          35.000    20720601.259    84847401.034         586.910          42.000  
G18  23714064.775                3      -3664.559          23.000    23714061.090    97105108.217       -2855.949          38.000  
G23  19337982.480   101621780.403       -2196.173          37.000    19337971.552    79185727.778       -1711.323          46.000  
G24  21064437.212                3      -3410.592          17.000    21064429.813                       -2655.621          30.000  
G32  20843974.412   109535824.324        1480.646          36.000    20843965.256    85352555.505        1153.689          41.000  
C08  34724166.823   180817829.951        -373.254          34.000    34724147.180   139819736.529        -288.757          48.000  
C13  34714133.230   180765584.672         -73.090          36.000    34714121.974   139779370.029         -56.110          47.000  
C16  35672262.818   185754827.724         -22.296          36.000    35672249.435   143637367.252         -16.973          47.000  
C25  22355669.328                3      -2612.138          20.000                                                                  
C32  21018823.020   109450520.184         820.975          39.000                                                                  
C06  35358492.660   184120943.982         156.407          33.000    35358473.589   142373923.537         120.907          45.000  
G25  20401529.042   107210774.244        2467.119          35.000    20401521.164    83540821.231        1922.199          42.000  
G10  19475311.858   102343459.255         937.640          41.000    19475301.632    79748103.845         730.584          44.000  
G28  21938985.352                        2526.545          32.000    21938974.687    89836447.061        1969.031          43.000  
C23  20718823.215   107888337.058         158.030          39.000                                                                  
C09  36823069.312                         255.497          31.000    36823054.236   148271180.739         197.759          47.000  
C37  22768312.452   118560583.416        2633.569          34.000                                                                  
G15                                                                  23369692.378                       -2553.256          28.000  
> 2025 10 27 02 53 51.0360000  0 17                     
G12  20720607.010   108887526.447         753.069          35.000    20720595.519    84847377.565         586.725          42.000  
G18  23714092.783                3      -3666.742          23.000    23714088.999    97105222.474       -2856.239          38.000  
G23  19337999.206   101621868.239       -2195.982          37.000    19337988.280    79185796.227       -1711.292          46.000  
G24  21064463.363                3      -3410.592          17.000    21064455.745                       -2655.007          30.000  
G32  20843963.134   109535765.117        1480.289          35.000    20843954.009    85352509.367        1153.477          41.000  
C08  34724169.672   180817844.911        -373.700          34.000    34724150.051   139819748.080        -288.757          48.000  
C13  34714133.783   180765587.564         -72.577          36.000    34714122.538   139779372.271         -56.091          47.000  
C16  35672263.007   185754828.618         -22.406          36.000    35672249.584   143637367.938         -17.076          47.000  
C32  21018816.719   109450487.319         821.328          39.000                                                                  
C06  35358491.435   184120937.736         156.260          33.000    35358472.401   142373918.693         121.010          45.000  
G25  20401510.250   107210675.514        2467.888          35.000    20401502.388    83540744.331        1922.360          42.000  
G10  19475304.742   102343421.760         937.418          41.000    19475294.485    79748074.616         730.633          44.000  
G28  21938966.056                        2528.425          32.000    21938955.456    89836368.298        1969.068          43.000  
C23  20718821.980   107888330.715         158.302          39.000                                                                  
C09  36823067.345                         255.460          31.000    36823052.253   148271172.825         197.822          47.000  
C37  22768292.242   118560478.083        2633.447          34.000                                                                  
G15                                                                  23369717.893                       -2552.977          32.000  
> 2025 10 27 02 53 51.0760000  0 17                     
G12  20720601.274   108887496.330         752.887          35.000    20720589.767    84847354.083         586.872          42.000  
G18  23714120.577                3      -3665.530          24.000    23714116.899    97105336.731       -2856.405          38.000  
G23  19338015.935   101621956.095       -2196.229          37.000    19338005.001    79185864.684       -1711.416          46.000  
G24  21064489.419                3      -3410.592          16.000    21064481.715                       -2654.705          30.000  
G32  20843951.863   109535705.892        1480.536          35.000    20843942.761    85352463.228        1153.416          41.000  
C08  34724172.531   180817859.832        -373.297          34.000    34724152.946   139819759.630        -288.776          48.000  
C13  34714134.327   180765590.460         -72.455          36.000    34714123.101   139779374.512         -56.061          47.000  
C16  35672263.159   185754829.507         -22.359          36.000    35672249.769   143637368.622         -17.128          47.000  
C32  21018810.416   109450454.457         821.492          39.000                                                                  
C06  35358490.242   184120931.449         156.869          33.000    35358471.194   142373913.852         120.995          45.000  
G25  20401491.476   107210576.879        2466.855          35.000    20401483.612    83540667.434        1922.438          42.000  
G10  19475297.599   102343384.266         937.283          40.000    19475287.354    79748045.403         730.387          44.000  
G28  21938946.829                        2526.896          32.000    21938936.223    89836289.540        1968.980          43.000  
C23  20718820.753   107888324.383         158.287          39.000                                                                  
C09  36823065.369                         255.892          31.000    36823050.255   148271164.913         197.776          47.000  
C37  22768272.008   118560372.756        2633.319          34.000                                                                  
G15                                                                  23369742.928                       -2551.931          32.000  
> 2025 10 27 02 53 51.1160000  0 17                     
G12  20720595.539   108887466.160         753.707          35.000    20720584.042    84847330.614         586.682          42.000  
G18  23714148.423                3      -3663.675          24.000    23714144.814    97105450.980       -2856.350          38.000  
G23  19338032.640   101622043.941       -2196.161          37.000    19338021.743    79185933.142       -1711.508          46.000  
G24  21064515.235                3      -3410.592          16.000    21064507.651                       -2656.643          30.000  
G32  20843940.620   109535646.708        1479.778          35.000    20843931.501    85352417.097        1153.205          41.000  
C08  34724175.414   180817874.776        -373.480          34.000    34724155.830   139819771.182        -288.794          48.000  
C13  34714134.901   180765593.353         -72.357          36.000    34714123.667   139779376.758         -56.146          47.000  
C16  35672263.305   185754830.389         -22.191          36.000    35672249.968   143637369.314         -17.283          47.000  
C32  21018804.111   109450421.608         821.321          39.000                                                                  
C06  35358489.016   184120925.161         157.144          33.000    35358470.016   142373909.012         120.956          45.000  
G25  20401472.675   107210478.182        2467.224          35.000    20401464.847    83540590.536        1922.459          42.000  
G10  19475290.446   102343346.774         937.191          40.000    19475280.230    79748016.188         730.307          44.000  
G28  21938927.651                        2525.702          32.000    21938917.001    89836210.800        1968.639          43.000  
C23  20718819.522   107888318.047         158.426          39.000                                                                  
C09  36823063.407                         255.639          31.000    36823048.289   148271157.014         197.518          47.000  
C37  22768251.748   118560267.463        2632.446          34.000                                                                  
G15                                                                  23369767.724                       -2551.833          32.000  
> 2025 10 27 02 53 51.1560000  0 17                     
G12  20720589.821   108887436.086         752.440          35.000    20720578.325    84847307.154         586.475          42.000  
G18  23714176.271                3      -3664.654          24.000    23714172.733    97105565.219       -2856.100          38.000  
G23  19338049.334   101622131.796       -2196.315          37.000    19338038.450    79186001.602       -1711.544          46.000  
G24  21064541.276                3      -3410.592          16.000    21064533.590                       -2655.742          30.000  
G32  20843929.384   109535587.488        1480.123          35.000    20843920.232    85352370.955        1153.403          41.000  
C08  34724178.288   180817889.755        -374.396          34.000    34724158.693   139819782.740        -288.947          48.000  
C13  34714135.447   180765596.257         -72.534          36.000    34714124.226   139779379.014         -56.348          47.000  
C16  35672263.475   185754831.284         -22.380          36.000    35672250.156   143637370.011         -17.434          47.000  
C32  21018797.811   109450388.761         821.174          39.000                                                                  
C06  35358487.811   184120918.918         156.508          33.000    35358468.821   142373904.177         120.895          45.000  
G25  20401453.894   107210379.505        2466.986          35.000    20401446.074    83540513.653        1922.168          42.000  
G10  19475283.330   102343309.288         937.112          40.000    19475273.092    79747986.968         730.382          44.000  
G28  21938908.404                        2525.937          32.000    21938897.781    89836132.043        1968.747          43.000  
C23  20718818.291   107888311.752         157.719          38.000                                                                  
C09  36823061.464                         255.885          31.000    36823046.333   148271149.115         197.434          47.000  
C37  22768231.531   118560162.134        2632.813          34.000                                                                  
G15                                                                  23369793.076                       -2552.996          32.000  
> 2025 10 27 02 53 51.1960000  0 17                     
G12  20720584.104   108887405.991         752.117          35.000    20720572.605    84847283.681         586.640          42.000  
G18  23714203.984                3      -3665.361          24.000    23714200.635    97105679.455       -2855.912          38.000  
G23  19338066.054   101622219.681       -2196.999          37.000    19338055.156    79186070.053       -1711.420          46.000  
G24  21064567.073                3      -3410.592          16.000    21064559.592                       -2657.040          30.000  
G32  20843918.137   109535528.290        1480.022          35.000    20843908.954    85352324.825        1153.295          41.000  
C08  34724181.157   180817904.672        -373.480          34.000    34724161.573   139819794.295        -288.953          48.000  
C13  34714136.009   180765599.208         -73.578          36.000    34714124.791   139779381.265         -56.366          47.000  
C16  35672263.657   185754832.160         -22.150          37.000    35672250.349   143637370.690         -17.189          47.000  
C32  21018791.488   109450355.914         821.101          39.000                                                                  
C06  35358486.601   184120912.671         156.244          33.000    35358467.618   142373899.335         120.975          45.000  
G25  20401435.101   107210280.861        2466.305          35.000    20401427.296    83540436.776        1921.967          42.000  
G10  19475276.188   102343271.796         937.125          41.000    19475265.955    79747957.760         730.210          44.000  
G28  21938889.154                        2526.533          32.000    21938878.550    89836053.282        1968.903          43.000  
C23  20718817.090   107888305.443         157.582          39.000                                                                  
C09  36823059.463                         255.806          31.000    36823044.376   148271141.206         197.588          47.000  
C37  22768211.307   118560056.766        2633.765          34.000                                                                  
G15                                                                  23369818.093                       -2552.127          32.000  
> 2025 10 27 02 53 51.2360000  0 17                     
G12  20720578.350   108887375.852         752.943          35.000    20720566.860    84847260.218         586.557          43.000  
G18  23714231.807                3      -3666.847          24.000    23714228.545    97105793.692       -2855.887          38.000  
G23  19338082.771   101622307.536       -2196.700          37.000    19338071.878    79186138.513       -1711.482          46.000  
G24  21064592.638                3      -3410.592          16.000    21064585.532                       -2655.986          30.000  
G32  20843906.865   109535469.070        1480.333          35.000    20843897.687    85352278.689        1153.368          41.000  
C08  34724184.020   180817919.610        -373.370          34.000    34724164.417   139819805.855        -288.995          48.000  
C13  34714136.568   180765602.115         -73.120          36.000    34714125.306   139779383.505         -56.134          47.000  
C16  35672263.808   185754833.051         -22.236          37.000    35672250.536   143637371.376         -17.162          47.000  
C32  21018785.185   109450323.071         821.041          39.000                                                                  
C06  35358485.388   184120906.421         156.157          33.000    35358466.408   142373894.494         120.988          45.000  
G25  20401416.305   107210182.207        2466.267          35.000    20401408.522    83540359.892        1921.976          42.000  
G10  19475269.039   102343234.294         937.391          41.000    19475258.823    79747928.544         730.291          44.000  
G28  21938869.916                        2527.128          32.000    21938859.326    89835974.521        1968.964          43.000  
C23  20718815.864   107888299.114         157.914          39.000                                                                  
C09  36823057.495                         255.611          31.000    36823042.395   148271133.303         197.588          47.000  
C37  22768191.078   118559951.432        2633.630          34.000                                                                  
G15                                                                  23369843.087                       -2551.783          32.000  
> 2025 10 27 02 53 51.2760000  0 17                     
G12  20720572.619   108887345.724         753.236          35.000    20720561.121    84847236.741         586.784          43.000  
G18  23714259.937                3      -3664.313          24.000    23714256.450    97105907.949       -2856.233          38.000  
G23  19338099.464   101622395.360       -2195.948          37.000    19338088.587    79186206.970       -1711.463          46.000  
G24  21064618.460                3      -3405.166          16.000    21064611.474                       -2655.494          30.000  
G32  20843895.605   109535409.854        1480.499          35.000    20843886.416    85352232.546        1153.502          41.000  
C08  34724186.896   180817934.543        -373.260          34.000    34724167.286   139819817.406        -288.861          48.000  
C13  34714137.121   180765605.010         -72.705          36.000    34714125.860   139779385.742         -55.975          47.000  
C16  35672263.971   185754833.949         -22.425          37.000    35672250.722   143637372.067         -17.236          47.000  
C32  21018778.879   109450290.222         821.107          39.000                                                                  
C06  35358484.178   184120900.145         156.642          33.000    35358465.185   142373889.653         121.035          45.000  
G25  20401397.506   107210083.516        2466.862          35.000    20401389.727    83540282.978        1922.526          42.000  
G10  19475261.890   102343196.801         937.310          41.000    19475251.705    79747899.340         730.100          44.000  
G28  21938850.674                        2527.441          32.000    21938840.081    89835895.757        1969.076          43.000  
C23  20718814.659   107888292.785         158.127          39.000                                                                  
C09  36823055.531                         255.812          31.000    36823040.440   148271125.385         197.852          47.000  
C37  22768170.855   118559846.111        2633.203          34.000                                                                  
G15                                                                  23369868.049                       -2552.444          32.000  
> 2025 10 27 02 53 51.3160000  0 17                     
G12  20720566.890   108887315.592         753.325          36.000    20720555.394    84847213.257         587.000          43.000  
G18  23714287.939                3      -3666.826          24.000    23714284.343    97106022.218       -2856.608          38.000  
G23  19338116.174   101622483.205       -2195.938          37.000    19338105.324    79186275.437       -1711.642          46.000  
G24  21064644.242                3      -3405.166          16.000    21064637.408                       -2656.152          30.000  
G32  20843884.322   109535350.631        1480.606          35.000    20843875.154    85352186.396        1153.659          41.000  
C08  34724189.761   180817949.506        -373.840          35.000    34724170.180   139819828.957        -288.806          48.000  
C13  34714137.672   180765607.889         -72.113          36.000    34714126.422   139779387.992         -56.165          47.000  
C16  35672264.131   185754834.836         -22.328          37.000    35672250.936   143637372.754         -17.208          47.000  
C32  21018772.579   109450257.373         821.192          40.000                                                                  
C06  35358482.967   184120893.881         156.644          33.000    35358463.975   142373884.806         121.144          45.000  
G25  20401378.729   107209984.811        2467.433          35.000    20401370.939    83540206.061        1922.893          42.000  
G10  19475254.751   102343159.308         937.279          41.000    19475244.575    79747870.115         730.415          44.000  
G28  21938831.458                        2526.730          32.000    21938820.849    89835817.003        1968.913          43.000  
C23  20718813.425   107888286.458         158.199          39.000                                                                  
C09  36823053.578                         255.420          32.000    36823038.482   148271117.466         198.025          47.000  
C37  22768150.638   118559740.788        2633.057          35.000                                                                  
G15                                                                  23369892.696                       -2552.546          32.000  
> 2025 10 27 02 53 51.3560000  0 17                     
G12  20720561.151   108887285.501         752.640          36.000    20720549.671    84847189.799         586.658          43.000  
G18  23714315.887                3      -3667.095          24.000    23714312.243    97106136.435       -2855.889          38.000  
G23  19338132.877   101622571.051       -2196.020          37.000    19338122.033    79186343.885       -1711.351          46.000  
G24  21064670.257                3      -3405.166          17.000    21064663.342                       -2656.038          30.000  
G32  20843873.047   109535291.420        1480.485          35.000    20843863.880    85352140.255        1153.549          41.000  
C08  34724192.612   180817964.448        -373.773          35.000    34724173.041   139819840.505        -288.690          48.000  
C13  34714138.226   180765610.790         -72.357          36.000    34714126.985   139779390.242         -56.287          47.000  
C16  35672264.314   185754835.710         -22.028          37.000    35672251.137   143637373.439         -17.162          47.000  
C32  21018766.258   109450224.518         821.285          40.000                                                                  
C06  35358481.772   184120887.612         156.774          34.000    35358462.770   142373879.950         121.350          45.000  
G25  20401359.949   107209886.135        2467.212          35.000    20401352.150    83540129.167        1922.630          42.000  
G10  19475247.622   102343121.823         937.106          41.000    19475237.442    79747840.900         730.414          44.000  
G28  21938812.245                        2525.846          32.000    21938801.618    89835738.247        1968.894          43.000  
C23  20718812.223   107888280.123         158.376          39.000                                                                  
C09  36823051.621   191747276.561         255.561          32.000    36823036.513   148271109.546         198.065          47.000  
C37  22768130.417   118559635.471        2632.910          35.000                                                                  
G15                                                                  23369917.384                       -2551.985          32.000  
> 2025 10 27 02 53 51.3960000  0 17                     
G12  20720555.412   108887255.372         752.931          36.000    20720543.947    84847166.337         586.518          43.000  
G18  23714343.715                3      -3665.945          24.000    23714340.147    97106250.675       -2855.904          38.000  
G23  19338149.595   101622658.913       -2196.427          38.000    19338138.745    79186412.344       -1711.420          46.000  
G24  21064696.325                3      -3405.166          17.000    21064689.274                       -2655.872          30.000  
G32  20843861.781   109535232.213        1480.242          35.000    20843852.605    85352094.103        1153.709          41.000  
C08  34724195.466   180817979.379        -373.517          35.000    34724175.897   139819852.059        -288.788          48.000  
C13  34714138.782   180765613.708         -72.821          37.000    34714127.533   139779392.494         -56.372          47.000  
C16  35672264.480   185754836.592         -22.044          37.000    35672251.335   143637374.120         -17.061          47.000  
C32  21018759.935   109450191.650         821.570          40.000                                                                  
C06  35358480.561   184120881.352         156.670          34.000    35358461.563   142373875.102         121.288          45.000  
G25  20401341.179   107209787.477        2466.619          35.000    20401333.400    83540052.289        1922.115          42.000  
G10  19475240.471   102343084.331         937.175          41.000    19475230.320    79747811.688         730.327          44.000  
G28  21938793.002                        2525.983          32.000    21938782.405    89835659.497        1968.771          43.000  
C23  20718811.003   107888273.799         158.221          39.000                                                                  
C09  36823049.678   191747266.336         255.602          32.000    36823034.561   148271101.648         197.660          47.000  
C37  22768110.175   118559530.145        2633.044          35.000                                                                  
G15                                                                  23369942.587                       -2551.221          32.000  
> 2025 10 27 02 53 51.4360000  0 17                     
G12  20720549.666   108887225.272         752.521          36.000    20720538.236    84847142.867         586.602          43.000  
G18  23714371.625                3      -3664.666          24.000    23714368.038    97106364.881       -2855.309          38.000  
G23  19338166.314   101622746.780       -2196.691          38.000    19338155.464    79186480.816       -1711.735          46.000  
G24  21064722.210                3      -3405.166          17.000    21064715.217                       -2656.278          30.000  
G32  20843850.500   109535173.024        1479.812          36.000    20843841.341    85352047.982        1153.228          41.000  
C08  34724198.327   180817994.309        -373.328          35.000    34724178.724   139819863.620        -288.989          48.000  
C13  34714139.337   180765616.634         -73.187          37.000    34714128.088   139779394.742         -56.305          47.000  
C16  35672264.668   185754837.492         -22.310          37.000    35672251.512   143637374.802         -17.092          47.000  
C32  21018753.623   109450158.810         821.205          40.000                                                                  
C06  35358479.345   184120875.083         156.713          34.000    35358460.316   142373870.260         121.106          45.000  
G25  20401322.402   107209688.797        2466.833          35.000    20401314.645    83539975.428        1921.561          42.000  
G10  19475233.338   102343046.848         937.033          41.000    19475223.199    79747782.478         730.242          44.000  
G28  21938773.757                        2526.848          32.000    21938763.168    89835580.757        1968.510          43.000  
C23  20718809.777   107888267.503         157.598          39.000                                                                  
C09  36823047.703   191747256.115         255.552          32.000    36823032.615   148271093.756         197.317          47.000  
C37  22768089.952   118559424.790        2633.618          35.000                                                                  
G15                                                                  23369967.812                       -2551.020          32.000  
> 2025 10 27 02 53 51.4760000  0 17                     
G12  20720543.930   108887195.141         752.980          36.000    20720532.520    84847119.421         586.234          43.000  
G18  23714399.595                3      -3664.348          24.000    23714395.938    97106479.121       -2855.716          38.000  
G23  19338183.040   101622834.662       -2197.115          38.000    19338172.200    79186549.288       -1711.875          46.000  
G24  21064748.093                3      -3406.538          17.000    21064741.167                       -2655.730          30.000  
G32  20843839.226   109535113.802        1480.163          36.000    20843830.087    85352001.853        1153.114          41.000  
C08  34724201.202   180818009.259        -373.615          35.000    34724181.577   139819875.183        -289.105          48.000  
C13  34714139.892   180765619.541         -72.937          37.000    34714128.634   139779396.990         -56.244          47.000  
C16  35672264.834   185754838.401         -22.643          37.000    35672251.692   143637375.501         -17.379          47.000  
C32  21018747.308   109450125.967         821.074          40.000                                                                  
C06  35358478.155   184120868.848         156.110          34.000    35358459.120   142373865.433         120.775          45.000  
G25  20401303.601   107209590.125        2466.734          35.000    20401295.870    83539898.563        1921.406          42.000  
G10  19475226.197   102343009.353         937.275          41.000    19475216.071    79747753.268         730.205          44.000  
G28  21938754.521                        2527.007          32.000    21938743.934    89835502.005        1968.675          43.000  
C23  20718808.547   107888261.190         157.619          39.000                                                                  
C09  36823045.756   191747245.891         255.682          32.000    36823030.632   148271085.858         197.259          47.000  
C37  22768069.725   118559319.457        2633.521          35.000                                                                  
G15                                                                  23369992.371                       -2552.140          32.000  
> 2025 10 27 02 53 51.5160000  0 17                     
G12  20720538.182   108887164.999         753.366          36.000    20720526.766    84847095.959         586.361          43.000  
G18  23714427.597                3      -3666.595          24.000    23714423.862    97106593.383       -2856.315          38.000  
G23  19338199.755   101622922.531       -2196.976          38.000    19338188.935    79186617.751       -1711.732          46.000  
G24  21064773.957                3      -3406.538          17.000    21064767.087                       -2655.304          30.000  
G32  20843827.970   109535054.593        1480.220          36.000    20843818.820    85351955.711        1153.376          41.000  
C08  34724204.090   180818024.194        -373.462          36.000    34724184.475   139819886.738        -288.989          48.000  
C13  34714140.453   180765622.439         -72.534          37.000    34714129.176   139779399.233         -56.122          47.000  
C16  35672265.010   185754839.293         -22.516          38.000    35672251.871   143637376.188         -17.308          47.000  
C32  21018741.005   109450093.125         820.976          40.000                                                                  
C06  35358476.969   184120862.610         155.876          35.000    35358457.928   142373860.602         120.682          45.000  
G25  20401284.834   107209491.478        2466.302          35.000    20401277.094    83539821.669        1921.934          42.000  
G10  19475219.060   102342971.883         936.855          41.000    19475208.952    79747724.062         730.156          44.000  
G28  21938735.277                        2527.288          32.000    21938724.709    89835423.247        1968.875          43.000  
C23  20718807.337   107888254.881         157.622          40.000                                                                  
C09  36823043.774   191747235.649         256.057          32.000    36823028.659   148271077.957         197.358          47.000  
C37  22768049.514   118559214.127        2633.405          35.000                                                                  
G15                                                                  23370017.471                       -2552.339          32.000  
