     3.04           OBSERVATION DATA    M: Mixed            RINEX VERSION / TYPE
RTKCONV 2.4.3 b34                       20251027 032950 UTC PGM / RUN BY / DATE 
format: u-blox UBX                                          COMMENT             
log: D:\GPdata\10_27\fingure_288_10_27_1.ubx                COMMENT             
                                                            MARKER NAME         
                                                            MARKER NUMBER       
                                                            MARKER TYPE         
                                                            OBSERVER / AGENCY   
                                                            REC # / TYPE / VERS 
                                                            ANT # / TYPE        
        0.0000        0.0000        0.0000                  APPROX POSITION XYZ 
        0.0000        0.0000        0.0000                  ANTENNA: DELTA H/E/N
G    8 C1C L1C D1C S1C C2L L2L D2L S2L                      SYS / # / OBS TYPES 
C    8 C2I L2I D2I S2I C7I L7I D7I S7I                      SYS / # / OBS TYPES 
  2025    10    27    02    49   43.7160000     GPS         TIME OF FIRST OBS   
  2025    10    27    02    50   08.5160000     GPS         TIME OF LAST OBS    
G L1C                                                       SYS / PHASE SHIFT   
G L2L  0.00000                                              SYS / PHASE SHIFT   
C L2I                                                       SYS / PHASE SHIFT   
C L7I                                                       SYS / PHASE SHIFT   
  0                                                         GLONASS SLOT / FRQ #
 C1C    0.000 C1P    0.000 C2C    0.000 C2P    0.000        GLONASS COD/PHS/BIS 
                                                            END OF HEADER       
> 2025 10 27 02 49 43.7160000  0 19                     
G12  20759855.694   109093779.0541        913.665          45.000    20759843.835    85008092.9621        711.634          42.000  
G15  23216233.686   122002121.5991      -3246.874          35.000    23216227.487    95066573.6081      -2530.875          33.000  
G18  23541088.079   123709245.3551      -3685.268          36.000    23541084.065    96396778.6581      -2872.261          37.000  
G23  19238091.425   101096849.1561      -2049.398          45.000    19238079.693    78776690.9981      -1596.888          48.000  
G24  20905295.749   109858082.2761      -3355.150          30.000    20905286.542                1      -2613.685          31.000  
G32  20914344.663   109905622.9061       1510.068          46.000    20914334.112    85640690.5021       1176.610          42.000  
C08  34707497.250   180731042.0741       -328.912          46.000    34707480.371   139752626.9081       -254.358          49.000  
C13  34711613.861   180752478.3111        -33.868          47.000    34711604.707   139769235.6091        -26.257          48.000  
C16  35671951.715   185753211.6211          8.788          46.000    35671941.427   143636126.1351          6.876          48.000  
C25  22233513.946   115775755.7981      -2527.714          36.000                                                                  
C32  21059456.103   109662118.0661        889.196          50.000                                                                  
C06  35366687.535   184163623.6801        188.453          44.000    35366672.234   142406931.9681        145.577          47.000  
G25  20520219.222   107834493.4221       2575.984          41.000    20520211.340    84026835.9321       2007.529          43.000  
G10  19522768.784   102592838.9901       1078.308          50.000    19522757.200    79942428.1371        840.216          44.000  
G28  22059686.210   115924445.6221       2602.480          40.000    22059675.921    90330717.7051       2027.872          41.000  
C23  20729584.028   107944381.3011        294.769          50.000                                                                  
C09  36835954.672   191814487.6921        286.793          40.000    36835943.099   148323076.2121        221.677          47.000  
C33  26086175.140                       -2921.266          32.000                                                                  
C37  22895032.333   119220455.1551       2702.508          43.000                                                                  
> 2025 10 27 02 49 43.7560000  0 19                     
G12  20759848.736   109093742.502         913.701          45.000    20759836.877    85008064.468         712.056          42.000  
G15  23216258.393   122002251.479       -3246.810          35.000    23216252.190    95066674.793       -2530.256          32.000  
G18  23541116.154   123709392.773       -3685.342          36.000    23541112.111    96396893.504       -2871.540          37.000  
G23  19238106.998   101096931.126       -2049.330          45.000    19238095.268    78776754.871       -1596.870          48.000  
G24  20905321.286   109858216.479       -3355.149          30.000    20905312.099                       -2614.442          31.000  
G32  20914333.159   109905562.501        1510.106          46.000    20914322.645    85640643.427        1176.825          42.000  
C08  34707499.746   180731055.228        -328.851          46.000    34707482.874   139752637.078        -254.285          49.000  
C13  34711614.114   180752479.667         -33.917          47.000    34711604.952   139769236.658         -26.263          48.000  
C16  35671951.658   185753211.267           8.775          46.000    35671941.344   143636125.854           6.922          48.000  
C25  22233533.360   115775856.892       -2527.565          36.000                                                                  
C32  21059449.236   109662082.498         889.152          50.000                                                                  
C06  35366686.089   184163616.130         188.643          44.000    35366670.799   142406926.126         145.853          47.000  
G25  20520199.610   107834390.359        2576.362          41.000    20520191.721    84026755.634        2007.493          43.000  
G10  19522760.578   102592795.848        1078.412          50.000    19522749.020    79942394.533         840.082          44.000  
G28  22059666.388   115924341.511        2602.643          40.000    22059656.123    90330636.592        2027.817          41.000  
C23  20729581.761   107944369.508         294.740          50.000                                                                  
C09  36835952.466   191814476.211         286.946          40.000    36835940.875   148323067.336         221.806          47.000  
C33  26086197.625                       -2920.802          32.000                                                                  
C37  22895011.568   119220347.034        2702.795          43.000                                                                  
> 2025 10 27 02 49 43.7960000  0 19                     
G12  20759841.772   109093705.939         913.921          45.000    20759829.893    85008035.977         712.198          42.000  
G15  23216283.084   122002381.354       -3246.698          35.000    23216276.891    95066776.006       -2530.437          32.000  
G18  23541144.226   123709540.210       -3685.727          36.000    23541140.157    96397008.370       -2871.501          37.000  
G23  19238122.579   101097013.094       -2049.249          45.000    19238110.900    78776818.745       -1596.882          48.000  
G24  20905346.834   109858350.670       -3354.990          30.000    20905337.658                       -2614.519          31.000  
G32  20914321.659   109905502.093        1510.190          46.000    20914311.132    85640596.343        1177.057          42.000  
C08  34707502.270   180731068.382        -328.821          46.000    34707485.396   139752647.249        -254.285          49.000  
C13  34711614.378   180752481.018         -33.826          47.000    34711605.196   139769237.703         -26.178          48.000  
C16  35671951.582   185753210.902           8.954          46.000    35671941.269   143636125.575           6.929          48.000  
C25  22233552.750   115775957.978       -2527.293          36.000                                                                  
C32  21059442.420   109662046.924         889.263          50.000                                                                  
C06  35366684.650   184163608.585         188.644          44.000    35366669.301   142406920.294         145.826          47.000  
G25  20520179.996   107834287.302        2576.397          41.000    20520172.120    84026675.335        2007.459          43.000  
G10  19522752.363   102592752.712        1078.381          50.000    19522740.809    79942360.917         840.320          44.000  
G28  22059646.579   115924237.410        2602.581          40.000    22059636.312    90330555.458        2028.147          41.000  
C23  20729579.514   107944357.711         294.840          50.000                                                                  
C09  36835950.251   191814464.725         287.115          40.000    36835938.672   148323058.462         221.819          47.000  
C33  26086220.054                       -2920.460          31.000                                                                  
C37  22894990.795   119220238.917        2702.926          43.000                                                                  
> 2025 10 27 02 49 43.8360000  0 19                     
G12  20759834.838   109093669.384         913.918          45.000    20759822.949    85008007.485         712.350          42.000  
G15  23216307.792   122002511.229       -3246.622          35.000    23216301.612    95066877.207       -2530.233          32.000  
G18  23541172.295   123709687.613       -3685.335          36.000    23541168.196    96397123.227       -2871.416          37.000  
G23  19238138.160   101097095.061       -2049.188          45.000    19238126.480    78776882.616       -1596.833          48.000  
G24  20905372.360   109858484.880       -3355.092          30.000    20905363.187                       -2614.880          31.000  
G32  20914310.170   109905441.678        1510.343          46.000    20914299.621    85640549.262        1177.085          42.000  
C08  34707504.805   180731081.534        -328.784          46.000    34707487.913   139752657.420        -254.285          49.000  
C13  34711614.659   180752482.364         -33.691          47.000    34711605.463   139769238.741         -26.025          48.000  
C16  35671951.522   185753210.529           9.199          46.000    35671941.192   143636125.290           7.047          48.000  
C25  22233572.121   115776059.067       -2527.227          36.000                                                                  
C32  21059435.602   109662011.350         889.326          50.000                                                                  
C06  35366683.184   184163601.040         188.643          44.000    35366667.832   142406914.455         145.957          47.000  
G25  20520160.387   107834184.252        2576.253          41.000    20520152.532    84026595.035        2007.446          43.000  
G10  19522744.143   102592709.567        1078.528          50.000    19522732.598    79942327.291         840.588          44.000  
G28  22059626.775   115924133.303        2602.688          40.000    22059616.492    90330474.326        2028.320          41.000  
C23  20729577.274   107944345.913         294.904          50.000                                                                  
C09  36835948.072   191814453.247         287.050          40.000    36835936.464   148323049.581         221.963          47.000  
C33  26086242.474                       -2921.255          31.000                                                                  
C37  22894970.006   119220130.793        2703.112          43.000                                                                  
> 2025 10 27 02 49 43.8760000  0 19                     
G12  20759827.882   109093632.836         913.773          45.000    20759816.010    85007979.002         712.201          42.000  
G15  23216332.526   122002641.126       -3247.126          35.000    23216326.343    95066978.404       -2530.045          32.000  
G18  23541200.356   123709835.032       -3685.422          36.000    23541196.250    96397238.102       -2871.710          37.000  
G23  19238153.740   101097177.029       -2049.194          45.000    19238142.099    78776946.487       -1596.784          48.000  
G24  20905397.896   109858619.063       -3354.877          30.000    20905388.755                       -2614.059          31.000  
G32  20914298.660   109905381.269        1510.292          46.000    20914288.123    85640502.202        1176.719          42.000  
C08  34707507.338   180731094.677        -328.638          46.000    34707490.418   139752667.586        -254.187          49.000  
C13  34711614.901   180752483.714         -33.722          47.000    34711605.720   139769239.778         -25.903          48.000  
C16  35671951.485   185753210.159           9.297          46.000    35671941.127   143636125.006           7.116          48.000  
C25  22233591.537   115776160.150       -2527.098          36.000                                                                  
C32  21059428.791   109661975.772         889.408          50.000                                                                  
C06  35366681.706   184163593.495         188.612          44.000    35366666.401   142406908.618         145.936          47.000  
G25  20520140.780   107834081.203        2576.177          41.000    20520132.925    84026514.735        2007.461          43.000  
G10  19522735.906   102592666.423        1078.601          50.000    19522724.382    79942293.673         840.515          44.000  
G28  22059606.948   115924029.191        2602.818          40.000    22059596.698    90330393.205        2028.193          41.000  
C23  20729575.015   107944334.117         294.903          50.000                                                                  
C09  36835945.872   191814441.761         287.124          40.000    36835934.267   148323040.701         222.025          47.000  
C33  26086264.934                       -2920.819          32.000                                                                  
C37  22894949.229   119220022.691        2702.798          43.000                                                                  
> 2025 10 27 02 49 43.9160000  0 19                     
G12  20759820.926   109093596.287         913.670          45.000    20759809.044    85007950.529         711.894          42.000  
G15  23216357.250   122002771.029       -3247.588          35.000    23216351.040    95067079.585       -2529.707          32.000  
G18  23541228.410   123709982.439       -3685.267          36.000    23541224.290    96397352.970       -2871.774          37.000  
G23  19238169.334   101097258.997       -2049.213          45.000    19238157.697    78777010.362       -1596.876          48.000  
G24  20905423.400   109858753.269       -3354.967          30.000    20905414.324                       -2615.073          31.000  
G32  20914287.187   109905320.865        1510.175          46.000    20914276.621    85640455.135        1176.592          42.000  
C08  34707509.880   180731107.831        -328.754          46.000    34707492.973   139752677.754        -254.193          49.000  
C13  34711615.111   180752485.070         -33.862          47.000    34711605.956   139769240.824         -26.093          48.000  
C16  35671951.407   185753209.783           9.414          46.000    35671941.032   143636124.714           7.269          48.000  
C25  22233610.944   115776261.223       -2526.896          36.000                                                                  
C32  21059421.958   109661940.197         889.405          50.000                                                                  
C06  35366680.246   184163585.956         188.480          44.000    35366664.974   142406902.788         145.815          47.000  
G25  20520121.178   107833978.163        2576.010          41.000    20520113.332    84026434.444        2007.346          43.000  
G10  19522727.720   102592623.282        1078.558          50.000    19522716.168    79942260.058         840.375          44.000  
G28  22059587.132   115923925.091        2602.661          40.000    22059576.883    90330312.080        2028.162          41.000  
C23  20729572.723   107944322.322         294.882          50.000                                                                  
C09  36835943.644   191814430.288         286.908          40.000    36835932.064   148323031.824         221.985          47.000  
C33  26086287.321                       -2919.861          32.000                                                                  
C37  22894928.477   119219914.582        2702.712          43.000                                                                  
> 2025 10 27 02 49 43.9560000  0 19                     
G12  20759813.977   109093559.751         913.416          45.000    20759802.087    85007922.054         711.797          42.000  
G15  23216381.948   122002900.879       -3246.963          35.000    23216375.791    95067180.809       -2530.175          32.000  
G18  23541256.463   123710129.843       -3685.099          36.000    23541252.353    96397467.852       -2872.010          37.000  
G23  19238184.960   101097340.975       -2049.429          45.000    19238173.293    78777074.237       -1596.901          48.000  
G24  20905448.928   109858887.488       -3355.202          30.000    20905439.868                       -2614.228          31.000  
G32  20914275.696   109905260.460        1510.098          46.000    20914265.172    85640408.080        1176.387          42.000  
C08  34707512.422   180731120.987        -328.870          46.000    34707495.508   139752687.929        -254.333          49.000  
C13  34711615.344   180752486.429         -34.015          47.000    34711606.203   139769241.880         -26.349          48.000  
C16  35671951.355   185753209.428           9.061          46.000    35671940.961   143636124.435           7.080          48.000  
C25  22233630.406   115776362.331       -2527.377          36.000                                                                  
C32  21059415.116   109661904.630         889.217          50.000                                                                  
C06  35366678.801   184163578.407         188.553          44.000    35366663.578   142406896.952         145.831          47.000  
G25  20520101.585   107833875.128        2575.822          41.000    20520093.720    84026354.151        2007.275          43.000  
G10  19522719.507   102592580.145        1078.461          50.000    19522707.981    79942226.448         840.247          44.000  
G28  22059567.324   115923820.982        2602.698          40.000    22059557.066    90330230.962        2028.012          41.000  
C23  20729570.444   107944310.533         294.753          50.000                                                                  
C09  36835941.431   191814418.806         286.940          40.000    36835929.856   148323022.947         221.934          47.000  
C33  26086309.764                       -2919.904          32.000                                                                  
C37  22894907.726   119219806.466        2702.820          43.000                                                                  
> 2025 10 27 02 49 43.9960000  0 19                     
G12  20759807.001   109093523.200         913.578          45.000    20759795.146    85007893.575         711.856          42.000  
G15  23216406.693   122003030.775       -3247.214          35.000    23216400.510    95067282.030       -2530.541          32.000  
G18  23541284.525   123710277.264       -3685.332          36.000    23541280.403    96397582.715       -2871.820          37.000  
G23  19238200.570   101097422.955       -2049.545          45.000    19238188.907    78777138.115       -1596.968          48.000  
G24  20905474.443   109859021.707       -3355.365          30.000    20905465.382                       -2613.967          31.000  
G32  20914264.179   109905200.061        1509.992          46.000    20914253.681    85640361.019        1176.361          42.000  
C08  34707514.965   180731134.146        -328.967          46.000    34707498.070   139752698.103        -254.382          49.000  
C13  34711615.598   180752487.783         -33.960          47.000    34711606.473   139769242.932         -26.404          48.000  
C16  35671951.264   185753209.073           8.883          46.000    35671940.884   143636124.161           6.879          48.000  
C25  22233649.814   115776463.427       -2527.438          36.000                                                                  
C32  21059408.241   109661869.064         889.105          50.000                                                                  
C06  35366677.358   184163570.864         188.544          44.000    35366662.133   142406891.126         145.702          47.000  
G25  20520081.951   107833772.059        2576.330          41.000    20520074.111    84026273.845        2007.473          43.000  
G10  19522711.334   102592537.012        1078.314          50.000    19522699.771    79942192.842         840.082          44.000  
G28  22059547.509   115923716.882        2602.580          40.000    22059537.271    90330149.854        2027.739          41.000  
C23  20729568.159   107944298.747         294.640          50.000                                                                  
C09  36835939.245   191814407.333         286.848          40.000    36835927.646   148323014.075         221.821          47.000  
C33  26086332.181                       -2920.510          32.000                                                                  
C37  22894886.968   119219698.351        2702.843          43.000                                                                  
> 2025 10 27 02 49 44.0360000  0 19                     
G12  20759800.038   109093486.652         913.599          45.000    20759788.180    85007865.092         711.988          42.000  
G15  23216431.416   122003160.654       -3247.034          35.000    23216425.243    95067383.241       -2530.408          32.000  
G18  23541312.585   123710424.690       -3685.600          36.000    23541308.457    96397697.585       -2871.793          37.000  
G23  19238216.165   101097504.932       -2049.544          45.000    19238204.497    78777201.993       -1596.974          48.000  
G24  20905499.994   109859155.896       -3355.108          30.000    20905490.884                       -2614.505          31.000  
G32  20914252.675   109905139.658        1509.975          46.000    20914242.188    85640313.949        1176.607          42.000  
C08  34707517.488   180731147.294        -328.809          46.000    34707500.580   139752708.276        -254.382          49.000  
C13  34711615.868   180752489.133         -33.838          47.000    34711606.748   139769243.981         -26.355          48.000  
C16  35671951.201   185753208.714           8.856          46.000    35671940.807   143636123.883           6.864          48.000  
C25  22233669.237   115776564.532       -2527.628          36.000                                                                  
C32  21059401.435   109661833.494         889.154          50.000                                                                  
C06  35366675.940   184163563.316         188.615          44.000    35366660.688   142406885.289         145.796          47.000  
G25  20520062.330   107833669.003        2576.400          41.000    20520054.486    84026193.546        2007.483          43.000  
G10  19522703.118   102592493.877        1078.326          50.000    19522691.556    79942159.222         840.320          44.000  
G28  22059527.740   115923612.785        2602.450          40.000    22059517.456    90330068.733        2027.879          41.000  
C23  20729565.898   107944286.955         294.703          50.000                                                                  
C09  36835937.016   191814395.856         286.894          40.000    36835925.407   148323005.196         221.891          47.000  
C33  26086354.650   135838443.056       -2921.234          32.000                                                                  
C37  22894866.218   119219590.247        2702.684          43.000                                                                  
> 2025 10 27 02 49 44.0760000  0 19                     
G12  20759793.082   109093450.097         913.755          45.000    20759781.219    85007836.618         711.904          42.000  
G15  23216456.121   122003290.536       -3247.024          35.000    23216449.956    95067484.432       -2530.024          32.000  
G18  23541340.626   123710572.077       -3685.018          36.000    23541336.506    96397812.436       -2871.477          37.000  
G23  19238231.781   101097586.903       -2049.377          45.000    19238220.084    78777265.867       -1596.930          48.000  
G24  20905525.522   109859290.069       -3354.741          30.000    20905516.409                       -2614.543          31.000  
G32  20914241.184   109905079.254        1510.030          46.000    20914230.677    85640266.865        1176.966          42.000  
C08  34707519.993   180731160.459        -329.034          46.000    34707503.083   139752718.447        -254.358          49.000  
C13  34711616.111   180752490.487         -33.844          47.000    34711607.024   139769245.023         -26.154          48.000  
C16  35671951.185   185753208.344           9.056          46.000    35671940.732   143636123.603           6.907          48.000  
C25  22233688.671   115776665.640       -2527.656          36.000                                                                  
C32  21059394.634   109661797.920         889.264          50.000                                                                  
C06  35366674.473   184163555.767         188.694          44.000    35366659.251   142406879.459         145.773          47.000  
G25  20520042.725   107833565.948        2576.373          41.000    20520034.878    84026113.253        2007.386          43.000  
G10  19522694.879   102592450.737        1078.412          50.000    19522683.346    79942125.615         840.192          44.000  
G28  22059507.923   115923508.664        2602.818          40.000    22059497.630    90329987.614        2027.935          41.000  
C23  20729563.621   107944275.161         294.787          50.000                                                                  
C09  36835934.807   191814384.367         287.172          40.000    36835923.172   148322996.322         221.835          47.000  
C33  26086377.089   135838559.891       -2921.237          32.000                                                                  
C37  22894845.467   119219482.139        2702.631          43.000                                                                  
> 2025 10 27 02 49 44.1160000  0 19                     
G12  20759786.115   109093413.549         913.725          45.000    20759774.258    85007808.148         711.782          42.000  
G15  23216480.848   122003420.416       -3246.958          35.000    23216474.669    95067585.638       -2530.038          32.000  
G18  23541368.672   123710719.501       -3685.362          36.000    23541364.557    96397927.310       -2871.678          37.000  
G23  19238247.359   101097668.880       -2049.402          45.000    19238235.679    78777329.747       -1596.992          48.000  
G24  20905551.003   109859424.283       -3354.947          30.000    20905541.927                       -2614.365          31.000  
G32  20914229.680   109905018.833        1510.365          46.000    20914219.154    85640219.778        1177.183          42.000  
C08  34707522.487   180731173.614        -328.979          46.000    34707505.568   139752728.620        -254.358          49.000  
C13  34711616.379   180752491.836         -33.777          47.000    34711607.266   139769246.063         -26.013          48.000  
C16  35671951.137   185753207.972           9.225          46.000    35671940.660   143636123.320           7.021          48.000  
C25  22233708.076   115776766.715       -2527.108          36.000                                                                  
C32  21059387.780   109661762.345         889.320          50.000                                                                  
C06  35366673.034   184163548.234         188.413          44.000    35366657.790   142406873.615         146.011          47.000  
G25  20520023.122   107833462.933        2575.619          41.000    20520015.259    84026032.951        2007.498          43.000  
G10  19522686.686   102592407.603        1078.363          50.000    19522675.153    79942092.005         840.198          44.000  
G28  22059488.098   115923404.560        2602.717          40.000    22059477.824    90329906.498        2027.917          41.000  
C23  20729561.342   107944263.369         294.786          50.000                                                                  
C09  36835932.585   191814372.879         287.179          40.000    36835920.937   148322987.445         221.860          47.000  
C33  26086399.524   135838676.700       -2920.643          32.000                                                                  
C37  22894824.718   119219374.015        2702.931          43.000                                                                  
> 2025 10 27 02 49 44.1560000  0 19                     
G12  20759779.192   109093377.004         913.621          45.000    20759767.322    85007779.671         711.863          42.000  
G15  23216505.587   122003550.301       -3247.029          35.000    23216499.408    95067686.840       -2530.040          32.000  
G18  23541396.700   123710866.923       -3685.611          36.000    23541392.614    96398042.164       -2871.463          37.000  
G23  19238262.960   101097750.857       -2049.452          45.000    19238251.274    78777393.626       -1597.011          48.000  
G24  20905576.525   109859558.485       -3354.979          30.000    20905567.451                       -2613.876          31.000  
G32  20914218.171   109904958.425        1510.279          46.000    20914207.679    85640172.714        1176.824          42.000  
C08  34707525.052   180731186.771        -328.986          46.000    34707508.085   139752738.789        -254.285          48.000  
C13  34711616.635   180752493.188         -33.771          47.000    34711607.560   139769247.101         -25.916          48.000  
C16  35671951.063   185753207.617           8.997          46.000    35671940.581   143636123.025           7.292          48.000  
C25  22233727.498   115776867.797       -2526.937          36.000                                                                  
C32  21059380.926   109661726.773         889.312          50.000                                                                  
C06  35366671.558   184163540.697         188.368          44.000    35366656.333   142406867.784         145.870          47.000  
G25  20520003.519   107833359.880        2575.994          41.000    20519995.656    84025952.674        2007.097          43.000  
G10  19522678.508   102592364.472        1078.278          50.000    19522666.953    79942058.387         840.387          44.000  
G28  22059468.302   115923300.465        2602.499          40.000    22059458.010    90329825.382        2027.847          41.000  
C23  20729559.086   107944251.579         294.753          50.000                                                                  
C09  36835930.355   191814361.400         287.039          40.000    36835918.716   148322978.566         221.916          47.000  
C33  26086421.937   135838793.497       -2920.027          32.000                                                                  
C37  22894803.959   119219265.907        2702.775          43.000                                                                  
> 2025 10 27 02 49 44.1960000  0 19                     
G12  20759772.237   109093340.468         913.396          45.000    20759760.358    85007751.194         711.916          42.000  
G15  23216530.302   122003680.176       -3246.967          35.000    23216524.111    95067788.060       -2530.481          32.000  
G18  23541424.726   123711014.336       -3685.533          36.000    23541420.680    96398157.059       -2872.024          37.000  
G23  19238278.554   101097832.830       -2049.384          45.000    19238266.892    78777457.508       -1597.053          48.000  
G24  20905602.066   109859692.693       -3355.082          30.000    20905592.969                       -2614.391          31.000  
G32  20914206.682   109904898.016        1510.254          46.000    20914196.156    85640125.644        1176.755          42.000  
C08  34707527.572   180731199.925        -328.906          46.000    34707510.642   139752748.959        -254.230          48.000  
C13  34711616.892   180752494.539         -33.795          47.000    34711607.819   139769248.144         -25.995          48.000  
C16  35671950.989   185753207.255           8.966          46.000    35671940.484   143636122.748           7.067          48.000  
C25  22233746.912   115776968.897       -2527.247          36.000                                                                  
C32  21059374.087   109661691.204         889.248          50.000                                                                  
C06  35366670.097   184163533.155         188.445          44.000    35366654.881   142406861.951         145.815          47.000  
G25  20519983.893   107833256.822        2576.330          41.000    20519976.057    84025872.387        2007.095          43.000  
G10  19522670.279   102592321.333        1078.375          50.000    19522658.740    79942024.778         840.289          44.000  
G28  22059448.492   115923196.360        2602.563          40.000    22059438.173    90329744.251        2028.090          41.000  
C23  20729556.810   107944239.790         294.709          50.000                                                                  
C09  36835928.158   191814349.935         286.700          40.000    36835916.518   148322969.691         221.892          47.000  
C33  26086444.360   135838910.352       -2920.941          32.000                                                                  
C37  22894783.225   119219157.790        2702.828          43.000                                                                  
> 2025 10 27 02 49 44.2360000  0 19                     
G12  20759765.286   109093303.922         913.513          45.000    20759753.392    85007722.710         712.056          42.000  
G15  23216555.002   122003810.056       -3246.979          35.000    23216548.825    95067889.252       -2530.194          32.000  
G18  23541452.760   123711161.741       -3685.315          36.000    23541448.728    96398271.903       -2871.460          37.000  
G23  19238294.172   101097914.803       -2049.335          45.000    19238282.483    78777521.373       -1596.745          48.000  
G24  20905627.625   109859826.902       -3355.143          30.000    20905618.533    85604968.2221      -2614.287          31.000  
G32  20914195.209   109904837.614        1510.117          46.000    20914184.647    85640078.576        1176.694          42.000  
C08  34707530.129   180731213.074        -328.766          46.000    34707513.151   139752759.125        -254.175          48.000  
C13  34711617.121   180752495.889         -33.752          47.000    34711608.074   139769249.193         -26.196          48.000  
C16  35671950.953   185753206.889           9.089          46.000    35671940.420   143636122.465           7.043          48.000  
C25  22233766.340   115777070.001       -2527.480          36.000                                                                  
C32  21059367.272   109661655.632         889.274          50.000                                                                  
C06  35366668.649   184163525.596         188.795          44.000    35366653.396   142406856.115         145.823          47.000  
G25  20519964.269   107833153.775        2576.302          41.000    20519956.452    84025792.076        2007.572          43.000  
G10  19522662.071   102592278.196        1078.394          50.000    19522650.544    79941991.165         840.283          44.000  
G28  22059428.668   115923092.250        2602.757          40.000    22059418.372    90329663.121        2028.220          41.000  
C23  20729554.563   107944228.002         294.684          50.000                                                                  
C09  36835925.962   191814338.458         286.722          40.000    36835914.292   148322960.812         221.936          47.000  
C33  26086466.876   135839027.153       -2920.426          31.000                                                                  
C37  22894762.450   119219049.689        2702.616          43.000                                                                  
> 2025 10 27 02 49 44.2760000  0 19                     
G12  20759758.334   109093267.374         913.645          45.000    20759746.432    85007694.224         712.121          42.000  
G15  23216579.711   122003939.953       -3247.311          35.000    23216573.560    95067990.473       -2530.425          32.000  
G18  23541480.807   123711309.164       -3685.589          36.000    23541476.788    96398386.750       -2871.153          37.000  
G23  19238309.773   101097996.782       -2049.440          45.000    19238298.043    78777585.244       -1596.746          48.000  
G24  20905653.195   109859961.088       -3354.921          30.000    20905644.081                       -2614.436          31.000  
G32  20914183.724   109904777.207        1510.105          46.000    20914173.156    85640031.509        1176.624          42.000  
C08  34707532.660   180731226.221        -328.662          46.000    34707515.712   139752769.299        -254.279          48.000  
C13  34711617.389   180752497.240         -33.752          47.000    34711608.385   139769250.241         -26.245          48.000  
C16  35671950.918   185753206.518           9.218          46.000    35671940.362   143636122.194           6.802          48.000  
C25  22233785.774   115777171.099       -2527.417          36.000                                                                  
C32  21059360.454   109661620.052         889.434          50.000                                                                  
C06  35366667.194   184163518.053         188.680          44.000    35366651.933   142406850.285         145.746          47.000  
G25  20519944.642   107833050.733        2576.170          41.000    20519936.834    84025711.772        2007.653          43.000  
G10  19522653.863   102592235.057        1078.455          50.000    19522642.332    79941957.544         840.454          44.000  
G28  22059408.847   115922988.138        2602.791          40.000    22059398.548    90329581.994        2028.211          41.000  
C23  20729552.306   107944216.210         294.750          50.000                                                                  
C09  36835923.760   191814326.990         286.650          40.000    36835912.110   148322951.930         222.050          47.000  
C33  26086489.366   135839143.981       -2920.450          31.000                                                                  
C37  22894741.691   119218941.578        2702.692          43.000                                                                  
> 2025 10 27 02 49 44.3160000  0 19                     
G12  20759751.381   109093230.822         913.771          45.000    20759739.501    85007665.747         711.982          42.000  
G15  23216604.411   122004069.807       -3246.709          35.000    23216598.261    95068091.692       -2530.492          32.000  
G18  23541508.855   123711456.571       -3685.373          36.000    23541504.830    96398501.633       -2871.750          37.000  
G23  19238325.362   101098078.755       -2049.384          45.000    19238313.642    78777649.127       -1596.975          48.000  
G24  20905678.751   109860095.292       -3354.986          30.000    20905669.626    85605177.379       -2614.676          31.000  
G32  20914172.219   109904716.791        1510.267          46.000    20914161.652    85639984.423        1176.984          42.000  
C08  34707535.177   180731239.369        -328.680          46.000    34707518.218   139752779.470        -254.297          48.000  
C13  34711617.649   180752498.582         -33.600          47.000    34711608.663   139769251.282         -26.123          48.000  
C16  35671950.850   185753206.151           9.212          46.000    35671940.271   143636121.915           6.848          48.000  
C25  22233805.181   115777272.191       -2527.325          36.000                                                                  
C32  21059353.597   109661584.478         889.379          50.000                                                                  
C06  35366665.744   184163510.505         188.683          44.000    35366650.475   142406844.458         145.636          47.000  
G25  20519925.047   107832947.689        2576.125          41.000    20519917.214    84025631.464        2007.715          43.000  
G10  19522645.658   102592191.923        1078.363          50.000    19522634.114    79941923.931         840.381          44.000  
G28  22059389.030   115922884.033        2602.589          40.000    22059378.757    90329500.884        2027.843          41.000  
C23  20729550.077   107944204.419         294.769          50.000                                                                  
C09  36835921.556   191814315.495         287.104          40.000    36835909.919   148322943.049         222.066          47.000  
C33  26086511.771   135839260.806       -2920.486          31.000                                                                  
C37  22894720.922   119218833.451        2703.011          43.000                                                                  
> 2025 10 27 02 49 44.3560000  0 19                     
G12  20759744.442   109093194.284         913.533          45.000    20759732.569    85007637.285         711.660          42.000  
G15  23216629.160   122004199.694       -3246.927          35.000    23216622.996    95068192.882       -2529.993          32.000  
G18  23541536.911   123711603.974       -3685.207          36.000    23541532.896    96398616.490       -2871.613          37.000  
G23  19238340.963   101098160.735       -2049.483          45.000    19238329.253    78777713.008       -1597.067          48.000  
G24  20905704.254   109860229.499       -3355.082          30.000    20905695.169                       -2614.280          31.000  
G32  20914160.732   109904656.380        1510.251          46.000    20914150.168    85639937.346        1176.970          42.000  
C08  34707537.671   180731252.525        -328.845          46.000    34707520.698   139752789.641        -254.303          48.000  
C13  34711617.869   180752499.931         -33.673          47.000    34711608.915   139769252.323         -26.056          48.000  
C16  35671950.764   185753205.781           9.250          46.000    35671940.229   143636121.623           7.125          48.000  
C25  22233824.609   115777373.285       -2527.363          36.000                                                                  
C32  21059346.762   109661548.910         889.258          50.000                                                                  
C06  35366664.295   184163502.958         188.667          44.000    35366649.028   142406838.620         145.820          47.000  
G25  20519905.433   107832844.649        2575.993          41.000    20519897.597    84025551.175        2007.409          43.000  
G10  19522637.438   102592148.785        1078.400          50.000    19522625.880    79941890.318         840.320          44.000  
G28  22059369.220   115922779.912        2602.788          40.000    22059358.955    90329419.764        2027.883          41.000  
C23  20729547.796   107944192.632         294.697          50.000                                                                  
C09  36835919.339   191814303.998         287.416          40.000    36835907.723   148322934.169         222.021          47.000  
C33  26086534.224   135839377.623       -2920.378          31.000                                                                  
C37  22894700.164   119218725.336        2702.990          43.000                                                                  
> 2025 10 27 02 49 44.3960000  0 19                     
G12  20759737.487   109093157.741         913.543          45.000    20759725.611    85007608.812         711.667          42.000  
G15  23216653.903   122004329.601       -3247.443          35.000    23216647.691    95068294.060       -2529.573          32.000  
G18  23541564.939   123711751.356       -3684.736          36.000    23541560.958    96398731.352       -2871.530          37.000  
G23  19238356.568   101098242.718       -2049.606          45.000    19238344.851    78777776.892       -1597.152          48.000  
G24  20905729.797   109860363.696       -3355.031          30.000    20905720.676                       -2613.915          31.000  
G32  20914149.246   109904595.975        1510.134          46.000    20914138.674    85639890.288        1176.591          42.000  
C08  34707540.191   180731265.676        -328.821          46.000    34707523.216   139752799.809        -254.260          49.000  
C13  34711618.121   180752501.283         -33.752          47.000    34711609.199   139769253.367         -26.086          48.000  
C16  35671950.687   185753205.421           9.042          46.000    35671940.132   143636121.336           7.185          48.000  
C25  22233844.041   115777474.381       -2527.400          36.000                                                                  
C32  21059339.937   109661513.340         889.214          50.000                                                                  
C06  35366662.847   184163495.412         188.591          44.000    35366647.618   142406832.776         146.016          47.000  
G25  20519885.813   107832741.591        2576.313          41.000    20519877.987    84025470.881        2007.336          43.000  
G10  19522629.254   102592105.654        1078.290          50.000    19522617.689    79941856.716         840.076          44.000  
G28  22059349.426   115922675.830        2602.260          40.000    22059339.128    90329338.647        2027.827          41.000  
C23  20729545.522   107944180.845         294.645          50.000                                                                  
C09  36835917.150   191814292.513         287.270          40.000    36835905.514   148322925.292         221.945          47.000  
C33  26086556.637   135839494.461       -2920.875          31.000                                                                  
C37  22894679.405   119218617.232        2702.722          43.000                                                                  
> 2025 10 27 02 49 44.4360000  0 19                     
G12  20759730.536   109093121.196         913.592          45.000    20759718.662    85007580.334         711.801          42.000  
G15  23216678.607   122004459.441       -3246.535          35.000    23216672.409    95068395.257       -2529.652          32.000  
G18  23541592.973   123711898.765       -3684.948          36.000    23541589.006    96398846.219       -2871.679          37.000  
G23  19238372.145   101098324.696       -2049.568          45.000    19238360.437    78777840.771       -1597.078          48.000  
G24  20905755.345   109860497.896       -3355.017          30.000    20905746.204    85605491.077       -2614.513          31.000  
G32  20914137.743   109904535.563        1510.234          46.000    20914127.198    85639843.220        1176.619          42.000  
C08  34707542.705   180731278.829        -328.827          46.000    34707525.719   139752809.978        -254.236          49.000  
C13  34711618.362   180752502.629         -33.679          47.000    34711609.476   139769254.413         -26.135          48.000  
C16  35671950.601   185753205.064           8.910          46.000    35671940.064   143636121.049           7.221          48.000  
C25  22233863.445   115777575.477       -2527.443          36.000                                                                  
C32  21059333.077   109661477.773         889.152          50.000                                                                  
C06  35366661.383   184163487.865         188.622          44.000    35366646.147   142406826.946         145.870          47.000  
G25  20519866.206   107832638.552        2576.133          41.000    20519858.378    84025390.592        2007.230          43.000  
G10  19522621.034   102592062.521        1078.296          50.000    19522609.502    79941823.114         839.978          44.000  
G28  22059329.608   115922571.724        2602.400          40.000    22059319.299    90329257.528        2027.897          41.000  
C23  20729543.262   107944169.057         294.641          50.000                                                                  
C09  36835914.954   191814281.038         286.987          40.000    36835903.301   148322916.419         221.820          47.000  
C33  26086579.050   135839611.273       -2920.536          32.000                                                                  
C37  22894658.648   119218509.116        2702.786          43.000                                                                  
> 2025 10 27 02 49 44.4760000  0 19                     
G12  20759723.582   109093084.645         913.714          45.000    20759711.702    85007551.854         711.944          42.000  
G15  23216703.295   122004589.308       -3246.476          35.000    23216697.106    95068496.433       -2529.329          32.000  
G18  23541621.031   123712046.168       -3685.066          36.000    23541617.060    96398961.085       -2871.711          37.000  
G23  19238387.746   101098406.671       -2049.451          45.000    19238376.044    78777904.643       -1596.911          48.000  
G24  20905780.903   109860632.094       -3354.973          30.000    20905771.739    85605595.619       -2613.980          31.000  
G32  20914126.257   109904475.151        1510.265          46.000    20914115.701    85639796.139        1176.855          42.000  
C08  34707545.254   180731291.977        -328.729          46.000    34707528.252   139752820.145        -254.187          49.000  
C13  34711618.608   180752503.980         -33.759          47.000    34711609.737   139769255.454         -26.080          48.000  
C16  35671950.549   185753204.689           9.178          46.000    35671939.987   143636120.766           7.147          48.000  
C25  22233882.863   115777676.582       -2527.621          36.000                                                                  
C32  21059326.273   109661442.194         889.326          50.000                                                                  
C06  35366659.973   184163480.317         188.663          44.000    35366644.713   142406821.096         146.121          47.000  
G25  20519846.603   107832535.500        2576.237          41.000    20519838.768    84025310.302        2007.212          43.000  
G10  19522612.814   102592019.388        1078.278          50.000    19522601.290    79941789.499         840.216          44.000  
G28  22059309.799   115922467.621        2602.451          40.000    22059299.458    90329176.385        2028.389          41.000  
C23  20729541.023   107944157.266         294.699          50.000                                                                  
C09  36835912.746   191814269.559         286.978          40.000    36835901.085   148322907.541         221.865          47.000  
C33  26086601.476   135839728.079       -2920.248          31.000                                                                  
C37  22894637.907   119218401.008        2702.665          43.000                                                                  
> 2025 10 27 02 49 44.5160000  0 19                     
G12  20759716.632   109093048.116         913.340          45.000    20759704.744    85007523.387         711.745          42.000  
G15  23216727.980   122004719.208       -3247.183          35.000    23216721.827    95068597.682       -2530.542          32.000  
G18  23541649.096   123712193.608       -3685.777          36.000    23541645.115    96399075.934       -2871.414          37.000  
G23  19238403.355   101098488.650       -2049.488          45.000    19238391.664    78777968.529       -1597.090          48.000  
G24  20905806.451   109860766.302       -3355.075          30.000    20905797.275    85605700.193       -2614.157          31.000  
G32  20914114.784   109904414.746        1510.155          46.000    20914104.216    85639749.056        1177.072          42.000  
C08  34707547.796   180731305.128        -328.772          46.000    34707530.791   139752830.318        -254.279          49.000  
C13  34711618.849   180752505.336         -33.905          47.000    34711610.027   139769256.499         -26.135          48.000  
C16  35671950.504   185753204.320           9.206          46.000    35671939.917   143636120.486           7.033          48.000  
C25  22233902.258   115777777.675       -2527.466          36.000                                                                  
C32  21059319.415   109661406.623         889.299          50.000                                                                  
C06  35366658.555   184163472.778         188.505          44.000    35366643.263   142406815.268         145.864          47.000  
G25  20519826.969   107832432.436        2576.550          41.000    20519819.148    84025230.010        2007.238          43.000  
G10  19522604.588   102591976.254        1078.296          50.000    19522593.085    79941755.883         840.363          44.000  
G28  22059289.988   115922363.503        2602.730          40.000    22059279.651    90329095.270        2028.062          41.000  
C23  20729538.769   107944145.478         294.672          50.000                                                                  
C09  36835910.560   191814258.077         286.978          40.000    36835898.890   148322898.662         221.923          47.000  
C33  26086623.892   135839844.904       -2920.570          31.000                                                                  
C37  22894617.190   119218292.894        2702.753          43.000                                                                  
> 2025 10 27 02 49 44.5560000  0 19                     
G12  20759709.669   109093011.579         913.335          45.000    20759697.788    85007494.917         711.709          42.000  
G15  23216752.699   122004849.104       -3247.423          35.000    23216746.553    95068698.884       -2530.388          32.000  
G18  23541677.175   123712341.008       -3685.455          36.000    23541673.170    96399190.814       -2871.854          37.000  
G23  19238418.959   101098570.630       -2049.543          45.000    19238407.251    78778032.411       -1597.127          48.000  
G24  20905832.001   109860900.515       -3355.207          30.000    20905822.819    85605804.773       -2614.277          31.000  
G32  20914103.281   109904354.328        1510.325          46.000    20914092.724    85639701.985        1176.889          42.000  
C08  34707550.320   180731318.279        -328.772          46.000    34707533.358   139752840.487        -254.279          49.000  
C13  34711619.122   180752506.682         -33.789          47.000    34711610.290   139769257.544         -26.160          48.000  
C16  35671950.467   185753203.949           9.242          46.000    35671939.859   143636120.206           6.951          48.000  
C25  22233921.683   115777878.746       -2526.998          36.000                                                                  
C32  21059312.592   109661371.043         889.419          50.000                                                                  
C06  35366657.115   184163465.233         188.528          44.000    35366641.850   142406809.434         145.834          47.000  
G25  20519807.364   107832329.410        2575.979          41.000    20519799.536    84025149.715        2007.290          43.000  
G10  19522596.398   102591933.131        1078.113          50.000    19522584.877    79941722.271         840.363          44.000  
G28  22059270.173   115922259.392        2602.830          40.000    22059259.833    90329014.153        2027.887          41.000  
C23  20729536.468   107944133.692         294.628          50.000                                                                  
C09  36835908.360   191814246.599         287.000          40.000    36835896.685   148322889.783         221.967          47.000  
C33  26086646.347   135839961.729       -2920.561          31.000                                                                  
C37  22894596.430   119218184.780        2702.800          43.000                                                                  
> 2025 10 27 02 49 44.5960000  0 19                     
G12  20759702.717   109092975.046         913.288          45.000    20759690.828    85007466.438         711.854          42.000  
G15  23216777.419   122004978.974       -3247.130          35.000    23216771.282    95068800.108       -2530.642          32.000  
G18  23541705.230   123712488.400       -3684.919          36.000    23541701.219    96399305.648       -2871.261          37.000  
G23  19238434.564   101098652.619       -2049.716          45.000    19238422.819    78778096.289       -1597.028          48.000  
G24  20905857.536   109861034.699       -3354.992          30.000    20905848.360    85605909.421       -2615.740          31.000  
G32  20914091.796   109904293.921        1510.231          46.000    20914081.222    85639654.920        1176.668          42.000  
C08  34707552.849   180731331.431        -328.802          46.000    34707535.888   139752850.660        -254.321          49.000  
C13  34711619.397   180752508.028         -33.691          47.000    34711610.561   139769258.584         -26.062          48.000  
C16  35671950.391   185753203.588           9.069          46.000    35671939.797   143636119.918           7.079          48.000  
C25  22233941.096   115777979.856       -2527.406          36.000                                                                  
C32  21059305.739   109661335.476         889.232          50.000                                                                  
C06  35366655.645   184163457.682         188.668          44.000    35366640.407   142406803.606         145.684          47.000  
G25  20519787.745   107832226.371        2575.810          41.000    20519779.903    84025069.408        2007.543          43.000  
G10  19522588.195   102591890.001        1078.131          50.000    19522576.668    79941688.665         840.216          44.000  
G28  22059250.384   115922155.294        2602.629          40.000    22059240.019    90328933.040        2027.783          41.000  
C23  20729534.201   107944121.912         294.500          50.000                                                                  
C09  36835906.178   191814235.121         286.910          40.000    36835894.456   148322880.902         221.978          47.000  
C33  26086668.803   135840078.533       -2920.181          31.000                                                                  
C37  22894575.676   119218076.665        2702.829          43.000                                                                  
> 2025 10 27 02 49 44.6360000  0 19                     
G12  20759695.737   109092938.502         913.480          45.000    20759683.852    85007437.972         711.703          42.000  
G15  23216802.131   122005108.841       -3246.788          35.000    23216795.976    95068901.294       -2530.105          32.000  
G18  23541733.272   123712635.822       -3685.270          36.000    23541729.275    96399420.520       -2871.630          37.000  
G23  19238450.136   101098734.597       -2049.598          45.000    19238438.440    78778160.171       -1597.065          48.000  
G24  20905883.068   109861168.885       -3354.841          30.000    20905873.902                       -2614.674          31.000  
G32  20914080.301   109904233.514        1510.167          46.000    20914069.735    85639607.855        1176.535          42.000  
C08  34707555.389   180731344.584        -328.857          46.000    34707538.422   139752860.827        -254.248          49.000  
C13  34711619.690   180752509.376         -33.679          47.000    34711610.810   139769259.629         -26.117          48.000  
C16  35671950.307   185753203.224           9.054          46.000    35671939.736   143636119.635           7.064          48.000  
C25  22233960.532   115778080.936       -2527.122          36.000                                                                  
C32  21059298.871   109661299.910         889.143          50.000                                                                  
C06  35366654.195   184163450.135         188.678          44.000    35366638.957   142406797.770         145.776          47.000  
G25  20519768.153   107832123.328        2575.858          41.000    20519760.303    84024989.121        2007.275          43.000  
G10  19522579.963   102591846.872        1078.174          50.000    19522568.463    79941655.057         840.179          44.000  
G28  22059230.580   115922051.189        2602.553          40.000    22059220.198    90328851.929        2027.679          41.000  
C23  20729531.954   107944110.129         294.478          50.000                                                                  
C09  36835903.961   191814223.631         287.091          40.000    36835892.271   148322872.018         222.053          47.000  
C33  26086691.270   135840195.341       -2920.121          31.000                                                                  
C37  22894554.924   119217968.571        2702.498          43.000                                                                  
> 2025 10 27 02 49 44.6760000  0 19                     
G12  20759688.793   109092901.961         913.508          45.000    20759676.906    85007409.498         711.757          42.000  
G15  23216826.850   122005238.714       -3246.765          35.000    23216820.692    95069002.497       -2530.115          32.000  
G18  23541761.313   123712783.205       -3684.796          36.000    23541757.344    96399535.397       -2871.927          37.000  
G23  19238465.729   101098816.582       -2049.641          45.000    19238454.067    78778224.059       -1597.182          48.000  
G24  20905908.572   109861303.097       -3355.039          30.000    20905899.400                       -2614.012          31.000  
G32  20914068.800   109904173.108        1510.123          46.000    20914058.241    85639560.787        1176.561          42.000  
C08  34707557.885   180731357.741        -328.955          46.000    34707540.905   139752870.999        -254.309          49.000  
C13  34711619.965   180752510.728         -33.795          47.000    34711611.074   139769260.676         -26.184          48.000  
C16  35671950.270   185753202.863           9.005          46.000    35671939.650   143636119.357           6.980          48.000  
C25  22233979.947   115778182.067       -2527.886          36.000                                                                  
C32  21059292.041   109661264.340         889.146          50.000                                                                  
C06  35366652.738   184163442.590         188.610          44.000    35366637.496   142406791.942         145.740          47.000  
G25  20519748.547   107832020.292        2575.834          41.000    20519740.718    84024908.828        2007.251          43.000  
G10  19522571.742   102591803.745        1078.162          50.000    19522560.273    79941621.457         840.015          44.000  
G28  22059210.769   115921947.100        2602.250          40.000    22059200.413    90328770.814        2027.731          41.000  
C23  20729529.689   107944098.350         294.435          50.000                                                                  
C09  36835901.738   191814212.151         287.061          40.000    36835890.059   148322863.144         221.926          47.000  
C33  26086713.693   135840312.160       -2920.280          31.000                                                                  
C37  22894534.162   119217860.459        2702.642          43.000                                                                  
> 2025 10 27 02 49 44.7160000  0 19                     
G12  20759681.855   109092865.440         913.158          45.000    20759669.934    85007381.029         711.705          42.000  
G15  23216851.557   122005368.601       -3247.000          35.000    23216845.397    95069103.697       -2530.189          32.000  
G18  23541789.363   123712930.623       -3685.107          36.000    23541785.389    96399650.270       -2872.010          37.000  
G23  19238481.342   101098898.574       -2049.789          45.000    19238469.691    78778287.949       -1597.268          48.000  
G24  20905934.111   109861437.276       -3354.591          30.000    20905924.913                       -2613.296          31.000  
G32  20914057.312   109904112.706        1510.036          46.000    20914046.755    85639513.717        1176.636          42.000  
C08  34707560.380   180731370.896        -328.955          46.000    34707543.399   139752881.175        -254.413          49.000  
C13  34711620.214   180752512.080         -33.832          47.000    34711611.364   139769261.723         -26.215          48.000  
C16  35671950.216   185753202.501           9.000          46.000    35671939.581   143636119.081           6.911          48.000  
C25  22233999.373   115778283.174       -2527.822          36.000                                                                  
C32  21059285.219   109661228.774         889.103          50.000                                                                  
C06  35366651.294   184163435.047         188.557          44.000    35366636.023   142406786.106         145.840          47.000  
G25  20519728.943   107831917.251        2575.923          41.000    20519721.128    84024828.544        2007.120          43.000  
G10  19522563.487   102591760.615        1078.192          50.000    19522552.081    79941587.858         839.935          44.000  
G28  22059190.956   115921842.989        2602.577          40.000    22059180.602    90328689.690        2027.949          41.000  
C23  20729527.420   107944086.569         294.438          50.000                                                                  
C09  36835899.541   191814200.673         287.004          40.000    36835887.854   148322854.274         221.783          47.000  
C33  26086736.143   135840428.991       -2920.544          31.000                                                                  
C37  22894513.400   119217752.351        2702.670          43.000                                                                  
> 2025 10 27 02 49 44.7560000  0 19                     
G12  20759674.920   109092828.908         913.177          45.000    20759662.998    85007352.574         711.443          42.000  
G15  23216876.270   122005498.526       -3247.870          35.000    23216870.135    95069204.911       -2530.453          32.000  
G18  23541817.393   123713078.037       -3685.279          36.000    23541813.435    96399765.129       -2871.779          37.000  
G23  19238496.913   101098980.562       -2049.788          45.000    19238485.298    78778351.836       -1597.267          48.000  
G24  20905959.642   109861571.519       -3355.501          30.000    20905950.424                       -2613.799          31.000  
G32  20914045.819   109904052.295        1510.153          46.000    20914035.259    85639466.651        1176.617          42.000  
C08  34707562.906   180731384.056        -329.034          46.000    34707545.944   139752891.345        -254.333          49.000  
C13  34711620.477   180752513.430         -33.850          47.000    34711611.634   139769262.769         -26.190          48.000  
C16  35671950.128   185753202.130           9.152          46.000    35671939.496   143636118.798           6.972          48.000  
C25  22234018.769   115778384.274       -2527.568          36.000                                                                  
C32  21059278.422   109661193.207         889.131          50.000                                                                  
C06  35366649.844   184163427.509         188.456          44.000    35366634.550   142406780.271         145.820          47.000  
G25  20519709.351   107831814.203        2576.120          41.000    20519701.504    84024748.249        2007.256          43.000  
G10  19522555.302   102591717.490        1078.113          50.000    19522543.869    79941554.255         839.978          44.000  
G28  22059171.163   115921738.889        2602.513          40.000    22059160.784    90328608.568        2028.029          41.000  
C23  20729525.184   107944074.790         294.432          50.000                                                                  
C09  36835897.333   191814189.186         287.124          40.000    36835885.681   148322845.400         221.773          47.000  
C33  26086758.582   135840545.855       -2921.210          31.000                                                                  
C37  22894492.647   119217644.242        2702.666          43.000                                                                  
> 2025 10 27 02 49 44.7960000  0 19                     
G12  20759667.956   109092792.373         913.271          45.000    20759656.021    85007324.112         711.443          42.000  
G15  23216900.989   122005628.392       -3247.295          35.000    23216894.860    95069306.144       -2530.840          32.000  
G18  23541845.452   123713225.444       -3685.264          36.000    23541841.478    96399879.971       -2871.276          37.000  
G23  19238512.533   101099062.555       -2049.831          45.000    19238500.871    78778415.722       -1597.193          48.000  
G24  20905985.219   109861705.748       -3355.785          30.000    20905975.963                       -2614.794          31.000  
G32  20914034.299   109903991.881        1510.270          46.000    20914023.768    85639419.563        1177.053          42.000  
C08  34707565.467   180731397.210        -328.973          46.000    34707548.508   139752901.512        -254.242          49.000  
C13  34711620.754   180752514.785         -33.917          47.000    34711611.863   139769263.811         -26.086          48.000  
C16  35671950.072   185753201.768           9.056          46.000    35671939.417   143636118.515           7.052          48.000  
C25  22234038.189   115778485.371       -2527.359          36.000                                                                  
C32  21059271.614   109661157.639         889.157          50.000                                                                  
C06  35366648.372   184163419.962         188.582          44.000    35366633.069   142406774.434         145.886          47.000  
G25  20519689.736   107831711.161        2576.123          41.000    20519681.885    84024667.952        2007.388          43.000  
G10  19522547.129   102591674.368        1078.015          50.000    19522535.640    79941520.652         840.021          44.000  
G28  22059151.351   115921634.795        2602.370          40.000    22059140.954    90328527.456        2027.917          41.000  
C23  20729522.917   107944063.012         294.408          50.000                                                                  
C09  36835895.094   191814177.717         286.885          40.000    36835883.454   148322836.529         221.762          47.000  
C33  26086780.992   135840662.675       -2920.769          31.000                                                                  
C37  22894471.879   119217536.132        2702.721          43.000                                                                  
> 2025 10 27 02 49 44.8360000  0 19                     
G12  20759660.992   109092755.835         913.389          45.000    20759649.069    85007295.640         711.654          42.000  
G15  23216925.705   122005758.212       -3246.064          35.000    23216919.585    95069407.319       -2530.023          32.000  
G18  23541873.509   123713372.861       -3685.354          36.000    23541869.536    96399994.828       -2871.279          37.000  
G23  19238528.121   101099144.543       -2049.762          45.000    19238516.471    78778479.602       -1597.070          48.000  
G24  20906010.755   109861839.943       -3355.289          30.000    20906001.515                       -2615.136          31.000  
G32  20914022.804   109903931.470        1510.313          46.000    20914012.264    85639372.489        1176.986          42.000  
C08  34707567.996   180731410.354        -328.711          46.000    34707551.028   139752911.681        -254.211          49.000  
C13  34711621.008   180752516.131         -33.752          47.000    34711612.141   139769264.848         -25.958          48.000  
C16  35671950.021   185753201.397           9.188          46.000    35671939.333   143636118.224           7.233          48.000  
C25  22234057.599   115778586.453       -2527.071          36.000                                                                  
C32  21059264.826   109661122.067         889.248          50.000                                                                  
C06  35366646.909   184163412.417         188.618          44.000    35366631.611   142406768.602         145.813          47.000  
G25  20519670.141   107831608.123        2576.015          41.000    20519662.267    84024587.670        2007.188          43.000  
G10  19522538.909   102591631.241        1078.082          50.000    19522527.427    79941487.039         840.210          44.000  
G28  22059131.544   115921530.705        2602.184          40.000    22059121.142    90328446.328        2028.128          41.000  
C23  20729520.658   107944051.228         294.507          50.000                                                                  
C09  36835892.895   191814166.228         287.171          40.000    36835881.226   148322827.645         221.970          47.000  
C33  26086803.387                       -2919.657          31.000                                                                  
C37  22894451.114   119217428.015        2702.854          43.000                                                                  
> 2025 10 27 02 49 44.8760000  0 19                     
G12  20759654.030   109092719.292         913.521          45.000    20759642.113    85007267.162         711.871          42.000  
G15  23216950.430   122005888.110       -3246.758          35.000    23216944.304    95069508.477       -2529.144          32.000  
G18  23541901.563   123713520.256       -3685.012          36.000    23541897.581    96400109.673       -2871.069          37.000  
G23  19238543.712   101099226.521       -2049.541          45.000    19238532.070    78778543.484       -1597.033          48.000  
G24  20906036.305   109861974.122       -3354.793          30.000    20906027.077                       -2614.930          31.000  
G32  20914011.309   109903871.058        1510.324          46.000    20914000.772    85639325.419        1176.833          42.000  
C08  34707570.525   180731423.495        -328.552          46.000    34707553.582   139752921.851        -254.236          49.000  
C13  34711621.265   180752517.480         -33.710          47.000    34711612.409   139769265.887         -25.928          48.000  
C16  35671949.946   185753201.026           9.250          46.000    35671939.295   143636117.935           7.238          48.000  
C25  22234076.978   115778687.543       -2527.085          36.000                                                                  
C32  21059257.998   109661086.486         889.464          50.000                                                                  
C06  35366645.463   184163404.857         188.912          44.000    35366630.131   142406762.759         145.972          47.000  
G25  20519650.542   107831505.079        2576.075          41.000    20519642.654    84024507.378        2007.229          43.000  
G10  19522530.670   102591588.112        1078.192          50.000    19522519.224    79941453.432         840.204          44.000  
G28  22059111.728   115921426.603        2602.366          40.000    22059101.325    90328365.202        2028.201          41.000  
C23  20729518.415   107944039.447         294.505          50.000                                                                  
C09  36835890.706   191814154.733         287.355          40.000    36835878.985   148322818.753         222.250          47.000  
C33  26086825.810   135840896.234       -2919.303          31.000                                                                  
C37  22894430.373   119217319.896        2703.002          43.000                                                                  
> 2025 10 27 02 49 44.9160000  0 19                     
G12  20759647.099   109092682.758         913.433          45.000    20759635.148    85007238.684         711.919          42.000  
G15  23216975.164   122006017.979       -3246.592          35.000    23216969.002    95069609.698       -2529.930          32.000  
G18  23541929.624   123713667.628       -3684.426          36.000    23541925.631    96400224.554       -2871.722          37.000  
G23  19238559.316   101099308.500       -2049.468          45.000    19238547.707    78778607.373       -1597.157          48.000  
G24  20906061.849   109862108.322       -3354.876          30.000    20906052.631                       -2613.793          31.000  
G32  20913999.810   109903810.652        1510.212          46.000    20913989.264    85639278.342        1176.871          42.000  
C08  34707573.043   180731436.646        -328.674          46.000    34707556.106   139752932.023        -254.285          49.000  
C13  34711621.513   180752518.823         -33.588          47.000    34711612.652   139769266.927         -25.952          48.000  
C16  35671949.861   185753200.661           9.155          46.000    35671939.232   143636117.658           7.033          48.000  
C25  22234096.419   115778788.646       -2527.401          36.000                                                                  
C32  21059251.163   109661050.915         889.376          50.000                                                                  
C06  35366644.033   184163397.309         188.823          44.000    35366628.694   142406756.918         146.034          47.000  
G25  20519630.910   107831402.033        2576.105          41.000    20519623.050    84024427.079        2007.378          43.000  
G10  19522522.459   102591544.985        1078.210          50.000    19522511.013    79941419.840         839.911          44.000  
G28  22059091.908   115921322.491        2602.640          40.000    22059081.497    90328284.081        2028.087          41.000  
C23  20729516.169   107944027.662         294.582          50.000                                                                  
C09  36835888.525   191814143.247         287.315          40.000    36835876.772   148322809.877         222.077          47.000  
C33  26086848.278                       -2920.927          31.000                                                                  
C37  22894409.605   119217211.788        2702.820          43.000                                                                  
> 2025 10 27 02 49 44.9560000  0 19                     
G12  20759640.145   109092646.229         913.264          45.000    20759628.207    85007210.217         711.761          42.000  
G15  23216999.893   122006147.894       -3247.485          35.000    23216993.716    95069710.934       -2530.729          32.000  
G18  23541957.660   123713815.025       -3684.719          36.000    23541953.689    96400339.426       -2871.824          37.000  
G23  19238574.933   101099390.487       -2049.598          45.000    19238563.313    78778671.258       -1597.163          48.000  
G24  20906087.395   109862242.538       -3355.111          30.000    20906078.157                       -2614.083          31.000  
G32  20913988.305   109903750.239        1510.278          46.000    20913977.780    85639231.264        1176.956          42.000  
C08  34707575.535   180731449.798        -328.790          46.000    34707558.611   139752942.190        -254.230          49.000  
C13  34711621.794   180752520.164         -33.496          47.000    34711612.925   139769267.973         -26.099          48.000  
C16  35671949.806   185753200.289           9.214          46.000    35671939.171   143636117.373           7.061          48.000  
C25  22234115.836   115778889.769       -2527.967          36.000                                                                  
C32  21059244.315   109661015.344         889.310          50.000                                                                  
C06  35366642.584   184163389.753         188.864          44.000    35366627.222   142406751.084         145.889          47.000  
G25  20519611.316   107831298.998        2575.988          41.000    20519603.425    84024346.781        2007.438          43.000  
G10  19522514.253   102591501.859        1078.168          50.000    19522502.800    79941386.235         839.978          44.000  
G28  22059072.101   115921218.364        2603.074          40.000    22059061.703    90328202.966        2027.900          41.000  
C23  20729513.912   107944015.881         294.547          50.000                                                                  
C09  36835886.321   191814131.763         287.188          40.000    36835874.577   148322801.003         221.899          47.000  
C33  26086870.726                       -2921.285          31.000                                                                  
C37  22894388.817   119217103.687        2702.589          43.000                                                                  
> 2025 10 27 02 49 44.9960000  0 19                     
G12  20759633.212   109092609.698         913.241          45.000    20759621.265    85007181.765         711.406          42.000  
G15  23217024.612   122006277.777       -3247.365          35.000    23217018.416    95069812.111       -2530.040          32.000  
G18  23541985.742   123713962.449       -3685.306          36.000    23541981.733    96400454.262       -2871.235          37.000  
G23  19238590.540   101099472.477       -2049.752          45.000    19238578.910    78778735.146       -1597.243          48.000  
G24  20906112.937   109862376.728       -3354.853          30.000    20906103.695                       -2615.105          31.000  
G32  20913976.794   109903689.824        1510.342          46.000    20913966.299    85639184.196        1176.779          42.000  
C08  34707578.051   180731462.950        -328.827          46.000    34707561.122   139752952.359        -254.230          49.000  
C13  34711622.046   180752521.512         -33.612          47.000    34711613.174   139769269.017         -26.135          48.000  
C16  35671949.750   185753199.917           9.285          46.000    35671939.102   143636117.091           7.043          48.000  
C25  22234135.237   115778990.872       -2527.823          36.000                                                                  
C32  21059237.454   109660979.778         889.182          50.000                                                                  
C06  35366641.151   184163382.212         188.638          44.000    35366625.791   142406745.251         145.790          47.000  
G25  20519591.701   107831195.959        2575.985          41.000    20519583.830    84024266.489        2007.365          43.000  
G10  19522506.056   102591458.734        1078.137          50.000    19522494.590    79941352.627         840.082          44.000  
G28  22059052.303   115921114.267        2602.670          40.000    22059041.898    90328121.855        2027.753          41.000  
C23  20729511.606   107944004.101         294.482          50.000                                                                  
C09  36835884.109   191814120.305         286.635          40.000    36835872.370   148322792.124         221.889          47.000  
C33  26086893.144                       -2920.509          31.000                                                                  
C37  22894368.021   119216995.579        2702.603          43.000                                                                  
> 2025 10 27 02 49 45.0360000  0 19                     
G12  20759626.243   109092573.170         913.159          45.000    20759614.316    85007153.313         711.236          42.000  
G15  23217049.324   122006407.638       -3246.736          35.000    23217043.155    95069913.311       -2529.958          32.000  
G18  23542013.803   123714109.851       -3685.194          36.000    23542009.773    96400569.110       -2871.144          37.000  
G23  19238606.150   101099554.468       -2049.825          45.000    19238594.495    78778799.034       -1597.243          48.000  
G24  20906138.476   109862510.897       -3354.479          30.000    20906129.221                       -2614.202          31.000  
G32  20913965.297   109903629.412        1510.340          46.000    20913954.826    85639137.136        1176.543          42.000  
C08  34707580.560   180731476.110        -329.010          46.000    34707563.636   139752962.528        -254.230          49.000  
C13  34711622.301   180752522.867         -33.826          47.000    34711613.403   139769270.059         -26.111          48.000  
C16  35671949.692   185753199.556           9.122          46.000    35671939.042   143636116.804           7.118          48.000  
C25  22234154.621   115779091.969       -2527.575          36.000                                                                  
C32  21059230.634   109660944.206         889.210          50.000                                                                  
C06  35366639.704   184163374.674         188.458          44.000    35366624.358   142406739.418         145.742          47.000  
G25  20519572.102   107831092.928        2575.823          41.000    20519564.253    84024186.215        2006.986          43.000  
G10  19522497.844   102591415.609        1078.125          50.000    19522486.367    79941319.018         840.167          44.000  
G28  22059032.474   115921010.183        2602.237          40.000    22059022.073    90328040.735        2027.879          41.000  
C23  20729509.311   107943992.326         294.368          50.000                                                                  
C09  36835881.900   191814108.833         286.616          40.000    36835870.164   148322783.248         221.878          47.000  
C33  26086915.579                       -2920.514          31.000                                                                  
C37  22894347.268   119216887.457        2702.866          43.000                                                                  
> 2025 10 27 02 49 45.0760000  0 19                     
G12  20759619.289   109092536.639         913.182          45.000    20759607.357    85007124.849         711.399          42.000  
G15  23217074.013   122006537.506       -3246.666          35.000    23217067.878    95070014.510       -2530.009          32.000  
G18  23542041.858   123714257.259       -3685.198          36.000    23542037.827    96400683.968       -2871.358          37.000  
G23  19238621.766   101099636.465       -2049.960          45.000    19238610.063    78778862.923       -1597.254          48.000  
G24  20906164.015                       -3355.096          30.000    20906154.745                       -2614.943          31.000  
G32  20913953.804   109903569.002        1510.287          46.000    20913943.313    85639090.061        1176.697          42.000  
C08  34707583.103   180731489.260        -328.864          46.000    34707566.170   139752972.699        -254.279          49.000  
C13  34711622.564   180752524.222         -33.917          47.000    34711613.653   139769271.101         -26.123          48.000  
C16  35671949.623   185753199.194           9.047          46.000    35671938.994   143636116.525           7.019          48.000  
C25  22234174.052   115779193.059       -2527.335          36.000                                                                  
C32  21059223.797   109660908.641         889.108          50.000                                                                  
C06  35366638.248   184163367.132         188.433          44.000    35366622.927   142406733.586         145.719          47.000  
G25  20519552.508   107830989.889        2575.894          41.000    20519544.622    84024105.926        2007.080          43.000  
G10  19522489.615   102591372.481        1078.149          50.000    19522478.164    79941285.408         840.210          44.000  
G28  22059012.665   115920906.077        2602.458          40.000    22059002.273    90327959.620        2027.874          41.000  
C23  20729506.999   107943980.551         294.332          50.000                                                                  
C09  36835879.701   191814097.341         287.034          40.000    36835867.988   148322774.368         221.909          47.000  
C33  26086937.999                       -2920.264          31.000                                                                  
C37  22894326.506   119216779.358        2702.637          43.000                                                                  
> 2025 10 27 02 49 45.1160000  0 19                     
G12  20759612.340   109092500.119         913.015          45.000    20759600.392    85007096.381         711.581          42.000  
G15  23217098.741   122006667.384       -3246.777          35.000    23217092.631    95070115.737       -2530.403          32.000  
G18  23542069.925   123714404.669       -3685.236          36.000    23542065.877    96400798.849       -2871.893          37.000  
G23  19238637.367   101099718.465       -2050.064          45.000    19238625.671    78778926.810       -1597.205          48.000  
G24  20906189.555   109862779.332       -3355.322          30.000    20906180.269                       -2614.627          31.000  
G32  20913942.314   109903508.600        1510.113          46.000    20913931.787    85639042.985        1176.821          42.000  
C08  34707585.661   180731502.413        -328.821          46.000    34707568.681   139752982.871        -254.327          49.000  
C13  34711622.849   180752525.567         -33.771          47.000    34711613.916   139769272.144         -26.111          48.000  
C16  35671949.554   185753198.839           8.872          46.000    35671938.935   143636116.243           7.020          48.000  
C25  22234193.470   115779294.149       -2527.219          36.000                                                                  
C32  21059216.956   109660873.082         888.983          50.000                                                                  
C06  35366636.807   184163359.580         188.651          44.000    35366621.480   142406727.744         145.906          47.000  
G25  20519532.877   107830886.846        2576.024          41.000    20519525.012    84024025.648        2006.955          43.000  
G10  19522481.433   102591329.367        1077.893          50.000    19522469.960    79941251.811         839.990          44.000  
G28  22058992.855   115920801.974        2602.521          40.000    22058982.473    90327878.502        2027.955          41.000  
C23  20729504.701   107943968.779         294.258          50.000                                                                  
C09  36835877.468   191814085.865         286.956          40.000    36835865.782   148322765.495         221.828          47.000  
C33  26086960.430                       -2920.797          31.000                                                                  
C37  22894305.746   119216671.254        2702.589          43.000                                                                  
> 2025 10 27 02 49 45.1560000  0 19                     
G12  20759605.379   109092463.590         913.078          45.000    20759593.442    85007067.908         711.746          42.000  
G15  23217123.441   122006797.289       -3247.359          35.000    23217117.366    95070216.933       -2530.088          32.000  
G18  23542097.972   123714552.074       -3685.112          36.000    23542093.926    96400913.716       -2871.912          37.000  
G23  19238652.955   101099800.454       -2049.872          45.000    19238641.263    78778990.702       -1597.279          48.000  
G24  20906215.094   109862913.547       -3355.379          30.000    20906205.796                       -2614.479          31.000  
G32  20913930.813   109903448.188        1510.214          46.000    20913920.295    85638995.911        1176.851          42.000  
C08  34707588.217   180731515.569        -328.888          46.000    34707571.225   139752993.041        -254.291          49.000  
C13  34711623.091   180752526.925         -33.923          47.000    34711614.185   139769273.192         -26.196          48.000  
C16  35671949.518   185753198.468           9.066          46.000    35671938.895   143636115.955           7.125          48.000  
C25  22234212.881   115779395.262       -2527.603          36.000                                                                  
C32  21059210.175   109660837.513         889.088          50.000                                                                  
C06  35366635.365   184163352.031         188.730          44.000    35366620.025   142406721.909         145.891          47.000  
G25  20519513.275   107830783.814        2575.898          41.000    20519505.400    84023945.348        2007.285          43.000  
G10  19522473.258   102591286.257        1077.728          50.000    19522461.761    79941218.218         839.807          44.000  
G28  22058973.041   115920697.871        2602.602          40.000    22058962.686    90327797.391        2027.824          41.000  
C23  20729502.431   107943957.006         294.253          50.000                                                                  
C09  36835875.297   191814074.367         287.307          40.000    36835863.590   148322756.612         221.987          47.000  
C33  26086982.857                       -2920.950          31.000                                                                  
C37  22894285.020   119216563.141        2702.744          43.000                                                                  
> 2025 10 27 02 49 45.1960000  0 19                     
G12  20759598.428   109092427.067         913.047          45.000    20759586.504    85007039.446         711.617          42.000  
G15  23217148.162   122006927.156       -3247.062          35.000    23217142.074    95070318.161       -2530.544          32.000  
G18  23542126.004   123714699.466       -3684.848          36.000    23542121.978    96401028.554       -2871.363          37.000  
G23  19238668.560   101099882.443       -2049.761          45.000    19238656.891    78779054.595       -1597.334          48.000  
G24  20906240.650   109863047.712       -3354.488          30.000    20906231.353                       -2613.740          31.000  
G32  20913919.307   109903387.779        1510.189          46.000    20913908.809    85638948.839        1176.795          42.000  
C08  34707590.731   180731528.718        -328.778          46.000    34707573.754   139753003.215        -254.346          49.000  
C13  34711623.372   180752528.272         -33.795          47.000    34711614.468   139769274.236         -26.184          48.000  
C16  35671949.455   185753198.091           9.313          46.000    35671938.844   143636115.672           7.090          48.000  
C25  22234232.300   115779496.372       -2527.849          36.000                                                                  
C32  21059203.332   109660801.939         889.249          50.000                                                                  
C06  35366633.914   184163344.481         188.765          44.000    35366618.614   142406716.074         145.890          47.000  
G25  20519493.663   107830680.769        2576.030          41.000    20519485.766    84023865.057        2007.327          43.000  
G10  19522465.047   102591243.141        1077.765          50.000    19522453.565    79941184.625         839.734          44.000  
G28  22058953.247   115920593.783        2602.333          40.000    22058942.882    90327716.275        2027.862          41.000  
C23  20729500.204   107943945.230         294.308          50.000                                                                  
C09  36835873.108   191814062.881         287.279          40.000    36835861.404   148322747.732         222.035          47.000  
C33  26087005.235                       -2920.685          31.000                                                                  
C37  22894264.222   119216455.034        2702.694          43.000                                                                  
> 2025 10 27 02 49 45.2360000  0 19                     
G12  20759591.465   109092390.538         913.154          45.000    20759579.549    85007010.987         711.521          42.000  
G15  23217172.892   122007056.991       -3246.260          35.000    23217166.805    95070419.341       -2530.007          32.000  
G18  23542154.047   123714846.855       -3684.625          36.000    23542150.026    96401143.417       -2871.459          37.000  
G23  19238684.177   101099964.438       -2049.811          45.000    19238672.480    78779118.484       -1597.285          48.000  
G24  20906266.178                       -3355.041          30.000    20906256.862                       -2614.012          31.000  
G32  20913907.803   109903327.361        1510.358          46.000    20913897.326    85638901.763        1176.834          42.000  
C08  34707593.226   180731541.878        -328.955          46.000    34707576.289   139753013.385        -254.303          49.000  
C13  34711623.657   180752529.623         -33.813          47.000    34711614.721   139769275.277         -26.080          48.000  
C16  35671949.392   185753197.717           9.379          46.000    35671938.740   143636115.390           7.049          48.000  
C25  22234251.712   115779597.491       -2527.976          36.000                                                                  
C32  21059196.485   109660766.372         889.209          50.000                                                                  
C06  35366632.455   184163336.934         188.712          44.000    35366617.145   142406710.244         145.771          47.000  
G25  20519474.060   107830577.729        2576.020          41.000    20519466.146    84023784.764        2007.354          43.000  
G10  19522456.824   102591200.020        1077.917          50.000    19522445.362    79941151.025         839.868          44.000  
G28  22058933.441   115920489.687        2602.360          40.000    22058923.086    90327635.150        2028.055          41.000  
C23  20729497.973   107943933.455         294.354          50.000                                                                  
C09  36835870.915   191814051.420         286.774          40.000    36835859.186   148322738.849         222.079          47.000  
C33  26087027.653                       -2920.466          31.000                                                                  
C37  22894243.487   119216346.919        2702.813          43.000                                                                  
> 2025 10 27 02 49 45.2760000  0 19                     
G12  20759584.498   109092354.010         913.212          45.000    20759572.604    85006982.524         711.502          42.000  
G15  23217197.615   122007186.897       -3247.051          35.000    23217191.536    95070520.557       -2530.212          32.000  
G18  23542182.086   123714994.255       -3684.802          36.000    23542178.074    96401258.262       -2871.156          37.000  
G23  19238699.781   101100046.431       -2049.836          45.000    19238688.059    78779182.373       -1597.241          48.000  
G24  20906291.730                       -3355.971          30.000    20906282.427                       -2614.935          31.000  
G32  20913896.320   109903266.951        1510.302          46.000    20913885.822    85638854.686        1176.906          42.000  
C08  34707595.734   180731555.023        -328.748          46.000    34707578.830   139753023.555        -254.272          49.000  
C13  34711623.906   180752530.968         -33.679          47.000    34711614.978   139769276.321         -26.105          48.000  
C16  35671949.338   185753197.352           9.243          46.000    35671938.698   143636115.106           7.071          48.000  
C25  22234271.100   115779698.598       -2527.802          36.000                                                                  
C32  21059189.650   109660730.802         889.233          50.000                                                                  
C06  35366630.995   184163329.391         188.607          44.000    35366615.682   142406704.408         145.800          47.000  
G25  20519454.458   107830474.708        2575.674          41.000    20519446.527    84023704.478        2007.191          43.000  
G10  19522448.612   102591156.895        1078.058          50.000    19522437.139    79941117.423         839.984          44.000  
G28  22058913.628   115920385.578        2602.597          40.000    22058903.262    90327554.034        2027.959          41.000  
C23  20729495.725   107943921.677         294.411          50.000                                                                  
C09  36835868.703   191814039.946         286.734          40.000    36835856.984   148322729.975         221.933          47.000  
C33  26087050.093                       -2920.394          32.000                                                                  
C37  22894222.735   119216238.825        2702.474          43.000                                                                  
> 2025 10 27 02 49 45.3160000  0 19                     
G12  20759577.561   109092317.492         913.035          45.000    20759565.652    85006954.072         711.297          42.000  
G15  23217222.341   122007316.803       -3247.541          35.000    23217216.216    95070621.717       -2529.398          32.000  
G18  23542210.125   123715141.672       -3685.173          36.000    23542206.136    96401373.115       -2871.178          37.000  
G23  19238715.387   101100128.423       -2049.830          45.000    19238703.661    78779246.264       -1597.254          48.000  
G24  20906317.296                       -3355.278          30.000    20906307.974                       -2615.225          31.000  
G32  20913884.808   109903206.544        1510.197          46.000    20913874.330    85638807.615        1176.753          42.000  
C08  34707598.225   180731568.181        -328.876          46.000    34707581.325   139753033.723        -254.242          49.000  
C13  34711624.151   180752532.317         -33.710          47.000    34711615.236   139769277.371         -26.233          48.000  
C16  35671949.281   185753196.990           9.094          46.000    35671938.659   143636114.822           7.071          48.000  
C25  22234290.479   115779799.668       -2526.976          36.000                                                                  
C32  21059182.780   109660695.237         889.130          50.000                                                                  
C06  35366629.550   184163321.848         188.535          44.000    35366614.227   142406698.569         145.898          47.000  
G25  20519434.839   107830371.675        2575.735          41.000    20519426.907    84023624.192        2007.130          43.000  
G10  19522440.417   102591113.776        1078.027          50.000    19522428.945    79941083.818         840.137          44.000  
G28  22058893.819   115920281.484        2602.471          40.000    22058883.467    90327472.913        2027.996          41.000  
C23  20729493.412   107943909.910         294.221          50.000                                                                  
C09  36835866.481   191814028.462         286.880          40.000    36835854.798   148322721.106         221.770          47.000  
C33  26087072.466                       -2920.677          31.000                                                                  
C37  22894201.984   119216130.724        2702.418          43.000                                                                  
> 2025 10 27 02 49 45.3560000  0 19                     
G12  20759570.610   109092280.968         913.049          45.000    20759558.699    85006925.608         711.396          42.000  
G15  23217247.043   122007446.653       -3246.824          35.000    23217240.935    95070722.990       -2531.024          32.000  
G18  23542238.188   123715289.071       -3685.098          36.000    23542234.211    96401487.981       -2871.437          37.000  
G23  19238730.988   101100210.419       -2049.904          45.000    19238719.265    78779310.164       -1597.451          48.000  
G24  20906342.795                       -3353.868          30.000    20906333.502                       -2614.515          31.000  
G32  20913873.309   109903146.146        1509.991          46.000    20913862.859    85638760.539        1176.828          42.000  
C08  34707600.767   180731581.341        -328.998          46.000    34707583.848   139753043.892        -254.224          49.000  
C13  34711624.426   180752533.673         -33.868          47.000    34711615.482   139769278.418         -26.239          48.000  
C16  35671949.197   185753196.637           8.864          46.000    35671938.581   143636114.541           7.004          48.000  
C25  22234309.876   115779900.758       -2526.991          36.000                                                                  
C32  21059175.947   109660659.672         889.092          50.000                                                                  
C06  35366628.082   184163314.304         188.547          44.000    35366612.784   142406692.734         145.885          47.000  
G25  20519415.219   107830268.634        2575.894          41.000    20519407.308    84023543.912        2006.989          43.000  
G10  19522432.243   102591070.664        1077.826          50.000    19522420.720    79941050.223         839.978          44.000  
G28  22058873.997   115920177.385        2602.459          40.000    22058863.689    90327391.802        2027.822          41.000  
C23  20729491.110   107943898.142         294.152          50.000                                                                  
C09  36835864.269   191814016.981         286.930          40.000    36835852.615   148322712.223         221.936          47.000  
C33  26087094.907                       -2920.750          32.000                                                                  
C37  22894181.223   119216022.617        2702.546          43.000                                                                  
> 2025 10 27 02 49 45.3960000  0 19                     
G12  20759563.652   109092244.447         912.999          45.000    20759551.719    85006897.147         711.397          42.000  
G15  23217271.737   122007576.539       -3247.007          35.000    23217265.677    95070824.178       -2530.250          32.000  
G18  23542266.244   123715436.497       -3685.531          36.000    23542262.249    96401602.848       -2871.756          37.000  
G23  19238746.594   101100292.425       -2050.156          45.000    19238734.871    78779374.062       -1597.487          48.000  
G24  20906368.332                       -3354.923          30.000    20906359.017                       -2614.300          31.000  
G32  20913861.811   109903085.731        1510.178          46.000    20913851.390    85638713.475        1176.674          42.000  
C08  34707603.301   180731594.500        -329.034          46.000    34707586.401   139753054.074        -254.480          49.000  
C13  34711624.713   180752535.023         -33.850          47.000    34711615.722   139769279.462         -26.166          48.000  
C16  35671949.126   185753196.278           8.845          46.000    35671938.540   143636114.262           6.941          48.000  
C25  22234329.314   115780001.879       -2527.628          36.000                                                                  
C32  21059169.109   109660624.113         888.978          50.000                                                                  
C06  35366626.629   184163306.770         188.413          44.000    35366611.332   142406686.910         145.680          47.000  
G25  20519395.613   107830165.603        2575.798          41.000    20519387.704    84023463.622        2007.042          43.000  
G10  19522424.060   102591027.552        1077.747          50.000    19522412.499    79941016.628         839.874          44.000  
G28  22058854.187   115920073.292        2602.334          40.000    22058843.893    90327310.690        2027.730          41.000  
C23  20729488.837   107943886.376         294.079          50.000                                                                  
C09  36835862.043   191814005.496         287.050          40.000    36835850.433   148322703.346         221.923          47.000  
C33  26087117.358                       -2920.287          32.000                                                                  
C37  22894160.445   119215914.507        2702.656          43.000                                                                  
> 2025 10 27 02 49 45.4360000  0 19                     
G12  20759556.701   109092207.929         912.942          45.000    20759544.797    85006868.699         711.187          42.000  
G15  23217296.436   122007706.424       -3247.056          35.000    23217290.383    95070925.343       -2529.302          32.000  
G18  23542294.314   123715583.904       -3685.474          36.000    23542290.302    96401717.711       -2871.703          37.000  
G23  19238762.211   101100374.441       -2050.426          45.000    19238750.461    78779437.962       -1597.548          48.000  
G24  20906393.889                       -3355.389          30.000    20906384.539                       -2614.099          31.000  
G32  20913850.323   109903025.323        1510.171          46.000    20913839.892    85638666.407        1176.659          42.000  
C08  34707605.836   180731607.654        -328.937          46.000    34707588.962   139753064.250        -254.486          49.000  
C13  34711624.977   180752536.387         -34.070          47.000    34711615.978   139769280.508         -26.141          48.000  
C16  35671949.062   185753195.909           9.059          46.000    35671938.478   143636113.985           6.865          48.000  
C25  22234348.730   115780102.996       -2527.985          36.000                                                                  
C32  21059162.258   109660588.553         888.943          50.000                                                                  
C06  35366625.215   184163299.233         188.385          44.000    35366609.881   142406681.075         145.771          47.000  
G25  20519376.003   107830062.579        2575.610          41.000    20519368.110    84023383.349        2006.832          43.000  
G10  19522415.865   102590984.444        1077.649          50.000    19522404.312    79940983.042         839.673          44.000  
G28  22058834.373   115919969.208        2602.130          40.000    22058824.081    90327229.586        2027.607          41.000  
C23  20729486.560   107943874.614         293.999          50.000                                                                  
C09  36835859.816   191813994.023         286.912          40.000    36835848.232   148322694.470         221.917          47.000  
C33  26087139.795                       -2920.305          32.000                                                                  
C37  22894139.690   119215806.404        2702.644          43.000                                                                  
> 2025 10 27 02 49 45.4760000  0 19                     
G12  20759549.742   109092171.416         912.842          45.000    20759537.839    85006840.247         711.193          42.000  
G15  23217321.162   122007836.312       -3247.202          35.000    23217315.104    95071026.542       -2529.697          32.000  
G18  23542322.368   123715731.270       -3684.598          36.000    23542318.345    96401832.561       -2871.351          37.000  
G23  19238777.823   101100456.441       -2050.227          45.000    19238766.057    78779501.863       -1597.585          48.000  
G24  20906419.426                       -3356.403          30.000    20906410.079                       -2614.189          31.000  
G32  20913838.858   109902964.919        1510.100          46.000    20913828.393    85638619.336        1176.713          42.000  
C08  34707608.395   180731620.811        -328.918          46.000    34707591.507   139753074.425        -254.443          49.000  
C13  34711625.243   180752537.749         -34.143          47.000    34711616.263   139769281.557         -26.178          48.000  
C16  35671948.989   185753195.544           9.089          46.000    35671938.443   143636113.702           6.974          48.000  
C25  22234368.144   115780204.131       -2528.345          36.000                                                                  
C32  21059155.434   109660552.989         889.010          50.000                                                                  
C06  35366623.783   184163291.678         188.663          44.000    35366608.457   142406675.243         145.785          47.000  
G25  20519356.406   107829959.564        2575.374          41.000    20519348.530    84023303.063        2007.003          43.000  
G10  19522407.638   102590941.331        1077.722          50.000    19522396.120    79940949.450         839.716          44.000  
G28  22058814.557   115919865.108        2602.287          40.000    22058804.257    90327148.481        2027.591          41.000  
C23  20729484.339   107943862.844         294.126          50.000                                                                  
C09  36835857.635   191813982.554         286.820          40.000    36835846.006   148322685.599         221.810          47.000  
C33  26087162.271   135842648.576       -2919.874          31.000                                                                  
C37  22894118.917   119215698.297        2702.676          43.000                                                                  
> 2025 10 27 02 49 45.5160000  0 19                     
G12  20759542.796   109092134.901         912.827          45.000    20759530.887    85006811.791         711.275          42.000  
G15  23217345.870   122007966.222       -3247.650          35.000    23217339.814    95071127.774       -2530.458          32.000  
G18  23542350.409   123715878.677       -3684.833          36.000    23542346.381    96401947.416       -2871.279          37.000  
G23  19238793.407   101100538.437       -2050.005          45.000    19238781.660    78779565.759       -1597.504          48.000  
G24  20906444.967                       -3355.873          30.000    20906435.644                       -2614.383          31.000  
G32  20913827.354   109902904.519        1510.013          46.000    20913816.894    85638572.274        1176.617          42.000  
C08  34707610.884   180731633.971        -328.986          46.000    34707594.012   139753084.598        -254.376          49.000  
C13  34711625.524   180752539.098         -33.893          47.000    34711616.526   139769282.605         -26.208          48.000  
C16  35671948.941   185753195.184           9.035          46.000    35671938.373   143636113.415           7.123          48.000  
C25  22234387.558   115780305.265       -2528.509          36.000                                                                  
C32  21059148.640   109660517.423         889.094          50.000                                                                  
C06  35366622.333   184163284.139         188.552          44.000    35366607.026   142406669.408         145.858          47.000  
G25  20519336.788   107829856.528        2575.590          41.000    20519328.940    84023222.794        2006.802          43.000  
G10  19522399.435   102590898.219        1077.753          50.000    19522387.906    79940915.853         839.850          44.000  
G28  22058794.738   115919761.026        2602.069          40.000    22058784.462    90327067.370        2027.659          41.000  
C23  20729482.099   107943851.075         294.190          50.000                                                                  
C09  36835855.448   191813971.060         287.172          40.000    36835843.813   148322676.721         221.912          47.000  
C33  26087184.681                       -2920.604          32.000                                                                  
C37  22894098.133   119215590.202        2702.470          43.000                                                                  
> 2025 10 27 02 49 45.5560000  0 19                     
G12  20759535.857   109092098.389         912.792          45.000    20759523.936    85006783.334         711.413          42.000  
G15  23217370.580   122008096.103       -3247.353          35.000    23217364.527    95071229.014       -2530.944          32.000  
G18  23542378.453   123716026.081       -3684.890          36.000    23542374.420    96402062.279       -2871.373          37.000  
G23  19238808.998   101100620.435       -2049.932          45.000    19238797.265    78779629.659       -1597.504          48.000  
G24  20906470.491                       -3354.670          30.000    20906461.193                       -2615.347          31.000  
G32  20913815.861   109902844.114        1510.067          46.000    20913805.385    85638525.202        1176.723          42.000  
C08  34707613.401   180731647.124        -328.900          46.000    34707596.529   139753094.771        -254.309          49.000  
C13  34711625.796   180752540.446         -33.710          47.000    34711616.759   139769283.654         -26.251          48.000  
C16  35671948.887   185753194.813           9.192          46.000    35671938.330   143636113.129           7.158          48.000  
C25  22234406.965   115780406.346       -2527.515          36.000                                                                  
C32  21059141.847   109660481.857         889.131          50.000                                                                  
C06  35366620.885   184163276.598         188.519          44.000    35366605.590   142406663.573         145.862          47.000  
G25  20519317.159   107829753.496        2575.708          41.000    20519309.331    84023142.507        2007.016          43.000  
G10  19522391.217   102590855.105        1077.820          50.000    19522379.693    79940882.251         840.027          44.000  
G28  22058774.940   115919656.931        2602.284          40.000    22058764.637    90326986.254        2027.866          41.000  
C23  20729479.853   107943839.307         294.208          50.000                                                                  
C09  36835853.239   191813959.570         287.339          40.000    36835841.619   148322667.839         222.011          47.000  
C33  26087207.077                       -2920.919          32.000                                                                  
C37  22894077.380   119215482.105        2702.444          43.000                                                                  
> 2025 10 27 02 49 45.5960000  0 19                     
G12  20759528.884   109092061.864         912.987          45.000    20759516.969    85006754.876         711.440          42.000  
G15  23217395.280   122008225.969       -3246.920          35.000    23217389.229    95071330.177       -2529.734          32.000  
G18  23542406.511   123716173.481       -3684.957          36.000    23542402.454    96402177.124       -2871.141          37.000  
G23  19238824.604   101100702.437       -2049.963          45.000    19238812.875    78779693.553       -1597.418          48.000  
G24  20906496.031                       -3355.279          30.000    20906486.753                       -2614.198          31.000  
G32  20913804.368   109902783.700        1510.262          46.000    20913793.882    85638478.120        1176.980          42.000  
C08  34707615.910   180731660.279        -328.857          46.000    34707599.016   139753104.938        -254.175          49.000  
C13  34711626.074   180752541.795         -33.698          47.000    34711617.029   139769284.696         -26.129          48.000  
C16  35671948.812   185753194.447           9.188          46.000    35671938.263   143636112.851           7.044          48.000  
C25  22234426.391   115780507.426       -2526.994          36.000                                                                  
C32  21059135.009   109660446.293         889.116          50.000                                                                  
C06  35366619.435   184163269.050         188.628          44.000    35366604.168   142406657.737         145.870          47.000  
G25  20519297.550   107829650.454        2575.955          41.000    20519289.716    84023062.215        2007.220          43.000  
G10  19522382.997   102590811.993        1077.808          50.000    19522371.489    79940848.664         839.819          44.000  
G28  22058755.115   115919552.834        2602.357          40.000    22058744.822    90326905.140        2027.883          41.000  
C23  20729477.614   107943827.540         294.181          50.000                                                                  
C09  36835851.028   191813948.094         287.083          40.000    36835839.412   148322658.964         221.915          47.000  
C33  26087229.502                       -2920.237          32.000                                                                  
C37  22894056.653   119215373.986        2702.775          43.000                                                                  
> 2025 10 27 02 49 45.6360000  0 19                     
G12  20759521.923   109092025.350         912.885          45.000    20759510.043    85006726.428         711.298          42.000  
G15  23217419.977   122008355.824       -3246.578          35.000    23217413.953    95071431.399       -2530.049          32.000  
G18  23542434.567   123716320.877       -3684.945          36.000    23542430.494    96402291.993       -2871.453          37.000  
G23  19238840.212   101100784.439       -2050.031          45.000    19238828.483    78779757.448       -1597.400          48.000  
G24  20906521.584                       -3354.347          30.000    20906512.267                       -2614.179          31.000  
G32  20913792.852   109902723.289        1510.303          46.000    20913782.379    85638431.056        1176.747          42.000  
C08  34707618.437   180731673.439        -328.967          46.000    34707601.551   139753115.110        -254.242          49.000  
C13  34711626.330   180752543.154         -33.893          47.000    34711617.316   139769285.741         -26.117          48.000  
C16  35671948.747   185753194.081           9.188          46.000    35671938.182   143636112.572           6.980          48.000  
C25  22234445.801   115780608.540       -2527.503          36.000                                                                  
C32  21059128.146   109660410.736         888.949          50.000                                                                  
C06  35366617.984   184163261.498         188.777          44.000    35366602.704   142406651.907         145.730          47.000  
G25  20519277.938   107829547.430        2575.760          41.000    20519270.092    84022981.931        2007.147          43.000  
G10  19522374.801   102590768.885        1077.698          50.000    19522363.275    79940815.077         839.697          44.000  
G28  22058735.313   115919448.728        2602.548          40.000    22058725.018    90326824.022        2027.937          41.000  
C23  20729475.358   107943815.774         294.134          50.000                                                                  
C09  36835848.830   191813936.631         286.656          40.000    36835837.221   148322650.093         221.777          47.000  
C33  26087251.924                       -2920.120          32.000                                                                  
C37  22894035.871   119215265.883        2702.652          43.000                                                                  
> 2025 10 27 02 49 45.6760000  0 19                     
G12  20759514.984   109091988.844         912.672          45.000    20759503.087    85006697.982         711.124          42.000  
G15  23217444.688   122008485.698       -3246.720          35.000    23217438.669    95071532.633       -2530.684          32.000  
G18  23542462.617   123716468.289       -3685.257          36.000    23542458.542    96402406.852       -2871.485          37.000  
G23  19238855.841   101100866.458       -2050.407          45.000    19238844.119    78779821.356       -1597.647          48.000  
G24  20906547.130                       -3354.471          30.000    20906537.842                       -2614.659          31.000  
G32  20913781.354   109902662.888        1510.110          46.000    20913770.885    85638384.003        1176.355          42.000  
C08  34707620.963   180731686.602        -329.083          46.000    34707604.084   139753125.296        -254.578          49.000  
C13  34711626.581   180752544.519         -34.143          47.000    34711617.553   139769286.797         -26.331          48.000  
C16  35671948.678   185753193.733           8.826          46.000    35671938.089   143636112.303           6.740          48.000  
C25  22234465.209   115780709.668       -2528.014          36.000                                                                  
C32  21059121.303   109660375.180         888.856          50.000                                                                  
C06  35366616.495   184163253.977         188.250          44.000    35366601.251   142406646.084         145.557          47.000  
G25  20519258.343   107829444.412        2575.489          41.000    20519250.493    84022901.667        2006.741          43.000  
G10  19522366.603   102590725.791        1077.393          50.000    19522355.103    79940781.500         839.459          44.000  
G28  22058715.492   115919344.655        2602.036          40.000    22058705.221    90326742.917        2027.712          41.000  
C23  20729473.067   107943804.021         293.876          50.000                                                                  
C09  36835846.592   191813925.166         286.516          40.000    36835835.024   148322641.224         221.691          47.000  
C33  26087274.354                       -2920.722          32.000                                                                  
C37  22894015.092   119215157.794        2702.318          43.000                                                                  
> 2025 10 27 02 49 45.7160000  0 19                     
G12  20759508.024   109091952.352         912.322          45.000    20759496.153    85006669.531         711.172          42.000  
G15  23217469.399   122008615.594       -3247.180          35.000    23217463.396    95071633.837       -2530.447          32.000  
G18  23542490.687   123716615.708       -3685.536          36.000    23542486.591    96402521.710       -2871.476          37.000  
G23  19238871.465   101100948.482       -2050.646          45.000    19238859.755    78779885.272       -1597.923          48.000  
G24  20906572.716                       -3355.742          30.000    20906563.381                       -2614.599          31.000  
G32  20913769.864   109902602.497        1509.829          46.000    20913759.372    85638336.938        1176.445          42.000  
C08  34707623.488   180731699.773        -329.260          46.000    34707606.637   139753135.481        -254.700          49.000  
C13  34711626.827   180752545.885         -34.247          47.000    34711617.781   139769287.858         -26.550          48.000  
C16  35671948.625   185753193.381           8.737          46.000    35671938.020   143636112.030           6.728          48.000  
C25  22234484.630   115780810.796       -2528.265          36.000                                                                  
C32  21059114.485   109660339.630         888.738          50.000                                                                  
C06  35366615.031   184163246.454         188.022          44.000    35366599.810   142406640.257         145.599          47.000  
G25  20519238.741   107829341.406        2575.193          41.000    20519230.897    84022821.395        2006.672          43.000  
G10  19522358.434   102590682.697        1077.271          50.000    19522346.917    79940747.920         839.435          44.000  
G28  22058695.703   115919240.575        2601.909          40.000    22058685.421    90326661.812        2027.583          41.000  
C23  20729470.806   107943792.272         293.683          50.000                                                                  
C09  36835844.372   191813913.683         286.783          40.000    36835832.812   148322632.354         221.661          47.000  
C33  26087296.768                       -2920.615          32.000                                                                  
C37  22893994.322   119215049.715        2701.998          43.000                                                                  
> 2025 10 27 02 49 45.7560000  0 19                     
G12  20759501.082   109091915.850         912.360          45.000    20759489.235    85006641.096         710.944          42.000  
G15  23217494.108   122008745.518       -3247.805          35.000    23217488.107    95071735.041       -2530.332          32.000  
G18  23542518.739   123716763.113       -3685.386          36.000    23542514.632    96402636.576       -2871.690          37.000  
G23  19238887.072   101101030.499       -2050.570          45.000    19238875.336    78779949.180       -1597.848          48.000  
G24  20906598.279                       -3355.715          30.000    20906588.943                       -2614.532          31.000  
G32  20913758.377   109902542.099        1509.844          46.000    20913747.856    85638289.870        1176.572          42.000  
C08  34707626.022   180731712.936        -329.163          46.000    34707609.179   139753145.661        -254.614          49.000  
C13  34711627.138   180752547.244         -34.119          47.000    34711618.061   139769288.914         -26.532          48.000  
C16  35671948.563   185753193.027           8.724          46.000    35671937.970   143636111.753           6.805          48.000  
C25  22234504.070   115780911.937       -2528.459          36.000                                                                  
C32  21059107.720   109660304.076         888.743          50.000                                                                  
C06  35366613.578   184163238.911         188.257          44.000    35366598.338   142406634.431         145.610          47.000  
G25  20519219.144   107829238.398        2575.103          41.000    20519211.274    84022741.119        2006.760          43.000  
G10  19522350.243   102590639.591        1077.478          50.000    19522338.706    79940714.331         839.587          44.000  
G28  22058675.900   115919136.491        2601.955          40.000    22058665.621    90326580.706        2027.578          41.000  
C23  20729468.560   107943780.521         293.633          50.000                                                                  
C09  36835842.158   191813902.215         286.669          40.000    36835830.602   148322623.481         221.726          47.000  
C33  26087319.226                       -2920.535          32.000                                                                  
C37  22893973.561   119214941.618        2702.146          43.000                                                                  
> 2025 10 27 02 49 45.7960000  0 19                     
G12  20759494.146   109091879.333         912.702          45.000    20759482.270    85006612.636         711.266          42.000  
G15  23217518.828   122008875.407       -3247.565          35.000    23217512.827    95071836.233       -2529.958          32.000  
G18  23542546.801   123716910.526       -3685.387          36.000    23542542.689    96402751.437       -2871.704          37.000  
G23  19238902.670   101101112.503       -2050.255          45.000    19238890.946    78780013.082       -1597.681          48.000  
G24  20906623.806                       -3355.511          29.000    20906614.450                       -2614.387          31.000  
G32  20913746.871   109902481.697        1509.931          46.000    20913736.335    85638242.791        1176.809          42.000  
C08  34707628.592   180731726.092        -328.992          46.000    34707611.700   139753155.835        -254.419          49.000  
C13  34711627.406   180752548.596         -33.905          47.000    34711618.312   139769289.957         -26.227          48.000  
C16  35671948.535   185753192.659           8.995          46.000    35671937.923   143636111.469           6.995          48.000  
C25  22234523.495   115781013.039       -2527.735          36.000                                                                  
C32  21059100.911   109660268.510         889.002          50.000                                                                  
C06  35366612.122   184163231.367         188.472          44.000    35366596.867   142406628.590         145.896          47.000  
G25  20519199.550   107829135.360        2575.599          41.000    20519191.672    84022660.837        2006.944          43.000  
G10  19522342.037   102590596.479        1077.716          50.000    19522330.498    79940680.728         839.948          44.000  
G28  22058656.091   115919032.390        2602.329          40.000    22058645.830    90326499.600        2027.604          41.000  
C23  20729466.309   107943768.756         293.910          50.000                                                                  
C09  36835839.980   191813890.731         286.935          40.000    36835828.396   148322614.602         221.889          47.000  
C33  26087341.658   135843583.208       -2920.769          32.000                                                                  
C37  22893952.782   119214833.519        2702.282          43.000                                                                  
> 2025 10 27 02 49 45.8360000  0 19                     
G12  20759487.167   109091842.811         912.989          45.000    20759475.334    85006584.179         711.377          42.000  
G15  23217543.552   122009005.265       -3246.787          35.000    23217537.527    95071937.434       -2529.937          32.000  
G18  23542574.871   123717057.910       -3684.855          36.000    23542570.754    96402866.297       -2871.571          37.000  
G23  19238918.273   101101194.499       -2049.979          45.000    19238906.547    78780076.975       -1597.385          48.000  
G24  20906649.289                       -3354.768          29.000    20906639.997                       -2614.298          31.000  
G32  20913735.387   109902421.284        1510.184          46.000    20913724.845    85638195.717        1176.848          42.000  
C08  34707631.104   180731739.239        -328.717          46.000    34707614.193   139753166.000        -254.181          49.000  
C13  34711627.657   180752549.946         -33.759          47.000    34711618.540   139769290.994         -25.977          48.000  
C16  35671948.496   185753192.287           9.213          46.000    35671937.849   143636111.175           7.242          48.000  
C25  22234542.911   115781114.128       -2527.270          36.000                                                                  
C32  21059094.126   109660232.941         889.190          50.000                                                                  
C06  35366610.654   184163223.810         188.850          44.000    35366595.384   142406622.759         145.847          47.000  
G25  20519179.939   107829032.313        2576.039          41.000    20519172.051    84022580.559        2006.960          43.000  
G10  19522333.806   102590553.366        1077.838          50.000    19522322.300    79940647.134         839.960          44.000  
G28  22058636.281   115918928.285        2602.582          40.000    22058626.010    90326418.487        2027.735          41.000  
C23  20729464.077   107943756.989         294.096          50.000                                                                  
C09  36835837.770   191813879.252         286.951          40.000    36835826.194   148322605.721         221.988          47.000  
C33  26087364.096   135843700.039       -2920.779          32.000                                                                  
C37  22893932.011   119214725.408        2702.652          43.000                                                                  
> 2025 10 27 02 49 45.8760000  0 19                     
G12  20759480.228   109091806.296         912.994          45.000    20759468.395    85006555.730         711.276          42.000  
G15  23217568.262   122009135.119       -3246.227          35.000    23217562.234    95072038.616       -2529.685          32.000  
G18  23542602.921   123717205.299       -3684.636          36.000    23542598.807    96402981.149       -2871.376          37.000  
G23  19238933.877   101101276.502       -2050.018          45.000    19238922.153    78780140.871       -1597.331          48.000  
G24  20906674.811                       -3354.491          29.000    20906665.536                       -2613.688          31.000  
G32  20913723.903   109902360.867        1510.392          46.000    20913713.372    85638148.645        1176.806          42.000  
C08  34707633.609   180731752.393        -328.741          46.000    34707616.700   139753176.171        -254.199          49.000  
C13  34711627.903   180752551.291         -33.624          47.000    34711618.805   139769292.037         -25.983          48.000  
C16  35671948.420   185753191.928           9.087          46.000    35671937.787   143636110.901           7.021          48.000  
C25  22234562.310   115781215.222       -2527.162          36.000                                                                  
C32  21059087.273   109660197.374         889.249          50.000                                                                  
C06  35366609.221   184163216.261         188.821          44.000    35366593.929   142406616.924         145.892          47.000  
G25  20519160.356   107828929.285        2575.895          41.000    20519152.431    84022500.267        2007.199          43.000  
G10  19522325.631   102590510.255        1077.838          50.000    19522314.102    79940613.549         839.703          44.000  
G28  22058616.467   115918824.180        2602.666          40.000    22058606.180    90326337.364        2028.008          41.000  
C23  20729461.867   107943745.223         294.160          50.000                                                                  
C09  36835835.573   191813867.767         287.089          40.000    36835823.982   148322596.844         221.967          47.000  
C33  26087386.533   135843816.853       -2920.465          32.000                                                                  
C37  22893911.280   119214617.307        2702.661          43.000                                                                  
> 2025 10 27 02 49 45.9160000  0 19                     
G12  20759473.286   109091769.780         912.961          45.000    20759461.451    85006527.285         711.154          42.000  
G15  23217592.982   122009265.001       -3246.531          35.000    23217586.980    95072139.834       -2530.282          32.000  
G18  23542630.960   123717352.683       -3684.521          36.000    23542626.863    96403095.993       -2871.111          37.000  
G23  19238949.515   101101358.514       -2050.228          45.000    19238937.780    78780204.777       -1597.523          48.000  
G24  20906700.322                       -3354.567          30.000    20906691.069                       -2615.284          31.000  
G32  20913712.422   109902300.456        1510.366          46.000    20913701.849    85638101.569        1176.876          42.000  
C08  34707636.120   180731765.550        -328.839          46.000    34707619.205   139753186.345        -254.309          49.000  
C13  34711628.149   180752552.646         -33.771          47.000    34711619.045   139769293.082         -26.062          48.000  
C16  35671948.370   185753191.559           9.157          46.000    35671937.749   143636110.616           7.093          48.000  
C25  22234581.711   115781316.337       -2527.527          36.000                                                                  
C32  21059080.429   109660161.816         889.084          50.000                                                                  
C06  35366607.760   184163208.711         188.799          44.000    35366592.469   142406611.094         145.796          47.000  
G25  20519140.738   107828826.265        2575.620          41.000    20519132.837    84022419.986        2007.092          43.000  
G10  19522317.440   102590467.152        1077.655          50.000    19522305.884    79940579.958         839.722          44.000  
G28  22058596.673   115918720.093        2602.359          40.000    22058586.355    90326256.259        2027.775          41.000  
C23  20729459.594   107943733.461         294.112          50.000                                                                  
C09  36835833.361   191813856.293         286.884          40.000    36835821.795   148322587.973         221.802          47.000  
C33  26087408.957                       -2920.352          32.000                                                                  
C37  22893890.508   119214509.202        2702.684          43.000                                                                  
> 2025 10 27 02 49 45.9560000  0 19                     
G12  20759466.353   109091733.280         912.629          45.000    20759454.508    85006498.845         710.989          42.000  
G15  23217617.686   122009394.852       -3246.339          35.000    23217611.711    95072241.070       -2530.847          32.000  
G18  23542659.027   123717500.072       -3684.579          36.000    23542654.916    96403210.848       -2871.192          36.000  
G23  19238965.144   101101440.535       -2050.517          45.000    19238953.413    78780268.692       -1597.831          48.000  
G24  20906725.864                       -3355.260          30.000    20906716.609                       -2614.603          31.000  
G32  20913700.912   109902240.053        1510.186          46.000    20913690.345    85638054.509        1176.616          42.000  
C08  34707638.630   180731778.717        -329.108          46.000    34707621.737   139753196.528        -254.529          49.000  
C13  34711628.400   180752554.005         -33.923          47.000    34711619.279   139769294.142         -26.392          48.000  
C16  35671948.289   185753191.203           8.979          46.000    35671937.662   143636110.339           6.968          48.000  
C25  22234601.115   115781417.466       -2528.063          36.000                                                                  
C32  21059073.590   109660126.263         888.859          50.000                                                                  
C06  35366606.323   184163201.180         188.453          44.000    35366591.014   142406605.259         145.814          47.000  
G25  20519121.119   107828723.258        2575.273          41.000    20519113.230    84022339.717        2006.802          43.000  
G10  19522309.271   102590424.057        1077.386          50.000    19522297.660    79940546.380         839.496          44.000  
G28  22058576.871   115918616.016        2602.005          40.000    22058566.568    90326175.150        2027.694          41.000  
C23  20729457.320   107943721.704         293.966          50.000                                                                  
C09  36835831.137   191813844.810         286.967          40.000    36835819.604   148322579.106         221.653          47.000  
C33  26087431.408                       -2920.779          32.000                                                                  
C37  22893869.739   119214401.095        2702.691          43.000                                                                  
> 2025 10 27 02 49 45.9960000  0 19                     
G12  20759459.420   109091696.789         912.306          45.000    20759447.556    85006470.406         710.910          42.000  
G15  23217642.406   122009524.778       -3247.616          35.000    23217636.438    95072342.277       -2530.499          32.000  
G18  23542687.079   123717647.503       -3685.407          36.000    23542682.997    96403325.736       -2871.743          36.000  
G23  19238980.743   101101522.554       -2050.571          45.000    19238969.031    78780332.600       -1597.849          48.000  
G24  20906751.434                       -3356.690          30.000    20906742.143                       -2615.281          31.000  
G32  20913689.423   109902179.651        1510.079          46.000    20913678.841    85638007.438        1176.677          42.000  
C08  34707641.152   180731791.880        -329.150          46.000    34707624.283   139753206.706        -254.535          49.000  
C13  34711628.650   180752555.364         -34.009          47.000    34711619.528   139769295.193         -26.385          48.000  
C16  35671948.214   185753190.853           8.774          46.000    35671937.602   143636110.066           6.833          48.000  
C25  22234620.523   115781518.592       -2528.221          36.000                                                                  
C32  21059066.755   109660090.711         888.763          50.000                                                                  
C06  35366604.882   184163193.643         188.363          44.000    35366589.570   142406599.431         145.702          47.000  
G25  20519101.522   107828620.238        2575.337          41.000    20519093.642    84022259.441        2006.804          43.000  
G10  19522301.092   102590380.965        1077.228          50.000    19522289.459    79940512.799         839.435          44.000  
G28  22058557.057   115918511.931        2601.971          40.000    22058546.758    90326094.050        2027.547          41.000  
C23  20729455.063   107943709.958         293.704          50.000                                                                  
C09  36835828.932   191813833.343         286.767          40.000    36835817.430   148322570.235         221.681          47.000  
C33  26087453.860   135844167.336       -2920.657          32.000                                                                  
C37  22893848.999   119214293.001        2702.447          43.000                                                                  
> 2025 10 27 02 49 46.0360000  0 19                     
G12  20759452.471   109091660.289         912.351          45.000    20759440.626    85006441.957         711.097          42.000  
G15  23217667.137   122009654.697       -3248.169          35.000    23217661.164    95072443.463       -2529.873          32.000  
G18  23542715.122   123717794.906       -3685.344          36.000    23542711.048    96403440.590       -2871.575          36.000  
G23  19238996.324   101101604.558       -2050.286          45.000    19238984.640    78780396.505       -1597.749          48.000  
G24  20906776.966                       -3355.568          30.000    20906767.704                       -2614.941          31.000  
G32  20913677.908   109902119.246        1510.069          46.000    20913667.347    85637960.373        1176.553          42.000  
C08  34707643.683   180731805.037        -329.041          46.000    34707626.857   139753216.876        -254.352          49.000  
C13  34711628.897   180752556.719         -33.960          47.000    34711619.788   139769296.239         -26.251          48.000  
C16  35671948.175   185753190.478           9.125          46.000    35671937.528   143636109.783           6.955          48.000  
C25  22234639.969   115781619.712       -2528.164          36.000                                                                  
C32  21059059.941   109660055.155         888.792          50.000                                                                  
C06  35366603.454   184163186.098         188.488          44.000    35366588.155   142406593.601         145.692          47.000  
G25  20519081.917   107828517.209        2575.559          41.000    20519074.042    84022179.164        2006.812          43.000  
G10  19522292.886   102590337.869        1077.264          50.000    19522281.238    79940479.218         839.429          44.000  
G28  22058537.239   115918407.832        2602.278          40.000    22058526.949    90326012.941        2027.604          41.000  
C23  20729452.819   107943698.202         293.770          50.000                                                                  
C09  36835826.688   191813821.859         286.931          40.000    36835815.212   148322561.353         221.915          47.000  
C33  26087476.328   135844284.124       -2919.922          32.000                                                                  
C37  22893828.230   119214184.911        2702.252          43.000                                                                  
> 2025 10 27 02 49 46.0760000  0 19                     
G12  20759445.537   109091623.783         912.485          45.000    20759433.659    85006413.507         711.232          42.000  
G15  23217691.855   122009784.569       -3247.438          35.000    23217685.876    95072544.670       -2529.811          32.000  
G18  23542743.173   123717942.316       -3685.427          36.000    23542739.076    96403555.418       -2870.934          36.000  
G23  19239011.969   101101686.577       -2050.428          45.000    19239000.247    78780460.408       -1597.656          48.000  
G24  20906802.499                       -3354.569          29.000    20906793.224                       -2614.284          31.000  
G32  20913666.392   109902058.846        1509.980          46.000    20913655.833    85637913.300        1176.673          42.000  
C08  34707646.241   180731818.202        -329.120          46.000    34707629.392   139753227.057        -254.480          49.000  
C13  34711629.145   180752558.080         -34.027          47.000    34711620.037   139769297.289         -26.257          48.000  
C16  35671948.099   185753190.120           9.010          46.000    35671937.434   143636109.505           6.948          48.000  
C25  22234659.392   115781720.835       -2528.182          36.000                                                                  
C32  21059053.141   109660019.596         888.870          50.000                                                                  
C06  35366602.008   184163178.571         188.228          44.000    35366586.734   142406587.767         145.767          47.000  
G25  20519062.295   107828414.198        2575.352          41.000    20519054.442    84022098.890        2006.774          43.000  
G10  19522284.675   102590294.770        1077.356          50.000    19522273.059    79940445.642         839.362          44.000  
G28  22058517.436   115918303.748        2602.127          40.000    22058507.126    90325931.823        2027.828          41.000  
C23  20729450.595   107943686.450         293.748          50.000                                                                  
C09  36835824.497   191813810.378         286.981          40.000    36835812.993   148322552.475         221.969          47.000  
C33  26087498.781                       -2921.157          31.000                                                                  
C37  22893807.467   119214076.812        2702.351          43.000                                                                  
> 2025 10 27 02 49 46.1160000  0 19                     
G12  20759438.584   109091587.278         912.581          45.000    20759426.726    85006385.068         711.093          42.000  
G15  23217716.565   122009914.445       -3247.081          35.000    23217710.599    95072645.873       -2529.845          33.000  
G18  23542771.192   123718089.724       -3685.380          36.000    23542767.114    96403670.266       -2870.988          36.000  
G23  19239027.603   101101768.601       -2050.595          45.000    19239015.860    78780524.319       -1597.768          48.000  
G24  20906828.005                       -3355.163          30.000    20906818.773                       -2613.718          31.000  
G32  20913654.900   109901998.443        1509.989          46.000    20913644.352    85637866.238        1176.551          42.000  
C08  34707648.750   180731831.367        -329.175          46.000    34707631.942   139753237.235        -254.504          49.000  
C13  34711629.397   180752559.441         -34.076          47.000    34711620.291   139769298.341         -26.331          48.000  
C16  35671948.031   185753189.762           8.917          46.000    35671937.355   143636109.225           6.941          48.000  
C25  22234678.823   115781821.942       -2527.855          36.000                                                                  
C32  21059046.274   109659984.040         888.850          50.000                                                                  
C06  35366600.601   184163171.025         188.464          44.000    35366585.299   142406581.941         145.640          47.000  
G25  20519042.690   107828311.163        2575.669          41.000    20519034.834    84022018.632        2006.477          43.000  
G10  19522276.455   102590251.673        1077.399          50.000    19522264.848    79940412.058         839.502          44.000  
G28  22058497.627   115918199.669        2601.979          40.000    22058487.330    90325850.720        2027.678          41.000  
C23  20729448.339   107943674.700         293.704          50.000                                                                  
C09  36835822.286   191813798.905         286.841          40.000    36835810.776   148322543.603         221.861          47.000  
C33  26087521.231   135844517.827       -2921.069          31.000                                                                  
C37  22893786.707   119213968.721        2702.260          43.000                                                                  
> 2025 10 27 02 49 46.1560000  0 19                     
G12  20759431.629   109091550.772         912.651          45.000    20759419.767    85006356.627         711.015          42.000  
G15  23217741.273   122010044.318       -3246.926          35.000    23217735.333    95072747.120       -2530.668          32.000  
G18  23542799.220   123718237.130       -3685.292          36.000    23542795.155    96403785.130       -2871.320          36.000  
G23  19239043.223   101101850.617       -2050.508          45.000    19239031.474    78780588.230       -1597.804          48.000  
G24  20906853.575                       -3355.061          30.000    20906844.307                       -2614.629          31.000  
G32  20913643.397   109901938.039        1510.043          46.000    20913632.842    85637819.173        1176.561          42.000  
C08  34707651.309   180731844.526        -329.022          46.000    34707634.443   139753247.414        -254.523          49.000  
C13  34711629.650   180752560.800         -34.027          47.000    34711620.559   139769299.393         -26.331          48.000  
C16  35671947.961   185753189.406           8.883          46.000    35671937.283   143636108.947           6.933          48.000  
C25  22234698.248   115781923.056       -2527.744          36.000                                                                  
C32  21059039.417   109659948.487         888.813          50.000                                                                  
C06  35366599.196   184163163.476         188.640          44.000    35366583.829   142406576.106         145.782          47.000  
G25  20519023.076   107828208.149        2575.496          41.000    20519015.250    84021938.362        2006.608          43.000  
G10  19522268.241   102590208.576        1077.417          50.000    19522256.643    79940378.471         839.606          44.000  
G28  22058477.823   115918095.575        2602.185          40.000    22058467.522    90325769.626        2027.405          41.000  
C23  20729446.094   107943662.948         293.732          50.000                                                                  
C09  36835820.068   191813787.430         286.785          40.000    36835808.583   148322534.731         221.798          47.000  
C33  26087543.638                       -2920.820          31.000                                                                  
C37  22893765.968   119213860.623        2702.331          43.000                                                                  
> 2025 10 27 02 49 46.1960000  0 19                     
G12  20759424.692   109091514.268         912.636          45.000    20759412.819    85006328.185         710.962          42.000  
G15  23217765.968   122010174.194       -3246.755          35.000    23217760.078    95072848.317       -2530.245          33.000  
G18  23542827.277   123718384.509       -3684.716          36.000    23542823.215    96403899.992       -2871.467          36.000  
G23  19239058.800   101101932.626       -2050.292          45.000    19239047.083    78780652.140       -1597.798          48.000  
G24  20906879.136                       -3355.590          30.000    20906869.838                       -2615.295          31.000  
G32  20913631.911   109901877.633        1510.107          46.000    20913621.364    85637772.107        1176.568          42.000  
C08  34707653.834   180731857.684        -328.967          46.000    34707636.970   139753257.587        -254.419          49.000  
C13  34711629.906   180752562.152         -33.875          47.000    34711620.833   139769300.440         -26.257          48.000  
C16  35671947.931   185753189.042           9.010          46.000    35671937.214   143636108.671           6.874          48.000  
C25  22234717.678   115782024.188       -2528.059          36.000                                                                  
C32  21059032.568   109659912.928         888.903          50.000                                                                  
C06  35366597.717   184163155.940         188.511          44.000    35366582.357   142406570.270         145.852          47.000  
G25  20519003.482   107828105.134        2575.421          41.000    20518995.637    84021858.084        2006.803          43.000  
G10  19522260.033   102590165.476        1077.460          50.000    19522248.443    79940344.882         839.716          44.000  
G28  22058457.990   115917991.485        2602.234          40.000    22058447.704    90325688.532        2027.295          41.000  
C23  20729443.843   107943651.197         293.739          50.000                                                                  
C09  36835817.883   191813775.942         287.090          40.000    36835806.371   148322525.857         221.818          47.000  
C33  26087566.077                       -2920.822          31.000                                                                  
C37  22893745.221   119213752.519        2702.503          43.000                                                                  
> 2025 10 27 02 49 46.2360000  0 19                     
G12  20759417.733   109091477.776         912.382          45.000    20759405.888    85006299.757         710.706          42.000  
G15  23217790.677   122010304.057       -3246.617          35.000    23217784.786    95072949.518       -2530.114          33.000  
G18  23542855.329   123718531.915       -3684.947          36.000    23542851.271    96404014.869       -2871.848          36.000  
G23  19239074.418   101102014.640       -2050.298          45.000    19239062.671    78780716.048       -1597.736          48.000  
G24  20906904.666                       -3355.882          30.000    20906895.375                       -2614.299          31.000  
G32  20913620.413   109901817.222        1510.195          46.000    20913609.862    85637725.020        1176.963          42.000  
C08  34707656.377   180731870.834        -328.796          46.000    34707639.479   139753267.760        -254.364          49.000  
C13  34711630.168   180752563.506         -33.850          47.000    34711621.098   139769301.486         -26.178          48.000  
C16  35671947.867   185753188.675           9.126          46.000    35671937.177   143636108.391           6.929          48.000  
C25  22234737.088   115782125.312       -2528.114          36.000                                                                  
C32  21059025.759   109659877.365         889.017          50.000                                                                  
C06  35366596.248   184163148.397         188.528          44.000    35366580.925   142406564.444         145.691          47.000  
G25  20518983.888   107828002.123        2575.291          41.000    20518976.001    84021777.793        2007.132          43.000  
G10  19522251.824   102590122.378        1077.454          50.000    19522240.267    79940311.297         839.697          44.000  
G28  22058438.172   115917887.393        2602.258          40.000    22058427.911    90325607.427        2027.427          41.000  
C23  20729441.579   107943639.442         293.797          50.000                                                                  
C09  36835815.696   191813764.475         286.850          40.000    36835804.131   148322516.977         221.951          47.000  
C33  26087588.499                       -2920.605          31.000                                                                  
C37  22893724.466   119213644.418        2702.546          43.000                                                                  
> 2025 10 27 02 49 46.2760000  0 19                     
G12  20759410.819   109091441.285         912.251          45.000    20759398.944    85006271.318         710.791          42.000  
G15  23217815.398   122010433.967       -3247.385          35.000    23217809.509    95073050.729       -2530.302          33.000  
G18  23542883.397   123718679.293       -3684.585          36.000    23542879.347    96404129.734       -2871.753          36.000  
G23  19239090.045   101102096.668       -2050.582          45.000    19239078.279    78780779.960       -1597.810          48.000  
G24  20906930.229                       -3356.131          30.000    20906920.924                       -2614.549          31.000  
G32  20913608.936   109901756.814        1510.206          46.000    20913598.366    85637677.951        1176.851          42.000  
C08  34707658.914   180731883.993        -328.912          46.000    34707642.045   139753277.938        -254.431          49.000  
C13  34711630.410   180752564.861         -33.868          47.000    34711621.372   139769302.533         -26.172          48.000  
C16  35671947.794   185753188.312           9.128          46.000    35671937.101   143636108.109           7.001          48.000  
C25  22234756.506   115782226.438       -2528.176          36.000                                                                  
C32  21059018.911   109659841.808         888.963          50.000                                                                  
C06  35366594.810   184163140.850         188.622          44.000    35366579.486   142406558.618         145.643          47.000  
G25  20518964.293   107827899.114        2575.225          41.000    20518956.400    84021697.515        2007.084          43.000  
G10  19522243.612   102590079.279        1077.429          50.000    19522232.081    79940277.714         839.624          44.000  
G28  22058418.358   115917783.307        2602.208          40.000    22058408.118    90325526.313        2027.732          41.000  
C23  20729439.328   107943627.686         293.854          50.000                                                                  
C09  36835813.491   191813752.999         286.869          40.000    36835801.957   148322508.102         221.912          47.000  
C33  26087610.930                       -2920.542          31.000                                                                  
C37  22893703.701   119213536.320        2702.474          43.000                                                                  
> 2025 10 27 02 49 46.3160000  0 19                     
G12  20759403.862   109091404.785         912.353          45.000    20759391.976    85006242.866         711.126          42.000  
G15  23217840.117   122010563.857       -3247.484          35.000    23217834.218    95073151.924       -2530.090          33.000  
G18  23542911.438   123718826.679       -3684.515          36.000    23542907.378    96404244.584       -2871.465          36.000  
G23  19239105.663   101102178.680       -2050.434          45.000    19239093.876    78780843.867       -1597.748          48.000  
G24  20906955.760                       -3355.042          30.000    20906946.466                       -2614.221          31.000  
G32  20913597.448   109901696.415        1510.056          46.000    20913586.873    85637630.892        1176.584          42.000  
C08  34707661.452   180731897.160        -329.144          46.000    34707644.602   139753288.115        -254.462          49.000  
C13  34711630.659   180752566.221         -33.966          47.000    34711621.637   139769303.582         -26.227          48.000  
C16  35671947.749   185753187.951           9.082          46.000    35671937.019   143636107.822           7.116          48.000  
C25  22234775.912   115782327.516       -2527.306          36.000                                                                  
C32  21059012.073   109659806.250         888.938          50.000                                                                  
C06  35366593.351   184163133.311         188.562          44.000    35366578.039   142406552.780         145.815          47.000  
G25  20518944.681   107827796.084        2575.549          41.000    20518936.806    84021617.242        2006.907          43.000  
G10  19522235.408   102590036.180        1077.441          50.000    19522223.883    79940244.135         839.490          44.000  
G28  22058398.558   115917679.234        2601.897          40.000    22058388.303    90325445.202        2027.811          41.000  
C23  20729437.054   107943615.931         293.866          50.000                                                                  
C09  36835811.301   191813741.527         286.807          40.000    36835799.739   148322499.228         221.860          47.000  
C33  26087633.391                       -2921.445          31.000                                                                  
C37  22893682.938   119213428.235        2702.206          43.000                                                                  
> 2025 10 27 02 49 46.3560000  0 19                     
G12  20759396.921   109091368.277         912.574          45.000    20759385.026    85006214.409         711.363          42.000  
G15  23217864.846   122010693.735       -3247.246          35.000    23217858.949    95073253.118       -2529.821          33.000  
G18  23542939.489   123718974.119       -3685.550          36.000    23542935.429    96404359.400       -2870.717          36.000  
G23  19239121.270   101102260.694       -2050.391          45.000    19239109.493    78780907.779       -1597.785          48.000  
G24  20906981.270                       -3354.606          30.000    20906971.997                       -2614.812          31.000  
G32  20913585.946   109901635.999        1510.271          46.000    20913575.387    85637583.821        1176.640          42.000  
C08  34707663.996   180731910.317        -329.059          46.000    34707647.154   139753298.282        -254.272          49.000  
C13  34711630.930   180752567.577         -33.948          47.000    34711621.884   139769304.624         -26.123          48.000  
C16  35671947.680   185753187.587           9.073          46.000    35671936.979   143636107.544           7.022          48.000  
C25  22234795.347   115782428.653       -2527.962          36.000                                                                  
C32  21059005.264   109659770.689         889.002          50.000                                                                  
C06  35366591.892   184163125.771         188.535          44.000    35366576.573   142406546.938         145.977          47.000  
G25  20518925.073   107827693.049        2575.858          41.000    20518917.202    84021536.973        2006.753          43.000  
G10  19522227.219   102589993.085        1077.356          50.000    19522215.666    79940210.553         839.508          44.000  
G28  22058378.751   115917575.123        2602.510          40.000    22058368.505    90325364.091        2027.828          41.000  
C23  20729434.759   107943604.177         293.858          50.000                                                                  
C09  36835809.093   191813730.036         287.141          40.000    36835797.512   148322490.352         221.854          47.000  
C33  26087655.824                       -2919.814          31.000                                                                  
C37  22893662.197   119213320.133        2702.384          43.000                                                                  
> 2025 10 27 02 49 46.3960000  0 19                     
G12  20759389.965   109091331.768         912.726          45.000    20759378.059    85006185.967         711.193          42.000  
G15  23217889.564   122010823.640       -3247.474          34.000    23217883.654    95073354.308       -2529.594          33.000  
G18  23542967.528   123719121.501       -3685.025          36.000    23542963.479    96404474.257       -2871.077          36.000  
G23  19239136.894   101102342.716       -2050.514          45.000    19239125.103    78780971.686       -1597.717          48.000  
G24  20907006.813                       -3354.556          30.000    20906997.519    85610615.341       -2614.425          31.000  
G32  20913574.433   109901575.595        1510.164          46.000    20913563.899    85637536.743        1176.814          42.000  
C08  34707666.509   180731923.479        -329.077          46.000    34707649.673   139753308.460        -254.395          49.000  
C13  34711631.195   180752568.930         -33.881          47.000    34711622.157   139769305.670         -26.154          48.000  
C16  35671947.615   185753187.220           9.117          46.000    35671936.939   143636107.260           7.095          48.000  
C25  22234814.775   115782529.770       -2527.980          36.000                                                                  
C32  21058998.436   109659735.135         888.899          50.000                                                                  
C06  35366590.445   184163118.223         188.625          44.000    35366575.099   142406541.105         145.857          47.000  
G25  20518905.460   107827590.032        2575.600          41.000    20518897.596    84021456.696        2006.802          43.000  
G10  19522219.017   102589949.992        1077.283          50.000    19522207.458    79940176.969         839.569          44.000  
G28  22058358.926   115917471.030        2602.488          40.000    22058348.722    90325282.980        2027.802          41.000  
C23  20729432.476   107943592.426         293.760          50.000                                                                  
C09  36835806.885   191813718.551         287.175          40.000    36835795.321   148322481.474         221.886          47.000  
C33  26087678.282                       -2921.185          31.000                                                                  
C37  22893641.401   119213212.036        2702.395          43.000                                                                  
> 2025 10 27 02 49 46.4360000  0 19                     
G12  20759383.043   109091295.278         912.436          45.000    20759371.125    85006157.535         710.916          42.000  
G15  23217914.305   122010953.517       -3247.189          34.000    23217908.392    95073455.515       -2529.951          32.000  
G18  23542995.563   123719268.875       -3684.640          36.000    23542991.529    96404589.106       -2871.101          36.000  
G23  19239152.518   101102424.739       -2050.619          45.000    19239140.709    78781035.595       -1597.711          48.000  
G24  20907032.354                       -3355.515          30.000    20907023.064    85610719.935       -2614.739          31.000  
G32  20913562.936   109901515.187        1510.171          46.000    20913552.410    85637489.666        1176.924          42.000  
C08  34707669.023   180731936.632        -328.912          46.000    34707652.178   139753318.636        -254.425          49.000  
C13  34711631.462   180752570.282         -33.832          47.000    34711622.418   139769306.718         -26.208          48.000  
C16  35671947.555   185753186.848           9.220          46.000    35671936.866   143636106.977           7.060          48.000  
C25  22234834.207   115782630.891       -2528.054          36.000                                                                  
C32  21058991.630   109659699.577         888.913          50.000                                                                  
C06  35366588.986   184163110.676         188.677          44.000    35366573.651   142406535.282         145.632          47.000  
G25  20518885.862   107827487.018        2575.378          41.000    20518878.000    84021376.424        2006.786          43.000  
G10  19522210.802   102589906.895        1077.368          50.000    19522199.255    79940143.397         839.362          44.000  
G28  22058339.135   115917366.951        2602.138          40.000    22058328.917    90325201.879        2027.583          41.000  
C23  20729430.201   107943580.678         293.685          50.000                                                                  
C09  36835804.703   191813707.070         287.129          40.000    36835793.102   148322472.597         221.923          47.000  
C33  26087700.727                       -2921.674          31.000                                                                  
C37  22893620.674   119213103.935        2702.504          43.000                                                                  
> 2025 10 27 02 49 46.4760000  0 19                     
G12  20759376.106   109091258.787         912.269          45.000    20759364.175    85006129.102         710.800          42.000  
G15  23217939.036   122011083.381       -3246.866          34.000    23217933.133    95073556.763       -2530.894          32.000  
G18  23543023.617   123719416.264       -3684.711          36.000    23543019.566    96404703.955       -2871.072          36.000  
G23  19239168.101   101102506.757       -2050.532          45.000    19239156.317    78781099.507       -1597.786          48.000  
G24  20907057.929                       -3356.262          30.000    20907048.592                       -2614.196          31.000  
G32  20913551.419   109901454.780        1510.158          46.000    20913540.907    85637442.605        1176.648          42.000  
C08  34707671.513   180731949.788        -328.906          46.000    34707654.701   139753328.808        -254.370          49.000  
C13  34711631.756   180752571.633         -33.777          47.000    34711622.678   139769307.766         -26.227          48.000  
C16  35671947.495   185753186.490           9.029          46.000    35671936.809   143636106.691           7.117          48.000  
C25  22234853.618   115782732.007       -2527.923          36.000                                                                  
C32  21058984.811   109659664.018         888.945          50.000                                                                  
C06  35366587.513   184163103.133         188.601          44.000    35366572.192   142406529.454         145.585          47.000  
G25  20518866.297   107827384.014        2575.152          41.000    20518858.385    84021296.152        2006.760          43.000  
G10  19522202.629   102589863.804        1077.301          50.000    19522191.043    79940109.815         839.423          44.000  
G28  22058319.332   115917262.848        2602.413          40.000    22058309.090    90325120.759        2027.821          41.000  
C23  20729427.938   107943568.931         293.644          50.000                                                                  
C09  36835802.478   191813695.590         286.982          40.000    36835790.858   148322463.723         221.867          47.000  
C33  26087723.152                       -2919.856          31.000                                                                  
C37  22893599.920   119212995.842        2702.422          43.000                                                                  
> 2025 10 27 02 49 46.5160000  0 19                     
G12  20759369.156   109091222.292         912.268          45.000    20759357.233    85006100.668         710.785          42.000  
G15  23217963.711   122011213.261       -3246.992          34.000    23217957.846    95073657.960       -2530.466          32.000  
G18  23543051.658   123719563.666       -3684.913          36.000    23543047.600    96404818.824       -2871.556          36.000  
G23  19239183.704   101102588.781       -2050.624          45.000    19239171.932    78781163.421       -1597.865          48.000  
G24  20907083.476   109867476.753       -3356.172          30.000    20907074.135                       -2614.592          31.000  
G32  20913539.926   109901394.373        1510.145          46.000    20913529.408    85637395.526        1176.819          42.000  
C08  34707674.014   180731962.947        -328.943          46.000    34707657.227   139753338.984        -254.413          49.000  
C13  34711632.003   180752572.987         -33.813          47.000    34711622.965   139769308.812         -26.196          48.000  
C16  35671947.427   185753186.132           8.934          46.000    35671936.738   143636106.417           6.927          48.000  
C25  22234873.051   115782833.115       -2527.739          36.000                                                                  
C32  21058977.979   109659628.459         888.984          50.000                                                                  
C06  35366586.064   184163095.597         188.441          44.000    35366570.753   142406523.623         145.643          47.000  
G25  20518846.715   107827280.997        2575.292          41.000    20518838.763    84021215.874        2006.874          42.000  
G10  19522194.431   102589820.713        1077.258          50.000    19522182.818    79940076.236         839.447          44.000  
G28  22058299.554   115917158.782        2601.801          40.000    22058289.278    90325039.639        2027.989          41.000  
C23  20729425.662   107943557.186         293.588          50.000                                                                  
C09  36835800.313   191813684.112         286.915          40.000    36835788.638   148322454.848         221.855          47.000  
C33  26087745.589                       -2919.952          31.000                                                                  
C37  22893579.162   119212887.748        2702.361          43.000                                                                  
> 2025 10 27 02 49 46.5560000  0 19                     
G12  20759362.183   109091185.796         912.331          45.000    20759350.279    85006072.231         710.827          42.000  
G15  23217988.416   122011343.160       -3247.407          34.000    23217982.592    95073759.185       -2530.645          32.000  
G18  23543079.731   123719711.066       -3684.998          36.000    23543075.638    96404933.688       -2871.577          36.000  
G23  19239199.320   101102670.799       -2050.513          45.000    19239187.541    78781227.332       -1597.828          48.000  
G24  20907109.023                       -3354.795          30.000    20907099.642                       -2615.518          31.000  
G32  20913528.435   109901333.961        1510.221          46.000    20913517.905    85637348.460        1176.681          42.000  
C08  34707676.562   180731976.110        -329.053          46.000    34707659.760   139753349.161        -254.443          49.000  
C13  34711632.240   180752574.346         -33.948          47.000    34711623.232   139769309.862         -26.233          48.000  
C16  35671947.390   185753185.773           8.919          46.000    35671936.680   143636106.140           6.872          48.000  
C25  22234892.447   115782934.226       -2527.734          36.000                                                                  
C32  21058971.148   109659592.902         888.918          50.000                                                                  
C06  35366584.634   184163088.040         188.694          44.000    35366569.327   142406517.789         145.736          47.000  
G25  20518827.088   107827177.964        2575.638          41.000    20518819.145    84021135.583        2007.158          42.000  
G10  19522186.221   102589777.618        1077.307          50.000    19522174.646    79940042.658         839.435          44.000  
G28  22058279.750   115917054.715        2601.556          40.000    22058269.459    90324958.536        2027.751          41.000  
C23  20729423.438   107943545.435         293.687          50.000                                                                  
C09  36835798.119   191813672.644         286.670          40.000    36835786.448   148322445.973         221.835          47.000  
C33  26087767.966                       -2920.068          31.000                                                                  
C37  22893558.411   119212779.651        2702.411          43.000                                                                  
> 2025 10 27 02 49 46.5960000  0 19                     
G12  20759355.241   109091149.297         912.395          45.000    20759343.309    85006043.785         711.001          42.000  
G15  23218013.144   122011473.030       -3247.095          34.000    23218007.300    95073860.379       -2530.189          33.000  
G18  23543107.741   123719858.437       -3684.477          36.000    23543103.684    96405048.548       -2871.474          36.000  
G23  19239214.914   101102752.828       -2050.692          45.000    19239203.146    78781291.252       -1597.988          48.000  
G24  20907134.573                       -3354.068          30.000    20907125.179    85611138.283       -2614.962          31.000  
G32  20913516.954   109901273.561        1510.040          46.000    20913506.422    85637301.400        1176.523          42.000  
C08  34707679.081   180731989.274        -329.138          46.000    34707662.307   139753359.346        -254.602          49.000  
C13  34711632.497   180752575.704         -33.984          47.000    34711623.483   139769310.920         -26.440          48.000  
C16  35671947.358   185753185.414           8.909          46.000    35671936.636   143636105.866           6.804          48.000  
C25  22234911.859   115783035.356       -2528.073          36.000                                                                  
C32  21058964.294   109659557.352         888.764          50.000                                                                  
C06  35366583.173   184163080.503         188.500          44.000    35366567.908   142406511.945         146.000          47.000  
G25  20518807.489   107827074.954        2575.436          41.000    20518799.546    84021055.328        2006.634          42.000  
G10  19522178.024   102589734.526        1077.277          50.000    19522166.451    79940009.077         839.471          44.000  
G28  22058259.931   115916950.634        2601.690          40.000    22058249.656    90324877.438        2027.515          41.000  
C23  20729421.181   107943533.688         293.647          50.000                                                                  
C09  36835795.899   191813661.179         286.503          40.000    36835784.248   148322437.095         221.886          47.000  
C33  26087790.395                       -2920.719          31.000                                                                  
C37  22893537.671   119212671.560        2702.308          43.000                                                                  
> 2025 10 27 02 49 46.6360000  0 19                     
G12  20759348.301   109091112.805         912.289          45.000    20759336.391    85006015.361         710.714          42.000  
G15  23218037.874   122011602.910       -3247.047          34.000    23218032.003    95073961.545       -2529.418          32.000  
G18  23543135.790   123720005.833       -3684.742          36.000    23543131.730    96405163.394       -2871.250          36.000  
G23  19239230.505   101102834.852       -2050.648          45.000    19239218.752    78781355.169       -1597.994          48.000  
G24  20907160.105                       -3354.912          30.000    20907150.731                       -2614.067          31.000  
G32  20913505.466   109901213.157        1510.024          46.000    20913494.893    85637254.329        1176.636          42.000  
C08  34707681.634   180732002.433        -329.041          46.000    34707664.871   139753369.515        -254.358          49.000  
C13  34711632.752   180752577.061         -33.990          47.000    34711623.732   139769311.965         -26.270          48.000  
C16  35671947.317   185753185.050           9.029          46.000    35671936.582   143636105.591           6.808          48.000  
C25  22234931.280   115783136.493       -2528.436          36.000                                                                  
C32  21058957.457   109659521.799         888.762          50.000                                                                  
C06  35366581.709   184163072.969         188.352          44.000    35366566.437   142406506.104         146.050          47.000  
G25  20518787.874   107826971.934        2575.512          41.000    20518779.953    84020975.046        2006.837          42.000  
G10  19522169.850   102589691.435        1077.252          50.000    19522158.274    79939975.503         839.392          44.000  
G28  22058240.127   115916846.537        2602.146          40.000    22058229.871    90324796.341        2027.380          41.000  
C23  20729418.901   107943521.945         293.563          50.000                                                                  
C09  36835793.700   191813649.689         286.864          40.000    36835782.044   148322428.222         221.855          47.000  
C33  26087812.872                       -2921.659          31.000                                                                  
C37  22893516.926   119212563.467        2702.293          43.000                                                                  
> 2025 10 27 02 49 46.6760000  0 19                     
G12  20759341.329   109091076.316         912.194          45.000    20759329.468    85005986.938         710.525          42.000  
G15  23218062.578   122011732.769       -3246.711          34.000    23218056.696    95074062.740       -2529.584          32.000  
G18  23543163.826   123720153.242       -3685.084          36.000    23543159.758    96405278.226       -2870.880          36.000  
G23  19239246.101   101102916.880       -2050.697          45.000    19239234.368    78781419.086       -1597.993          48.000  
G24  20907185.619                       -3355.992          30.000    20907176.261    85611347.381       -2613.659          31.000  
G32  20913493.950   109901152.750        1510.092          46.000    20913483.398    85637207.269        1176.475          42.000  
C08  34707684.157   180732015.595        -329.053          46.000    34707667.422   139753379.699        -254.517          49.000  
C13  34711632.980   180752578.419         -34.003          47.000    34711624.010   139769313.012         -26.196          48.000  
C16  35671947.291   185753184.683           9.165          46.000    35671936.494   143636105.312           6.896          48.000  
C25  22234950.711   115783237.633       -2528.700          36.000                                                                  
C32  21058950.661   109659486.244         888.789          50.000                                                                  
C06  35366580.238   184163065.431         188.318          44.000    35366564.958   142406500.272         145.891          47.000  
G25  20518768.271   107826868.917        2575.457          41.000    20518760.357    84020894.776        2006.738          42.000  
G10  19522161.686   102589648.348        1077.173          50.000    19522150.079    79939941.929         839.313          44.000  
G28  22058220.324   115916742.442        2602.336          40.000    22058210.052    90324715.245        2027.320          41.000  
C23  20729416.641   107943510.200         293.579          50.000                                                                  
C09  36835791.492   191813638.212         286.888          40.000    36835779.841   148322419.346         221.861          47.000  
C33  26087835.346                       -2921.293          31.000                                                                  
C37  22893496.169   119212455.363        2702.492          43.000                                                                  
> 2025 10 27 02 49 46.7160000  0 19                     
G12  20759334.375   109091039.832         912.096          45.000    20759322.515    85005958.493         710.880          42.000  
G15  23218087.292   122011862.619       -3246.382          34.000    23218081.401    95074163.988       -2530.697          32.000  
G18  23543191.881   123720300.623       -3684.761          36.000    23543187.806    96405393.090       -2871.318          36.000  
G23  19239261.701   101102998.905       -2050.685          45.000    19239249.991    78781483.006       -1598.024          48.000  
G24  20907211.186                       -3357.001          30.000    20907201.840                       -2615.174          31.000  
G32  20913482.480   109901092.350        1510.015          46.000    20913471.888    85637160.185        1176.887          42.000  
C08  34707686.661   180732028.754        -329.028          46.000    34707669.931   139753389.878        -254.529          49.000  
C13  34711633.237   180752579.774         -33.936          47.000    34711624.277   139769314.059         -26.190          48.000  
C16  35671947.202   185753184.314           9.238          46.000    35671936.433   143636105.025           7.097          48.000  
C25  22234970.143   115783338.762       -2528.463          36.000                                                                  
C32  21058943.845   109659450.690         888.795          50.000                                                                  
C06  35366578.807   184163057.898         188.286          44.000    35366563.494   142406494.444         145.729          47.000  
G25  20518748.691   107826765.902        2575.405          41.000    20518740.751    84020814.507        2006.662          42.000  
G10  19522153.485   102589605.256        1077.216          50.000    19522141.875    79939908.353         839.331          44.000  
G28  22058200.515   115916638.358        2602.216          40.000    22058190.251    90324634.139        2027.476          41.000  
C23  20729414.395   107943498.455         293.573          50.000                                                                  
C09  36835789.324   191813626.728         287.020          40.000    36835777.621   148322410.469         221.912          47.000  
C33  26087857.775                       -2919.896          31.000                                                                  
C37  22893475.412   119212347.267        2702.404          43.000                                                                  
> 2025 10 27 02 49 46.7560000  0 19                     
G12  20759327.417   109091003.344         912.154          45.000    20759315.564    85005930.046         711.089          42.000  
G15  23218112.034   122011992.551       -3247.557          34.000    23218106.107    95074265.247       -2531.389          32.000  
G18  23543219.945   123720448.040       -3685.117          36.000    23543215.868    96405507.972       -2871.875          36.000  
G23  19239277.333   101103080.940       -2050.844          45.000    19239265.588    78781546.923       -1597.987          48.000  
G24  20907236.750                       -3355.919          30.000    20907227.350                       -2614.867          32.000  
G32  20913470.980   109901031.945        1510.035          46.000    20913460.380    85637113.124        1176.632          42.000  
C08  34707689.154   180732041.920        -329.138          46.000    34707672.433   139753400.054        -254.486          49.000  
C13  34711633.480   180752581.133         -33.978          47.000    34711624.546   139769315.110         -26.276          48.000  
C16  35671947.148   185753183.963           8.940          46.000    35671936.352   143636104.745           7.059          48.000  
C25  22234989.559   115783439.871       -2527.957          36.000                                                                  
C32  21058937.018   109659415.142         888.694          50.000                                                                  
C06  35366577.357   184163050.358         188.389          44.000    35366562.028   142406488.623         145.543          47.000  
G25  20518729.104   107826662.907        2575.020          41.000    20518721.146    84020734.246        2006.454          42.000  
G10  19522145.318   102589562.170        1077.161          50.000    19522133.685    79939874.779         839.331          44.000  
G28  22058180.716   115916534.277        2602.079          40.000    22058170.430    90324553.019        2027.831          41.000  
C23  20729412.101   107943486.719         293.433          50.000                                                                  
C09  36835787.129   191813615.263         286.716          40.000    36835775.393   148322401.597         221.817          47.000  
C33  26087880.231                       -2920.134          31.000                                                                  
C37  22893454.638   119212239.179        2702.240          43.000                                                                  
> 2025 10 27 02 49 46.7960000  0 19                     
G12  20759320.495   109090966.865         912.007          45.000    20759308.607    85005901.610         710.945          42.000  
G15  23218136.779   122012122.457       -3247.761          34.000    23218130.841    95074366.371       -2529.237          32.000  
G18  23543248.000   123720595.433       -3684.903          36.000    23543243.897    96405622.834       -2871.857          36.000  
G23  19239292.923   101103162.972       -2050.850          45.000    19239281.195    78781610.842       -1598.011          48.000  
G24  20907262.310                       -3355.058          30.000    20907252.892                       -2614.202          32.000  
G32  20913459.474   109900971.537        1510.112          46.000    20913448.881    85637066.051        1176.712          42.000  
C08  34707691.650   180732055.083        -329.132          46.000    34707674.959   139753410.237        -254.572          49.000  
C13  34711633.725   180752582.490         -33.978          47.000    34711624.818   139769316.168         -26.422          48.000  
C16  35671947.077   185753183.600           8.978          46.000    35671936.274   143636104.464           7.051          48.000  
C25  22235008.972   115783540.993       -2528.002          36.000                                                                  
C32  21058930.207   109659379.591         888.709          50.000                                                                  
C06  35366575.897   184163042.805         188.639          44.000    35366560.585   142406482.801         145.453          47.000  
G25  20518709.508   107826559.898        2575.049          41.000    20518701.567    84020653.979        2006.511          42.000  
G10  19522137.112   102589519.085        1077.094          50.000    19522125.467    79939841.211         839.221          44.000  
G28  22058160.922   115916430.191        2602.047          40.000    22058150.623    90324471.922        2027.560          41.000  
C23  20729409.877   107943474.976         293.488          50.000                                                                  
C09  36835784.911   191813603.782         286.869          40.000    36835773.181   148322392.726         221.767          47.000  
C33  26087902.673                       -2919.846          31.000                                                                  
C37  22893433.875   119212131.087        2702.225          43.000                                                                  
> 2025 10 27 02 49 46.8360000  0 19                     
G12  20759313.554   109090930.380         912.043          45.000    20759301.671    85005873.190         710.555          42.000  
G15  23218161.503   122012252.329       -3247.200          34.000    23218155.541    95074467.578       -2529.768          32.000  
G18  23543276.063   123720742.819       -3684.568          35.000    23543271.938    96405737.698       -2871.774          36.000  
G23  19239308.551   101103245.009       -2050.973          45.000    19239296.817    78781674.762       -1598.011          48.000  
G24  20907287.840                       -3354.723          30.000    20907278.427                       -2614.209          32.000  
G32  20913447.990   109900911.131        1510.136          46.000    20913437.416    85637018.982        1176.692          42.000  
C08  34707694.156   180732068.251        -329.218          46.000    34707677.488   139753420.410        -254.425          49.000  
C13  34711633.957   180752583.854         -34.088          47.000    34711625.067   139769317.220         -26.410          48.000  
C16  35671947.021   185753183.251           8.764          46.000    35671936.202   143636104.195           6.793          48.000  
C25  22235028.374   115783642.110       -2528.003          36.000                                                                  
C32  21058923.421   109659344.034         888.837          50.000                                                                  
C06  35366574.438   184163035.264         188.593          44.000    35366559.119   142406476.973         145.546          47.000  
G25  20518689.897   107826456.886        2575.151          41.000    20518681.947    84020573.714        2006.555          43.000  
G10  19522128.927   102589476.007        1076.935          50.000    19522117.261    79939807.641         839.227          44.000  
G28  22058141.132   115916326.113        2601.924          40.000    22058130.837    90324390.821        2027.448          41.000  
C23  20729407.621   107943463.239         293.412          50.000                                                                  
C09  36835782.704   191813592.316         286.668          40.000    36835770.980   148322383.860         221.649          47.000  
C33  26087925.121                       -2920.106          31.000                                                                  
C37  22893413.099   119212022.995        2702.164          43.000                                                                  
> 2025 10 27 02 49 46.8760000  0 19                     
G12  20759306.624   109090893.904         911.948          45.000    20759294.729    85005844.771         710.351          42.000  
G15  23218186.213   122012382.193       -3246.790          34.000    23218180.264    95074568.796       -2530.243          32.000  
G18  23543304.118   123720890.225       -3684.889          35.000    23543299.979    96405852.555       -2871.568          36.000  
G23  19239324.151   101103327.040       -2050.899          45.000    19239312.433    78781738.688       -1598.153          48.000  
G24  20907313.358                       -3355.473          30.000    20907303.980                       -2615.340          32.000  
G32  20913436.495   109900850.735        1509.969          46.000    20913425.905    85636971.917        1176.663          42.000  
C08  34707696.687   180732081.424        -329.333          46.000    34707680.039   139753430.593        -254.517          49.000  
C13  34711634.211   180752585.215         -34.106          47.000    34711625.340   139769318.274         -26.416          48.000  
C16  35671946.940   185753182.899           8.710          46.000    35671936.121   143636103.916           6.866          48.000  
C25  22235047.798   115783743.237       -2528.158          36.000                                                                  
C32  21058916.605   109659308.479         888.843          50.000                                                                  
C06  35366572.980   184163027.727         188.445          44.000    35366557.653   142406471.144         145.651          47.000  
G25  20518670.287   107826353.872        2575.305          41.000    20518662.359    84020493.448        2006.623          43.000  
G10  19522120.727   102589432.925        1076.953          50.000    19522109.039    79939774.074         839.166          44.000  
G28  22058121.331   115916222.040        2601.776          40.000    22058111.039    90324309.726        2027.319          41.000  
C23  20729405.346   107943451.506         293.298          50.000                                                                  
C09  36835780.505   191813580.839         286.750          40.000    36835768.748   148322374.982         221.807          47.000  
C33  26087947.503                       -2922.125          31.000                                                                  
C37  22893392.344   119211914.915        2702.027          43.000                                                                  
> 2025 10 27 02 49 46.9160000  0 19                     
G12  20759299.656   109090857.417         912.059          45.000    20759287.799    85005816.347         710.366          42.000  
G15  23218210.924   122012512.060       -3246.561          34.000    23218205.015    95074670.015       -2530.464          32.000  
G18  23543332.176   123721037.625       -3685.031          35.000    23543328.008    96405967.392       -2871.115          36.000  
G23  19239339.760   101103409.068       -2050.793          45.000    19239328.045    78781802.609       -1598.097          48.000  
G24  20907338.929                       -3355.851          30.000    20907329.514                       -2615.024          32.000  
G32  20913424.995   109900790.327        1510.128          46.000    20913414.412    85636924.854        1176.585          41.000  
C08  34707699.224   180732094.582        -329.120          46.000    34707682.579   139753440.773        -254.535          49.000  
C13  34711634.467   180752586.568         -33.942          47.000    34711625.636   139769319.320         -26.263          48.000  
C16  35671946.843   185753182.540           8.840          46.000    35671936.069   143636103.640           6.867          48.000  
C25  22235067.218   115783844.389       -2528.693          36.000                                                                  
C32  21058909.763   109659272.929         888.772          50.000                                                                  
C06  35366571.537   184163020.198         188.259          44.000    35366556.200   142406465.321         145.601          47.000  
G25  20518650.677   107826250.854        2575.411          41.000    20518642.741    84020413.178        2006.732          43.000  
G10  19522112.503   102589389.841        1077.020          50.000    19522100.814    79939740.494         839.392          44.000  
G28  22058101.531   115916117.961        2601.884          40.000    22058091.223    90324228.626        2027.333          41.000  
C23  20729403.119   107943439.770         293.314          50.000                                                                  
C09  36835778.295   191813569.372         286.671          40.000    36835766.579   148322366.110         221.794          47.000  
C33  26087969.949                       -2920.854          31.000                                                                  
C37  22893371.557   119211806.827        2702.098          43.000                                                                  
> 2025 10 27 02 49 46.9560000  0 19                     
G12  20759292.691   109090820.920         912.310          45.000    20759280.839    85005787.916         710.560          42.000  
G15  23218235.629   122012641.955       -3247.040          34.000    23218229.719    95074771.258       -2530.970          32.000  
G18  23543360.251   123721185.055       -3685.545          35.000    23543356.042    96406082.238       -2871.071          36.000  
G23  19239355.370   101103491.101       -2050.800          45.000    19239343.647    78781866.529       -1598.035          47.000  
G24  20907364.488                       -3356.055          30.000    20907355.065                       -2614.662          31.000  
G32  20913413.484   109900729.919        1510.171          46.000    20913402.905    85636877.775        1176.840          41.000  
C08  34707701.756   180732107.744        -329.034          46.000    34707685.122   139753450.949        -254.462          49.000  
C13  34711634.694   180752587.933         -34.076          47.000    34711625.868   139769320.362         -26.105          48.000  
C16  35671946.781   185753182.177           8.969          46.000    35671936.017   143636103.357           7.011          48.000  
C25  22235086.641   115783945.514       -2528.482          36.000                                                                  
C32  21058902.936   109659237.381         888.721          50.000                                                                  
C06  35366570.082   184163012.663         188.273          44.000    35366554.765   142406459.482         145.850          46.000  
G25  20518631.096   107826147.857        2575.100          41.000    20518623.144    84020332.912        2006.690          43.000  
G10  19522104.312   102589346.760        1077.002          50.000    19522092.648    79939706.924         839.325          44.000  
G28  22058081.727   115916013.875        2602.084          40.000    22058071.440    90324147.537        2027.204          41.000  
C23  20729400.885   107943428.034         293.356          50.000                                                                  
C09  36835776.077   191813557.898         286.805          40.000    36835764.351   148322357.237         221.813          47.000  
C33  26087992.388                       -2920.525          31.000                                                                  
C37  22893350.803   119211698.729        2702.324          43.000                                                                  
> 2025 10 27 02 49 46.9960000  0 19                     
G12  20759285.738   109090784.429         912.309          45.000    20759273.926    85005759.485         710.677          42.000  
G15  23218260.360   122012771.839       -3247.050          34.000    23218254.433    95074872.461       -2530.525          32.000  
G18  23543388.325   123721332.431       -3684.850          35.000    23543384.111    96406197.088       -2871.171          36.000  
G23  19239370.979   101103573.131       -2050.782          45.000    19239359.256    78781930.458       -1598.195          47.000  
G24  20907390.025                       -3355.921          30.000    20907380.614    85612184.081       -2614.295          31.000  
G32  20913401.983   109900669.513        1510.162          46.000    20913391.409    85636830.698        1176.911          41.000  
C08  34707704.292   180732120.899        -328.912          46.000    34707687.666   139753461.121        -254.333          49.000  
C13  34711634.947   180752589.288         -33.966          47.000    34711626.095   139769321.408         -26.129          48.000  
C16  35671946.710   185753181.805           9.228          46.000    35671935.955   143636103.071           7.091          48.000  
C25  22235106.064   115784046.625       -2527.994          36.000                                                                  
C32  21058896.141   109659201.832         888.698          50.000                                                                  
C06  35366568.661   184163005.116         188.500          44.000    35366553.318   142406453.651         145.815          46.000  
G25  20518611.505   107826044.858        2574.907          41.000    20518603.563    84020252.648        2006.637          42.000  
G10  19522096.095   102589303.676        1077.063          50.000    19522084.457    79939673.355         839.288          44.000  
G28  22058061.903   115915909.790        2602.170          40.000    22058051.610    90324066.433        2027.385          41.000  
C23  20729398.639   107943416.290         293.516          50.000                                                                  
C09  36835773.876   191813546.416         286.993          40.000    36835762.160   148322348.362         221.837          47.000  
C33  26088014.808                       -2920.349          31.000                                                                  
C37  22893330.023   119211590.634        2702.414          43.000                                                                  
> 2025 10 27 02 49 47.0360000  0 19                     
G12  20759278.790   109090747.950         912.073          45.000    20759266.998    85005731.063         710.549          42.000  
G15  23218285.063   122012901.752       -3247.466          34.000    23218279.114    95074973.613       -2529.375          32.000  
G18  23543416.362   123721479.793       -3684.195          35.000    23543412.137    96406311.955       -2871.491          36.000  
G23  19239386.584   101103655.162       -2050.769          45.000    19239374.852    78781994.377       -1598.084          47.000  
G24  20907415.577                       -3354.539          30.000    20907406.164    85612288.698       -2615.053          31.000  
G32  20913390.501   109900609.112        1510.064          46.000    20913379.931    85636783.641        1176.612          41.000  
C08  34707706.800   180732134.059        -328.961          46.000    34707690.205   139753471.303        -254.462          49.000  
C13  34711635.196   180752590.639         -33.820          47.000    34711626.361   139769322.456         -26.202          48.000  
C16  35671946.630   185753181.441           9.180          46.000    35671935.865   143636102.790           7.040          48.000  
C25  22235125.481   115784147.751       -2528.001          36.000                                                                  
C32  21058889.316   109659166.282         888.724          50.000                                                                  
C06  35366567.207   184162997.568         188.646          44.000    35366551.892   142406447.817         145.847          46.000  
G25  20518591.912   107825941.838        2575.241          41.000    20518583.976    84020172.381        2006.636          42.000  
G10  19522087.880   102589260.592        1077.087          50.000    19522076.260    79939639.778         839.398          44.000  
G28  22058042.091   115915805.702        2602.230          40.000    22058031.797    90323985.319        2027.727          41.000  
C23  20729396.387   107943404.547         293.571          50.000                                                                  
C09  36835771.670   191813534.933         287.103          40.000    36835759.979   148322339.487         221.856          47.000  
C33  26088037.249                       -2919.702          31.000                                                                  
C37  22893309.253   119211482.540        2702.377          43.000                                                                  
> 2025 10 27 02 49 47.0760000  0 19                     
G12  20759271.853   109090711.470         911.987          45.000    20759260.058    85005702.629         710.733          42.000  
G15  23218309.772   122013031.629       -3247.162          34.000    23218303.830    95075074.850       -2530.226          32.000  
G18  23543444.390   123721627.180       -3684.366          35.000    23543440.177    96406426.801       -2871.301          36.000  
G23  19239402.199   101103737.201       -2050.955          45.000    19239390.455    78782058.291       -1597.911          47.000  
G24  20907441.161                       -3354.921          30.000    20907431.683    85612393.303       -2615.333          31.000  
G32  20913378.981   109900548.713        1509.968          46.000    20913368.449    85636736.576        1176.591          41.000  
C08  34707709.322   180732147.231        -329.242          46.000    34707692.733   139753481.482        -254.492          49.000  
C13  34711635.418   180752591.996         -33.875          47.000    34711626.644   139769323.515         -26.434          48.000  
C16  35671946.510   185753181.094           8.857          46.000    35671935.834   143636102.519           6.851          48.000  
C25  22235144.902   115784248.877       -2528.070          36.000                                                                  
C32  21058882.471   109659130.728         888.781          50.000                                                                  
C06  35366565.761   184162990.023         188.682          44.000    35366550.458   142406441.985         145.790          46.000  
G25  20518572.302   107825838.838        2575.047          41.000    20518564.380    84020092.115        2006.629          42.000  
G10  19522079.683   102589217.513        1076.984          50.000    19522068.058    79939606.208         839.307          43.000  
G28  22058022.289   115915701.629        2601.942          40.000    22058011.984    90323904.222        2027.532          41.000  
C23  20729394.114   107943392.810         293.471          50.000                                                                  
C09  36835769.467   191813523.447         287.110          40.000    36835757.779   148322330.615         221.799          47.000  
C33  26088059.712                       -2920.937          31.000                                                                  
C37  22893288.501   119211374.441        2702.444          43.000                                                                  
> 2025 10 27 02 49 47.1160000  0 19                     
G12  20759264.898   109090674.999         911.791          45.000    20759253.120    85005674.203         710.693          42.000  
G15  23218334.465   122013161.511       -3247.019          34.000    23218328.551    95075176.087       -2530.790          32.000  
G18  23543472.437   123721774.570       -3684.587          35.000    23543468.219    96406541.626       -2870.798          36.000  
G23  19239417.808   101103819.240       -2050.997          45.000    19239406.078    78782122.216       -1598.042          47.000  
G24  20907466.733                       -3355.657          30.000    20907457.234                       -2614.310          31.000  
G32  20913367.494   109900488.308        1510.021          46.000    20913356.969    85636689.511        1176.607          41.000  
C08  34707711.861   180732160.396        -329.193          46.000    34707695.223   139753491.661        -254.498          49.000  
C13  34711635.687   180752593.354         -33.936          47.000    34711626.924   139769324.574         -26.556          48.000  
C16  35671946.449   185753180.736           8.841          46.000    35671935.767   143636102.243           6.858          48.000  
C25  22235164.328   115784349.993       -2527.922          36.000                                                                  
C32  21058875.663   109659095.175         888.806          50.000                                                                  
C06  35366564.312   184162982.487         188.519          44.000    35366549.034   142406436.154         145.748          46.000  
G25  20518552.698   107825735.833        2575.031          41.000    20518544.783    84020011.847        2006.657          42.000  
G10  19522071.504   102589174.432        1076.965          50.000    19522059.907    79939572.645         839.136          43.000  
G28  22058002.515   115915597.557        2601.820          40.000    22057992.191    90323823.125        2027.387          41.000  
C23  20729391.828   107943381.083         293.253          50.000                                                                  
C09  36835767.286   191813511.989         286.645          40.000    36835755.578   148322321.738         221.875          47.000  
C33  26088082.168                       -2921.154          31.000                                                                  
C37  22893267.724   119211266.364        2702.047          43.000                                                                  
> 2025 10 27 02 49 47.1560000  0 19                     
G12  20759257.959   109090638.523         911.784          45.000    20759246.165    85005645.787         710.458          42.000  
G15  23218359.191   122013291.382       -3246.732          34.000    23218353.277    95075277.294       -2530.586          33.000  
G18  23543500.488   123721922.008       -3685.653          35.000    23543496.261    96406656.463       -2870.802          36.000  
G23  19239433.417   101103901.277       -2050.990          45.000    19239421.681    78782186.145       -1598.220          47.000  
G24  20907492.246   109869624.156       -3355.186          30.000    20907482.774    85612602.412       -2614.012          31.000  
G32  20913355.999   109900427.907        1509.984          46.000    20913345.470    85636642.429        1176.911          41.000  
C08  34707714.414   180732173.562        -329.175          46.000    34707697.738   139753501.843        -254.541          48.000  
C13  34711635.932   180752594.724         -34.186          47.000    34711627.179   139769325.627         -26.459          47.000  
C16  35671946.390   185753180.382           8.787          46.000    35671935.708   143636101.975           6.689          47.000  
C25  22235183.766   115784451.146       -2528.558          36.000                                                                  
C32  21058868.834   109659059.628         888.702          50.000                                                                  
C06  35366562.866   184162974.959         188.263          44.000    35366547.606   142406430.324         145.682          46.000  
G25  20518533.102   107825632.822        2575.156          41.000    20518525.181    84019931.597        2006.336          43.000  
G10  19522063.326   102589131.359        1076.819          50.000    19522051.706    79939539.082         839.032          44.000  
G28  22057982.703   115915493.465        2602.152          40.000    22057972.357    90323742.018        2027.500          41.000  
C23  20729389.567   107943369.355         293.141          50.000                                                                  
C09  36835765.060   191813500.522         286.587          40.000    36835753.370   148322312.871         221.711          47.000  
C33  26088104.594                       -2921.699          31.000                                                                  
C37  22893246.955   119211158.280        2701.972          43.000                                                                  
> 2025 10 27 02 49 47.1960000  0 19                     
G12  20759251.031   109090602.043         911.879          45.000    20759239.224    85005617.361         710.562          42.000  
G15  23218383.880   122013421.262       -3246.760          34.000    23218378.010    95075378.498       -2530.221          32.000  
G18  23543528.555   123722069.417       -3685.570          35.000    23543524.337    96406771.350       -2871.771          36.000  
G23  19239449.052   101103983.326       -2051.193          45.000    19239437.296    78782250.079       -1598.374          47.000  
G24  20907517.800   109869758.397       -3355.793          30.000    20907508.338    85612707.022       -2614.780          31.000  
G32  20913344.502   109900367.509        1509.927          46.000    20913333.973    85636595.372        1176.614          41.000  
C08  34707716.946   180732186.729        -329.205          46.000    34707700.266   139753512.025        -254.578          48.000  
C13  34711636.194   180752596.093         -34.314          47.000    34711627.461   139769326.681         -26.398          47.000  
C16  35671946.336   185753180.018           8.940          46.000    35671935.665   143636101.704           6.689          46.000  
C25  22235203.199   115784552.285       -2528.605          36.000                                                                  
C32  21058862.002   109659024.087         888.537          50.000                                                                  
C06  35366561.418   184162967.431         188.126          44.000    35366546.145   142406424.506         145.482          46.000  
G25  20518513.488   107825529.837        2574.723          41.000    20518505.599    84019851.338        2006.380          43.000  
G10  19522055.167   102589088.288        1076.697          50.000    19522043.508    79939505.520         838.959          44.000  
G28  22057962.889   115915389.399        2601.795          40.000    22057952.552    90323660.927        2027.301          41.000  
C23  20729387.341   107943357.623         293.178          50.000                                                                  
C09  36835762.869   191813489.057         286.508          40.000    36835751.156   148322304.006         221.605          46.000  
C33  26088127.059                       -2920.852          31.000                                                                  
C37  22893226.186   119211050.204        2701.807          43.000                                                                  
> 2025 10 27 02 49 47.2360000  0 19                     
G12  20759244.096   109090565.571         911.782          45.000    20759232.287    85005588.937         710.567          42.000  
G15  23218408.601   122013551.160       -3247.263          34.000    23218402.721    95075479.689       -2529.774          33.000  
G18  23543556.593   123722216.804       -3685.121          35.000    23543552.399    96406886.241       -2872.268          36.000  
G23  19239464.672   101104065.373       -2051.248          45.000    19239452.891    78782314.012       -1598.410          47.000  
G24  20907543.337   109869892.617       -3355.752          30.000    20907533.887    85612811.629       -2615.161          31.000  
G32  20913333.002   109900307.108        1509.948          46.000    20913322.484    85636548.308        1176.572          41.000  
C08  34707719.483   180732199.898        -329.199          46.000    34707702.819   139753522.205        -254.559          48.000  
C13  34711636.437   180752597.456         -34.216          47.000    34711627.736   139769327.729         -26.282          47.000  
C16  35671946.254   185753179.658           8.992          46.000    35671935.594   143636101.426           6.831          47.000  
C25  22235222.626   115784653.428       -2528.591          36.000                                                                  
C32  21058855.180   109658988.546         888.458          50.000                                                                  
C06  35366559.981   184162959.900         188.163          44.000    35366544.688   142406418.679         145.494          46.000  
G25  20518493.905   107825426.834        2574.837          41.000    20518486.006    84019771.085        2006.320          43.000  
G10  19522046.964   102589045.216        1076.691          50.000    19522035.333    79939471.963         838.873          44.000  
G28  22057943.072   115915285.315        2601.971          40.000    22057932.743    90323579.831        2027.297          41.000  
C23  20729385.119   107943345.894         293.182          50.000                                                                  
C09  36835760.655   191813477.574         286.857          40.000    36835748.963   148322295.138         221.607          46.000  
C33  26088149.476                       -2920.182          31.000                                                                  
C37  22893205.467   119210942.111        2702.115          43.000                                                                  
> 2025 10 27 02 49 47.2760000  0 19                     
G12  20759237.159   109090529.098         911.799          45.000    20759225.356    85005560.514         710.548          42.000  
G15  23218433.345   122013681.043       -3247.157          34.000    23218427.428    95075580.878       -2529.576          32.000  
G18  23543584.640   123722364.173       -3684.541          35.000    23543580.446    96407001.095       -2871.888          36.000  
G23  19239480.282   101104147.413       -2051.086          45.000    19239468.503    78782377.938       -1598.292          47.000  
G24  20907568.900   109870026.873       -3356.342          30.000    20907559.382                       -2614.095          31.000  
G32  20913321.516   109900246.711        1509.925          46.000    20913310.997    85636501.254        1176.374          41.000  
C08  34707722.017   180732213.054        -329.010          46.000    34707705.346   139753532.380        -254.431          48.000  
C13  34711636.723   180752598.820         -34.143          47.000    34711627.999   139769328.775         -26.178          47.000  
C16  35671946.175   185753179.298           8.997          46.000    35671935.515   143636101.146           6.980          47.000  
C25  22235242.046   115784754.555       -2528.387          36.000                                                                  
C32  21058848.357   109658952.994         888.621          50.000                                                                  
C06  35366558.525   184162952.353         188.469          44.000    35366543.252   142406412.848         145.640          46.000  
G25  20518474.307   107825323.825        2575.128          41.000    20518466.393    84019690.808        2006.704          43.000  
G10  19522038.746   102589002.136        1076.886          50.000    19522027.127    79939438.395         839.075          44.000  
G28  22057923.262   115915181.242        2601.872          40.000    22057912.927    90323498.737        2027.292          41.000  
C23  20729382.858   107943334.155         293.371          50.000                                                                  
C09  36835758.455   191813466.082         287.252          40.000    36835746.766   148322286.260         221.835          46.000  
C33  26088171.921                       -2920.562          31.000                                                                  
C37  22893184.701   119210834.019        2702.288          43.000                                                                  
> 2025 10 27 02 49 47.3160000  0 19                     
G12  20759230.203   109090492.618         911.909          45.000    20759218.427    85005532.095         710.457          42.000  
G15  23218458.053   122013810.928       -3247.103          34.000    23218452.149    95075682.096       -2530.212          32.000  
G18  23543612.712   123722511.569       -3684.674          35.000    23543608.502    96407115.943       -2871.466          36.000  
G23  19239495.890   101104229.447       -2050.896          45.000    19239484.068    78782441.865       -1598.230          47.000  
G24  20907594.452                       -3354.554          30.000    20907584.936    85613020.731       -2613.718          31.000  
G32  20913309.998   109900186.303        1510.087          46.000    20913299.496    85636454.182        1176.611          41.000  
C08  34707724.504   180732226.214        -328.979          46.000    34707707.877   139753542.559        -254.456          48.000  
C13  34711636.988   180752600.180         -34.039          47.000    34711628.309   139769329.831         -26.343          47.000  
C16  35671946.083   185753178.938           9.008          46.000    35671935.469   143636100.857           7.156          47.000  
C25  22235261.417   115784855.687       -2528.351          36.000                                                                  
C32  21058841.564   109658917.445         888.698          50.000                                                                  
C06  35366557.046   184162944.808         188.613          44.000    35366541.770   142406407.016         145.715          46.000  
G25  20518454.674   107825220.804        2575.481          41.000    20518446.808    84019610.540        2006.770          43.000  
G10  19522030.529   102588959.058        1076.941          50.000    19522018.941    79939404.831         839.111          44.000  
G28  22057903.456   115915077.164        2601.884          40.000    22057893.123    90323417.626        2027.578          43.000  
C23  20729380.622   107943322.415         293.471          50.000                                                                  
C09  36835756.258   191813454.613         286.917          40.000    36835744.549   148322277.391         221.770          46.000  
C33  26088194.339                       -2920.607          31.000                                                                  
C37  22893163.962   119210725.927        2702.346          43.000                                                                  
> 2025 10 27 02 49 47.3560000  0 19                     
G12  20759223.257   109090456.137         911.964          45.000    20759211.477    85005503.681         710.324          42.000  
G15  23218482.774   122013940.805       -3246.912          34.000    23218476.873    95075783.339       -2530.889          33.000  
G18  23543640.756   123722658.943       -3684.458          35.000    23543636.522    96407230.750       -2870.538          36.000  
G23  19239511.508   101104311.481       -2050.847          45.000    19239499.684    78782505.788       -1598.138          47.000  
G24  20907620.014   109870295.229       -3355.120          30.000    20907610.489                       -2615.223          31.000  
G32  20913298.516   109900125.892        1510.232          46.000    20913287.995    85636407.103        1176.854          41.000  
C08  34707727.034   180732239.381        -329.150          46.000    34707710.368   139753552.739        -254.498          48.000  
C13  34711637.277   180752601.539         -33.997          47.000    34711628.593   139769330.888         -26.447          47.000  
C16  35671946.007   185753178.582           8.964          46.000    35671935.411   143636100.581           6.997          47.000  
C25  22235280.843   115784956.807       -2528.148          36.000                                                                  
C32  21058834.737   109658881.890         888.831          50.000                                                                  
C06  35366555.609   184162937.263         188.658          44.000    35366540.316   142406401.191         145.626          46.000  
G25  20518435.070   107825117.794        2575.437          41.000    20518427.193    84019530.285        2006.557          42.000  
G10  19522022.335   102588915.983        1076.904          50.000    19522010.728    79939371.260         839.227          44.000  
G28  22057883.656   115914973.088        2601.885          40.000    22057873.327    90323336.519        2027.714          43.000  
C23  20729378.367   107943310.686         293.317          50.000                                                                  
C09  36835754.037   191813443.144         286.715          40.000    36835742.349   148322268.518         221.801          46.000  
C33  26088216.744                       -2920.419          31.000                                                                  
C37  22893143.206   119210617.829        2702.465          43.000                                                                  
> 2025 10 27 02 49 47.3960000  0 19                     
G12  20759216.316   109090419.667         911.801          45.000    20759204.545    85005475.255         710.461          42.000  
G15  23218507.459   122014070.674       -3246.742          34.000    23218501.577    95075884.562       -2530.876          33.000  
G18  23543668.798   123722806.353       -3684.909          35.000    23543664.572    96407345.581       -2870.491          36.000  
G23  19239527.119   101104393.525       -2050.977          45.000    19239515.303    78782569.713       -1598.114          47.000  
G24  20907645.549   109870429.493       -3356.296          30.000    20907636.060    85613229.975       -2615.106          31.000  
G32  20913287.015   109900065.479        1510.318          46.000    20913276.501    85636360.031        1176.807          41.000  
C08  34707729.540   180732252.551        -329.285          46.000    34707712.857   139753562.920        -254.559          48.000  
C13  34711637.545   180752602.897         -33.990          47.000    34711628.850   139769331.943         -26.447          47.000  
C16  35671945.902   185753178.224           8.952          46.000    35671935.328   143636100.302           6.971          47.000  
C25  22235300.263   115785057.913       -2527.898          36.000                                                                  
C32  21058827.885   109658846.342         888.763          50.000                                                                  
C06  35366554.155   184162929.725         188.525          44.000    35366538.872   142406395.361         145.681          46.000  
G25  20518415.475   107825014.799        2575.084          41.000    20518407.572    84019449.997        2006.960          42.000  
G10  19522014.158   102588872.908        1076.898          50.000    19522002.515    79939337.691         839.221          44.000  
G28  22057863.845   115914869.001        2602.096          40.000    22057853.545    90323255.425        2027.501          43.000  
C23  20729376.073   107943298.964         293.105          50.000                                                                  
C09  36835751.825   191813431.660         286.952          40.000    36835740.132   148322259.641         221.869          46.000  
C33  26088239.201                       -2920.491          31.000                                                                  
C37  22893122.417   119210509.742        2702.283          44.000                                                                  
> 2025 10 27 02 49 47.4360000  0 19                     
G12  20759209.389   109090383.196         911.725          45.000    20759197.615    85005446.832         710.486          42.000  
G15  23218532.153   122014200.567       -3247.053          34.000    23218526.299    95075985.789       -2530.884          33.000  
G18  23543696.878   123722953.749       -3684.934          35.000    23543692.622    96407460.449       -2871.200          36.000  
G23  19239542.744   101104475.574       -2051.205          45.000    19239530.887    78782633.644       -1598.281          47.000  
G24  20907671.058   109870563.725       -3356.143          30.000    20907661.607    85613334.547       -2614.534          31.000  
G32  20913275.527   109900005.082        1510.068          46.000    20913265.014    85636312.975        1176.466          41.000  
C08  34707732.050   180732265.719        -329.291          46.000    34707715.374   139753573.101        -254.596          48.000  
C13  34711637.809   180752604.267         -34.210          47.000    34711629.125   139769333.001         -26.489          47.000  
C16  35671945.813   185753177.867           8.931          46.000    35671935.262   143636100.032           6.762          47.000  
C25  22235319.714   115785159.054       -2528.336          36.000                                                                  
C32  21058821.043   109658810.796         888.651          50.000                                                                  
C06  35366552.732   184162922.198         188.257          44.000    35366537.399   142406389.529         145.767          46.000  
G25  20518395.898   107824911.815        2574.676          41.000    20518387.976    84019369.738        2006.682          42.000  
G10  19522005.989   102588829.838        1076.752          50.000    19521994.333    79939304.138         838.904          44.000  
G28  22057844.048   115914764.929        2601.870          40.000    22057833.739    90323174.319        2027.563          43.000  
C23  20729373.805   107943287.245         292.949          50.000                                                                  
C09  36835749.586   191813420.207         286.505          40.000    36835737.910   148322250.768         221.837          46.000  
C33  26088261.647                       -2920.483          31.000                                                                  
C37  22893101.648   119210401.656        2702.192          44.000                                                                  
> 2025 10 27 02 49 47.4760000  0 19                     
G12  20759202.465   109090346.732         911.613          45.000    20759190.657    85005418.416         710.403          42.000  
G15  23218556.852   122014330.516       -3248.283          34.000    23218550.992    95076086.952       -2529.719          33.000  
G18  23543724.928   123723101.145       -3684.867          35.000    23543720.653    96407575.303       -2871.486          36.000  
G23  19239558.380   101104557.631       -2051.445          45.000    19239546.496    78782697.576       -1598.379          47.000  
G24  20907696.611   109870697.951       -3356.108          30.000    20907687.172    85613439.146       -2614.641          31.000  
G32  20913264.028   109899944.686        1509.902          46.000    20913253.542    85636265.926        1176.224          41.000  
C08  34707734.617   180732278.892        -329.388          46.000    34707717.915   139753583.287        -254.681          48.000  
C13  34711638.082   180752605.632         -34.204          47.000    34711629.386   139769334.053         -26.392          47.000  
C16  35671945.723   185753177.510           8.913          46.000    35671935.203   143636099.756           6.808          47.000  
C25  22235339.140   115785260.201       -2528.636          36.000                                                                  
C32  21058814.214   109658775.258         888.468          50.000                                                                  
C06  35366551.271   184162914.667         188.193          44.000    35366535.939   142406383.698         145.784          46.000  
G25  20518376.298   107824808.827        2574.566          41.000    20518368.380    84019289.492        2006.267          42.000  
G10  19521997.794   102588786.770        1076.672          50.000    19521986.141    79939270.572         838.995          44.000  
G28  22057824.273   115914660.858        2601.740          40.000    22057813.938    90323093.220        2027.507          43.000  
C23  20729371.589   107943275.520         292.988          50.000                                                                  
C09  36835747.368   191813408.749         286.352          40.000    36835735.705   148322241.901         221.674          46.000  
C33  26088284.110                       -2921.334          31.000                                                                  
C37  22893080.878   119210293.591        2701.771          44.000                                                                  
> 2025 10 27 02 49 47.5160000  0 19                     
G12  20759195.524   109090310.265         911.578          45.000    20759183.714    85005390.004         710.331          42.000  
G15  23218581.556   122014460.396       -3247.684          34.000    23218575.718    95076188.152       -2529.760          32.000  
G18  23543752.954   123723248.517       -3684.459          35.000    23543748.706    96407690.155       -2871.529          36.000  
G23  19239573.979   101104639.673       -2051.246          45.000    19239562.128    78782761.513       -1598.477          47.000  
G24  20907722.144                       -3355.769          30.000    20907712.680                       -2614.628          31.000  
G32  20913252.530   109899884.295        1509.779          46.000    20913242.046    85636218.852        1176.569          41.000  
C08  34707737.187   180732292.056        -329.224          46.000    34707720.467   139753593.466        -254.578          48.000  
C13  34711638.354   180752606.990         -34.070          47.000    34711629.624   139769335.106         -26.355          47.000  
C16  35671945.641   185753177.156           8.833          46.000    35671935.140   143636099.480           6.809          47.000  
C25  22235358.541   115785361.332       -2528.462          36.000                                                                  
C32  21058807.422   109658739.714         888.479          50.000                                                                  
C06  35366549.825   184162907.133         188.269          44.000    35366534.478   142406377.867         145.776          46.000  
G25  20518356.713   107824705.818        2574.985          41.000    20518348.765    84019209.239        2006.180          42.000  
G10  19521989.594   102588743.704        1076.605          50.000    19521977.942    79939237.009         838.995          44.000  
G28  22057804.487   115914556.798        2601.468          40.000    22057794.130    90323012.124        2027.402          43.000  
C23  20729369.401   107943263.790         293.113          50.000                                                                  
C09  36835745.175   191813397.284         286.470          40.000    36835733.530   148322233.031         221.687          47.000  
C33  26088306.526                       -2919.878          31.000                                                                  
C37  22893060.132   119210185.515        2701.760          44.000                                                                  
> 2025 10 27 02 49 47.5560000  0 19                     
G12  20759188.562   109090273.796         911.640          45.000    20759176.779    85005361.583         710.437          42.000  
G15  23218606.302   122014590.273       -3247.261          34.000    23218600.474    95076289.363       -2530.023          33.000  
G18  23543780.983   123723395.894       -3684.368          35.000    23543776.728    96407804.975       -2870.961          36.000  
G23  19239589.577   101104721.715       -2051.110          45.000    19239577.749    78782825.444       -1598.396          47.000  
G24  20907747.690                       -3355.816          30.000    20907738.207                       -2614.447          31.000  
G32  20913241.038   109899823.886        1510.024          46.000    20913230.535    85636171.775        1176.834          41.000  
C08  34707739.738   180732305.218        -329.053          46.000    34707723.019   139753603.645        -254.523          48.000  
C13  34711638.619   180752608.350         -34.021          47.000    34711629.886   139769336.158         -26.294          47.000  
C16  35671945.554   185753176.792           9.013          46.000    35671935.069   143636099.199           6.941          47.000  
C25  22235377.972   115785462.462       -2528.376          36.000                                                                  
C32  21058800.628   109658704.163         888.668          50.000                                                                  
C06  35366548.439   184162899.582         188.619          44.000    35366533.053   142406372.046         145.598          46.000  
G25  20518337.095   107824602.802        2575.327          41.000    20518329.166    84019128.986        2006.188          42.000  
G10  19521981.377   102588700.635        1076.648          50.000    19521969.763    79939203.450         838.947          44.000  
G28  22057784.687   115914452.735        2601.402          40.000    22057774.333    90322931.032        2027.227          43.000  
C23  20729367.170   107943252.054         293.306          50.000                                                                  
C09  36835742.966   191813385.793         287.017          40.000    36835731.320   148322224.154         221.801          47.000  
C33  26088328.943                       -2919.688          31.000                                                                  
C37  22893039.404   119210077.415        2702.181          44.000                                                                  
> 2025 10 27 02 49 47.5960000  0 19                     
G12  20759181.616   109090237.330         911.629          45.000    20759169.833    85005333.155         710.589          42.000  
G15  23218630.972   122014720.139       -3246.915          34.000    23218625.193    95076390.599       -2530.577          33.000  
G18  23543809.066   123723543.313       -3685.016          35.000    23543804.759    96407919.800       -2870.638          36.000  
G23  19239605.163   101104803.760       -2051.129          45.000    19239593.337    78782889.379       -1598.402          47.000  
G24  20907773.204   109871100.577       -3354.687          30.000    20907763.732                       -2614.307          31.000  
G32  20913229.537   109899763.480        1510.111          46.000    20913219.053    85636124.704        1176.894          41.000  
C08  34707742.239   180732318.376        -328.943          46.000    34707725.536   139753613.824        -254.480          48.000  
C13  34711638.885   180752609.711         -34.039          47.000    34711630.167   139769337.208         -26.270          47.000  
C16  35671945.479   185753176.433           8.976          46.000    35671935.002   143636098.921           6.938          47.000  
C25  22235397.399   115785563.604       -2528.499          36.000                                                                  
C32  21058793.830   109658668.612         888.756          50.000                                                                  
C06  35366547.003   184162892.039         188.649          44.000    35366531.628   142406366.218         145.608          46.000  
G25  20518317.499   107824499.792        2575.345          41.000    20518309.560    84019048.711        2006.585          42.000  
G10  19521973.183   102588657.561        1076.770          50.000    19521961.576    79939169.893         838.849          44.000  
G28  22057764.873   115914348.652        2601.841          40.000    22057754.540    90322849.932        2027.341          43.000  
C23  20729364.919   107943240.325         293.256          50.000                                                                  
C09  36835740.766   191813374.306         287.206          40.000    36835729.105   148322215.292         221.599          47.000  
C33  26088351.392                       -2920.818          30.000                                                                  
C37  22893018.658   119209969.322        2702.326          44.000                                                                  
> 2025 10 27 02 49 47.6360000  0 19                     
G12  20759174.676   109090200.854         911.811          45.000    20759162.907    85005304.749         710.307          42.000  
G15  23218655.681   122014849.997       -3246.566          34.000    23218649.898    95076491.768       -2529.679          32.000  
G18  23543837.126   123723690.700       -3684.844          35.000    23543832.775    96408034.666       -2871.234          36.000  
G23  19239620.779   101104885.806       -2051.142          45.000    19239608.949    78782953.306       -1598.272          47.000  
G24  20907798.749   109871234.787       -3354.773          30.000    20907789.269                       -2615.044          31.000  
G32  20913218.057   109899703.081        1510.038          46.000    20913207.539    85636077.636        1176.824          41.000  
C08  34707744.743   180732331.535        -328.918          46.000    34707728.043   139753624.008        -254.541          48.000  
C13  34711639.137   180752611.074         -34.076          47.000    34711630.409   139769338.259         -26.257          47.000  
C16  35671945.380   185753176.079           8.884          46.000    35671934.944   143636098.645           6.912          47.000  
C25  22235416.817   115785664.747       -2528.579          36.000                                                                  
C32  21058786.989   109658633.063         888.747          50.000                                                                  
C06  35366545.531   184162884.505         188.472          44.000    35366530.185   142406360.387         145.703          46.000  
G25  20518297.891   107824396.787        2575.190          41.000    20518289.920    84018968.444        2006.675          42.000  
G10  19521964.987   102588614.493        1076.721          50.000    19521953.389    79939136.327         838.995          44.000  
G28  22057745.070   115914244.577        2601.933          40.000    22057734.727    90322768.835        2027.373          43.000  
C23  20729362.626   107943228.602         293.111          50.000                                                                  
C09  36835738.544   191813362.837         286.911          40.000    36835726.900   148322206.420         221.663          47.000  
C33  26088373.815                       -2922.733          30.000                                                                  
C37  22892997.896   119209861.231        2702.338          44.000                                                                  
> 2025 10 27 02 49 47.6760000  0 19                     
G12  20759167.755   109090164.382         911.819          45.000    20759155.948    85005276.330         710.363          42.000  
G15  23218680.422   122014979.888       -3246.970          34.000    23218674.627    95076592.991       -2530.209          33.000  
G18  23543865.179   123723838.090       -3684.846          35.000    23543860.827    96408149.515       -2871.230          36.000  
G23  19239636.395   101104967.854       -2051.216          45.000    19239624.556    78783017.240       -1598.359          47.000  
G24  20907824.305                       -3354.919          30.000    20907814.807    85613962.081       -2615.192          31.000  
G32  20913206.559   109899642.679        1510.030          46.000    20913196.030    85636030.564        1176.848          41.000  
C08  34707747.278   180732344.709        -329.242          46.000    34707730.556   139753634.190        -254.535          48.000  
C13  34711639.403   180752612.432         -34.033          47.000    34711630.660   139769339.314         -26.343          47.000  
C16  35671945.298   185753175.723           8.839          46.000    35671934.873   143636098.374           6.773          47.000  
C25  22235436.237   115785765.882       -2528.517          36.000                                                                  
C32  21058780.124   109658597.520         888.623          50.000                                                                  
C06  35366544.098   184162876.973         188.325          44.000    35366528.733   142406354.556         145.753          46.000  
G25  20518278.274   107824293.801        2574.808          41.000    20518270.356    84018888.186        2006.539          42.000  
G10  19521956.782   102588571.420        1076.801          50.000    19521945.180    79939102.765         839.001          44.000  
G28  22057725.251   115914140.489        2602.192          40.000    22057714.918    90322687.737        2027.391          43.000  
C23  20729360.359   107943216.884         292.965          50.000                                                                  
C09  36835736.329   191813351.361         286.848          40.000    36835724.698   148322197.547         221.739          47.000  
C33  26088396.277                       -2922.388          30.000                                                                  
C37  22892977.135   119209753.148        2702.183          44.000                                                                  
> 2025 10 27 02 49 47.7160000  0 19                     
G12  20759160.827   109090127.917         911.675          45.000    20759148.985    85005247.910         710.436          42.000  
G15  23218705.123   122015109.796       -3247.662          34.000    23218699.400    95076694.224       -2530.834          33.000  
G18  23543893.239   123723985.498       -3685.069          35.000    23543888.869    96408264.392       -2871.778          36.000  
G23  19239652.000   101105049.907       -2051.352          45.000    19239640.182    78783081.183       -1598.563          47.000  
G24  20907849.872                       -3355.431          30.000    20907840.310    85614066.673       -2615.028          31.000  
G32  20913195.067   109899582.280        1509.959          46.000    20913184.538    85635983.506        1176.574          41.000  
C08  34707749.799   180732357.880        -329.327          46.000    34707733.087   139753644.372        -254.547          48.000  
C13  34711639.668   180752613.793         -34.064          47.000    34711630.914   139769340.372         -26.453          47.000  
C16  35671945.237   185753175.369           8.789          46.000    35671934.834   143636098.096           6.821          47.000  
C25  22235455.680   115785867.008       -2528.226          36.000                                                                  
C32  21058773.250   109658561.981         888.484          50.000                                                                  
C06  35366542.680   184162869.429         188.475          44.000    35366527.288   142406348.730         145.677          46.000  
G25  20518258.677   107824190.812        2574.662          41.000    20518250.776    84018807.937        2006.298          42.000  
G10  19521948.614   102588528.354        1076.672          50.000    19521936.995    79939069.196         839.130          44.000  
G28  22057705.446   115914036.423        2601.833          40.000    22057695.139    90322606.642        2027.335          43.000  
C23  20729358.130   107943205.161         292.965          50.000                                                                  
C09  36835734.141   191813339.894         286.686          40.000    36835722.475   148322188.676         221.764          47.000  
C33  26088418.662                       -2921.277          30.000                                                                  
C37  22892956.382   119209645.063        2702.113          44.000                                                                  
> 2025 10 27 02 49 47.7560000  0 19                     
G12  20759153.895   109090091.453         911.593          45.000    20759142.061    85005219.495         710.385          42.000  
G15  23218729.846   122015239.695       -3247.722          34.000    23218724.125    95076795.419       -2530.304          33.000  
G18  23543921.242   123724132.869       -3684.548          35.000    23543916.918    96408379.229       -2871.389          37.000  
G23  19239667.604   101105131.956       -2051.339          45.000    19239655.781    78783145.119       -1598.519          47.000  
G24  20907875.409   109871637.476       -3355.905          30.000    20907865.848    85614171.243       -2614.521          31.000  
G32  20913183.567   109899521.870        1510.135          46.000    20913173.062    85635936.438        1176.638          41.000  
C08  34707752.354   180732371.046        -329.242          46.000    34707735.620   139753654.557        -254.614          48.000  
C13  34711639.939   180752615.155         -34.076          47.000    34711631.171   139769341.425         -26.410          47.000  
C16  35671945.160   185753175.004           8.995          46.000    35671934.781   143636097.820           6.822          47.000  
C25  22235475.096   115785968.148       -2528.351          36.000                                                                  
C32  21058766.416   109658526.437         888.513          50.000                                                                  
C06  35366541.212   184162861.897         188.350          44.000    35366525.829   142406342.893         145.831          46.000  
G25  20518239.071   107824087.818        2574.689          41.000    20518231.179    84018727.694        2006.063          42.000  
G10  19521940.426   102588485.288        1076.630          50.000    19521928.795    79939035.640         838.947          44.000  
G28  22057685.641   115913932.345        2601.834          40.000    22057675.354    90322525.540        2027.460          43.000  
C23  20729355.883   107943193.436         293.030          50.000                                                                  
C09  36835731.899   191813328.424         286.651          40.000    36835720.272   148322179.792         222.022          47.000  
C33  26088441.087                       -2920.124          30.000                                                                  
C37  22892935.625   119209536.979        2702.054          44.000                                                                  
> 2025 10 27 02 49 47.7960000  0 19                     
G12  20759146.936   109090054.980         911.712          45.000    20759135.095    85005191.076         710.462          42.000  
G15  23218754.568   122015369.582       -3247.552          34.000    23218748.821    95076896.618       -2530.155          33.000  
G18  23543949.279   123724280.242       -3684.297          35.000    23543944.963    96408494.073       -2871.225          37.000  
G23  19239683.189   101105214.003       -2051.264          45.000    19239671.402    78783209.058       -1598.537          47.000  
G24  20907900.928   109871771.685       -3355.438          30.000    20907891.378    85614275.862       -2615.178          31.000  
G32  20913172.083   109899461.466        1510.119          46.000    20913161.557    85635889.367        1176.701          41.000  
C08  34707754.915   180732384.210        -329.144          46.000    34707738.178   139753664.736        -254.541          48.000  
C13  34711640.216   180752616.512         -33.984          47.000    34711631.422   139769342.472         -26.239          47.000  
C16  35671945.090   185753174.645           8.990          46.000    35671934.721   143636097.543           6.884          47.000  
C25  22235494.526   115786069.264       -2528.093          36.000                                                                  
C32  21058759.624   109658490.884         888.726          50.000                                                                  
C06  35366539.757   184162854.354         188.492          44.000    35366524.394   142406337.071         145.664          46.000  
G25  20518219.482   107823984.816        2574.856          41.000    20518211.571    84018647.429        2006.344          42.000  
G10  19521932.218   102588442.220        1076.654          50.000    19521920.593    79939002.091         838.751          44.000  
G28  22057665.844   115913828.273        2601.766          40.000    22057655.551    90322444.452        2027.279          43.000  
C23  20729353.617   107943181.714         293.012          50.000                                                                  
C09  36835729.661   191813316.945         286.790          40.000    36835718.072   148322170.913         222.044          47.000  
C33  26088463.475                       -2919.209          30.000                                                                  
C37  22892914.880   119209428.902        2701.922          44.000                                                                  
> 2025 10 27 02 49 47.8360000  0 19                     
G12  20759139.996   109090018.517         911.601          45.000    20759128.149    85005162.656         710.494          42.000  
G15  23218779.296   122015499.452       -3247.029          34.000    23218773.534    95076997.842       -2530.530          33.000  
G18  23543977.327   123724427.657       -3685.074          35.000    23543973.021    96408608.917       -2871.130          37.000  
G23  19239698.794   101105296.053       -2051.277          45.000    19239687.005    78783272.988       -1598.376          47.000  
G24  20907926.474   109871905.932       -3355.874          30.000    20907916.901    85614380.477       -2615.494          31.000  
G32  20913160.588   109899401.059        1510.143          46.000    20913150.047    85635842.299        1176.647          41.000  
C08  34707757.441   180732397.374        -329.089          46.000    34707740.695   139753674.912        -254.456          48.000  
C13  34711640.467   180752617.871         -33.978          47.000    34711631.670   139769343.524         -26.239          47.000  
C16  35671945.025   185753174.281           9.053          46.000    35671934.657   143636097.260           6.992          47.000  
C25  22235513.957   115786170.422       -2528.735          36.000                                                                  
C32  21058752.799   109658455.335         888.755          50.000                                                                  
C06  35366538.298   184162846.807         188.625          44.000    35366522.955   142406331.247         145.558          46.000  
G25  20518199.886   107823881.829        2574.754          41.000    20518191.969    84018567.160        2006.592          42.000  
G10  19521924.027   102588399.150        1076.703          50.000    19521912.410    79938968.531         838.885          44.000  
G28  22057646.037   115913724.187        2602.016          40.000    22057635.757    90322363.362        2027.180          43.000  
C23  20729351.378   107943169.990         293.051          50.000                                                                  
C09  36835727.481   191813305.461         286.951          40.000    36835715.855   148322162.043         221.840          47.000  
C33  26088485.900                       -2919.303          30.000                                                                  
C37  22892894.145   119209320.816        2702.027          44.000                                                                  
> 2025 10 27 02 49 47.8760000  0 19                     
G12  20759133.030   109089982.057         911.452          45.000    20759121.195    85005134.261         710.012          42.000  
G15  23218803.999   122015629.312       -3246.529          34.000    23218798.264    95077099.037       -2530.200          33.000  
G18  23544005.388   123724575.030       -3684.717          35.000    23544001.070    96408723.779       -2871.449          37.000  
G23  19239714.408   101105378.105       -2051.320          45.000    19239702.640    78783336.924       -1598.370          47.000  
G24  20907951.989   109872040.158       -3355.656          30.000    20907942.449    85614485.034       -2614.503          31.000  
G32  20913149.106   109899340.647        1510.252          46.000    20913138.544    85635795.228        1176.694          41.000  
C08  34707759.967   180732410.541        -329.150          46.000    34707743.213   139753685.087        -254.382          48.000  
C13  34711640.720   180752619.237         -34.100          47.000    34711631.912   139769344.578         -26.331          47.000  
C16  35671944.918   185753173.920           9.032          46.000    35671934.624   143636096.976           7.095          47.000  
C25  22235533.367   115786271.553       -2528.617          36.000                                                                  
C32  21058745.986   109658419.791         888.643          50.000                                                                  
C06  35366536.836   184162839.270         188.480          44.000    35366521.503   142406325.410         145.753          46.000  
G25  20518180.288   107823778.822        2575.017          41.000    20518172.383    84018486.907        2006.448          42.000  
G10  19521915.865   102588356.081        1076.685          50.000    19521904.229    79938934.967         839.008          44.000  
G28  22057626.227   115913620.111        2601.940          40.000    22057615.960    90322282.255        2027.492          43.000  
C23  20729349.121   107943158.267         293.057          50.000                                                                  
C09  36835725.283   191813293.981         286.982          40.000    36835713.655   148322153.175         221.691          47.000  
C33  26088508.386                       -2920.818          30.000                                                                  
C37  22892873.391   119209212.728        2702.149          44.000                                                                  
> 2025 10 27 02 49 47.9160000  0 19                     
G12  20759126.126   109089945.598         911.426          45.000    20759114.271    85005105.853         710.048          42.000  
G15  23218828.700   122015759.186       -3246.591          34.000    23218822.942    95077200.241       -2530.063          33.000  
G18  23544033.447   123724722.410       -3684.536          35.000    23544029.141    96408838.633       -2871.427          37.000  
G23  19239730.038   101105460.151       -2051.246          45.000    19239718.253    78783400.858       -1598.340          47.000  
G24  20907977.529   109872174.337       -3354.825          30.000    20907967.958                       -2614.409          31.000  
G32  20913137.610   109899280.246        1510.127          46.000    20913127.042    85635748.169        1176.484          41.000  
C08  34707762.500   180732423.705        -329.083          46.000    34707745.715   139753695.267        -254.462          48.000  
C13  34711640.979   180752620.599         -34.100          47.000    34711632.172   139769345.631         -26.349          47.000  
C16  35671944.833   185753173.565           8.934          46.000    35671934.550   143636096.701           6.974          47.000  
C25  22235552.805   115786372.685       -2528.443          36.000                                                                  
C32  21058739.142   109658384.251         888.488          50.000                                                                  
C06  35366535.379   184162831.736         188.372          44.000    35366520.053   142406319.581         145.753          46.000  
G25  20518160.682   107823675.826        2574.936          41.000    20518152.786    84018406.643        2006.562          42.000  
G10  19521907.679   102588313.018        1076.605          50.000    19521896.043    79938901.403         839.130          44.000  
G28  22057606.412   115913516.037        2601.846          40.000    22057596.154    90322201.155        2027.453          43.000  
C23  20729346.842   107943146.551         292.928          50.000                                                                  
C09  36835723.090   191813282.519         286.674          39.000    36835711.448   148322144.306         221.655          47.000  
C33  26088530.818                       -2922.385          30.000                                                                  
C37  22892852.608   119209104.645        2702.110          44.000                                                                  
> 2025 10 27 02 49 47.9560000  0 19                     
G12  20759119.189   109089909.135         911.474          45.000    20759107.330    85005077.436         710.235          42.000  
G15  23218853.419   122015889.051       -3246.510          34.000    23218847.673    95077301.448       -2530.084          33.000  
G18  23544061.501   123724869.817       -3685.035          35.000    23544057.185    96408953.458       -2870.912          37.000  
G23  19239745.658   101105542.212       -2051.474          45.000    19239733.851    78783464.795       -1598.433          47.000  
G24  20908003.058   109872308.561       -3355.136          30.000    20907993.521    85614694.196       -2614.383          31.000  
G32  20913126.132   109899219.851        1509.928          46.000    20913115.572    85635701.110        1176.393          41.000  
C08  34707765.038   180732436.871        -329.120          46.000    34707748.227   139753705.451        -254.584          48.000  
C13  34711641.233   180752621.962         -34.100          47.000    34711632.400   139769346.683         -26.331          47.000  
C16  35671944.756   185753173.209           8.870          46.000    35671934.504   143636096.426           6.875          47.000  
C25  22235572.226   115786473.822       -2528.399          36.000                                                                  
C32  21058732.306   109658348.710         888.427          50.000                                                                  
C06  35366533.939   184162824.202         188.301          44.000    35366518.595   142406313.753         145.703          46.000  
G25  20518141.056   107823572.819        2575.065          41.000    20518133.210    84018326.398        2006.256          42.000  
G10  19521899.517   102588269.957        1076.477          50.000    19521887.862    79938867.859         838.751          44.000  
G28  22057586.607   115913411.976        2601.567          40.000    22057576.352    90322120.061        2027.321          43.000  
C23  20729344.629   107943134.832         292.885          50.000                                                                  
C09  36835720.858   191813271.051         286.614          39.000    36835709.226   148322135.432         221.758          47.000  
C33  26088553.241                       -2921.567          30.000                                                                  
C37  22892831.847   119208996.556        2702.183          44.000                                                                  
> 2025 10 27 02 49 47.9960000  0 19                     
G12  20759112.232   109089872.667         911.597          45.000    20759100.392    85005049.023         710.270          42.000  
G15  23218878.139   122016018.985       -3247.699          34.000    23218872.382    95077402.696       -2530.908          33.000  
G18  23544089.537   123725017.209       -3684.992          35.000    23544085.247    96409068.292       -2870.834          37.000  
G23  19239761.275   101105624.260       -2051.344          45.000    19239749.477    78783528.735       -1598.513          47.000  
G24  20908028.586                       -3355.182          30.000    20908019.069    85614798.782       -2614.465          31.000  
G32  20913114.633   109899159.444        1510.063          46.000    20913104.065    85635654.033        1176.701          41.000  
C08  34707767.555   180732450.037        -329.156          46.000    34707750.743   139753715.637        -254.669          48.000  
C13  34711641.509   180752623.319         -33.978          47.000    34711632.647   139769347.734         -26.312          47.000  
C16  35671944.683   185753172.846           8.976          46.000    35671934.454   143636096.146           6.944          47.000  
C25  22235591.649   115786574.966       -2528.560          36.000                                                                  
C32  21058725.510   109658313.163         888.573          50.000                                                                  
C06  35366532.498   184162816.658         188.480          43.000    35366517.151   142406307.922         145.715          46.000  
G25  20518121.467   107823469.831        2574.834          41.000    20518113.586    84018246.137        2006.365          42.000  
G10  19521891.300   102588226.894        1076.520          50.000    19521879.676    79938834.302         838.806          44.000  
G28  22057566.826   115913307.908        2601.564          40.000    22057556.550    90322038.972        2027.211          43.000  
C23  20729342.367   107943123.114         292.880          50.000                                                                  
C09  36835718.652   191813259.569         286.899          39.000    36835707.029   148322126.562         221.738          47.000  
C33  26088575.680                       -2919.484          30.000                                                                  
C37  22892811.086   119208888.479        2702.006          44.000                                                                  
> 2025 10 27 02 49 48.0360000  0 19                     
G12  20759105.274   109089836.202         911.629          45.000    20759093.461    85005020.600         710.469          42.000  
G15  23218902.857   122016148.882       -3247.693          34.000    23218897.130    95077503.885       -2530.267          33.000  
G18  23544117.603   123725164.602       -3685.004          35.000    23544113.302    96409183.136       -2871.006          37.000  
G23  19239776.894   101105706.312       -2051.362          45.000    19239765.086    78783592.668       -1598.407          47.000  
G24  20908054.149                       -3355.791          30.000    20908044.627    85614903.364       -2614.446          31.000  
G32  20913103.142   109899099.031        1510.257          46.000    20913092.572    85635606.952        1176.922          41.000  
C08  34707770.099   180732463.202        -329.150          46.000    34707753.274   139753725.813        -254.510          48.000  
C13  34711641.794   180752624.669         -33.789          47.000    34711632.909   139769348.780         -26.202          47.000  
C16  35671944.622   185753172.477           9.166          46.000    35671934.409   143636095.864           7.001          47.000  
C25  22235611.098   115786676.079       -2528.061          36.000                                                                  
C32  21058718.716   109658277.604         888.887          50.000                                                                  
C06  35366531.043   184162809.117         188.545          43.000    35366515.689   142406302.083         145.881          46.000  
G25  20518101.865   107823366.826        2574.988          41.000    20518093.979    84018165.869        2006.566          42.000  
G10  19521883.062   102588183.827        1076.611          50.000    19521871.496    79938800.745         838.843          44.000  
G28  22057547.021   115913203.820        2602.007          40.000    22057536.757    90321957.864        2027.574          43.000  
C23  20729340.106   107943111.384         293.115          50.000                                                                  
C09  36835716.451   191813248.076         287.243          39.000    36835704.812   148322117.678         221.977          47.000  
C33  26088598.101                       -2920.399          30.000                                                                  
C37  22892790.351   119208780.385        2702.230          44.000                                                                  
> 2025 10 27 02 49 48.0760000  0 19                     
G12  20759098.320   109089799.732         911.716          45.000    20759086.517    85004992.183         710.437          42.000  
G15  23218927.583   122016278.763       -3247.434          34.000    23218921.879    95077605.117       -2530.633          33.000  
G18  23544145.673   123725311.942       -3683.932          35.000    23544141.355    96409297.977       -2871.061          37.000  
G23  19239792.498   101105788.359       -2051.251          45.000    19239780.705    78783656.603       -1598.408          47.000  
G24  20908079.711                       -3355.818          30.000    20908070.148    85615007.929       -2614.289          31.000  
G32  20913091.637   109899038.614        1510.413          46.000    20913081.067    85635559.866        1177.135          41.000  
C08  34707772.638   180732476.361        -329.053          46.000    34707755.815   139753735.989        -254.413          48.000  
C13  34711642.036   180752626.024         -33.807          47.000    34711633.166   139769349.826         -26.123          47.000  
C16  35671944.554   185753172.106           9.250          46.000    35671934.341   143636095.580           7.084          47.000  
C25  22235630.542   115786777.221       -2528.346          36.000                                                                  
C32  21058711.861   109658242.050         888.926          50.000                                                                  
C06  35366529.621   184162801.563         188.796          43.000    35366514.266   142406296.259         145.707          46.000  
G25  20518082.276   107823263.829        2574.941          41.000    20518074.356    84018085.597        2006.733          42.000  
G10  19521874.844   102588140.755        1076.746          50.000    19521863.294    79938767.181         838.989          44.000  
G28  22057527.228   115913099.745        2601.967          40.000    22057516.920    90321876.762        2027.590          43.000  
C23  20729337.857   107943099.654         293.221          50.000                                                                  
C09  36835714.230   191813236.607         286.929          39.000    36835702.616   148322108.799         222.019          47.000  
C33  26088620.535                       -2920.956          30.000                                                                  
C37  22892769.601   119208672.298        2702.184          44.000                                                                  
> 2025 10 27 02 49 48.1160000  0 19                     
G12  20759091.370   109089763.279         911.429          45.000    20759079.574    85004963.775         710.274          42.000  
G15  23218952.296   122016408.622       -3246.769          34.000    23218946.620    95077706.322       -2530.249          33.000  
G18  23544173.703   123725459.348       -3684.660          35.000    23544169.392    96409412.838       -2871.458          37.000  
G23  19239808.114   101105870.418       -2051.468          45.000    19239796.337    78783720.539       -1598.445          47.000  
G24  20908105.253                       -3355.858          30.000    20908095.723                       -2615.233          31.000  
G32  20913080.173   109898978.214        1510.134          46.000    20913069.600    85635512.809        1176.688          41.000  
C08  34707775.172   180732489.533        -329.224          46.000    34707758.348   139753746.167        -254.443          48.000  
C13  34711642.283   180752627.389         -34.052          47.000    34711633.416   139769350.881         -26.324          47.000  
C16  35671944.463   185753171.749           9.035          46.000    35671934.271   143636095.303           6.956          47.000  
C25  22235649.987   115786878.368       -2528.623          36.000                                                                  
C32  21058705.042   109658206.510         888.632          50.000                                                                  
C06  35366528.174   184162794.024         188.622          43.000    35366512.810   142406290.424         145.801          46.000  
G25  20518062.672   107823160.834        2574.849          41.000    20518054.761    84018005.358        2006.224          42.000  
G10  19521866.671   102588097.698        1076.538          50.000    19521855.106    79938733.624         838.953          44.000  
G28  22057507.424   115912995.673        2601.898          40.000    22057497.147    90321795.670        2027.365          43.000  
C23  20729335.568   107943087.936         293.047          50.000                                                                  
C09  36835712.028   191813225.124         286.908          39.000    36835700.435   148322099.929         221.821          47.000  
C33  26088642.962                       -2921.244          30.000                                                                  
C37  22892748.817   119208564.211        2702.169          44.000                                                                  
> 2025 10 27 02 49 48.1560000  0 19                     
G12  20759084.457   109089726.830         911.215          45.000    20759072.630    85004935.383         709.951          42.000  
G15  23218977.000   122016538.476       -3246.360          34.000    23218971.337    95077807.536       -2530.344          33.000  
G18  23544201.736   123725606.723       -3684.510          35.000    23544197.453    96409527.690       -2871.487          37.000  
G23  19239823.749   101105952.479       -2051.609          45.000    19239811.947    78783784.487       -1598.698          47.000  
G24  20908130.815                       -3356.358          30.000    20908121.282                       -2615.521          31.000  
G32  20913068.699   109898917.824        1509.820          46.000    20913058.099    85635465.744        1176.569          41.000  
C08  34707777.725   180732502.705        -329.340          46.000    34707760.878   139753756.357        -254.688          48.000  
C13  34711642.514   180752628.765         -34.381          47.000    34711633.675   139769351.947         -26.630          47.000  
C16  35671944.361   185753171.400           8.756          46.000    35671934.206   143636095.033           6.769          47.000  
C25  22235669.411   115786979.529       -2529.029          36.000                                                                  
C32  21058698.219   109658170.982         888.256          50.000                                                                  
C06  35366526.732   184162786.495         188.353          43.000    35366511.375   142406284.598         145.688          46.000  
G25  20518043.086   107823057.870        2574.244          41.000    20518035.181    84017925.118        2006.015          42.000  
G10  19521858.499   102588054.642        1076.385          50.000    19521846.916    79938700.077         838.708          44.000  
G28  22057487.599   115912891.598        2601.879          40.000    22057477.342    90321714.589        2027.035          43.000  
C23  20729333.318   107943076.234         292.648          50.000                                                                  
C09  36835709.838   191813213.658         286.652          39.000    36835698.226   148322091.061         221.659          47.000  
C33  26088665.451                       -2920.571          30.000                                                                  
C37  22892728.061   119208456.137        2701.930          44.000                                                                  
> 2025 10 27 02 49 48.1960000  0 19                     
G12  20759077.513   109089690.387         911.022          45.000    20759065.704    85004906.983         709.875          42.000  
G15  23219001.748   122016668.412       -3247.684          34.000    23218996.048    95077908.714       -2529.777          33.000  
G18  23544229.764   123725754.121       -3684.824          35.000    23544225.493    96409642.545       -2871.495          37.000  
G23  19239839.358   101106034.545       -2051.725          45.000    19239827.566    78783848.435       -1598.770          47.000  
G24  20908156.335                       -3354.709          30.000    20908146.802                       -2615.492          31.000  
G32  20913057.205   109898857.438        1509.583          46.000    20913046.614    85635418.703        1176.139          41.000  
C08  34707780.237   180732515.885        -329.535          46.000    34707763.386   139753766.551        -254.871          48.000  
C13  34711642.787   180752630.136         -34.442          47.000    34711633.949   139769353.003         -26.544          47.000  
C16  35671944.290   185753171.059           8.490          46.000    35671934.164   143636094.765           6.664          47.000  
C25  22235688.850   115787080.673       -2528.903          36.000                                                                  
C32  21058691.407   109658135.452         888.132          50.000                                                                  
C06  35366525.278   184162778.977         187.960          43.000    35366509.940   142406278.781         145.494          46.000  
G25  20518023.486   107822954.889        2574.267          41.000    20518015.574    84017844.867        2006.103          42.000  
G10  19521850.301   102588011.588        1076.282          50.000    19521838.730    79938666.532         838.586          44.000  
G28  22057467.809   115912787.530        2601.710          40.000    22057457.559    90321633.508        2026.933          43.000  
C23  20729331.065   107943064.536         292.385          50.000                                                                  
C09  36835707.646   191813202.198         286.456          39.000    36835696.014   148322082.199         221.517          47.000  
C33  26088687.876                       -2921.212          30.000                                                                  
C37  22892707.307   119208348.073        2701.616          44.000                                                                  
> 2025 10 27 02 49 48.2360000  0 19                     
G12  20759070.580   109089653.928         911.277          45.000    20759058.783    85004878.572         710.075          42.000  
G15  23219026.459   122016798.297       -3247.618          34.000    23219020.748    95078009.925       -2530.021          33.000  
G18  23544257.793   123725901.510       -3684.823          35.000    23544253.527    96409757.382       -2871.124          37.000  
G23  19239854.965   101106116.611       -2051.785          45.000    19239843.171    78783912.378       -1598.683          47.000  
G24  20908181.866                       -3354.806          30.000    20908172.343                       -2614.836          31.000  
G32  20913045.736   109898797.047        1509.613          46.000    20913035.147    85635371.635        1176.443          41.000  
C08  34707782.753   180732529.051        -329.321          46.000    34707765.937   139753776.737        -254.791          48.000  
C13  34711643.076   180752631.506         -34.375          47.000    34711634.214   139769354.061         -26.501          47.000  
C16  35671944.219   185753170.709           8.577          46.000    35671934.059   143636094.493           6.718          47.000  
C25  22235708.264   115787181.810       -2528.625          36.000                                                                  
C32  21058684.628   109658099.916         888.216          50.000                                                                  
C06  35366523.867   184162771.465         187.700          43.000    35366508.484   142406272.963         145.396          46.000  
G25  20518003.888   107822851.896        2574.565          41.000    20517995.957    84017764.619        2006.126          42.000  
G10  19521842.113   102587968.540        1076.160          50.000    19521830.535    79938632.983         838.641          44.000  
G28  22057448.018   115912683.477        2601.345          40.000    22057437.731    90321552.417        2027.072          43.000  
C23  20729328.880   107943052.832         292.390          50.000                                                                  
C09  36835705.440   191813190.738         286.404          39.000    36835693.820   148322073.330         221.603          47.000  
C33  26088710.378                       -2922.266          30.000                                                                  
C37  22892686.551   119208239.993        2701.752          44.000                                                                  
> 2025 10 27 02 49 48.2760000  0 19                     
G12  20759063.639   109089617.472         911.348          45.000    20759051.843    85004850.162         710.204          42.000  
G15  23219051.158   122016928.183       -3247.358          34.000    23219045.476    95078111.147       -2530.327          33.000  
G18  23544285.834   123726048.910       -3685.029          35.000    23544281.587    96409872.254       -2871.554          37.000  
G23  19239870.570   101106198.670       -2051.649          45.000    19239858.788    78783976.326       -1598.738          47.000  
G24  20908207.394                       -3354.898          30.000    20908197.839                       -2613.849          31.000  
G32  20913034.256   109898736.642        1509.910          46.000    20913023.637    85635324.570        1176.566          41.000  
C08  34707785.246   180732542.225        -329.364          46.000    34707768.452   139753786.919        -254.639          48.000  
C13  34711643.398   180752632.861         -34.052          47.000    34711634.481   139769355.115         -26.410          47.000  
C16  35671944.133   185753170.356           8.666          46.000    35671933.984   143636094.218           6.783          47.000  
C25  22235727.703   115787282.936       -2528.200          36.000                                                                  
C32  21058677.837   109658064.372         888.463          50.000                                                                  
C06  35366522.379   184162763.923         188.181          43.000    35366507.040   142406267.134         145.546          46.000  
G25  20517984.278   107822748.887        2575.006          41.000    20517976.367    84017684.357        2006.428          42.000  
G10  19521833.912   102587925.483        1076.276          50.000    19521822.342    79938599.436         838.635          44.000  
G28  22057428.198   115912579.417        2601.329          40.000    22057417.927    90321471.324        2027.229          43.000  
C23  20729326.663   107943041.115         292.682          50.000                                                                  
C09  36835703.227   191813179.263         286.704          39.000    36835691.604   148322064.462         221.622          47.000  
C33  26088732.801                       -2920.486          30.000                                                                  
C37  22892665.789   119208131.908        2701.963          44.000                                                                  
> 2025 10 27 02 49 48.3160000  0 19                     
G12  20759056.671   109089581.017         911.398          45.000    20759044.930    85004821.764         710.019          42.000  
G15  23219075.869   122017058.078       -3247.332          34.000    23219070.223    95078212.390       -2530.906          33.000  
G18  23544313.875   123726196.297       -3684.858          35.000    23544309.649    96409987.098       -2871.362          37.000  
G23  19239886.181   101106280.733       -2051.600          45.000    19239874.423    78784040.272       -1598.726          47.000  
G24  20908232.947                       -3355.690          30.000    20908223.364                       -2614.177          31.000  
G32  20913022.756   109898676.230        1510.204          46.000    20913012.137    85635277.490        1176.879          41.000  
C08  34707787.794   180732555.400        -329.376          46.000    34707770.967   139753797.104        -254.633          48.000  
C13  34711643.669   180752634.223         -34.021          47.000    34711634.729   139769356.170         -26.398          47.000  
C16  35671944.046   185753169.997           8.848          46.000    35671933.891   143636093.946           6.771          47.000  
C25  22235747.125   115787384.062       -2528.011          36.000                                                                  
C32  21058671.064   109658028.824         888.638          50.000                                                                  
C06  35366520.942   184162756.372         188.590          43.000    35366505.587   142406261.302         145.697          46.000  
G25  20517964.665   107822645.895        2574.964          41.000    20517956.798    84017604.123        2006.092          42.000  
G10  19521825.702   102587882.426        1076.367          50.000    19521814.145    79938565.881         838.776          44.000  
G28  22057408.386   115912475.350        2601.449          40.000    22057398.121    90321390.226        2027.389          43.000  
C23  20729324.418   107943029.400         292.815          50.000                                                                  
C09  36835701.024   191813167.783         286.979          39.000    36835689.433   148322055.588         221.761          47.000  
C33  26088755.222                       -2920.285          30.000                                                                  
C37  22892645.033   119208023.836        2701.839          44.000                                                                  
