     3.04           OBSERVATION DATA    M: Mixed            RINEX VERSION / TYPE
RTKCONV 2.4.3 b34                       20251027 033001 UTC PGM / RUN BY / DATE 
format: u-blox UBX                                          COMMENT             
log: D:\GPdata\10_27\fingure_288_rev_10_27_1.ubx            COMMENT             
                                                            MARKER NAME         
                                                            MARKER NUMBER       
                                                            MARKER TYPE         
                                                            OBSERVER / AGENCY   
                                                            REC # / TYPE / VERS 
                                                            ANT # / TYPE        
        0.0000        0.0000        0.0000                  APPROX POSITION XYZ 
        0.0000        0.0000        0.0000                  ANTENNA: DELTA H/E/N
G    8 C1C L1C D1C S1C C2L L2L D2L S2L                      SYS / # / OBS TYPES 
C    8 C2I L2I D2I S2I C7I L7I D7I S7I                      SYS / # / OBS TYPES 
  2025    10    27    02    51   05.6360000     GPS         TIME OF FIRST OBS   
  2025    10    27    02    51   30.3560000     GPS         TIME OF LAST OBS    
G L1C                                                       SYS / PHASE SHIFT   
G L2L  0.00000                                              SYS / PHASE SHIFT   
C L2I                                                       SYS / PHASE SHIFT   
C L7I                                                       SYS / PHASE SHIFT   
  0                                                         GLONASS SLOT / FRQ #
 C1C    0.000 C1P    0.000 C2C    0.000 C2P    0.000        GLONASS COD/PHS/BIS 
                                                            END OF HEADER       
> 2025 10 27 02 51 05.6360000  0 19                     
G12  20746018.980   109021067.5191        861.188          45.000    20746007.202    84951434.6761        670.980          42.000  
G15  23266923.921   122268500.9061      -3256.372          33.000    23266920.497    95274141.1741      -2538.219          32.000  
G18  23598494.031   124010907.9461      -3679.458          35.000    23598489.848    96631838.7101      -2867.443          37.000  
G23  19270417.304   101266720.3881      -2098.060          46.000    19270405.498    78909058.0091      -1634.889          47.000  
G24  20957739.771   110133667.9381      -3373.073          28.000    20957729.711                       -2628.508          32.000  
G32  20890877.198   109782301.5751       1500.374          46.000    20890866.893    85544595.9591       1169.342          41.000  
C08  34712784.048   180758572.5791       -343.488          46.000    34712767.399   139773915.1601       -265.601          49.000  
C13  34712243.945   180755759.4361        -46.637          47.000    34712234.934   139771772.6971        -35.992          48.000  
C16  35671888.769   185752886.6461         -1.168          47.000    35671880.147   143635874.8451         -1.003          48.000  
C25  22273509.554   115984020.3461      -2557.122          35.000                                                                  
C32  21045637.866   109590161.8401        867.214          50.000                                                                  
C06  35363803.176   184148603.5321        178.085          44.000    35363787.556   142395317.4201        137.566          47.000  
G25  20480331.273   107624882.1571       2540.617          41.000    20480323.686    83863502.5511       1979.852          43.000  
G10  19506313.430   102506365.4511       1032.373          50.000    19506301.551    79875046.1121        804.498          44.000  
G28  22019304.783   115712243.7501       2577.799          39.000    22019294.930    90165365.8911       2008.302          43.000  
C23  20725299.045   107922069.1621        249.600          50.000                                                                  
C09  36831520.261   191791396.5431        276.616          39.000    36831509.013   148305220.6681        213.887          48.000  
C33  26132211.124                       -2931.655          29.000                                                                  
C37  22852687.133   118999952.7491       2680.201          44.000                                                                  
> 2025 10 27 02 51 05.6760000  0 19                     
G12  20746012.413   109021033.078         861.063          45.000    20746000.655    84951407.840         670.894          42.000  
G15  23266948.729   122268631.195       -3256.902          33.000    23266945.288    95274242.668       -2537.791          32.000  
G18  23598522.062   124011055.134       -3679.724          35.000    23598517.865    96631953.396       -2867.391          37.000  
G23  19270433.289   101266804.318       -2098.183          46.000    19270421.496    78909123.408       -1634.993          47.000  
G24  20957765.431   110133802.859       -3372.980          28.000    20957755.382    85818455.659       -2628.480          32.000  
G32  20890865.775   109782241.558        1500.408          46.000    20890855.462    85544549.198        1169.162          42.000  
C08  34712786.682   180758586.318        -343.488          46.000    34712770.014   139773925.782        -265.570          49.000  
C13  34712244.317   180755761.291         -46.509          47.000    34712235.279   139771774.138         -36.035          48.000  
C16  35671888.779   185752886.698          -1.277          47.000    35671880.156   143635874.885          -1.010          48.000  
C25  22273529.199   115984122.644       -2557.431          35.000                                                                  
C32  21045631.161   109590127.154         867.145          50.000                                                                  
C06  35363801.787   184148596.416         177.949          44.000    35363786.194   142395311.920         137.465          47.000  
G25  20480311.921   107624780.508        2540.969          41.000    20480304.339    83863423.349        1979.971          43.000  
G10  19506305.573   102506324.155        1032.385          50.000    19506293.700    79875013.927         804.578          44.000  
G28  22019285.178   115712140.643        2577.637          39.000    22019275.307    90165285.542        2008.543          43.000  
C23  20725297.154   107922059.174         249.634          50.000                                                                  
C09  36831518.141   191791385.474         276.631          39.000    36831506.916   148305212.115         213.807          48.000  
C33  26132233.656                       -2931.870          29.000                                                                  
C37  22852666.513   118999845.550        2679.927          44.000                                                                  
> 2025 10 27 02 51 05.7160000  0 19                     
G12  20746005.868   109020998.630         861.104          45.000    20745994.099    84951380.997         670.960          42.000  
G15  23266973.502                       -3255.969          33.000    23266970.056    95274344.164       -2537.577          32.000  
G18  23598550.043   124011202.292       -3679.241          35.000    23598545.878    96632068.077       -2867.189          37.000  
G23  19270449.248   101266888.248       -2098.262          46.000    19270437.460    78909188.808       -1635.042          47.000  
G24  20957791.100   110133937.780       -3372.946          28.000    20957781.068                       -2627.652          32.000  
G32  20890854.344   109782181.539        1500.458          46.000    20890844.039    85544502.428        1169.214          41.000  
C08  34712789.293   180758600.062        -343.597          46.000    34712772.646   139773936.407        -265.631          49.000  
C13  34712244.661   180755763.156         -46.625          47.000    34712235.619   139771775.579         -36.060          48.000  
C16  35671888.809   185752886.755          -1.419          47.000    35671880.143   143635874.926          -1.023          48.000  
C25  22273548.827   115984224.944       -2557.597          35.000                                                                  
C32  21045624.476   109590092.467         867.133          50.000                                                                  
C06  35363800.399   184148589.298         177.905          44.000    35363784.803   142395306.415         137.509          47.000  
G25  20480292.579   107624678.872        2540.965          41.000    20480284.989    83863344.154        1979.908          43.000  
G10  19506297.734   102506282.865        1032.275          50.000    19506285.838    79874981.762         804.242          44.000  
G28  22019265.562   115712037.527        2577.731          39.000    22019255.690    90165205.187        2008.755          43.000  
C23  20725295.240   107922049.190         249.583          50.000                                                                  
C09  36831516.014   191791374.425         276.313          39.000    36831504.765   148305203.561         213.783          48.000  
C33  26132256.206                       -2931.838          29.000                                                                  
C37  22852645.944   118999738.338        2680.072          44.000                                                                  
> 2025 10 27 02 51 05.7560000  0 19                     
G12  20745999.321   109020964.191         860.974          45.000    20745987.561    84951354.162         670.884          42.000  
G15  23266998.308   122268891.685       -3256.387          33.000    23266994.866    95274445.655       -2537.363          32.000  
G18  23598578.048   124011349.470       -3679.352          35.000    23598573.881    96632182.753       -2866.946          37.000  
G23  19270465.242   101266972.183       -2098.410          46.000    19270453.433    78909254.209       -1635.097          47.000  
G24  20957816.734   110134072.718       -3373.132          28.000    20957806.761                       -2628.628          32.000  
G32  20890842.942   109782121.535        1500.178          46.000    20890832.619    85544455.673        1168.947          41.000  
C08  34712791.936   180758613.801        -343.536          46.000    34712775.311   139773947.037        -265.747          49.000  
C13  34712245.057   180755765.018         -46.582          47.000    34712235.990   139771777.015         -35.992          48.000  
C16  35671888.828   185752886.814          -1.511          47.000    35671880.150   143635874.974          -1.146          48.000  
C25  22273568.493   115984327.254       -2557.823          35.000                                                                  
C32  21045617.767   109590057.782         867.096          50.000                                                                  
C06  35363799.026   184148582.190         177.720          44.000    35363783.438   142395300.918         137.396          47.000  
G25  20480273.239   107624577.235        2540.921          41.000    20480265.669    83863264.964        1979.738          43.000  
G10  19506289.895   102506241.575        1032.196          50.000    19506277.968    79874949.587         804.279          44.000  
G28  22019245.940   115711934.412        2577.819          39.000    22019236.064    90165124.838        2008.760          43.000  
C23  20725293.286   107922039.207         249.527          50.000                                                                  
C09  36831513.895   191791363.374         276.146          39.000    36831502.641   148305195.002         213.898          48.000  
C33  26132278.703                       -2931.807          29.000                                                                  
C37  22852625.352   118999631.124        2680.254          44.000                                                                  
> 2025 10 27 02 51 05.7960000  0 19                     
G12  20745992.793   109020929.764         860.720          45.000    20745981.020    84951327.330         670.803          42.000  
G15  23267023.086   122269021.974       -3257.039          33.000    23267019.680    95274547.160       -2537.550          32.000  
G18  23598606.067   124011496.661       -3679.667          35.000    23598601.881    96632297.435       -2867.009          37.000  
G23  19270481.204   101267056.114       -2098.378          46.000    19270469.407    78909319.613       -1635.171          47.000  
G24  20957842.382   110134207.624       -3372.924          28.000    20957832.433                       -2628.857          32.000  
G32  20890831.532   109782061.524        1500.178          46.000    20890821.203    85544408.904        1169.056          42.000  
C08  34712794.593   180758627.547        -343.634          46.000    34712777.961   139773957.662        -265.686          49.000  
C13  34712245.398   180755766.882         -46.643          47.000    34712236.354   139771778.459         -36.108          48.000  
C16  35671888.822   185752886.868          -1.481          47.000    35671880.181   143635875.015          -1.110          48.000  
C25  22273588.133   115984429.557       -2557.760          35.000                                                                  
C32  21045611.128   109590023.099         867.046          50.000                                                                  
C06  35363797.657   184148575.079         177.700          44.000    35363782.076   142395295.416         137.406          47.000  
G25  20480253.922   107624475.614        2540.606          41.000    20480246.315    83863185.771        1979.723          43.000  
G10  19506282.048   102506200.290        1032.092          50.000    19506270.104    79874917.413         804.303          44.000  
G28  22019226.324   115711831.312        2577.602          39.000    22019216.460    90165044.490        2008.709          43.000  
C23  20725291.352   107922029.233         249.368          50.000                                                                  
C09  36831511.756   191791352.307         276.369          39.000    36831500.483   148305186.453         213.765          48.000  
C33  26132301.193                       -2931.781          29.000                                                                  
C37  22852604.767   118999523.916        2680.274          44.000                                                                  
> 2025 10 27 02 51 05.8360000  0 19                     
G12  20745986.238   109020895.331         860.680          45.000    20745974.469    84951300.501         670.708          42.000  
G15  23267047.854                       -3256.489          33.000    23267044.491    95274648.711       -2538.466          32.000  
G18  23598634.092   124011643.863       -3680.061          35.000    23598629.876    96632412.116       -2867.018          37.000  
G23  19270497.195   101267140.051       -2098.470          46.000    19270485.378    78909385.013       -1635.090          47.000  
G24  20957868.052   110134342.611       -3373.685          28.000    20957858.105    85818876.215       -2628.639          32.000  
G32  20890820.101   109782001.511        1500.239          46.000    20890809.782    85544362.142        1169.023          42.000  
C08  34712797.262   180758641.290        -343.634          46.000    34712780.620   139773968.290        -265.729          49.000  
C13  34712245.743   180755768.748         -46.674          47.000    34712236.694   139771779.899         -36.078          48.000  
C16  35671888.874   185752886.924          -1.459          47.000    35671880.173   143635875.057          -1.104          48.000  
C25  22273607.789   115984531.852       -2557.612          35.000                                                                  
C32  21045604.462   109589988.420         866.965          50.000                                                                  
C06  35363796.319   184148567.965         177.737          44.000    35363780.694   142395289.906         137.600          47.000  
G25  20480234.588   107624373.986        2540.575          41.000    20480226.980    83863106.590        1979.545          43.000  
G10  19506274.183   102506159.004        1032.080          50.000    19506262.253    79874885.236         804.346          44.000  
G28  22019206.713   115711728.211        2577.517          39.000    22019196.836    90164964.145        2008.640          43.000  
C23  20725289.466   107922019.257         249.334          50.000                                                                  
C09  36831509.647   191791341.253         276.274          39.000    36831498.327   148305177.896         213.847          48.000  
C33  26132323.739                       -2932.068          29.000                                                                  
C37  22852584.173   118999416.707        2680.222          44.000                                                                  
> 2025 10 27 02 51 05.8760000  0 19                     
G12  20745979.685   109020860.892         860.823          45.000    20745967.933    84951273.665         670.769          42.000  
G15  23267072.651   122269282.480       -3256.515          33.000    23267069.262    95274750.183       -2537.601          32.000  
G18  23598662.130   124011791.047       -3679.874          35.000    23598657.920    96632526.820       -2867.498          37.000  
G23  19270513.162   101267223.990       -2098.531          46.000    19270501.326    78909450.409       -1634.985          47.000  
G24  20957893.742   110134477.537       -3373.560          28.000    20957883.792    85818981.376       -2628.912          32.000  
G32  20890808.690   109781941.490        1500.441          46.000    20890798.362    85544315.377        1169.064          42.000  
C08  34712799.907   180758655.031        -343.536          46.000    34712783.233   139773978.912        -265.601          49.000  
C13  34712246.088   180755770.613         -46.655          47.000    34712237.049   139771781.338         -36.005          48.000  
C16  35671888.892   185752886.979          -1.412          47.000    35671880.212   143635875.092          -0.953          48.000  
C25  22273627.412   115984634.170       -2557.933          35.000                                                                  
C32  21045597.822   109589953.739         866.962          50.000                                                                  
C06  35363794.966   184148560.845         177.896          44.000    35363779.330   142395284.407         137.512          47.000  
G25  20480215.230   107624272.358        2540.615          41.000    20480207.638    83863027.392        1979.761          43.000  
G10  19506266.318   102506117.716        1032.123          50.000    19506254.401    79874853.063         804.315          44.000  
G28  22019187.082   115711625.102        2577.649          39.000    22019177.232    90164883.810        2008.429          43.000  
C23  20725287.580   107922009.279         249.357          50.000                                                                  
C09  36831507.514   191791330.188         276.439          39.000    36831496.209   148305169.341         213.866          48.000  
C33  26132346.261                       -2931.996          29.000                                                                  
C37  22852563.584   118999309.502        2680.176          44.000                                                                  
> 2025 10 27 02 51 05.9160000  0 19                     
G12  20745973.127   109020826.462         860.733          45.000    20745961.380    84951246.837         670.680          42.000  
G15  23267097.422   122269412.726       -3256.269          33.000    23267094.040    95274851.700       -2537.627          32.000  
G18  23598690.142   124011938.220       -3679.551          35.000    23598685.910    96632641.509       -2867.399          37.000  
G23  19270529.134   101267307.923       -2098.438          46.000    19270517.332    78909515.818       -1635.140          47.000  
G24  20957919.404   110134612.480       -3373.659          28.000    20957909.469    85819086.493       -2628.232          32.000  
G32  20890797.265   109781881.477        1500.379          46.000    20890786.929    85544268.611        1169.116          42.000  
C08  34712802.538   180758668.779        -343.646          46.000    34712785.856   139773989.546        -265.790          49.000  
C13  34712246.455   180755772.479         -46.680          47.000    34712237.387   139771782.781         -36.078          48.000  
C16  35671888.898   185752887.042          -1.550          47.000    35671880.207   143635875.144          -1.177          48.000  
C25  22273647.057   115984736.438       -2557.112          35.000                                                                  
C32  21045591.163   109589919.059         866.956          50.000                                                                  
C06  35363793.608   184148553.734         177.834          44.000    35363777.966   142395278.912         137.400          47.000  
G25  20480195.873   107624170.723        2540.788          41.000    20480188.302    83862948.204        1979.657          43.000  
G10  19506258.499   102506076.434        1032.037          50.000    19506246.517    79874820.898         804.175          44.000  
G28  22019167.453   115711522.002        2577.562          39.000    22019157.581    90164803.470        2008.406          43.000  
C23  20725285.684   107921999.302         249.372          50.000                                                                  
C09  36831505.383   191791319.105         276.929          39.000    36831494.066   148305160.794         213.708          48.000  
C33  26132368.780                       -2931.950          29.000                                                                  
C37  22852543.003   118999202.298        2680.111          44.000                                                                  
> 2025 10 27 02 51 05.9560000  0 19                     
G12  20745966.585   109020792.027         860.786          45.000    20745954.831    84951219.997         670.878          42.000  
G15  23267122.207                       -3256.016          33.000    23267118.820    95274953.204       -2537.574          32.000  
G18  23598718.141   124012085.385       -3679.140          35.000    23598713.902    96632756.174       -2866.891          37.000  
G23  19270545.107   101267391.858       -2098.426          46.000    19270533.285    78909581.224       -1635.195          47.000  
G24  20957945.077   110134747.402       -3373.440          28.000    20957935.158    85819191.651       -2628.616          32.000  
G32  20890785.855   109781821.471        1500.209          46.000    20890775.521    85544221.852        1168.985          42.000  
C08  34712805.174   180758682.531        -343.811          46.000    34712788.476   139774000.176        -265.790          49.000  
C13  34712246.821   180755774.341         -46.613          47.000    34712237.751   139771784.227         -36.151          48.000  
C16  35671888.912   185752887.097          -1.455          47.000    35671880.200   143635875.192          -1.253          48.000  
C25  22273666.692   115984838.740       -2557.242          35.000                                                                  
C32  21045584.522   109589884.376         867.015          50.000                                                                  
C06  35363792.227   184148546.621         177.830          44.000    35363776.613   142395273.409         137.477          47.000  
G25  20480176.534   107624069.104        2540.570          41.000    20480168.975    83862869.024        1979.503          43.000  
G10  19506250.619   102506035.149        1032.043          50.000    19506238.658    79874788.730         804.138          44.000  
G28  22019147.844   115711418.888        2577.761          39.000    22019137.940    90164723.129        2008.438          43.000  
C23  20725283.753   107921989.329         249.295          50.000                                                                  
C09  36831503.277   191791308.060         276.440          39.000    36831491.950   148305152.245         213.686          48.000  
C33  26132391.311                       -2932.005          29.000                                                                  
C37  22852522.386   118999095.093        2680.115          44.000                                                                  
> 2025 10 27 02 51 05.9960000  0 19                     
G12  20745960.025   109020757.592         860.852          45.000    20745948.282    84951193.172         670.673          42.000  
G15  23267146.992                       -3257.149          33.000    23267143.584    95275054.676       -2537.097          32.000  
G18  23598746.135   124012232.569       -3679.352          35.000    23598741.912    96632870.850       -2866.849          37.000  
G23  19270561.084   101267475.791       -2098.402          46.000    19270549.266    78909646.630       -1635.219          47.000  
G24  20957970.774   110134882.317       -3373.194          28.000    20957960.850    85819296.804       -2628.784          32.000  
G32  20890774.424   109781761.455        1500.295          46.000    20890764.105    85544175.092        1168.913          42.000  
C08  34712807.788   180758696.274        -343.683          46.000    34712791.088   139774010.800        -265.692          49.000  
C13  34712247.171   180755776.203         -46.588          47.000    34712238.104   139771785.662         -35.980          48.000  
C16  35671888.938   185752887.146          -1.301          47.000    35671880.238   143635875.237          -1.202          48.000  
C25  22273686.324   115984941.065       -2557.848          35.000                                                                  
C32  21045577.848   109589849.696         866.996          50.000                                                                  
C06  35363790.853   184148539.504         177.888          44.000    35363775.227   142395267.905         137.549          47.000  
G25  20480157.195   107623967.491        2540.323          41.000    20480149.648    83862789.830        1979.644          43.000  
G10  19506242.757   102505993.861        1032.129          50.000    19506230.824    79874756.565         804.083          44.000  
G28  22019128.234   115711315.764        2577.989          39.000    22019118.302    90164642.780        2008.619          43.000  
C23  20725281.840   107921979.351         249.382          50.000                                                                  
C09  36831501.162   191791297.009         276.253          39.000    36831489.818   148305143.685         213.914          48.000  
C33  26132413.875                       -2932.011          29.000                                                                  
C37  22852501.809   118998987.893        2680.015          44.000                                                                  
> 2025 10 27 02 51 06.0360000  0 19                     
G12  20745953.471   109020723.151         860.953          45.000    20745941.728    84951166.345         670.605          42.000  
G15  23267171.774                       -3256.714          33.000    23267168.354    95275156.204       -2537.896          32.000  
G18  23598774.141   124012379.731       -3679.100          35.000    23598769.915    96632985.537       -2866.997          37.000  
G23  19270577.084   101267559.731       -2098.507          46.000    19270565.224    78909712.044       -1635.366          47.000  
G24  20957996.439   110135017.266       -3373.411          28.000    20957986.537    85819401.969       -2629.084          32.000  
G32  20890763.002   109781701.441        1500.308          46.000    20890752.695    85544128.329        1168.961          42.000  
C08  34712810.438   180758710.008        -343.475          46.000    34712793.756   139774021.428        -265.704          49.000  
C13  34712247.528   180755778.069         -46.661          47.000    34712238.456   139771787.105         -36.060          48.000  
C16  35671888.952   185752887.207          -1.455          47.000    35671880.241   143635875.283          -1.195          48.000  
C25  22273705.983   115985043.370       -2557.747          35.000                                                                  
C32  21045571.212   109589815.013         867.033          50.000                                                                  
C06  35363789.503   184148532.394         177.794          44.000    35363773.853   142395262.409         137.421          47.000  
G25  20480137.852   107623865.859        2540.569          41.000    20480130.293    83862710.635        1979.768          43.000  
G10  19506234.925   102505952.577        1032.092          50.000    19506222.984    79874724.395         804.199          44.000  
G28  22019108.620   115711212.663        2577.713          39.000    22019098.678    90164562.441        2008.513          43.000  
C23  20725279.944   107921969.369         249.471          50.000                                                                  
C09  36831499.026   191791285.939         276.521          39.000    36831487.713   148305135.133         213.849          48.000  
C33  26132436.414                       -2931.927          29.000                                                                  
C37  22852481.211   118998880.691        2679.978          44.000                                                                  
> 2025 10 27 02 51 06.0760000  0 19                     
G12  20745946.900   109020688.720         860.826          45.000    20745935.166    84951139.516         670.655          42.000  
G15  23267196.536                       -3256.284          33.000    23267193.118    95275257.730       -2538.291          32.000  
G18  23598802.131   124012526.916       -3679.338          35.000    23598797.925    96633100.219       -2867.010          37.000  
G23  19270593.049   101267643.671       -2098.549          46.000    19270581.185    78909777.448       -1635.236          47.000  
G24  20958022.094   110135152.193       -3373.341          28.000    20958012.240    85819507.082       -2628.254          32.000  
G32  20890751.595   109781641.431        1500.263          46.000    20890741.275    85544081.577        1168.768          42.000  
C08  34712813.080   180758723.747        -343.427          46.000    34712796.405   139774032.058        -265.741          49.000  
C13  34712247.870   180755779.935         -46.692          47.000    34712238.796   139771788.543         -35.986          48.000  
C16  35671888.978   185752887.265          -1.471          47.000    35671880.250   143635875.325          -1.110          48.000  
C25  22273725.634   115985145.651       -2557.198          35.000                                                                  
C32  21045564.538   109589780.336         866.929          50.000                                                                  
C06  35363788.175   184148525.278         177.841          44.000    35363772.472   142395256.907         137.468          47.000  
G25  20480118.520   107623764.225        2540.685          41.000    20480110.942    83862631.443        1979.784          43.000  
G10  19506227.038   102505911.294        1032.068          50.000    19506215.121    79874692.216         804.413          44.000  
G28  22019088.998   115711109.567        2577.427          39.000    22019079.046    90164482.095        2008.556          42.000  
C23  20725277.992   107921959.400         249.300          50.000                                                                  
C09  36831496.900   191791274.894         276.308          39.000    36831485.587   148305126.585         213.742          48.000  
C33  26132458.920                       -2931.935          29.000                                                                  
C37  22852460.616   118998773.486        2680.034          44.000                                                                  
> 2025 10 27 02 51 06.1160000  0 19                     
G12  20745940.347   109020654.295         860.641          45.000    20745928.627    84951112.692         670.584          42.000  
G15  23267221.320   122270064.081       -3256.720          34.000    23267217.903    95275359.237       -2538.091          32.000  
G18  23598830.161   124012674.116       -3679.824          35.000    23598825.955    96633214.916       -2867.290          37.000  
G23  19270609.029   101267727.610       -2098.530          46.000    19270597.159    78909842.854       -1635.206          47.000  
G24  20958047.776   110135287.115       -3373.202          28.000    20958037.924    85819612.233       -2628.411          32.000  
G32  20890740.173   109781581.416        1500.344          46.000    20890729.826    85544034.802        1169.143          42.000  
C08  34712815.728   180758737.497        -343.646          46.000    34712799.031   139774042.686        -265.704          49.000  
C13  34712248.221   180755781.802         -46.692          47.000    34712239.185   139771789.988         -36.108          48.000  
C16  35671888.994   185752887.321          -1.464          47.000    35671880.244   143635875.360          -0.970          48.000  
C25  22273745.266   115985247.953       -2557.391          35.000                                                                  
C32  21045557.908   109589745.654         866.984          50.000                                                                  
C06  35363786.806   184148518.170         177.742          44.000    35363771.137   142395251.411         137.390          47.000  
G25  20480099.191   107623662.599        2540.631          41.000    20480091.608    83862552.257        1979.659          43.000  
G10  19506219.201   102505870.009        1032.080          50.000    19506207.258    79874660.041         804.413          44.000  
G28  22019069.389   115711006.465        2577.443          39.000    22019059.426    90164401.755        2008.493          43.000  
C23  20725276.058   107921949.425         249.283          50.000                                                                  
C09  36831494.740   191791263.829         276.478          39.000    36831483.444   148305118.030         213.805          48.000  
C33  26132481.441                       -2931.808          29.000                                                                  
C37  22852440.032   118998666.284        2680.031          44.000                                                                  
> 2025 10 27 02 51 06.1560000  0 19                     
G12  20745933.801   109020619.872         860.509          45.000    20745922.072    84951085.868         670.554          42.000  
G15  23267246.096   122270194.340       -3256.588          34.000    23267242.662    95275460.737       -2537.821          32.000  
G18  23598858.188   124012821.307       -3679.952          35.000    23598853.966    96633329.605       -2867.298          37.000  
G23  19270624.985   101267811.548       -2098.499          46.000    19270613.148    78909908.258       -1635.157          47.000  
G24  20958073.407   110135422.067       -3373.449          28.000    20958063.599    85819717.348       -2628.067          32.000  
G32  20890728.746   109781521.396        1500.444          46.000    20890718.416    85543988.038        1169.178          42.000  
C08  34712818.351   180758751.242        -343.671          46.000    34712801.660   139774053.315        -265.735          49.000  
C13  34712248.576   180755783.666         -46.667          47.000    34712239.533   139771791.430         -36.096          48.000  
C16  35671889.019   185752887.382          -1.543          47.000    35671880.263   143635875.408          -1.111          48.000  
C25  22273764.890   115985350.248       -2557.429          35.000                                                                  
C32  21045551.277   109589710.970         867.054          50.000                                                                  
C06  35363785.444   184148511.052         177.893          44.000    35363769.750   142395245.907         137.478          47.000  
G25  20480079.844   107623560.970        2540.657          41.000    20480072.275    83862473.074        1979.549          43.000  
G10  19506211.359   102505828.728        1031.995          50.000    19506199.417    79874627.887         803.986          44.000  
G28  22019049.767   115710903.370        2577.345          39.000    22019039.789    90164321.416        2008.432          43.000  
C23  20725274.130   107921939.453         249.258          50.000                                                                  
C09  36831492.611   191791252.748         276.853          39.000    36831481.327   148305109.477         213.818          48.000  
C33  26132503.979                       -2931.757          29.000                                                                  
C37  22852419.450   118998559.072        2680.218          44.000                                                                  
> 2025 10 27 02 51 06.1960000  0 19                     
G12  20745927.244   109020585.453         860.385          45.000    20745915.513    84951059.037         670.679          42.000  
G15  23267270.890   122270324.633       -3257.062          33.000    23267267.463    95275562.262       -2538.154          32.000  
G18  23598886.194   124012968.478       -3679.554          35.000    23598881.969    96633444.301       -2867.426          37.000  
G23  19270640.980   101267895.497       -2098.690          46.000    19270629.144    78909973.667       -1635.212          47.000  
G24  20958099.076   110135556.994       -3373.353          28.000    20958089.295    85819822.548       -2629.264          32.000  
G32  20890717.331   109781461.393        1500.223          46.000    20890707.006    85543941.275        1169.121          42.000  
C08  34712820.971   180758764.995        -343.793          46.000    34712804.300   139774063.945        -265.784          49.000  
C13  34712248.940   180755785.530         -46.643          47.000    34712239.900   139771792.876         -36.157          48.000  
C16  35671889.019   185752887.449          -1.677          47.000    35671880.252   143635875.460          -1.273          48.000  
C25  22273784.539   115985452.584       -2558.261          35.000                                                                  
C32  21045544.585   109589676.296         866.899          50.000                                                                  
C06  35363784.056   184148503.937         177.897          44.000    35363768.345   142395240.405         137.524          47.000  
G25  20480060.512   107623459.351        2540.548          41.000    20480052.947    83862393.886        1979.600          43.000  
G10  19506203.510   102505787.452        1031.897          50.000    19506191.575    79874595.726         803.906          44.000  
G28  22019030.129   115710800.262        2577.552          39.000    22019020.169    90164241.076        2008.445          43.000  
C23  20725272.179   107921929.482         249.229          50.000                                                                  
C09  36831490.501   191791241.701         276.388          39.000    36831479.198   148305100.928         213.729          48.000  
C33  26132526.522                       -2931.742          29.000                                                                  
C37  22852398.845   118998451.873        2680.109          44.000                                                                  
> 2025 10 27 02 51 06.2360000  0 19                     
G12  20745920.688   109020551.021         860.593          45.000    20745908.979    84951032.206         670.729          42.000  
G15  23267295.649   122270454.859       -3256.136          33.000    23267292.255    95275663.752       -2537.707          32.000  
G18  23598914.201   124013115.657       -3679.515          35.000    23598909.976    96633558.972       -2867.035          37.000  
G23  19270656.947   101267979.437       -2098.584          46.000    19270645.148    78910039.082       -1635.360          47.000  
G24  20958124.799   110135691.980       -3373.967          28.000    20958114.983    85819927.685       -2628.921          32.000  
G32  20890705.952   109781401.391        1500.065          46.000    20890695.577    85543894.507        1169.145          42.000  
C08  34712823.588   180758778.743        -343.756          46.000    34712806.922   139774074.571        -265.717          49.000  
C13  34712249.291   180755787.399         -46.710          47.000    34712240.255   139771794.318         -36.121          48.000  
C16  35671889.026   185752887.501          -1.442          47.000    35671880.255   143635875.504          -1.208          48.000  
C25  22273804.193   115985554.894       -2558.123          35.000                                                                  
C32  21045537.993   109589641.612         867.017          50.000                                                                  
C06  35363782.679   184148496.829         177.782          44.000    35363766.975   142395234.908         137.450          47.000  
G25  20480041.199   107623357.732        2540.460          41.000    20480033.593    83862314.697        1979.633          43.000  
G10  19506195.661   102505746.174        1031.879          50.000    19506183.715    79874563.565         803.912          44.000  
G28  22019010.530   115710697.169        2577.364          39.000    22019000.530    90164160.733        2008.514          43.000  
C23  20725270.256   107921919.513         249.205          50.000                                                                  
C09  36831488.402   191791230.645         276.289          39.000    36831477.059   148305092.375         213.780          48.000  
C33  26132549.027                       -2932.235          29.000                                                                  
C37  22852378.256   118998344.669        2680.056          44.000                                                                  
> 2025 10 27 02 51 06.2760000  0 19                     
G12  20745914.141   109020516.590         860.729          45.000    20745902.418    84951005.369         670.903          42.000  
G15  23267320.430   122270585.137       -3256.614          34.000    23267317.014    95275765.216       -2536.991          32.000  
G18  23598942.231   124013262.819       -3679.150          35.000    23598937.960    96633673.660       -2867.050          37.000  
G23  19270672.891   101268063.379       -2098.585          46.000    19270661.103    78910104.492       -1635.335          47.000  
G24  20958150.464   110135826.942       -3374.073          28.000    20958140.656    85820032.829       -2628.687          32.000  
G32  20890694.517   109781341.370        1500.334          46.000    20890684.192    85543847.747        1169.027          42.000  
C08  34712826.219   180758792.478        -343.518          46.000    34712809.566   139774085.199        -265.710          49.000  
C13  34712249.668   180755789.264         -46.655          47.000    34712240.639   139771795.755         -35.986          48.000  
C16  35671889.051   185752887.557          -1.379          47.000    35671880.277   143635875.546          -1.088          48.000  
C25  22273823.849   115985657.189       -2557.634          35.000                                                                  
C32  21045531.350   109589606.937         866.914          50.000                                                                  
C06  35363781.323   184148489.717         177.762          44.000    35363765.603   142395229.401         137.584          47.000  
G25  20480021.859   107623256.107        2540.564          41.000    20480014.268    83862235.512        1979.620          43.000  
G10  19506187.771   102505704.895        1031.915          50.000    19506175.853    79874531.397         804.077          44.000  
G28  22018990.911   115710594.054        2577.695          39.000    22018980.906    90164080.392        2008.501          43.000  
C23  20725268.373   107921909.540         249.259          50.000                                                                  
C09  36831486.284   191791219.586         276.415          39.000    36831474.932   148305083.821         213.811          48.000  
C33  26132571.590                       -2931.696          29.000                                                                  
C37  22852357.684   118998237.462        2680.113          44.000                                                                  
> 2025 10 27 02 51 06.3160000  0 19                     
G12  20745907.583   109020482.154         860.854          45.000    20745895.872    84950978.544         670.757          42.000  
G15  23267345.203   122270715.416       -3256.859          34.000    23267341.786    95275866.708       -2537.085          32.000  
G18  23598970.243   124013409.969       -3678.762          35.000    23598965.943    96633788.318       -2866.594          37.000  
G23  19270688.830   101268147.315       -2098.474          46.000    19270677.045    78910169.901       -1635.310          47.000  
G24  20958176.145   110135961.856       -3373.601          28.000    20958166.329    85820137.942       -2628.011          32.000  
G32  20890683.105   109781281.346        1500.532          46.000    20890672.778    85543800.992        1168.876          42.000  
C08  34712828.876   180758806.218        -343.488          46.000    34712812.189   139774095.825        -265.674          49.000  
C13  34712250.045   180755791.125         -46.576          47.000    34712240.978   139771797.195         -35.968          48.000  
C16  35671889.056   185752887.612          -1.358          47.000    35671880.301   143635875.587          -1.031          48.000  
C25  22273843.501   115985759.493       -2557.654          35.000                                                                  
C32  21045524.721   109589572.257         866.946          50.000                                                                  
C06  35363779.963   184148482.606         177.709          44.000    35363764.235   142395223.900         137.549          47.000  
G25  20480002.527   107623154.480        2540.601          41.000    20479994.917    83862156.327        1979.574          43.000  
G10  19506179.903   102505663.611        1032.050          50.000    19506168.004    79874499.226         804.248          44.000  
G28  22018971.293   115710490.949        2577.681          39.000    22018961.280    90164000.049        2008.513          43.000  
C23  20725266.498   107921899.565         249.336          50.000                                                                  
C09  36831484.165   191791208.520         276.630          39.000    36831472.819   148305075.268         213.779          48.000  
C33  26132594.110                       -2931.765          29.000                                                                  
C37  22852337.106   118998130.258        2680.119          44.000                                                                  
> 2025 10 27 02 51 06.3560000  0 19                     
G12  20745901.043   109020447.732         860.648          45.000    20745889.319    84950951.728         670.478          42.000  
G15  23267369.988   122270845.675       -3256.613          33.000    23267366.577    95275968.212       -2537.460          32.000  
G18  23598998.254   124013557.168       -3679.462          35.000    23598993.956    96633903.003       -2866.896          37.000  
G23  19270704.798   101268231.259       -2098.573          46.000    19270693.010    78910235.310       -1635.254          47.000  
G24  20958201.825   110136096.781       -3373.354          28.000    20958192.010    85820243.076       -2628.101          32.000  
G32  20890671.667   109781221.328        1500.538          46.000    20890661.347    85543754.219        1169.119          42.000  
C08  34712831.534   180758819.966        -343.634          46.000    34712814.870   139774106.453        -265.698          49.000  
C13  34712250.424   180755792.986         -46.521          47.000    34712241.330   139771798.638         -36.041          48.000  
C16  35671889.062   185752887.672          -1.494          47.000    35671880.285   143635875.632          -1.074          48.000  
C25  22273863.149   115985861.794       -2557.581          35.000                                                                  
C32  21045518.079   109589537.577         866.979          50.000                                                                  
C06  35363778.593   184148475.489         177.825          44.000    35363762.845   142395218.402         137.468          47.000  
G25  20479983.174   107623052.861        2540.529          41.000    20479975.571    83862077.139        1979.650          43.000  
G10  19506172.064   102505622.330        1032.019          50.000    19506160.148    79874467.060         804.187          44.000  
G28  22018951.673   115710387.831        2577.961          39.000    22018941.665    90163919.718        2008.326          43.000  
C23  20725264.595   107921889.592         249.348          50.000                                                                  
C09  36831482.032   191791197.453         276.689          39.000    36831470.695   148305066.714         213.830          48.000  
C33  26132616.657                       -2931.559          29.000                                                                  
C37  22852316.503   118998023.061        2679.978          44.000                                                                  
> 2025 10 27 02 51 06.3960000  0 19                     
G12  20745894.499   109020413.306         860.625          45.000    20745882.761    84950924.904         670.489          42.000  
G15  23267394.799   122270975.932       -3256.364          33.000    23267391.379    95276069.764       -2538.500          32.000  
G18  23599026.288   124013704.355       -3679.705          35.000    23599021.962    96634017.689       -2867.029          37.000  
G23  19270720.771   101268315.206       -2098.690          46.000    19270708.971    78910300.718       -1635.223          47.000  
G24  20958227.484   110136231.702       -3373.167          28.000    20958217.692    85820348.218       -2628.383          32.000  
G32  20890660.275   109781161.312        1500.428          46.000    20890649.929    85543707.455        1169.102          42.000  
C08  34712834.196   180758833.717        -343.799          46.000    34712817.522   139774117.081        -265.717          49.000  
C13  34712250.768   180755794.851         -46.600          47.000    34712241.687   139771800.085         -36.151          48.000  
C16  35671889.060   185752887.732          -1.538          47.000    35671880.310   143635875.678          -1.126          48.000  
C25  22273882.814   115985964.098       -2557.718          35.000                                                                  
C32  21045511.401   109589502.895         867.010          50.000                                                                  
C06  35363777.221   184148468.373         177.876          44.000    35363761.492   142395212.903         137.457          47.000  
G25  20479963.841   107622951.237        2540.556          41.000    20479956.195    83861997.946        1979.752          43.000  
G10  19506164.256   102505581.053        1031.940          50.000    19506152.290    79874434.890         804.224          44.000  
G28  22018932.043   115710284.729        2577.772          39.000    22018922.028    90163839.370        2008.533          43.000  
C23  20725262.682   107921879.622         249.268          50.000                                                                  
C09  36831479.896   191791186.365         277.081          39.000    36831468.547   148305058.162         213.792          48.000  
C33  26132639.187                       -2932.977          29.000                                                                  
C37  22852295.903   118997915.856        2680.020          44.000                                                                  
> 2025 10 27 02 51 06.4360000  0 19                     
G12  20745887.962   109020378.883         860.548          45.000    20745876.229    84950898.089         670.358          42.000  
G15  23267419.569   122271106.184       -3256.217          34.000    23267416.211    95276171.287       -2538.608          32.000  
G18  23599054.305   124013851.543       -3679.820          35.000    23599049.971    96634132.374       -2867.084          37.000  
G23  19270736.742   101268399.154       -2098.745          46.000    19270724.962    78910366.129       -1635.236          47.000  
G24  20958253.183   110136366.620       -3372.968          28.000    20958243.381    85820453.394       -2629.177          32.000  
G32  20890648.883   109781101.313        1500.088          46.000    20890638.510    85543660.700        1168.900          42.000  
C08  34712836.861   180758847.460        -343.701          46.000    34712820.145   139774127.713        -265.802          49.000  
C13  34712251.108   180755796.725         -46.808          47.000    34712242.029   139771801.533         -36.218          48.000  
C16  35671889.089   185752887.776          -1.274          47.000    35671880.325   143635875.726          -1.212          48.000  
C25  22273902.468   115986066.409       -2557.903          35.000                                                                  
C32  21045504.740   109589468.215         867.003          50.000                                                                  
C06  35363775.846   184148461.257         177.886          44.000    35363760.136   142395207.402         137.512          47.000  
G25  20479944.513   107622849.632        2540.228          41.000    20479936.841    83861918.759        1979.689          43.000  
G10  19506156.420   102505539.778        1031.860          50.000    19506144.429    79874402.719         804.266          44.000  
G28  22018912.426   115710181.631        2577.592          39.000    22018902.401    90163759.027        2008.601          43.000  
C23  20725260.778   107921869.664         249.018          50.000                                                                  
C09  36831477.788   191791175.342         276.085          39.000    36831466.436   148305049.611         213.761          48.000  
C33  26132661.713                       -2932.974          29.000                                                                  
C37  22852275.312   118997808.654        2680.007          44.000                                                                  
> 2025 10 27 02 51 06.4760000  0 19                     
G12  20745881.424   109020344.471         860.326          45.000    20745869.652    84950871.261         670.557          42.000  
G15  23267444.366   122271236.442       -3256.314          34.000    23267441.024    95276272.764       -2537.610          32.000  
G18  23599082.317   124013998.721       -3679.645          35.000    23599077.991    96634247.060       -2867.183          37.000  
G23  19270752.697   101268483.098       -2098.689          46.000    19270740.942    78910431.542       -1635.341          47.000  
G24  20958278.818                       -3373.104          28.000    20958269.076    85820558.554       -2629.336          32.000  
G32  20890637.464   109781041.309        1499.998          46.000    20890627.080    85543613.936        1168.961          42.000  
C08  34712839.492   180758861.206        -343.701          46.000    34712822.763   139774138.339        -265.717          49.000  
C13  34712251.449   180755798.593         -46.820          47.000    34712242.380   139771802.977         -36.176          48.000  
C16  35671889.081   185752887.830          -1.327          47.000    35671880.303   143635875.768          -1.125          48.000  
C25  22273922.117   115986168.704       -2557.643          35.000                                                                  
C32  21045498.050   109589433.537         866.957          50.000                                                                  
C06  35363774.493   184148454.145         177.826          44.000    35363758.777   142395201.900         137.502          47.000  
G25  20479925.190   107622748.000        2540.563          41.000    20479917.508    83861839.580        1979.480          43.000  
G10  19506148.566   102505498.501        1031.879          50.000    19506136.595    79874370.570         803.851          44.000  
G28  22018892.808   115710078.532        2577.480          39.000    22018882.783    90163678.682        2008.593          43.000  
C23  20725258.890   107921859.698         249.037          50.000                                                                  
C09  36831475.668   191791164.288         276.111          39.000    36831464.336   148305041.061         213.729          48.000  
C33  26132684.270                       -2932.734          29.000                                                                  
C37  22852254.713   118997701.453        2679.983          44.000                                                                  
> 2025 10 27 02 51 06.5160000  0 19                     
G12  20745874.886   109020310.056         860.233          45.000    20745863.099    84950844.431         670.691          42.000  
G15  23267469.146   122271366.727       -3256.893          34.000    23267465.809    95276374.258       -2537.372          32.000  
G18  23599110.303   124014145.891       -3679.462          35.000    23599106.004    96634361.785       -2867.880          37.000  
G23  19270768.656   101268567.048       -2098.757          46.000    19270756.936    78910496.961       -1635.482          47.000  
G24  20958304.525   110136636.496       -3373.163          28.000    20958294.747    85820663.675       -2628.557          32.000  
G32  20890626.049   109780981.301        1500.063          46.000    20890615.667    85543567.181        1168.847          42.000  
C08  34712842.122   180758874.958        -343.817          46.000    34712825.393   139774148.976        -265.881          49.000  
C13  34712251.815   180755800.466         -46.875          47.000    34712242.748   139771804.424         -36.188          48.000  
C16  35671889.091   185752887.903          -1.686          47.000    35671880.274   143635875.813          -1.118          48.000  
C25  22273941.760   115986271.032       -2558.080          35.000                                                                  
C32  21045491.345   109589398.868         866.740          50.000                                                                  
C06  35363773.118   184148447.039         177.668          44.000    35363757.448   142395196.405         137.416          47.000  
G25  20479905.863   107622646.384        2540.414          41.000    20479898.216    83861760.398        1979.508          43.000  
G10  19506140.734   102505457.232        1031.732          50.000    19506128.755    79874338.416         803.735          44.000  
G28  22018873.180   115709975.431        2577.456          39.000    22018863.210    90163598.362        2008.145          43.000  
C23  20725256.970   107921849.734         249.033          50.000                                                                  
C09  36831473.562   191791153.214         276.560          39.000    36831462.209   148305032.518         213.586          48.000  
C33  26132706.803                       -2932.093          29.000                                                                  
C37  22852234.145   118997594.243        2680.167          44.000                                                                  
> 2025 10 27 02 51 06.5560000  0 19                     
G12  20745868.321   109020275.635         860.342          45.000    20745856.551    84950817.621         670.410          42.000  
G15  23267493.901   122271497.022       -3257.374          34.000    23267490.611    95276475.776       -2537.688          32.000  
G18  23599138.285   124014293.048       -3679.086          35.000    23599134.000    96634476.458       -2867.376          37.000  
G23  19270784.638   101268650.992       -2098.664          46.000    19270772.899    78910562.380       -1635.531          47.000  
G24  20958330.196                       -3373.246          28.000    20958320.423    85820768.833       -2628.714          32.000  
G32  20890614.600   109780921.281        1500.337          46.000    20890604.246    85543520.418        1168.953          42.000  
C08  34712844.782   180758888.696        -343.561          46.000    34712828.016   139774159.605        -265.814          49.000  
C13  34712252.177   180755802.330         -46.722          47.000    34712243.093   139771805.862         -36.072          48.000  
C16  35671889.075   185752887.962          -1.666          47.000    35671880.283   143635875.852          -1.041          48.000  
C25  22273961.407   115986373.337       -2557.757          35.000                                                                  
C32  21045484.675   109589364.192         866.817          50.000                                                                  
C06  35363771.741   184148439.929         177.682          44.000    35363756.085   142395190.909         137.367          47.000  
G25  20479886.519   107622544.759        2540.527          41.000    20479878.883    83861681.217        1979.524          43.000  
G10  19506132.862   102505415.959        1031.738          50.000    19506120.926    79874306.251         803.931          44.000  
G28  22018853.555   115709872.331        2577.432          39.000    22018843.580    90163518.032        2008.136          43.000  
C23  20725255.077   107921839.765         249.158          50.000                                                                  
C09  36831471.430   191791142.161         276.368          39.000    36831460.046   148305023.963         213.771          48.000  
C33  26132729.321                       -2931.435          29.000                                                                  
C37  22852213.521   118997487.048        2680.003          44.000                                                                  
> 2025 10 27 02 51 06.5960000  0 19                     
G12  20745861.776   109020241.223         860.266          45.000    20745849.992    84950790.795         670.538          42.000  
G15  23267518.700   122271627.271       -3256.854          34.000    23267515.420    95276577.293       -2537.930          32.000  
G18  23599166.310   124014440.244       -3679.603          35.000    23599162.003    96634591.112       -2866.652          37.000  
G23  19270800.596   101268734.947       -2098.843          46.000    19270788.869    78910627.794       -1635.450          47.000  
G24  20958355.859                       -3373.172          28.000    20958346.103    85820873.973       -2628.492          32.000  
G32  20890603.182   109780861.265        1500.409          46.000    20890592.835    85543473.662        1168.868          42.000  
C08  34712847.414   180758902.448        -343.713          46.000    34712830.654   139774170.236        -265.808          49.000  
C13  34712252.560   180755804.194         -46.619          47.000    34712243.485   139771807.307         -36.096          48.000  
C16  35671889.088   185752888.020          -1.603          47.000    35671880.297   143635875.902          -1.207          48.000  
C25  22273981.047   115986475.640       -2557.553          35.000                                                                  
C32  21045478.041   109589329.516         866.850          50.000                                                                  
C06  35363770.378   184148432.812         177.806          44.000    35363754.723   142395185.410         137.389          47.000  
G25  20479867.161   107622443.143        2540.414          41.000    20479859.539    83861602.041        1979.387          43.000  
G10  19506125.013   102505374.689        1031.702          50.000    19506113.089    79874274.088         804.034          44.000  
G28  22018833.921   115709769.231        2577.458          39.000    22018823.946    90163437.686        2008.443          43.000  
C23  20725253.160   107921829.797         249.182          50.000                                                                  
C09  36831469.317   191791131.100         276.400          39.000    36831457.909   148305015.411         213.795          48.000  
C33  26132751.860                       -2931.564          29.000                                                                  
C37  22852192.945   118997379.849        2679.935          44.000                                                                  
> 2025 10 27 02 51 06.6360000  0 19                     
G12  20745855.220   109020206.799         860.451          45.000    20745843.440    84950763.988         670.286          42.000  
G15  23267543.501   122271757.549       -3257.069          34.000    23267540.216    95276678.791       -2537.643          32.000  
G18  23599194.302   124014587.427       -3679.706          35.000    23599189.989    96634705.787       -2866.698          37.000  
G23  19270816.581   101268818.902       -2098.922          46.000    19270804.823    78910693.211       -1635.456          48.000  
G24  20958381.570                       -3373.387          28.000    20958371.770    85820979.103       -2628.399          32.000  
G32  20890591.776   109780801.262        1500.186          46.000    20890581.409    85543426.898        1168.973          42.000  
C08  34712850.060   180758916.196        -343.744          46.000    34712833.327   139774180.866        -265.778          49.000  
C13  34712252.922   180755806.058         -46.576          47.000    34712243.877   139771808.751         -36.127          48.000  
C16  35671889.100   185752888.077          -1.503          47.000    35671880.306   143635875.948          -1.198          48.000  
C25  22274000.705   115986577.945       -2557.605          35.000                                                                  
C32  21045471.398   109589294.841         866.836          50.000                                                                  
C06  35363769.021   184148425.703         177.767          44.000    35363753.381   142395179.913         137.396          47.000  
G25  20479847.824   107622341.529        2540.283          41.000    20479840.218    83861522.850        1979.605          43.000  
G10  19506117.167   102505333.422        1031.659          50.000    19506105.245    79874241.930         803.979          44.000  
G28  22018814.308   115709666.138        2577.340          39.000    22018804.333    90163357.345        2008.529          43.000  
C23  20725251.209   107921819.837         249.039          50.000                                                                  
C09  36831467.219   191791120.042         276.453          39.000    36831455.799   148305006.862         213.737          48.000  
C33  26132774.457                       -2931.908          29.000                                                                  
C37  22852172.360   118997272.652        2679.872          44.000                                                                  
> 2025 10 27 02 51 06.6760000  0 19                     
G12  20745848.686   109020172.387         860.365          45.000    20745836.902    84950737.171         670.323          42.000  
G15  23267568.300   122271887.828       -3257.167          34.000    23267564.998    95276780.307       -2537.896          32.000  
G18  23599222.309   124014734.618       -3679.862          35.000    23599218.007    96634820.477       -2867.054          37.000  
G23  19270832.542   101268902.855       -2098.909          46.000    19270820.784    78910758.626       -1635.413          47.000  
G24  20958407.255                       -3373.317          28.000    20958397.436    85821084.269       -2629.036          32.000  
G32  20890580.353   109780741.257        1500.098          46.000    20890569.984    85543380.132        1169.096          42.000  
C08  34712852.720   180758929.948        -343.817          46.000    34712835.986   139774191.498        -265.833          49.000  
C13  34712253.269   180755807.937         -46.869          47.000    34712244.242   139771810.198         -36.176          48.000  
C16  35671889.100   185752888.136          -1.483          47.000    35671880.299   143635876.000          -1.273          48.000  
C25  22274020.351   115986680.270       -2558.037          35.000                                                                  
C32  21045464.744   109589260.165         866.868          50.000                                                                  
C06  35363767.683   184148418.589         177.814          44.000    35363751.975   142395174.416         137.356          47.000  
G25  20479828.504   107622239.926        2540.061          41.000    20479820.886    83861443.673        1979.471          43.000  
G10  19506109.308   102505292.151        1031.708          50.000    19506097.403    79874209.774         803.912          44.000  
G28  22018794.677   115709563.026        2577.614          39.000    22018784.717    90163277.012        2008.378          43.000  
C23  20725249.295   107921809.884         248.854          50.000                                                                  
C09  36831465.070   191791108.995         276.238          39.000    36831453.686   148304998.314         213.706          48.000  
C33  26132796.964                       -2932.726          29.000                                                                  
C37  22852151.766   118997165.455        2679.878          44.000                                                                  
> 2025 10 27 02 51 06.7160000  0 19                     
G12  20745842.133   109020137.978         860.244          45.000    20745830.352    84950710.359         670.273          42.000  
G15  23267593.076   122272018.083       -3256.617          34.000    23267589.781    95276881.806       -2537.585          32.000  
G18  23599250.324   124014881.794       -3679.588          35.000    23599246.017    96634935.169       -2867.270          37.000  
G23  19270848.518   101268986.810       -2098.939          46.000    19270836.768    78910824.044       -1635.444          48.000  
G24  20958432.954                       -3373.722          28.000    20958423.127    85821189.430       -2629.133          32.000  
G32  20890568.920   109780681.249        1500.115          46.000    20890558.575    85543333.369        1169.079          42.000  
C08  34712855.351   180758943.694        -343.732          46.000    34712838.659   139774202.132        -265.881          49.000  
C13  34712253.626   180755809.807         -46.857          47.000    34712244.592   139771811.648         -36.267          48.000  
C16  35671889.128   185752888.196          -1.484          47.000    35671880.317   143635876.048          -1.265          48.000  
C25  22274040.007   115986782.574       -2557.832          35.000                                                                  
C32  21045458.053   109589225.495         866.773          50.000                                                                  
C06  35363766.309   184148411.487         177.627          44.000    35363750.602   142395168.915         137.441          47.000  
G25  20479809.151   107622138.314        2540.121          41.000    20479801.552    83861364.500        1979.350          43.000  
G10  19506101.439   102505250.880        1031.732          50.000    19506089.549    79874177.616         803.937          44.000  
G28  22018775.072   115709459.935        2577.383          39.000    22018765.114    90163196.674        2008.391          43.000  
C23  20725247.376   107921799.926         248.826          50.000                                                                  
C09  36831462.993   191791097.947         276.210          39.000    36831451.553   148304989.762         213.744          48.000  
C33  26132819.468                       -2932.281          30.000                                                                  
C37  22852131.193   118997058.255        2679.978          44.000                                                                  
> 2025 10 27 02 51 06.7560000  0 19                     
G12  20745835.581   109020103.554         860.487          45.000    20745823.801    84950683.536         670.408          42.000  
G15  23267617.878   122272148.332       -3256.366          34.000    23267614.541    95276983.297       -2537.385          32.000  
G18  23599278.339   124015028.951       -3679.081          35.000    23599274.032    96635049.854       -2867.306          37.000  
G23  19270864.473   101269070.767       -2098.951          46.000    19270852.757    78910889.464       -1635.518          47.000  
G24  20958458.628                       -3373.952          28.000    20958448.819    85821294.564       -2628.660          32.000  
G32  20890557.503   109780621.241        1500.162          46.000    20890547.157    85543286.605        1169.036          42.000  
C08  34712857.969   180758957.449        -343.793          46.000    34712841.261   139774212.763        -265.814          49.000  
C13  34712254.005   180755811.676         -46.814          47.000    34712244.953   139771813.092         -36.200          48.000  
C16  35671889.136   185752888.261          -1.589          47.000    35671880.304   143635876.091          -1.153          48.000  
C25  22274059.637   115986884.887       -2557.894          35.000                                                                  
C32  21045451.392   109589190.821         866.807          50.000                                                                  
C06  35363764.952   184148404.381         177.627          44.000    35363749.221   142395163.416         137.440          47.000  
G25  20479789.821   107622036.699        2540.236          41.000    20479782.218    83861285.322        1979.374          43.000  
G10  19506093.570   102505209.610        1031.738          50.000    19506081.702    79874145.461         803.919          44.000  
G28  22018755.450   115709356.833        2577.484          39.000    22018745.498    90163116.345        2008.229          43.000  
C23  20725245.512   107921789.960         249.013          50.000                                                                  
C09  36831460.860   191791086.883         276.469          39.000    36831449.431   148304981.208         213.819          48.000  
C33  26132841.994                       -2932.345          30.000                                                                  
C37  22852110.613   118996951.066        2679.788          44.000                                                                  
> 2025 10 27 02 51 06.7960000  0 19                     
G12  20745829.034   109020069.144         860.327          45.000    20745817.261    84950656.726         670.271          42.000  
G15  23267642.682   122272278.627       -3256.801          34.000    23267639.353    95277084.795       -2537.396          32.000  
G18  23599306.361   124015176.117       -3679.031          35.000    23599302.040    96635164.519       -2866.833          37.000  
G23  19270880.445   101269154.718       -2098.865          46.000    19270868.734    78910954.887       -1635.610          47.000  
G24  20958484.272                       -3373.802          28.000    20958474.490    85821399.702       -2628.451          32.000  
G32  20890546.081   109780561.223        1500.348          46.000    20890535.730    85543239.843        1169.039          42.000  
C08  34712860.609   180758971.197        -343.738          46.000    34712843.909   139774223.392        -265.753          49.000  
C13  34712254.366   180755813.539         -46.655          47.000    34712245.324   139771814.543         -36.273          48.000  
C16  35671889.138   185752888.319          -1.543          47.000    35671880.314   143635876.142          -1.260          48.000  
C25  22274079.318   115986987.204       -2557.849          35.000                                                                  
C32  21045444.724   109589156.149         866.793          50.000                                                                  
C06  35363763.582   184148397.260         177.859          44.000    35363747.820   142395157.910         137.565          47.000  
G25  20479770.484   107621935.082        2540.382          41.000    20479762.879    83861206.129        1979.697          43.000  
G10  19506085.743   102505168.344        1031.641          50.000    19506073.822    79874113.309         803.845          44.000  
G28  22018735.842   115709253.744        2577.367          39.000    22018725.889    90163036.013        2008.211          43.000  
C23  20725243.616   107921779.999         249.037          50.000                                                                  
C09  36831458.732   191791075.813         276.711          39.000    36831447.313   148304972.659         213.723          48.000  
C33  26132864.522                       -2931.804          30.000                                                                  
C37  22852090.057   118996843.869        2679.845          44.000                                                                  
> 2025 10 27 02 51 06.8360000  0 19                     
G12  20745822.482   109020034.727         860.367          45.000    20745810.716    84950629.909         670.332          42.000  
G15  23267667.473   122272408.884       -3256.418          34.000    23267664.135    95277186.319       -2537.880          32.000  
G18  23599334.370   124015323.285       -3679.046          35.000    23599330.057    96635279.227       -2867.326          37.000  
G23  19270896.407   101269238.668       -2098.797          46.000    19270884.695    78911020.307       -1635.579          48.000  
G24  20958509.951                       -3373.610          28.000    20958500.168    85821504.869       -2628.931          32.000  
G32  20890534.667   109780501.211        1500.344          46.000    20890524.278    85543193.079        1169.080          42.000  
C08  34712863.242   180758984.942        -343.652          46.000    34712846.533   139774234.023        -265.753          49.000  
C13  34712254.712   180755815.404         -46.625          47.000    34712245.680   139771815.982         -36.096          48.000  
C16  35671889.165   185752888.377          -1.497          47.000    35671880.321   143635876.182          -1.122          48.000  
C25  22274098.949   115987089.494       -2557.387          35.000                                                                  
C32  21045438.039   109589121.475         866.807          50.000                                                                  
C06  35363762.231   184148390.148         177.848          44.000    35363746.456   142395152.416         137.458          47.000  
G25  20479751.123   107621833.456        2540.563          41.000    20479743.559    83861126.950        1979.599          43.000  
G10  19506077.880   102505127.077        1031.635          50.000    19506065.966    79874081.144         804.010          44.000  
G28  22018716.214   115709150.647        2577.385          39.000    22018706.277    90162955.667        2008.499          43.000  
C23  20725241.690   107921770.040         249.002          50.000                                                                  
C09  36831456.612   191791064.753         276.620          39.000    36831445.209   148304964.103         213.844          48.000  
C33  26132887.031                       -2931.189          30.000                                                                  
C37  22852069.466   118996736.668        2679.944          44.000                                                                  
> 2025 10 27 02 51 06.8760000  0 19                     
G12  20745815.944   109020000.312         860.388          45.000    20745804.155    84950603.090         670.437          42.000  
G15  23267692.253   122272539.101       -3255.662          34.000    23267688.932    95277287.849       -2538.361          32.000  
G18  23599362.412   124015470.477       -3679.541          35.000    23599358.073    96635393.908       -2867.177          37.000  
G23  19270912.375   101269322.621       -2098.810          46.000    19270900.678    78911085.723       -1635.486          47.000  
G24  20958535.643                       -3373.564          28.000    20958525.859    85821610.025       -2629.051          32.000  
G32  20890523.248   109780441.201        1500.237          46.000    20890512.861    85543146.322        1168.989          42.000  
C08  34712865.897   180758998.683        -343.536          46.000    34712849.176   139774244.647        -265.649          49.000  
C13  34712255.044   180755817.272         -46.661          47.000    34712246.055   139771817.422         -36.011          48.000  
C16  35671889.177   185752888.427          -1.315          47.000    35671880.336   143635876.223          -1.054          48.000  
C25  22274118.584   115987191.824       -2557.931          35.000                                                                  
C32  21045431.414   109589086.797         866.903          50.000                                                                  
C06  35363760.870   184148383.031         177.938          44.000    35363745.096   142395146.917         137.445          47.000  
G25  20479731.782   107621731.841        2540.445          41.000    20479724.216    83861047.772        1979.512          43.000  
G10  19506070.006   102505085.809        1031.647          50.000    19506058.117    79874048.990         803.900          44.000  
G28  22018696.596   115709047.545        2577.472          39.000    22018686.675    90162875.320        2008.633          43.000  
C23  20725239.762   107921760.079         249.008          50.000                                                                  
C09  36831454.459   191791053.693         276.529          39.000    36831443.102   148304955.553         213.793          48.000  
C33  26132909.585                       -2931.496          30.000                                                                  
C37  22852048.888   118996629.471        2679.929          44.000                                                                  
> 2025 10 27 02 51 06.9160000  0 19                     
G12  20745809.381   109019965.899         860.336          45.000    20745797.586    84950576.267         670.572          42.000  
G15  23267717.049   122272669.402       -3256.869          34.000    23267713.727    95277389.353       -2538.012          32.000  
G18  23599390.434   124015617.674       -3679.968          35.000    23599386.059    96635508.578       -2866.913          37.000  
G23  19270928.373   101269406.581       -2098.977          46.000    19270916.663    78911151.142       -1635.505          47.000  
G24  20958561.302                       -3373.679          28.000    20958551.535    85821715.144       -2628.167          32.000  
G32  20890511.837   109780381.195        1500.141          46.000    20890501.464    85543099.574        1168.723          42.000  
C08  34712868.547   180759012.431        -343.658          46.000    34712851.863   139774255.278        -265.741          49.000  
C13  34712255.403   180755819.141         -46.729          47.000    34712246.426   139771818.868         -36.127          48.000  
C16  35671889.214   185752888.489          -1.457          47.000    35671880.304   143635876.270          -1.161          48.000  
C25  22274138.251   115987294.148       -2558.084          35.000                                                                  
C32  21045424.737   109589052.125         866.817          50.000                                                                  
C06  35363759.474   184148375.931         177.644          44.000    35363743.711   142395141.416         137.458          47.000  
G25  20479712.457   107621630.226        2540.337          41.000    20479704.881    83860968.592        1979.459          43.000  
G10  19506062.170   102505044.546        1031.573          50.000    19506050.257    79874016.836         803.833          44.000  
G28  22018676.953   115708944.441        2577.590          39.000    22018667.079    90162794.988        2008.376          43.000  
C23  20725237.787   107921750.126         248.853          50.000                                                                  
C09  36831452.350   191791042.640         276.361          39.000    36831440.982   148304947.008         213.622          48.000  
C33  26132932.123                       -2933.014          30.000                                                                  
C37  22852028.318   118996522.282        2679.769          44.000                                                                  
> 2025 10 27 02 51 06.9560000  0 19                     
G12  20745802.869   109019931.501         860.026          45.000    20745791.061    84950549.473         670.083          42.000  
G15  23267741.832   122272799.663       -3256.763          34.000    23267738.493    95277490.858       -2537.920          32.000  
G18  23599418.445   124015764.834       -3679.491          35.000    23599414.070    96635623.255       -2866.866          37.000  
G23  19270944.356   101269490.549       -2099.186          46.000    19270932.663    78911216.571       -1635.702          48.000  
G24  20958586.975                       -3373.470          28.000    20958577.211    85821820.293       -2628.378          32.000  
G32  20890500.427   109780321.191        1500.047          46.000    20890490.044    85543052.801        1169.079          42.000  
C08  34712871.160   180759026.192        -343.976          46.000    34712854.505   139774265.920        -265.997          49.000  
C13  34712255.764   180755821.018         -46.930          47.000    34712246.763   139771820.316         -36.206          48.000  
C16  35671889.230   185752888.559          -1.699          47.000    35671880.316   143635876.323          -1.310          48.000  
C25  22274157.892   115987396.468       -2558.077          35.000                                                                  
C32  21045418.050   109589017.459         866.676          50.000                                                                  
C06  35363758.097   184148368.822         177.628          44.000    35363742.349   142395135.924         137.334          47.000  
G25  20479693.129   107621528.625        2540.053          41.000    20479685.531    83860889.412        1979.431          43.000  
G10  19506054.346   102505003.290        1031.384          50.000    19506042.406    79873984.693         803.613          44.000  
G28  22018657.333   115708841.362        2577.134          39.000    22018647.479    90162714.665        2008.097          43.000  
C23  20725235.846   107921740.180         248.636          50.000                                                                  
C09  36831450.232   191791031.595         276.156          39.000    36831438.876   148304938.462         213.593          48.000  
C33  26132954.659                       -2931.807          30.000                                                                  
C37  22852007.707   118996415.091        2679.718          44.000                                                                  
> 2025 10 27 02 51 06.9960000  0 19                     
G12  20745796.339   109019897.106         859.886          45.000    20745784.520    84950522.668         670.012          42.000  
G15  23267766.617   122272929.959       -3257.322          34.000    23267763.312    95277592.367       -2537.865          32.000  
G18  23599446.494   124015912.027       -3679.745          35.000    23599442.063    96635737.924       -2866.756          37.000  
G23  19270960.315   101269574.519       -2099.308          46.000    19270948.656    78911282.003       -1635.849          47.000  
G24  20958612.662                       -3373.161          28.000    20958602.896    85821925.453       -2628.822          32.000  
G32  20890489.003   109780261.184        1500.063          46.000    20890478.639    85543006.049        1168.916          42.000  
C08  34712873.811   180759039.950        -344.037          46.000    34712857.136   139774276.557        -266.016          49.000  
C13  34712256.126   180755822.897         -47.046          47.000    34712247.124   139771821.769         -36.340          48.000  
C16  35671889.252   185752888.640          -2.019          47.000    35671880.284   143635876.376          -1.357          48.000  
C25  22274177.531   115987498.787       -2558.021          35.000                                                                  
C32  21045411.373   109588982.797         866.525          50.000                                                                  
C06  35363756.731   184148361.729         177.325          44.000    35363741.008   142395130.439         137.112          47.000  
G25  20479673.807   107621427.043        2539.567          41.000    20479666.205    83860810.252        1979.105          43.000  
G10  19506046.519   102504962.035        1031.311          50.000    19506034.560    79873952.550         803.473          44.000  
G28  22018637.706   115708738.272        2577.118          39.000    22018627.848    90162634.340        2008.032          43.000  
C23  20725233.938   107921730.232         248.604          50.000                                                                  
C09  36831448.128   191791020.539         276.331          39.000    36831436.769   148304929.918         213.557          48.000  
C33  26132977.187                       -2932.660          30.000                                                                  
C37  22851987.124   118996307.899        2679.715          44.000                                                                  
> 2025 10 27 02 51 07.0360000  0 19                     
G12  20745789.799   109019862.703         859.965          45.000    20745777.962    84950495.851         670.177          42.000  
G15  23267791.383   122273060.234       -3257.273          34.000    23267788.101    95277693.837       -2537.189          32.000  
G18  23599474.493   124016059.198       -3679.539          35.000    23599470.069    96635852.632       -2867.388          37.000  
G23  19270976.267   101269658.483       -2099.245          46.000    19270964.643    78911347.428       -1635.774          48.000  
G24  20958638.332                       -3373.139          28.000    20958628.602    85822030.638       -2629.501          32.000  
G32  20890477.600   109780201.183        1500.020          46.000    20890467.229    85542959.294        1168.926          42.000  
C08  34712876.442   180759053.708        -344.037          46.000    34712859.763   139774287.193        -265.961          49.000  
C13  34712256.505   180755824.779         -47.137          47.000    34712247.493   139771823.220         -36.371          48.000  
C16  35671889.281   185752888.700          -1.805          47.000    35671880.302   143635876.424          -1.328          48.000  
C25  22274197.176   115987601.102       -2557.997          35.000                                                                  
C32  21045404.713   109588948.133         866.479          50.000                                                                  
C06  35363755.382   184148354.625         177.405          44.000    35363739.653   142395124.942         137.246          47.000  
G25  20479654.486   107621325.442        2539.743          41.000    20479646.862    83860731.083        1979.087          43.000  
G10  19506038.661   102504920.776        1031.360          50.000    19506026.697    79873920.395         803.674          44.000  
G28  22018618.085   115708635.180        2577.112          39.000    22018608.204    90162554.007        2008.152          43.000  
C23  20725232.041   107921720.283         248.622          50.000                                                                  
C09  36831445.966   191791009.486         276.350          39.000    36831434.662   148304921.381         213.414          48.000  
C33  26132999.716                       -2933.057          30.000                                                                  
C37  22851966.527   118996200.712        2679.625          44.000                                                                  
> 2025 10 27 02 51 07.0760000  0 19                     
G12  20745783.243   109019828.290         860.174          45.000    20745771.430    84950469.050         670.030          42.000  
G15  23267816.199   122273190.507       -3257.181          34.000    23267812.916    95277795.358       -2537.651          32.000  
G18  23599502.469   124016206.357       -3679.114          35.000    23599498.103    96635967.325       -2867.493          37.000  
G23  19270992.254   101269742.452       -2099.269          46.000    19270980.576    78911412.852       -1635.688          47.000  
G24  20958664.016                       -3373.502          28.000    20958654.281    85822135.773       -2629.066          32.000  
G32  20890466.165   109780141.179        1500.037          46.000    20890455.794    85542912.537        1168.885          42.000  
C08  34712879.096   180759067.459        -343.921          46.000    34712862.406   139774297.824        -265.851          49.000  
C13  34712256.891   180755826.653         -46.997          47.000    34712247.830   139771824.667         -36.298          48.000  
C16  35671889.272   185752888.758          -1.581          47.000    35671880.338   143635876.480          -1.404          48.000  
C25  22274216.818   115987703.421       -2558.090          35.000                                                                  
C32  21045398.068   109588913.466         866.573          50.000                                                                  
C06  35363754.030   184148347.521         177.455          44.000    35363738.292   142395119.440         137.433          47.000  
G25  20479635.147   107621223.823        2540.167          41.000    20479627.519    83860651.903        1979.260          43.000  
G10  19506030.804   102504879.518        1031.372          50.000    19506018.825    79873888.240         803.809          44.000  
G28  22018598.457   115708532.093        2577.063          39.000    22018588.580    90162473.683        2008.103          43.000  
C23  20725230.181   107921710.333         248.665          50.000                                                                  
C09  36831443.837   191790998.428         276.469          39.000    36831432.536   148304912.838         213.492          48.000  
C33  26133022.248                       -2932.133          30.000                                                                  
C37  22851945.950   118996093.520        2679.684          44.000                                                                  
> 2025 10 27 02 51 07.1160000  0 19                     
G12  20745776.700   109019793.894         859.988          45.000    20745764.868    84950442.239         670.145          42.000  
G15  23267841.007   122273320.782       -3256.953          34.000    23267837.702    95277896.869       -2537.758          32.000  
G18  23599530.475   124016353.556       -3679.610          35.000    23599526.128    96636082.010       -2867.359          37.000  
G23  19271008.213   101269826.416       -2099.195          46.000    19270996.550    78911478.280       -1635.712          48.000  
G24  20958689.675                       -3373.654          28.000    20958679.949    85822240.889       -2628.351          32.000  
G32  20890454.747   109780081.180        1499.939          46.000    20890444.381    85542865.782        1168.832          42.000  
C08  34712881.740   180759081.216        -343.982          46.000    34712865.025   139774308.462        -265.924          49.000  
C13  34712257.257   180755828.528         -46.936          47.000    34712248.191   139771826.122         -36.389          48.000  
C16  35671889.293   185752888.822          -1.572          47.000    35671880.357   143635876.533          -1.400          48.000  
C25  22274236.481   115987805.767       -2558.576          35.000                                                                  
C32  21045391.412   109588878.802         866.560          50.000                                                                  
C06  35363752.679   184148340.415         177.540          44.000    35363736.954   142395113.946         137.417          47.000  
G25  20479615.812   107621122.211        2540.311          41.000    20479608.199    83860572.732        1979.276          43.000  
G10  19506022.969   102504838.268        1031.244          50.000    19506010.966    79873856.095         803.656          44.000  
G28  22018578.861   115708429.016        2576.872          39.000    22018568.967    90162393.354        2008.153          43.000  
C23  20725228.254   107921700.388         248.578          50.000                                                                  
C09  36831441.668   191790987.385         276.190          39.000    36831430.425   148304904.287         213.681          48.000  
C33  26133044.755                       -2931.793          30.000                                                                  
C37  22851925.354   118995986.337        2679.566          44.000                                                                  
> 2025 10 27 02 51 07.1560000  0 19                     
G12  20745770.153   109019759.501         859.842          45.000    20745758.306    84950415.436         670.100          42.000  
G15  23267865.774   122273451.047       -3256.628          34.000    23267862.507    95277998.399       -2538.164          32.000  
G18  23599558.478   124016500.747       -3679.768          35.000    23599554.122    96636196.699       -2867.303          37.000  
G23  19271024.199   101269910.392       -2099.380          46.000    19271012.533    78911543.715       -1635.867          48.000  
G24  20958715.364                       -3373.773          28.000    20958705.652    85822346.058       -2628.864          32.000  
G32  20890443.329   109780021.180        1499.917          46.000    20890432.961    85542819.028        1168.790          42.000  
C08  34712884.397   180759094.975        -344.000          46.000    34712867.645   139774319.102        -266.009          49.000  
C13  34712257.608   180755830.408         -46.985          47.000    34712248.542   139771827.576         -36.389          48.000  
C16  35671889.323   185752888.901          -1.853          47.000    35671880.355   143635876.585          -1.346          48.000  
C25  22274256.133   115987908.094       -2558.401          35.000                                                                  
C32  21045384.758   109588844.140         866.536          50.000                                                                  
C06  35363751.345   184148333.304         177.678          44.000    35363735.572   142395108.456         137.310          47.000  
G25  20479596.479   107621020.606        2540.240          41.000    20479588.869    83860493.572        1979.109          43.000  
G10  19506015.143   102504797.024        1031.079          50.000    19506003.130    79873823.955         803.510          44.000  
G28  22018559.241   115708325.934        2576.893          39.000    22018549.338    90162313.027        2008.141          43.000  
C23  20725226.351   107921690.446         248.509          50.000                                                                  
C09  36831439.545   191790976.343         276.048          39.000    36831428.284   148304895.747         213.566          48.000  
C33  26133067.305                       -2933.022          30.000                                                                  
C37  22851904.765   118995879.161        2679.429          44.000                                                                  
> 2025 10 27 02 51 07.1960000  0 19                     
G12  20745763.630   109019725.101         859.893          45.000    20745751.785    84950388.635         670.003          42.000  
G15  23267890.564   122273581.327       -3256.763          34.000    23267887.309    95278099.905       -2537.888          32.000  
G18  23599586.487   124016647.918       -3679.424          35.000    23599582.135    96636311.387       -2867.229          37.000  
G23  19271040.170   101269994.360       -2099.299          46.000    19271028.516    78911609.144       -1635.823          48.000  
G24  20958741.061                       -3373.935          28.000    20958731.335    85822451.224       -2629.035          32.000  
G32  20890431.888   109779961.170        1500.121          46.000    20890421.549    85542772.279        1168.728          42.000  
C08  34712887.054   180759108.727        -343.896          46.000    34712870.289   139774329.743        -266.064          49.000  
C13  34712257.956   180755832.284         -46.936          47.000    34712248.883   139771829.024         -36.279          48.000  
C16  35671889.350   185752888.971          -1.815          47.000    35671880.369   143635876.630          -1.224          48.000  
C25  22274275.802   115988010.417       -2558.172          35.000                                                                  
C32  21045378.123   109588809.477         866.563          50.000                                                                  
C06  35363749.998   184148326.211         177.423          44.000    35363734.202   142395102.975         137.080          47.000  
G25  20479577.148   107620919.011        2540.002          41.000    20479569.543    83860414.395        1979.281          43.000  
G10  19506007.275   102504755.769        1031.238          50.000    19505995.288    79873791.815         803.448          44.000  
G28  22018539.633   115708222.822        2577.492          39.000    22018529.733    90162232.695        2008.260          43.000  
C23  20725224.462   107921680.497         248.583          50.000                                                                  
C09  36831437.414   191790965.296         276.063          39.000    36831426.173   148304887.196         213.666          48.000  
C33  26133089.787                       -2933.026          30.000                                                                  
C37  22851884.180   118995771.975        2679.527          44.000                                                                  
> 2025 10 27 02 51 07.2360000  0 19                     
G12  20745757.079   109019690.707         859.823          45.000    20745745.213    84950361.829         670.106          42.000  
G15  23267915.364   122273711.620       -3257.217          34.000    23267912.084    95278201.436       -2538.151          32.000  
G18  23599614.499   124016795.110       -3679.603          35.000    23599610.120    96636426.058       -2866.877          37.000  
G23  19271056.136   101270078.326       -2099.194          46.000    19271044.496    78911674.576       -1635.835          47.000  
G24  20958766.759                       -3374.242          28.000    20958757.002    85822556.380       -2628.991          32.000  
G32  20890420.488   109779901.170        1500.067          46.000    20890410.120    85542725.524        1168.782          42.000  
C08  34712889.713   180759122.483        -343.903          46.000    34712872.961   139774340.379        -265.967          49.000  
C13  34712258.337   180755834.157         -46.857          47.000    34712249.243   139771830.478         -36.334          48.000  
C16  35671889.367   185752889.032          -1.629          47.000    35671880.394   143635876.679          -1.214          48.000  
C25  22274295.435   115988112.718       -2557.692          35.000                                                                  
C32  21045371.468   109588774.804         866.749          50.000                                                                  
C06  35363748.630   184148319.100         177.621          44.000    35363732.834   142395097.483         137.153          47.000  
G25  20479557.822   107620817.413        2539.935          41.000    20479550.210    83860335.226        1979.232          43.000  
G10  19505999.376   102504714.512        1031.372          50.000    19505987.453    79873759.667         803.577          44.000  
G28  22018520.014   115708119.745        2577.139          39.000    22018510.127    90162152.367        2008.215          43.000  
C23  20725222.561   107921670.553         248.564          50.000                                                                  
C09  36831435.267   191790954.245         276.171          39.000    36831424.025   148304878.650         213.633          48.000  
C33  26133112.295                       -2932.029          30.000                                                                  
C37  22851863.575   118995664.779        2679.747          44.000                                                                  
> 2025 10 27 02 51 07.2760000  0 19                     
G12  20745750.547   109019656.311         859.839          45.000    20745738.683    84950335.034         669.916          42.000  
G15  23267940.157   122273841.884       -3256.798          34.000    23267936.839    95278302.928       -2537.698          32.000  
G18  23599642.516   124016942.270       -3679.236          35.000    23599638.093    96636540.746       -2867.045          37.000  
G23  19271072.137   101270162.300       -2099.330          46.000    19271060.485    78911740.011       -1635.884          47.000  
G24  20958792.434                       -3374.104          28.000    20958782.707    85822661.538       -2628.991          32.000  
G32  20890409.080   109779841.170        1500.000          46.000    20890398.694    85542678.765        1168.892          42.000  
C08  34712892.348   180759136.241        -343.945          46.000    34712875.618   139774351.015        -265.924          49.000  
C13  34712258.678   180755836.036         -46.942          47.000    34712249.612   139771831.932         -36.377          48.000  
C16  35671889.394   185752889.101          -1.664          47.000    35671880.399   143635876.734          -1.347          48.000  
C25  22274315.088   115988215.038       -2557.730          35.000                                                                  
C32  21045364.776   109588740.146         866.566          50.000                                                                  
C06  35363747.232   184148312.009         177.388          44.000    35363731.440   142395091.988         137.224          47.000  
G25  20479538.486   107620715.815        2539.942          41.000    20479530.889    83860256.061        1979.112          43.000  
G10  19505991.529   102504673.260        1031.335          50.000    19505979.601    79873727.523         803.577          44.000  
G28  22018500.392   115708016.645        2577.345          39.000    22018490.516    90162072.040        2008.215          43.000  
C23  20725220.661   107921660.608         248.566          50.000                                                                  
C09  36831433.119   191790943.194         276.246          39.000    36831421.893   148304870.112         213.509          48.000  
C33  26133134.827                       -2932.716          30.000                                                                  
C37  22851842.982   118995557.592        2679.721          44.000                                                                  
> 2025 10 27 02 51 07.3160000  0 19                     
G12  20745744.012   109019621.920         859.769          45.000    20745732.135    84950308.228         670.070          42.000  
G15  23267964.940   122273972.096       -3255.614          34.000    23267961.651    95278404.448       -2537.939          32.000  
G18  23599670.523   124017089.450       -3679.347          35.000    23599666.098    96636655.422       -2866.971          37.000  
G23  19271088.126   101270246.274       -2099.379          46.000    19271076.465    78911805.447       -1635.914          47.000  
G24  20958818.107                       -3374.157          28.000    20958808.400    85822766.721       -2629.374          32.000  
G32  20890397.666   109779781.170        1499.970          46.000    20890387.264    85542632.008        1168.853          42.000  
C08  34712894.986   180759150.003        -344.043          46.000    34712878.246   139774361.650        -265.906          49.000  
C13  34712259.030   180755837.915         -46.979          47.000    34712249.946   139771833.388         -36.432          48.000  
C16  35671889.390   185752889.169          -1.680          47.000    35671880.398   143635876.793          -1.508          48.000  
C25  22274334.716   115988317.371       -2558.083          35.000                                                                  
C32  21045358.085   109588705.487         866.458          50.000                                                                  
C06  35363745.874   184148304.905         177.443          44.000    35363730.062   142395086.494         137.291          47.000  
G25  20479519.152   107620614.222        2539.810          41.000    20479511.558    83860176.889        1979.203          43.000  
G10  19505983.706   102504632.007        1031.311          50.000    19505971.737    79873695.384         803.479          44.000  
G28  22018480.778   115707913.568        2577.052          39.000    22018470.892    90161991.718        2008.122          43.000  
C23  20725218.777   107921650.666         248.556          50.000                                                                  
C09  36831431.013   191790932.147         276.221          39.000    36831419.791   148304861.567         213.534          48.000  
C33  26133157.297                       -2931.869          30.000                                                                  
C37  22851822.390   118995450.406        2679.649          44.000                                                                  
> 2025 10 27 02 51 07.3560000  0 19                     
G12  20745737.442   109019587.524         859.810          45.000    20745725.580    84950281.437         669.888          42.000  
G15  23267989.727   122274102.395       -3256.728          34.000    23267986.430    95278505.974       -2538.135          32.000  
G18  23599698.514   124017236.627       -3679.431          35.000    23599694.108    96636770.112       -2867.205          37.000  
G23  19271104.116   101270330.249       -2099.428          46.000    19271092.450    78911870.877       -1635.834          47.000  
G24  20958843.781                       -3373.655          28.000    20958834.077    85822871.868       -2628.904          32.000  
G32  20890386.248   109779721.177        1499.861          46.000    20890375.867    85542585.251        1168.854          42.000  
C08  34712897.615   180759163.755        -343.903          46.000    34712880.912   139774372.290        -265.979          49.000  
C13  34712259.412   180755839.791         -46.930          47.000    34712250.311   139771834.836         -36.304          48.000  
C16  35671889.398   185752889.235          -1.654          47.000    35671880.424   143635876.848          -1.462          48.000  
C25  22274354.379   115988419.699       -2558.156          35.000                                                                  
C32  21045351.467   109588670.818         866.608          50.000                                                                  
C06  35363744.486   184148297.799         177.566          44.000    35363728.681   142395081.003         137.263          47.000  
G25  20479499.807   107620512.610        2540.122          41.000    20479492.219    83860097.710        1979.405          43.000  
G10  19505975.862   102504590.757        1031.232          50.000    19505963.890    79873663.240         803.534          44.000  
G28  22018461.158   115707810.475        2577.209          39.000    22018451.297    90161911.394        2008.117          43.000  
C23  20725216.876   107921640.725         248.517          50.000                                                                  
C09  36831428.908   191790921.101         276.157          39.000    36831417.666   148304853.025         213.497          48.000  
C33  26133179.812                       -2931.796          30.000                                                                  
C37  22851801.803   118995343.211        2679.792          44.000                                                                  
> 2025 10 27 02 51 07.3960000  0 19                     
G12  20745730.885   109019553.123         859.959          45.000    20745719.045    84950254.635         669.962          42.000  
G15  23268014.524   122274232.660       -3256.782          33.000    23268011.198    95278607.474       -2537.887          32.000  
G18  23599726.534   124017383.833       -3679.951          35.000    23599722.129    96636884.789       -2867.053          37.000  
G23  19271120.090   101270414.216       -2099.311          46.000    19271108.414    78911936.306       -1635.754          47.000  
G24  20958869.445                       -3373.708          28.000    20958859.744    85822977.014       -2628.645          32.000  
G32  20890374.829   109779661.169        1500.058          46.000    20890364.446    85542538.497        1168.837          42.000  
C08  34712900.250   180759177.509        -343.854          46.000    34712883.576   139774382.926        -265.936          49.000  
C13  34712259.789   180755841.666         -46.906          47.000    34712250.674   139771836.284         -36.224          48.000  
C16  35671889.396   185752889.297          -1.626          47.000    35671880.424   143635876.898          -1.362          48.000  
C25  22274374.019   115988522.026       -2558.261          35.000                                                                  
C32  21045344.796   109588636.152         866.631          50.000                                                                  
C06  35363743.110   184148290.700         177.517          44.000    35363727.278   142395075.505         137.334          47.000  
G25  20479480.469   107620411.010        2540.079          41.000    20479472.889    83860018.540        1979.320          43.000  
G10  19505968.006   102504549.512        1031.116          50.000    19505956.020    79873631.095         803.583          44.000  
G28  22018441.554   115707707.397        2577.028          39.000    22018431.662    90161831.064        2008.235          43.000  
C23  20725214.974   107921630.782         248.517          50.000                                                                  
C09  36831426.811   191790910.034         276.527          39.000    36831415.528   148304844.477         213.578          48.000  
C33  26133202.358                       -2931.677          30.000                                                                  
C37  22851781.206   118995236.028        2679.670          44.000                                                                  
> 2025 10 27 02 51 07.4360000  0 19                     
G12  20745724.334   109019518.733         859.807          45.000    20745712.512    84950227.835         669.967          42.000  
G15  23268039.307                       -3257.700          33.000    23268035.966    95278708.969       -2537.587          32.000  
G18  23599754.552   124017531.013       -3679.846          35.000    23599750.150    96636999.489       -2867.326          37.000  
G23  19271136.069   101270498.191       -2099.385          46.000    19271124.424    78912001.742       -1635.865          47.000  
G24  20958895.118                       -3373.785          28.000    20958885.437    85823082.168       -2628.667          32.000  
G32  20890363.398   109779601.155        1500.262          46.000    20890353.021    85542491.749        1168.708          42.000  
C08  34712902.923   180759191.269        -343.958          46.000    34712886.197   139774393.564        -265.948          49.000  
C13  34712260.157   180755843.544         -46.924          47.000    34712251.038   139771837.737         -36.285          48.000  
C16  35671889.373   185752889.369          -1.742          47.000    35671880.431   143635876.941          -1.141          48.000  
C25  22274393.650   115988624.348       -2558.311          35.000                                                                  
C32  21045338.111   109588601.493         866.516          50.000                                                                  
C06  35363741.728   184148283.584         177.787          44.000    35363725.927   142395070.013         137.284          47.000  
G25  20479461.165   107620309.406        2540.144          41.000    20479453.564    83859939.383        1979.032          43.000  
G10  19505960.149   102504508.263        1031.146          50.000    19505948.188    79873598.952         803.558          43.000  
G28  22018421.928   115707604.312        2577.023          39.000    22018412.051    90161750.736        2008.260          43.000  
C23  20725213.058   107921620.839         248.551          50.000                                                                  
C09  36831424.659   191790898.993         276.274          39.000    36831413.423   148304835.927         213.685          48.000  
C33  26133224.888                       -2932.318          30.000                                                                  
C37  22851760.576   118995128.848        2679.524          44.000                                                                  
> 2025 10 27 02 51 07.4760000  0 19                     
G12  20745717.802   109019484.336         859.839          45.000    20745705.971    84950201.025         670.106          42.000  
G15  23268064.112                       -3257.009          33.000    23268060.735    95278810.492       -2537.971          32.000  
G18  23599782.564   124017678.179       -3679.461          35.000    23599778.160    96637114.161       -2866.979          37.000  
G23  19271152.051   101270582.159       -2099.311          46.000    19271140.423    78912067.176       -1635.896          47.000  
G24  20958920.771   110139875.188       -3373.843          28.000    20958911.139    85823187.350       -2629.242          32.000  
G32  20890351.989   109779541.150        1500.196          46.000    20890341.609    85542445.002        1168.626          42.000  
C08  34712905.592   180759205.026        -343.951          46.000    34712888.854   139774404.199        -265.900          49.000  
C13  34712260.525   180755845.419         -46.899          47.000    34712251.375   139771839.189         -36.316          48.000  
C16  35671889.390   185752889.431          -1.636          47.000    35671880.461   143635876.990          -1.174          48.000  
C25  22274413.323   115988726.685       -2558.482          35.000                                                                  
C32  21045331.486   109588566.829         866.531          50.000                                                                  
C06  35363740.355   184148276.477         177.717          44.000    35363724.540   142395064.523         137.225          47.000  
G25  20479441.830   107620207.806        2540.083          41.000    20479434.220    83859860.222        1978.925          43.000  
G10  19505952.285   102504467.012        1031.201          50.000    19505940.333    79873566.812         803.485          43.000  
G28  22018402.317   115707501.218        2577.204          39.000    22018392.434    90161670.407        2008.265          43.000  
C23  20725211.149   107921610.895         248.550          50.000                                                                  
C09  36831422.533   191790887.945         276.187          39.000    36831411.318   148304827.378         213.696          48.000  
C33  26133247.393                       -2931.464          30.000                                                                  
C37  22851739.975   118995021.651        2679.755          44.000                                                                  
> 2025 10 27 02 51 07.5160000  0 19                     
G12  20745711.267   109019449.946         859.729          45.000    20745699.428    84950174.222         670.093          42.000  
G15  23268088.901                       -3256.429          33.000    23268085.488    95278912.009       -2537.974          32.000  
G18  23599810.567   124017825.331       -3679.006          35.000    23599806.173    96637228.851       -2867.101          37.000  
G23  19271168.053   101270666.138       -2099.465          46.000    19271156.418    78912132.619       -1636.069          47.000  
G24  20958946.453                       -3374.031          28.000    20958936.821    85823292.491       -2628.800          32.000  
G32  20890340.582   109779481.155        1499.962          46.000    20890330.197    85542398.243        1168.804          42.000  
C08  34712908.268   180759218.783        -343.958          46.000    34712891.534   139774414.837        -265.936          49.000  
C13  34712260.902   180755847.297         -46.899          47.000    34712251.735   139771840.643         -36.359          48.000  
C16  35671889.400   185752889.494          -1.598          47.000    35671880.464   143635877.039          -1.204          48.000  
C25  22274432.984   115988829.019       -2558.456          35.000                                                                  
C32  21045324.803   109588532.168         866.511          50.000                                                                  
C06  35363738.988   184148269.372         177.656          44.000    35363723.185   142395059.026         137.321          47.000  
G25  20479422.492   107620106.202        2540.108          41.000    20479414.875    83859781.049        1979.102          43.000  
G10  19505944.425   102504425.759        1031.268          50.000    19505932.483    79873534.674         803.430          43.000  
G28  22018382.694   115707398.133        2577.141          39.000    22018372.805    90161590.083        2008.095          43.000  
C23  20725209.219   107921600.955         248.504          50.000                                                                  
C09  36831420.413   191790876.899         276.117          39.000    36831409.180   148304818.838         213.538          48.000  
C33  26133269.898                       -2932.227          30.000                                                                  
C37  22851719.381   118994914.472        2679.571          44.000                                                                  
> 2025 10 27 02 51 07.5560000  0 19                     
G12  20745704.726   109019415.562         859.564          45.000    20745692.919    84950147.436         669.809          42.000  
G15  23268113.697                       -3256.460          33.000    23268110.271    95279013.531       -2538.051          32.000  
G18  23599838.586   124017972.526       -3679.568          35.000    23599834.193    96637343.534       -2867.049          37.000  
G23  19271184.059   101270750.120       -2099.582          46.000    19271172.395    78912198.052       -1635.975          47.000  
G24  20958972.124                       -3373.649          28.000    20958962.496    85823397.626       -2628.387          32.000  
G32  20890329.162   109779421.152        1499.993          46.000    20890318.769    85542351.465        1169.255          42.000  
C08  34712910.906   180759232.543        -344.025          46.000    34712894.189   139774425.475        -265.948          49.000  
C13  34712261.287   180755849.179         -47.040          47.000    34712252.121   139771842.088         -36.230          48.000  
C16  35671889.408   185752889.560          -1.632          47.000    35671880.484   143635877.100          -1.439          48.000  
C25  22274452.668   115988931.339       -2558.159          35.000                                                                  
C32  21045318.125   109588497.508         866.459          50.000                                                                  
C06  35363737.618   184148262.272         177.526          44.000    35363721.827   142395053.528         137.412          47.000  
G25  20479403.178   107620004.620        2539.715          41.000    20479395.515    83859701.882        1979.149          43.000  
G10  19505936.611   102504384.517        1031.097          50.000    19505924.641    79873502.531         803.491          43.000  
G28  22018363.082   115707295.045        2577.172          39.000    22018353.208    90161509.759        2008.015          43.000  
C23  20725207.330   107921591.017         248.428          50.000                                                                  
C09  36831418.313   191790865.843         276.250          39.000    36831407.041   148304810.300         213.440          48.000  
C33  26133292.425                       -2932.646          30.000                                                                  
C37  22851698.811   118994807.291        2679.509          44.000                                                                  
> 2025 10 27 02 51 07.5960000  0 19                     
G12  20745698.154   109019381.177         859.504          45.000    20745686.375    84950120.637         669.851          42.000  
G15  23268138.470                       -3256.687          33.000    23268135.033    95279115.015       -2537.351          32.000  
G18  23599866.572   124018119.689       -3679.372          35.000    23599862.199    96637458.207       -2866.919          37.000  
G23  19271200.023   101270834.094       -2099.451          46.000    19271188.385    78912263.485       -1635.889          47.000  
G24  20958997.792                       -3373.677          28.000    20958988.167    85823502.763       -2628.312          32.000  
G32  20890317.762   109779361.144        1500.111          46.000    20890307.338    85542304.717        1168.962          42.000  
C08  34712913.561   180759246.301        -343.988          46.000    34712896.818   139774436.118        -266.064          49.000  
C13  34712261.659   180755851.057         -47.040          47.000    34712252.463   139771843.536         -36.200          48.000  
C16  35671889.409   185752889.636          -1.835          47.000    35671880.497   143635877.153          -1.422          48.000  
C25  22274472.305   115989033.660       -2558.005          35.000                                                                  
C32  21045311.510   109588462.846         866.494          50.000                                                                  
C06  35363736.294   184148255.171         177.469          44.000    35363720.470   142395048.041         137.223          47.000  
G25  20479383.847   107619903.027        2539.711          41.000    20479376.186    83859622.721        1979.058          43.000  
G10  19505928.753   102504343.272        1031.067          50.000    19505916.797    79873470.386         803.534          43.000  
G28  22018343.459   115707191.967        2576.985          39.000    22018333.597    90161429.439        2007.923          43.000  
C23  20725205.463   107921581.078         248.444          50.000                                                                  
C09  36831416.224   191790854.775         276.603          39.000    36831404.912   148304801.757         213.472          48.000  
C33  26133314.965                       -2933.254          30.000                                                                  
C37  22851678.245   118994700.100        2679.660          44.000                                                                  
> 2025 10 27 02 51 07.6360000  0 19                     
G12  20745691.606   109019346.787         859.606          45.000    20745679.822    84950093.841         669.855          42.000  
G15  23268163.271                       -3257.065          33.000    23268159.825    95279216.512       -2537.186          32.000  
G18  23599894.598   124018266.888       -3679.854          35.000    23599890.215    96637572.912       -2867.341          37.000  
G23  19271216.007   101270918.079       -2099.618          46.000    19271204.350    78912328.921       -1635.895          47.000  
G24  20959023.477                       -3373.341          28.000    20959013.844    85823607.929       -2628.720          32.000  
G32  20890306.335   109779301.144        1500.053          46.000    20890295.914    85542257.960        1168.895          42.000  
C08  34712916.195   180759260.057        -343.951          46.000    34712899.428   139774446.755        -266.003          49.000  
C13  34712262.059   180755852.929         -46.899          47.000    34712252.817   139771844.993         -36.371          48.000  
C16  35671889.421   185752889.707          -1.871          47.000    35671880.494   143635877.203          -1.339          48.000  
C25  22274491.964   115989136.003       -2558.327          35.000                                                                  
C32  21045304.889   109588428.183         866.519          50.000                                                                  
C06  35363734.962   184148248.072         177.435          44.000    35363719.115   142395042.549         137.219          47.000  
G25  20479364.498   107619801.428        2539.916          41.000    20479356.826    83859543.541        1979.353          43.000  
G10  19505920.901   102504302.030        1031.006          50.000    19505908.946    79873438.255         803.357          43.000  
G28  22018323.821   115707088.868        2577.311          39.000    22018313.987    90161349.107        2008.156          43.000  
C23  20725203.537   107921571.143         248.354          50.000                                                                  
C09  36831414.084   191790843.735         276.221          39.000    36831402.772   148304793.212         213.536          47.000  
C33  26133337.472                       -2932.695          30.000                                                                  
C37  22851657.690   118994592.906        2679.795          44.000                                                                  
> 2025 10 27 02 51 07.6760000  0 19                     
G12  20745685.043   109019312.397         859.699          45.000    20745673.263    84950067.044         669.847          42.000  
G15  23268188.051                       -3257.311          33.000    23268184.623    95279318.051       -2537.906          32.000  
G18  23599922.632   124018414.058       -3679.552          35.000    23599918.221    96637687.600       -2867.336          37.000  
G23  19271231.971   101271002.045       -2099.340          46.000    19271220.317    78912394.359       -1635.951          47.000  
G24  20959049.141                       -3373.667          28.000    20959039.533    85823713.103       -2629.142          32.000  
G32  20890294.904   109779241.137        1500.149          46.000    20890284.490    85542211.205        1168.817          42.000  
C08  34712918.821   180759273.808        -343.835          46.000    34712902.063   139774457.386        -265.839          49.000  
C13  34712262.427   180755854.806         -46.912          47.000    34712253.192   139771846.439         -36.224          48.000  
C16  35671889.451   185752889.773          -1.796          47.000    35671880.492   143635877.254          -1.293          48.000  
C25  22274511.632   115989238.347       -2558.616          35.000                                                                  
C32  21045298.273   109588393.518         866.570          50.000                                                                  
C06  35363733.584   184148240.957         177.749          44.000    35363717.747   142395037.060         137.183          47.000  
G25  20479345.138   107619699.824        2540.070          41.000    20479337.496    83859464.375        1979.255          43.000  
G10  19505913.041   102504260.782        1031.104          50.000    19505901.084    79873406.113         803.442          43.000  
G28  22018304.209   115706985.779        2577.297          39.000    22018294.361    90161268.776        2008.267          43.000  
C23  20725201.654   107921561.203         248.416          50.000                                                                  
C09  36831411.969   191790832.692         276.072          39.000    36831400.628   148304784.658         213.736          48.000  
C33  26133359.994                       -2931.752          30.000                                                                  
C37  22851637.118   118994485.734        2679.479          44.000                                                                  
> 2025 10 27 02 51 07.7160000  0 19                     
G12  20745678.470   109019278.004         859.794          45.000    20745666.711    84950040.242         669.932          42.000  
G15  23268212.862                       -3257.261          33.000    23268209.425    95279419.591       -2538.433          32.000  
G18  23599950.663   124018561.220       -3679.130          35.000    23599946.220    96637802.259       -2866.771          37.000  
G23  19271247.947   101271086.016       -2099.260          46.000    19271236.313    78912459.795       -1635.969          47.000  
G24  20959074.832                       -3373.712          28.000    20959065.215    85823818.241       -2628.847          32.000  
G32  20890283.483   109779181.133        1500.115          46.000    20890273.126    85542164.464        1168.557          42.000  
C08  34712921.482   180759287.566        -343.890          46.000    34712904.708   139774468.028        -265.991          49.000  
C13  34712262.818   180755856.681         -46.875          47.000    34712253.567   139771847.893         -36.310          48.000  
C16  35671889.468   185752889.833          -1.592          47.000    35671880.499   143635877.296          -1.126          48.000  
C25  22274531.281   115989340.656       -2558.098          35.000                                                                  
C32  21045291.610   109588358.855         866.583          50.000                                                                  
C06  35363732.219   184148233.850         177.742          44.000    35363716.382   142395031.560         137.362          47.000  
G25  20479325.780   107619598.222        2540.111          41.000    20479318.174    83859385.211        1979.156          43.000  
G10  19505905.155   102504219.534        1031.152          50.000    19505893.228    79873373.971         803.473          43.000  
G28  22018284.604   115706882.707        2576.934          39.000    22018274.753    90161188.455        2008.167          43.000  
C23  20725199.789   107921551.260         248.512          50.000                                                                  
C09  36831409.855   191790821.639         276.220          39.000    36831398.521   148304776.111         213.703          48.000  
C33  26133382.535                       -2931.573          30.000                                                                  
C37  22851616.536   118994378.547        2679.551          44.000                                                                  
> 2025 10 27 02 51 07.7560000  0 19                     
G12  20745671.924   109019243.611         859.830          45.000    20745660.188    84950013.457         669.726          42.000  
G15  23268237.637                       -3256.027          33.000    23268234.222    95279521.077       -2537.667          32.000  
G18  23599978.678   124018708.390       -3679.089          35.000    23599974.231    96637916.940       -2866.819          37.000  
G23  19271263.961   101271170.001       -2099.483          46.000    19271252.292    78912525.229       -1635.901          47.000  
G24  20959100.535                       -3373.636          28.000    20959090.903    85823923.387       -2628.846          32.000  
G32  20890272.074   109779121.129        1500.088          46.000    20890261.705    85542117.712        1168.648          42.000  
C08  34712924.118   180759301.323        -343.933          46.000    34712907.362   139774478.664        -265.955          49.000  
C13  34712263.193   180755858.557         -46.893          47.000    34712253.928   139771849.344         -36.292          48.000  
C16  35671889.482   185752889.891          -1.444          47.000    35671880.490   143635877.347          -1.210          48.000  
C25  22274550.943   115989442.988       -2558.222          35.000                                                                  
C32  21045284.954   109588324.190         866.608          50.000                                                                  
C06  35363730.846   184148226.747         177.660          44.000    35363715.021   142395026.058         137.490          47.000  
G25  20479306.439   107619496.629        2539.978          41.000    20479298.860    83859306.049        1979.066          43.000  
G10  19505897.277   102504178.286        1031.219          50.000    19505885.397    79873341.831         803.510          43.000  
G28  22018264.984   115706779.620        2577.011          39.000    22018255.127    90161108.130        2008.148          43.000  
C23  20725197.855   107921541.325         248.413          50.000                                                                  
C09  36831407.730   191790810.587         276.270          39.000    36831396.381   148304767.561         213.752          47.000  
C33  26133405.074                       -2932.538          30.000                                                                  
C37  22851595.968   118994271.347        2679.852          44.000                                                                  
> 2025 10 27 02 51 07.7960000  0 19                     
G12  20745665.384   109019209.227         859.680          45.000    20745653.631    84949986.663         669.735          42.000  
G15  23268262.409                       -3257.118          33.000    23268259.019    95279622.578       -2537.458          32.000  
G18  23600006.693   124018855.580       -3679.515          35.000    23600002.238    96638031.608       -2866.683          37.000  
G23  19271279.945   101271253.987       -2099.667          46.000    19271268.279    78912590.669       -1635.994          47.000  
G24  20959126.216                       -3373.840          28.000    20959116.590    85824028.583       -2629.579          32.000  
G32  20890260.636   109779061.127        1500.029          46.000    20890250.255    85542070.949        1168.854          42.000  
C08  34712926.766   180759315.084        -344.037          46.000    34712910.018   139774489.301        -265.942          49.000  
C13  34712263.573   180755860.434         -46.930          47.000    34712254.253   139771850.797         -36.359          48.000  
C16  35671889.474   185752889.959          -1.589          47.000    35671880.492   143635877.398          -1.284          48.000  
C25  22274570.606   115989545.311       -2558.080          35.000                                                                  
C32  21045278.286   109588289.533         866.486          50.000                                                                  
C06  35363729.497   184148219.645         177.538          44.000    35363713.659   142395020.576         137.189          47.000  
G25  20479287.118   107619395.039        2539.799          41.000    20479279.513    83859226.878        1979.175          43.000  
G10  19505889.446   102504137.048        1031.000          50.000    19505877.580    79873309.695         803.412          43.000  
G28  22018245.384   115706676.544        2576.970          39.000    22018235.501    90161027.810        2008.042          43.000  
C23  20725195.904   107921531.395         248.264          50.000                                                                  
C09  36831405.630   191790799.543         276.157          39.000    36831394.260   148304759.022         213.544          47.000  
C33  26133427.579                       -2933.469          30.000                                                                  
C37  22851575.370   118994164.160        2679.782          44.000                                                                  
> 2025 10 27 02 51 07.8360000  0 19                     
G12  20745658.849   109019174.846         859.545          45.000    20745647.077    84949959.872         669.699          42.000  
G15  23268287.202                       -3256.559          33.000    23268283.811    95279724.079       -2537.462          32.000  
G18  23600034.685   124019002.766       -3679.587          35.000    23600030.256    96638146.303       -2867.119          37.000  
G23  19271295.929   101271337.967       -2099.623          46.000    19271284.249    78912656.110       -1636.043          47.000  
G24  20959151.873                       -3373.781          28.000    20959142.268    85824133.726       -2629.020          32.000  
G32  20890249.224   109779001.126        1500.005          46.000    20890238.830    85542024.179        1169.157          42.000  
C08  34712929.438   180759328.846        -344.074          46.000    34712912.652   139774499.945        -266.058          49.000  
C13  34712263.923   180755862.309         -46.899          47.000    34712254.603   139771852.249         -36.334          48.000  
C16  35671889.497   185752890.032          -1.771          47.000    35671880.540   143635877.458          -1.450          48.000  
C25  22274590.247   115989647.624       -2557.871          35.000                                                                  
C32  21045271.655   109588254.876         866.404          50.000                                                                  
C06  35363728.155   184148212.555         177.321          44.000    35363712.305   142395015.079         137.307          47.000  
G25  20479267.798   107619293.458        2539.542          41.000    20479260.182    83859147.720        1979.016          43.000  
G10  19505881.614   102504095.813        1030.865          50.000    19505869.732    79873277.561         803.345          43.000  
G28  22018225.764   115706573.464        2576.932          39.000    22018215.885    90160947.480        2008.205          43.000  
C23  20725193.979   107921521.461         248.250          50.000                                                                  
C09  36831403.507   191790788.498         276.081          39.000    36831392.105   148304750.475         213.596          47.000  
C33  26133450.067                       -2932.158          30.000                                                                  
C37  22851554.798   118994056.985        2679.510          44.000                                                                  
> 2025 10 27 02 51 07.8760000  0 19                     
G12  20745652.317   109019140.466         859.439          45.000    20745640.549    84949933.081         669.720          42.000  
G15  23268312.001                       -3256.652          33.000    23268308.628    95279825.587       -2537.622          32.000  
G18  23600062.705   124019149.934       -3679.359          35.000    23600058.274    96638260.991       -2867.169          37.000  
G23  19271311.915   101271421.948       -2099.580          46.000    19271300.229    78912721.556       -1636.159          47.000  
G24  20959177.589   110141224.687       -3373.774          28.000    20959167.964    85824238.886       -2628.933          32.000  
G32  20890237.796   109778941.121        1500.052          46.000    20890227.408    85541977.425        1168.980          42.000  
C08  34712932.072   180759342.600        -343.951          46.000    34712915.276   139774510.575        -265.839          49.000  
C13  34712264.282   180755864.181         -46.832          47.000    34712254.953   139771853.699         -36.292          48.000  
C16  35671889.510   185752890.096          -1.682          47.000    35671880.545   143635877.517          -1.510          48.000  
C25  22274609.902   115989749.956       -2558.168          35.000                                                                  
C32  21045265.036   109588220.212         866.508          50.000                                                                  
C06  35363726.775   184148205.453         177.435          44.000    35363710.947   142395009.587         137.301          47.000  
G25  20479248.475   107619191.858        2539.710          41.000    20479240.846    83859068.555        1979.066          43.000  
G10  19505873.777   102504054.575        1030.853          50.000    19505861.905    79873245.432         803.223          43.000  
G28  22018206.152   115706470.374        2577.100          39.000    22018196.269    90160867.154        2008.134          43.000  
C23  20725192.087   107921511.523         248.362          50.000                                                                  
C09  36831401.377   191790777.448         276.158          39.000    36831389.961   148304741.929         213.602          47.000  
C33  26133472.576                       -2931.887          30.000                                                                  
C37  22851534.201   118993949.802        2679.509          44.000                                                                  
> 2025 10 27 02 51 07.9160000  0 19                     
G12  20745645.774   109019106.082         859.475          45.000    20745634.003    84949906.274         669.998          42.000  
G15  23268336.812                       -3256.757          33.000    23268333.433    95279927.130       -2538.389          32.000  
G18  23600090.699   124019297.100       -3679.206          35.000    23600086.283    96638375.668       -2867.098          37.000  
G23  19271327.870   101271505.930       -2099.567          46.000    19271316.207    78912786.990       -1635.968          47.000  
G24  20959203.296                       -3374.268          28.000    20959193.631    85824344.021       -2628.569          32.000  
G32  20890226.375   109778881.115        1500.124          46.000    20890215.990    85541930.678        1168.768          42.000  
C08  34712934.701   180759356.355        -343.909          46.000    34712917.877   139774521.215        -265.942          49.000  
C13  34712264.638   180755866.058         -46.930          47.000    34712255.285   139771855.148         -36.255          48.000  
C16  35671889.521   185752890.162          -1.676          47.000    35671880.570   143635877.556          -1.174          48.000  
C25  22274629.550   115989852.274       -2558.051          35.000                                                                  
C32  21045258.402   109588185.545         866.604          50.000                                                                  
C06  35363725.403   184148198.334         177.777          44.000    35363709.566   142395004.093         137.313          47.000  
G25  20479229.167   107619090.261        2539.846          41.000    20479221.517    83858989.401        1978.897          43.000  
G10  19505865.895   102504013.325        1031.097          50.000    19505854.033    79873213.284         803.564          43.000  
G28  22018186.539   115706367.286        2577.161          39.000    22018176.655    90160786.820        2008.297          43.000  
C23  20725190.227   107921501.584         248.433          50.000                                                                  
C09  36831399.241   191790766.387         276.370          39.000    36831387.818   148304733.385         213.597          47.000  
C33  26133495.070                       -2931.577          30.000                                                                  
C37  22851513.633   118993842.621        2679.459          44.000                                                                  
> 2025 10 27 02 51 07.9560000  0 19                     
G12  20745639.207   109019071.699         859.490          45.000    20745627.448    84949879.485         669.824          42.000  
G15  23268361.586                       -3255.967          33.000    23268358.233    95280028.638       -2538.102          32.000  
G18  23600118.691   124019444.269       -3679.228          35.000    23600114.306    96638490.348       -2867.052          37.000  
G23  19271343.858   101271589.909       -2099.512          46.000    19271332.185    78912852.428       -1635.931          47.000  
G24  20959228.996                       -3373.411          28.000    20959219.305    85824449.163       -2628.563          32.000  
G32  20890214.944   109778821.110        1500.128          46.000    20890204.551    85541883.923        1168.737          42.000  
C08  34712937.315   180759370.112        -343.939          46.000    34712920.482   139774531.855        -266.003          49.000  
C13  34712264.987   180755867.937         -47.009          47.000    34712255.640   139771856.597         -36.249          48.000  
C16  35671889.528   185752890.230          -1.723          47.000    35671880.557   143635877.605          -1.151          48.000  
C25  22274649.222   115989954.625       -2558.575          35.000                                                                  
C32  21045251.709   109588150.885         866.518          50.000                                                                  
C06  35363724.053   184148191.221         177.887          44.000    35363708.183   142394998.601         137.266          47.000  
G25  20479209.820   107618988.659        2539.971          41.000    20479202.185    83858910.230        1979.104          43.000  
G10  19505858.036   102503972.078        1031.152          50.000    19505846.187    79873181.145         803.552          43.000  
G28  22018166.907   115706264.197        2577.191          39.000    22018157.027    90160706.497        2008.134          43.000  
C23  20725188.358   107921491.654         248.302          50.000                                                                  
C09  36831397.119   191790755.328         276.449          39.000    36831385.676   148304724.840         213.615          47.000  
C33  26133517.598                       -2932.477          30.000                                                                  
C37  22851493.038   118993735.443        2679.395          44.000                                                                  
> 2025 10 27 02 51 07.9960000  0 19                     
G12  20745632.677   109019037.317         859.484          45.000    20745620.911    84949852.696         669.715          42.000  
G15  23268386.366                       -3256.488          34.000    23268383.057    95280130.194       -2538.682          32.000  
G18  23600146.713   124019591.452       -3679.421          35.000    23600142.307    96638605.025       -2867.044          37.000  
G23  19271359.854   101271673.895       -2099.629          46.000    19271348.194    78912917.871       -1636.036          47.000  
G24  20959254.656                       -3373.523          28.000    20959244.986    85824554.346       -2629.188          32.000  
G32  20890203.538   109778761.109        1500.036          46.000    20890193.119    85541837.169        1168.773          42.000  
C08  34712939.975   180759383.867        -343.933          46.000    34712923.111   139774542.498        -266.101          49.000  
C13  34712265.334   180755869.816         -47.028          47.000    34712255.966   139771858.046         -36.243          48.000  
C16  35671889.566   185752890.298          -1.741          47.000    35671880.554   143635877.660          -1.279          48.000  
C25  22274668.862   115990056.971       -2558.795          35.000                                                                  
C32  21045245.007   109588116.231         866.377          50.000                                                                  
C06  35363722.696   184148184.121         177.653          44.000    35363706.815   142394993.106         137.292          47.000  
G25  20479190.508   107618887.074        2539.754          41.000    20479182.841    83858831.067        1979.130          43.000  
G10  19505850.216   102503930.841        1030.988          50.000    19505838.356    79873149.018         803.308          43.000  
G28  22018147.286   115706161.114        2577.142          39.000    22018137.410    90160626.171        2008.141          43.000  
C23  20725186.437   107921481.725         248.213          50.000                                                                  
C09  36831395.013   191790744.294         276.047          39.000    36831383.561   148304716.294         213.602          47.000  
C33  26133540.116                       -2932.794          30.000                                                                  
C37  22851472.437   118993628.256        2679.549          44.000                                                                  
> 2025 10 27 02 51 08.0360000  0 19                     
G12  20745626.133   109019002.935         859.498          45.000    20745614.379    84949825.917         669.485          42.000  
G15  23268411.179                       -3257.689          34.000    23268407.815    95280231.666       -2537.362          32.000  
G18  23600174.748   124019738.612       -3679.055          35.000    23600170.303    96638719.697       -2866.905          37.000  
G23  19271375.853   101271757.890       -2099.838          46.000    19271364.189    78912983.320       -1636.215          48.000  
G24  20959280.297                       -3373.474          28.000    20959270.675    85824659.528       -2629.568          32.000  
G32  20890192.132   109778701.112        1499.926          46.000    20890181.703    85541790.408        1168.890          42.000  
C08  34712942.647   180759397.631        -344.074          46.000    34712925.760   139774553.141        -266.132          49.000  
C13  34712265.677   180755871.696         -47.058          47.000    34712256.326   139771859.500         -36.346          48.000  
C16  35671889.563   185752890.367          -1.787          47.000    35671880.595   143635877.712          -1.304          48.000  
C25  22274688.529   115990159.315       -2558.824          35.000                                                                  
C32  21045238.344   109588081.574         866.342          50.000                                                                  
C06  35363721.345   184148177.041         177.178          44.000    35363705.441   142394987.617         137.214          47.000  
G25  20479171.169   107618785.475        2539.861          41.000    20479163.511    83858751.903        1979.120          43.000  
G10  19505842.365   102503889.611        1030.780          50.000    19505830.502    79873116.883         803.333          43.000  
G28  22018127.667   115706058.047        2576.736          39.000    22018117.799    90160545.861        2007.855          43.000  
C23  20725184.540   107921471.797         248.138          50.000                                                                  
C09  36831392.891   191790733.240         276.232          39.000    36831381.458   148304707.751         213.584          47.000  
C33  26133562.633                       -2931.715          30.000                                                                  
C37  22851451.840   118993521.067        2679.649          44.000                                                                  
> 2025 10 27 02 51 08.0760000  0 19                     
G12  20745619.596   109018968.564         859.284          45.000    20745607.831    84949799.127         669.575          42.000  
G15  23268435.970                       -3257.943          34.000    23268432.580    95280333.163       -2537.180          32.000  
G18  23600202.775   124019885.805       -3679.513          35.000    23600198.314    96638834.385       -2867.151          37.000  
G23  19271391.821   101271841.873       -2099.739          46.000    19271380.150    78913048.770       -1636.325          48.000  
G24  20959305.999                       -3373.557          28.000    20959296.346    85824764.704       -2629.660          32.000  
G32  20890180.717   109778641.108        1499.994          45.000    20890170.294    85541743.662        1168.693          42.000  
C08  34712945.288   180759411.397        -344.171          46.000    34712928.437   139774563.784        -266.107          49.000  
C13  34712266.026   180755873.580         -47.125          47.000    34712256.707   139771860.955         -36.407          48.000  
C16  35671889.569   185752890.438          -1.815          47.000    35671880.593   143635877.769          -1.408          48.000  
C25  22274708.191   115990261.633       -2558.330          35.000                                                                  
C32  21045231.694   109588046.922         866.261          50.000                                                                  
C06  35363719.990   184148169.939         177.343          44.000    35363704.088   142394982.126         137.224          47.000  
G25  20479151.850   107618683.892        2539.679          40.000    20479144.191    83858672.752        1978.886          43.000  
G10  19505834.499   102503848.378        1030.731          50.000    19505822.653    79873084.760         803.125          43.000  
G28  22018108.039   115705954.971        2576.777          39.000    22018098.166    90160465.545        2007.801          43.000  
C23  20725182.645   107921461.873         248.042          50.000                                                                  
C09  36831390.770   191790722.183         276.383          39.000    36831379.342   148304699.210         213.516          47.000  
C33  26133585.140                       -2932.184          30.000                                                                  
C37  22851431.225   118993413.885        2679.578          44.000                                                                  
> 2025 10 27 02 51 08.1160000  0 19                     
G12  20745613.050   109018934.187         859.329          45.000    20745601.306    84949772.341         669.579          42.000  
G15  23268460.750                       -3257.003          34.000    23268457.375    95280434.676       -2537.511          32.000  
G18  23600230.799   124020032.975       -3679.441          35.000    23600226.319    96638949.079       -2867.344          37.000  
G23  19271407.820   101271925.866       -2099.812          46.000    19271396.118    78913114.218       -1636.299          48.000  
G24  20959331.642                       -3374.139          28.000    20959322.015    85824869.836       -2628.712          32.000  
G32  20890169.299   109778581.108        1499.990          46.000    20890158.868    85541696.904        1168.800          42.000  
C08  34712947.935   180759425.160        -344.153          46.000    34712931.103   139774574.428        -266.125          49.000  
C13  34712266.401   180755875.455         -46.973          47.000    34712257.063   139771862.416         -36.505          48.000  
C16  35671889.618   185752890.502          -1.661          47.000    35671880.606   143635877.824          -1.411          48.000  
C25  22274727.866   115990363.953       -2558.085          35.000                                                                  
C32  21045225.021   109588012.267         866.291          50.000                                                                  
C06  35363718.637   184148162.840         177.350          44.000    35363702.746   142394976.639         137.167          47.000  
G25  20479132.536   107618582.319        2539.391          41.000    20479124.888    83858593.595        1978.871          43.000  
G10  19505826.636   102503807.148        1030.695          50.000    19505814.798    79873052.632         803.119          43.000  
G28  22018088.419   115705851.888        2576.960          39.000    22018078.562    90160385.233        2007.683          43.000  
C23  20725180.720   107921451.949         248.017          50.000                                                                  
C09  36831388.662   191790711.146         276.054          39.000    36831377.216   148304690.668         213.503          47.000  
C33  26133607.664                       -2932.083          30.000                                                                  
C37  22851410.649   118993306.723        2679.224          44.000                                                                  
> 2025 10 27 02 51 08.1560000  0 19                     
G12  20745606.484   109018899.804         859.473          45.000    20745594.745    84949745.549         669.676          42.000  
G15  23268485.521                       -3255.494          34.000    23268482.138    95280536.182       -2537.610          32.000  
G18  23600258.839   124020180.164       -3679.671          35.000    23600254.329    96639063.758       -2867.126          37.000  
G23  19271423.771   101272009.852       -2099.719          46.000    19271412.082    78913179.664       -1636.219          48.000  
G24  20959357.317                       -3373.984          28.000    20959347.680    85824974.975       -2628.418          32.000  
G32  20890157.865   109778521.106        1500.037          46.000    20890147.448    85541650.148        1168.867          42.000  
C08  34712950.607   180759438.919        -344.067          46.000    34712933.726   139774585.061        -265.906          49.000  
C13  34712266.750   180755877.331         -46.912          47.000    34712257.442   139771863.859         -36.224          48.000  
C16  35671889.646   185752890.566          -1.577          47.000    35671880.609   143635877.878          -1.375          48.000  
C25  22274747.513   115990466.306       -2558.691          35.000                                                                  
C32  21045218.435   109587977.608         866.427          50.000                                                                  
C06  35363717.292   184148155.729         177.623          44.000    35363701.391   142394971.145         137.275          47.000  
G25  20479113.207   107618480.751        2539.228          41.000    20479105.553    83858514.441        1978.863          43.000  
G10  19505818.794   102503765.910        1030.859          50.000    19505806.943    79873020.501         803.223          43.000  
G28  22018068.805   115705748.809        2576.978          39.000    22018058.944    90160304.906        2007.972          43.000  
C23  20725178.809   107921442.016         248.201          50.000                                                                  
C09  36831386.544   191790700.092         276.252          39.000    36831375.108   148304682.125         213.530          47.000  
C33  26133630.184                       -2932.605          30.000                                                                  
C37  22851390.062   118993199.528        2679.616          44.000                                                                  
> 2025 10 27 02 51 08.1960000  0 19                     
G12  20745599.944   109018865.433         859.323          45.000    20745588.215    84949718.762         669.683          42.000  
G15  23268510.309                       -3256.019          34.000    23268506.935    95280637.742       -2538.650          32.000  
G18  23600286.857   124020327.328       -3679.296          35.000    23600282.344    96639178.414       -2866.628          37.000  
G23  19271439.732   101272093.836       -2099.640          46.000    19271428.060    78913245.100       -1635.997          48.000  
G24  20959382.973                       -3374.103          28.000    20959373.372    85825080.134       -2628.720          32.000  
G32  20890146.457   109778461.103        1500.075          46.000    20890136.005    85541603.382        1169.099          41.000  
C08  34712953.242   180759452.677        -344.000          46.000    34712936.356   139774595.698        -265.900          49.000  
C13  34712267.097   180755879.208         -46.906          47.000    34712257.813   139771865.302         -36.060          48.000  
C16  35671889.668   185752890.640          -1.761          47.000    35671880.614   143635877.932          -1.363          48.000  
C25  22274767.188   115990568.637       -2558.423          35.000                                                                  
C32  21045211.790   109587942.944         866.553          50.000                                                                  
C06  35363715.942   184148148.625         177.643          44.000    35363700.044   142394965.647         137.383          47.000  
G25  20479093.860   107618379.138        2539.961          41.000    20479086.194    83858435.278        1978.967          43.000  
G10  19505810.905   102503724.668        1030.994          50.000    19505799.083    79872988.368         803.308          43.000  
G28  22018049.170   115705645.732        2576.927          39.000    22018039.349    90160224.575        2008.227          43.000  
C23  20725176.891   107921432.086         248.224          50.000                                                                  
C09  36831384.415   191790689.040         276.308          40.000    36831372.996   148304673.575         213.681          47.000  
C33  26133652.697                       -2932.676          30.000                                                                  
C37  22851369.482   118993092.345        2679.593          44.000                                                                  
> 2025 10 27 02 51 08.2360000  0 19                     
G12  20745593.393   109018831.055         859.364          45.000    20745581.695    84949691.968         669.819          42.000  
G15  23268535.102                       -3257.202          34.000    23268531.711    95280739.254       -2538.397          32.000  
G18  23600314.870   124020474.518       -3679.611          35.000    23600310.356    96639293.095       -2866.887          37.000  
G23  19271455.710   101272177.819       -2099.603          46.000    19271444.041    78913310.545       -1636.029          48.000  
G24  20959408.693                       -3374.019          28.000    20959399.077    85825185.261       -2628.282          32.000  
G32  20890135.020   109778401.091        1500.228          46.000    20890124.582    85541556.622        1169.066          41.000  
C08  34712955.894   180759466.430        -343.842          46.000    34712938.954   139774606.334        -265.912          49.000  
C13  34712267.507   180755881.072         -46.692          47.000    34712258.163   139771866.750         -36.102          48.000  
C16  35671889.715   185752890.701          -1.643          47.000    35671880.627   143635877.975          -1.175          48.000  
C25  22274786.831   115990670.957       -2558.065          35.000                                                                  
C32  21045205.120   109587908.282         866.575          50.000                                                                  
C06  35363714.566   184148141.519         177.650          44.000    35363698.664   142394960.157         137.307          47.000  
G25  20479074.525   107618277.539        2540.070          40.000    20479066.830    83858356.107        1979.145          43.000  
G10  19505803.050   102503683.427        1031.049          50.000    19505791.245    79872956.228         803.436          43.000  
G28  22018029.552   115705542.641        2577.183          39.000    22018019.733    90160144.246        2008.305          43.000  
C23  20725174.963   107921422.153         248.280          50.000                                                                  
C09  36831382.312   191790677.994         276.122          40.000    36831370.854   148304665.031         213.623          47.000  
C33  26133675.209                       -2932.289          30.000                                                                  
C37  22851348.917   118992985.160        2679.646          44.000                                                                  
> 2025 10 27 02 51 08.2760000  0 19                     
G12  20745586.824   109018796.671         859.506          45.000    20745575.146    84949665.186         669.667          42.000  
G15  23268559.892                       -3257.390          34.000    23268556.495    95280840.725       -2537.203          32.000  
G18  23600342.881   124020621.659       -3678.821          35.000    23600338.348    96639407.747       -2866.538          37.000  
G23  19271471.713   101272261.806       -2099.665          46.000    19271460.023    78913375.984       -1635.992          48.000  
G24  20959434.378                       -3373.808          28.000    20959424.749    85825290.426       -2628.591          32.000  
G32  20890123.610   109778341.078        1500.313          45.000    20890113.177    85541509.861        1169.009          41.000  
C08  34712958.555   180759480.177        -343.713          46.000    34712941.595   139774616.966        -265.839          49.000  
C13  34712267.863   180755882.940         -46.637          47.000    34712258.526   139771868.202         -36.218          48.000  
C16  35671889.740   185752890.754          -1.423          47.000    35671880.664   143635878.017          -1.064          48.000  
C25  22274806.471   115990773.274       -2557.882          35.000                                                                  
C32  21045198.481   109587873.616         866.636          50.000                                                                  
C06  35363713.211   184148134.398         177.897          44.000    35363697.272   142394954.659         137.406          47.000  
G25  20479055.199   107618175.937        2540.164          40.000    20479047.475    83858276.933        1979.317          43.000  
G10  19505795.212   102503642.189        1030.988          50.000    19505783.368    79872924.091         803.448          43.000  
G28  22018009.929   115705439.551        2577.312          39.000    22018000.127    90160063.912        2008.378          43.000  
C23  20725173.022   107921412.221         248.290          50.000                                                                  
C09  36831380.193   191790666.925         276.488          39.000    36831368.728   148304656.483         213.672          47.000  
C33  26133697.710                       -2931.171          30.000                                                                  
C37  22851328.341   118992877.979        2679.568          44.000                                                                  
> 2025 10 27 02 51 08.3160000  0 19                     
G12  20745580.304   109018762.296         859.420          45.000    20745568.619    84949638.390         669.809          42.000  
G15  23268584.679                       -3257.502          34.000    23268581.263    95280942.198       -2536.750          32.000  
G18  23600370.913   124020768.827       -3678.930          35.000    23600366.359    96639522.456       -2867.403          37.000  
G23  19271487.715   101272345.795       -2099.720          46.000    19271476.012    78913441.428       -1636.079          48.000  
G24  20959460.057                       -3374.176          28.000    20959450.431    85825395.631       -2629.719          32.000  
G32  20890112.172   109778281.077        1500.100          45.000    20890101.782    85541463.107        1168.899          41.000  
C08  34712961.194   180759493.934        -343.835          46.000    34712944.239   139774627.607        -265.985          49.000  
C13  34712268.233   180755884.815         -46.777          47.000    34712258.894   139771869.653         -36.285          48.000  
C16  35671889.739   185752890.814          -1.448          47.000    35671880.647   143635878.061          -1.064          48.000  
C25  22274826.128   115990875.607       -2558.143          35.000                                                                  
C32  21045191.756   109587838.955         866.563          50.000                                                                  
C06  35363711.832   184148127.296         177.649          44.000    35363695.876   142394949.159         137.468          47.000  
G25  20479035.867   107618074.335        2540.105          40.000    20479028.163    83858197.775        1979.087          43.000  
G10  19505787.391   102503600.952        1030.927          50.000    19505775.501    79872891.952         803.455          43.000  
G28  22017990.303   115705336.453        2577.452          39.000    22017980.514    90159983.594        2008.115          43.000  
C23  20725171.115   107921402.294         248.199          50.000                                                                  
C09  36831378.105   191790655.880         276.279          40.000    36831366.619   148304647.937         213.632          47.000  
C33  26133720.206                       -2931.405          30.000                                                                  
C37  22851307.770   118992770.784        2679.750          44.000                                                                  
> 2025 10 27 02 51 08.3560000  0 19                     
G12  20745573.754   109018727.915         859.465          45.000    20745562.082    84949611.599         669.801          42.000  
G15  23268609.453                       -3256.583          34.000    23268606.029    95281043.712       -2537.291          32.000  
G18  23600398.938   124020916.016       -3679.391          35.000    23600394.357    96639637.144       -2867.479          37.000  
G23  19271503.711   101272429.781       -2099.720          46.000    19271491.998    78913506.878       -1636.251          48.000  
G24  20959485.721                       -3373.845          28.000    20959476.117    85825500.803       -2629.738          32.000  
G32  20890100.770   109778221.069        1500.135          45.000    20890090.370    85541416.354        1168.785          41.000  
C08  34712963.833   180759507.688        -343.860          46.000    34712946.891   139774638.241        -265.936          49.000  
C13  34712268.594   180755886.692         -46.893          47.000    34712259.274   139771871.102         -36.267          48.000  
C16  35671889.734   185752890.883          -1.628          47.000    35671880.686   143635878.118          -1.308          48.000  
C25  22274845.760   115990977.962       -2558.622          35.000                                                                  
C32  21045185.057   109587804.297         866.486          50.000                                                                  
C06  35363710.446   184148120.187         177.678          44.000    35363694.547   142394943.657         137.551          47.000  
G25  20479016.495   107617972.756        2539.692          41.000    20479008.834    83858118.616        1978.957          43.000  
G10  19505779.553   102503559.715        1030.908          50.000    19505767.666    79872859.822         803.290          43.000  
G28  22017970.679   115705233.368        2577.257          39.000    22017960.927    90159903.282        2007.854          43.000  
C23  20725169.220   107921392.362         248.239          50.000                                                                  
C09  36831375.991   191790644.838         276.078          40.000    36831364.525   148304639.390         213.639          47.000  
C33  26133742.763                       -2932.440          30.000                                                                  
C37  22851287.183   118992663.604        2679.591          44.000                                                                  
> 2025 10 27 02 51 08.3960000  0 19                     
G12  20745567.219   109018693.539         859.379          45.000    20745555.535    84949584.817         669.652          43.000  
G15  23268634.206                       -3256.653          34.000    23268630.842    95281145.259       -2538.126          32.000  
G18  23600426.935   124021063.158       -3678.901          35.000    23600422.336    96639751.799       -2866.825          37.000  
G23  19271519.686   101272513.769       -2099.720          46.000    19271507.970    78913572.326       -1636.294          48.000  
G24  20959511.394                       -3373.744          28.000    20959501.796    85825605.946       -2629.087          32.000  
G32  20890089.354   109778161.063        1500.144          46.000    20890078.930    85541369.600        1168.782          41.000  
C08  34712966.495   180759521.449        -344.019          46.000    34712949.536   139774648.880        -265.979          49.000  
C13  34712268.956   180755888.568         -46.954          47.000    34712259.646   139771872.545         -36.151          48.000  
C16  35671889.738   185752890.946          -1.638          47.000    35671880.700   143635878.164          -1.265          48.000  
C25  22274865.419   115991080.276       -2558.103          35.000                                                                  
C32  21045178.408   109587769.635         866.499          50.000                                                                  
C06  35363709.071   184148113.081         177.642          44.000    35363693.201   142394938.164         137.443          47.000  
G25  20478997.166   107617871.156        2539.801          41.000    20478989.478    83858039.449        1979.039          43.000  
G10  19505771.695   102503518.481        1030.817          50.000    19505759.813    79872827.696         803.094          43.000  
G28  22017951.075   115705130.300        2576.828          39.000    22017941.306    90159822.955        2008.000          43.000  
C23  20725167.312   107921382.435         248.146          50.000                                                                  
C09  36831373.867   191790633.776         276.377          40.000    36831362.381   148304630.838         213.727          47.000  
C33  26133765.272                       -2932.393          30.000                                                                  
C37  22851266.585   118992556.411        2679.698          44.000                                                                  
> 2025 10 27 02 51 08.4360000  0 19                     
G12  20745560.689   109018659.159         859.452          45.000    20745549.018    84949558.032         669.568          43.000  
G15  23268659.006                       -3257.037          34.000    23268655.604    95281246.762       -2537.930          32.000  
G18  23600454.946   124021210.291       -3678.366          35.000    23600450.340    96639866.482       -2866.983          37.000  
G23  19271535.683   101272597.758       -2099.757          46.000    19271523.978    78913637.766       -1636.146          48.000  
G24  20959537.067                       -3373.480          28.000    20959527.445    85825711.067       -2628.388          32.000  
G32  20890077.933   109778101.051        1500.254          46.000    20890067.492    85541322.834        1168.986          41.000  
C08  34712969.127   180759535.204        -343.951          46.000    34712952.171   139774659.516        -265.955          49.000  
C13  34712269.325   180755890.439         -46.869          47.000    34712260.016   139771873.990         -36.145          48.000  
C16  35671889.769   185752891.019          -1.798          47.000    35671880.736   143635878.212          -1.252          48.000  
C25  22274885.068   115991182.605       -2558.079          35.000                                                                  
C32  21045171.698   109587734.979         866.371          50.000                                                                  
C06  35363707.679   184148105.980         177.545          44.000    35363691.832   142394932.668         137.410          47.000  
G25  20478977.816   107617769.568        2539.688          41.000    20478970.157    83857960.286        1979.033          43.000  
G10  19505763.858   102503477.249        1030.762          50.000    19505751.995    79872795.574         802.948          43.000  
G28  22017931.451   115705027.212        2576.974          39.000    22017921.705    90159742.637        2007.938          43.000  
C23  20725165.413   107921372.506         248.147          50.000                                                                  
C09  36831371.752   191790622.708         276.625          40.000    36831360.278   148304622.291         213.727          47.000  
C33  26133787.790                       -2933.430          30.000                                                                  
C37  22851246.013   118992449.230        2679.579          44.000                                                                  
> 2025 10 27 02 51 08.4760000  0 19                     
G12  20745554.174   109018624.781         859.445          45.000    20745542.496    84949531.242         669.663          43.000  
G15  23268683.799                       -3256.456          34.000    23268680.381    95281348.284       -2538.044          32.000  
G18  23600482.958   124021357.515       -3679.762          35.000    23600478.362    96639981.125       -2866.339          37.000  
G23  19271551.666   101272681.743       -2099.683          46.000    19271539.976    78913703.212       -1636.152          47.000  
G24  20959562.745                       -3373.662          28.000    20959553.133    85825816.180       -2627.821          32.000  
G32  20890066.503   109778041.044        1500.232          46.000    20890056.060    85541276.072        1169.061          41.000  
C08  34712971.743   180759548.962        -343.964          46.000    34712954.791   139774670.151        -265.906          49.000  
C13  34712269.674   180755892.307         -46.759          47.000    34712260.383   139771875.438         -36.176          48.000  
C16  35671889.767   185752891.074          -1.539          47.000    35671880.739   143635878.259          -1.237          48.000  
C25  22274904.704   115991284.940       -2558.309          35.000                                                                  
C32  21045165.067   109587700.316         866.470          50.000                                                                  
C06  35363706.315   184148098.872         177.629          44.000    35363690.438   142394927.170         137.423          47.000  
G25  20478958.497   107617667.992        2539.425          41.000    20478950.830    83857881.124        1979.029          43.000  
G10  19505755.982   102503436.016        1030.756          50.000    19505744.151    79872763.443         803.088          43.000  
G28  22017911.820   115704924.133        2576.938          39.000    22017902.096    90159662.309        2008.119          43.000  
C23  20725163.505   107921362.576         248.197          50.000                                                                  
C09  36831369.604   191790611.648         276.576          40.000    36831358.160   148304613.747         213.638          47.000  
C33  26133810.299                       -2932.802          30.000                                                                  
C37  22851225.418   118992342.051        2679.453          44.000                                                                  
> 2025 10 27 02 51 08.5160000  0 19                     
G12  20745547.658   109018590.408         859.341          45.000    20745535.957    84949504.461         669.546          43.000  
G15  23268708.566                       -3256.034          34.000    23268705.137    95281449.763       -2537.478          32.000  
G18  23600510.979   124021504.655       -3679.073          35.000    23600506.365    96640095.807       -2866.690          37.000  
G23  19271567.642   101272765.728       -2099.627          46.000    19271555.937    78913768.651       -1636.041          47.000  
G24  20959588.464                       -3373.606          28.000    20959578.805    85825921.394       -2629.465          32.000  
G32  20890055.086   109777981.035        1500.198          46.000    20890044.664    85541229.313        1168.985          41.000  
C08  34712974.402   180759562.713        -343.848          46.000    34712957.391   139774680.784        -265.845          49.000  
C13  34712270.013   180755894.172         -46.637          47.000    34712260.745   139771876.888         -36.255          48.000  
C16  35671889.798   185752891.129          -1.404          47.000    35671880.734   143635878.297          -1.041          48.000  
C25  22274924.328   115991387.267       -2558.328          35.000                                                                  
C32  21045158.463   109587665.646         866.676          50.000                                                                  
C06  35363704.956   184148091.764         177.660          44.000    35363689.049   142394921.674         137.405          47.000  
G25  20478939.166   107617566.392        2539.748          41.000    20478931.518    83857801.950        1979.259          43.000  
G10  19505748.124   102503394.776        1030.908          50.000    19505736.308    79872731.305         803.357          43.000  
G28  22017892.208   115704821.049        2577.032          39.000    22017882.482    90159581.973        2008.342          42.000  
C23  20725161.606   107921352.645         248.228          50.000                                                                  
C09  36831367.503   191790600.604         276.230          40.000    36831356.010   148304605.201         213.620          47.000  
C33  26133832.814                       -2932.029          30.000                                                                  
C37  22851204.818   118992234.870        2679.431          44.000                                                                  
> 2025 10 27 02 51 08.5560000  0 19                     
G12  20745541.108   109018556.029         859.403          45.000    20745529.413    84949477.672         669.619          43.000  
G15  23268733.353                       -3256.743          34.000    23268729.940    95281551.291       -2538.024          32.000  
G18  23600538.997   124021651.820       -3679.109          35.000    23600534.365    96640210.487       -2866.894          37.000  
G23  19271583.623   101272849.713       -2099.653          46.000    19271571.919    78913834.100       -1636.158          47.000  
G24  20959614.176                       -3373.721          28.000    20959604.487                       -2629.706          32.000  
G32  20890043.676   109777921.031        1500.114          46.000    20890033.248    85541182.554        1168.966          41.000  
C08  34712977.052   180759576.463        -343.732          46.000    34712960.016   139774691.420        -265.857          49.000  
C13  34712270.376   180755896.046         -46.747          47.000    34712261.115   139771878.339         -36.310          48.000  
C16  35671889.787   185752891.188          -1.410          47.000    35671880.778   143635878.347          -1.171          48.000  
C25  22274943.972   115991489.607       -2558.431          35.000                                                                  
C32  21045151.813   109587630.979         866.710          50.000                                                                  
C06  35363703.573   184148084.655         177.677          44.000    35363687.670   142394916.176         137.417          47.000  
G25  20478919.839   107617464.806        2539.688          41.000    20478912.195    83857722.791        1979.089          43.000  
G10  19505740.259   102503353.536        1030.981          50.000    19505728.448    79872699.166         803.491          43.000  
G28  22017872.580   115704717.960        2577.213          39.000    22017862.878    90159501.651        2008.191          43.000  
C23  20725159.703   107921342.714         248.253          50.000                                                                  
C09  36831365.383   191790589.551         276.129          40.000    36831353.885   148304596.646         213.764          47.000  
C33  26133855.338                       -2931.457          30.000                                                                  
C37  22851184.237   118992127.678        2679.635          44.000                                                                  
> 2025 10 27 02 51 08.5960000  0 19                     
G12  20745534.557   109018521.647         859.487          45.000    20745522.869    84949450.891         669.521          43.000  
G15  23268758.145   122278140.860       -3256.515          34.000    23268754.748    95281652.787       -2537.717          32.000  
G18  23600566.995   124021798.979       -3679.013          35.000    23600562.356    96640325.149       -2866.745          36.000  
G23  19271599.630   101272933.707       -2099.782          46.000    19271587.876    78913899.549       -1636.245          47.000  
G24  20959639.884                       -3373.797          28.000    20959630.155                       -2628.948          32.000  
G32  20890032.234   109777861.018        1500.204          46.000    20890021.840    85541135.787        1169.150          41.000  
C08  34712979.675   180759590.205        -343.591          46.000    34712962.635   139774702.055        -265.875          49.000  
C13  34712270.742   180755897.922         -46.875          47.000    34712261.488   139771879.780         -36.139          48.000  
C16  35671889.808   185752891.242          -1.356          47.000    35671880.784   143635878.393          -1.199          48.000  
C25  22274963.653   115991591.915       -2557.788          35.000                                                                  
C32  21045145.130   109587596.319         866.605          50.000                                                                  
C06  35363702.242   184148077.531         177.972          44.000    35363686.333   142394910.679         137.417          47.000  
G25  20478900.527   107617363.218        2539.745          41.000    20478892.862    83857643.627        1979.064          43.000  
G10  19505732.425   102503312.302        1030.884          50.000    19505720.596    79872667.034         803.363          43.000  
G28  22017852.962   115704614.879        2577.156          39.000    22017843.270    90159421.327        2008.109          43.000  
C23  20725157.753   107921332.785         248.234          50.000                                                                  
C09  36831363.247   191790578.491         276.315          40.000    36831351.761   148304588.093         213.820          47.000  
C33  26133877.841                       -2931.007          30.000                                                                  
C37  22851163.626   118992020.497        2679.583          44.000                                                                  
> 2025 10 27 02 51 08.6360000  0 19                     
G12  20745528.029   109018487.279         859.291          45.000    20745516.327    84949424.091         669.829          43.000  
G15  23268782.917                       -3256.443          33.000    23268779.559    95281754.327       -2538.259          32.000  
G18  23600595.010   124021946.105       -3678.474          35.000    23600590.376    96640439.839       -2867.102          36.000  
G23  19271615.603   101273017.700       -2099.862          46.000    19271603.859    78913964.996       -1636.250          47.000  
G24  20959665.573                       -3373.581          28.000    20959655.833                       -2628.523          32.000  
G32  20890020.804   109777801.008        1500.217          46.000    20890010.431    85541089.030        1169.022          41.000  
C08  34712982.324   180759603.964        -343.854          46.000    34712965.306   139774712.690        -265.887          49.000  
C13  34712271.094   180755899.794         -46.881          47.000    34712261.834   139771881.226         -36.157          48.000  
C16  35671889.810   185752891.306          -1.503          47.000    35671880.795   143635878.438          -1.198          48.000  
C25  22274983.302   115991694.240       -2557.889          35.000                                                                  
C32  21045138.447   109587561.657         866.541          50.000                                                                  
C06  35363700.921   184148070.419         177.897          44.000    35363684.986   142394905.182         137.404          47.000  
G25  20478881.212   107617261.620        2539.889          41.000    20478873.527    83857564.464        1979.019          43.000  
G10  19505724.587   102503271.070        1030.811          50.000    19505712.729    79872634.900         803.357          43.000  
G28  22017833.341   115704511.800        2577.043          39.000    22017823.632    90159340.998        2008.185          43.000  
C23  20725155.840   107921322.857         248.194          50.000                                                                  
C09  36831361.117   191790567.426         276.575          40.000    36831349.618   148304579.540         213.812          47.000  
C33  26133900.384                       -2931.223          30.000                                                                  
C37  22851143.042   118991913.316        2679.570          44.000                                                                  
> 2025 10 27 02 51 08.6760000  0 19                     
G12  20745521.495   109018452.906         859.268          45.000    20745509.787    84949397.311         669.608          43.000  
G15  23268807.700   122278401.388       -3256.577          33.000    23268804.353    95281855.847       -2538.251          32.000  
G18  23600623.023   124022093.291       -3679.224          35.000    23600618.380    96640554.500       -2866.797          37.000  
G23  19271631.593   101273101.692       -2099.855          46.000    19271619.845    78914030.439       -1636.158          47.000  
G24  20959691.256                       -3373.639          28.000    20959681.511                       -2628.789          32.000  
G32  20890009.391   109777740.995        1500.295          46.000    20889999.005    85541042.268        1169.029          41.000  
C08  34712984.989   180759617.720        -343.903          46.000    34712967.955   139774723.323        -265.845          49.000  
C13  34712271.445   180755901.661         -46.771          47.000    34712262.210   139771882.672         -36.176          48.000  
C16  35671889.839   185752891.359          -1.390          47.000    35671880.795   143635878.485          -1.216          48.000  
C25  22275002.977   115991796.578       -2558.210          35.000                                                                  
C32  21045131.783   109587526.998         866.466          50.000                                                                  
C06  35363699.580   184148063.315         177.692          44.000    35363683.660   142394899.684         137.411          47.000  
G25  20478861.872   107617160.017        2540.041          41.000    20478854.191    83857485.306        1978.900          43.000  
G10  19505716.727   102503229.832        1030.878          50.000    19505704.892    79872602.766         803.339          43.000  
G28  22017813.721   115704408.710        2577.187          39.000    22017804.020    90159260.674        2008.123          43.000  
C23  20725153.918   107921312.929         248.209          50.000                                                                  
C09  36831358.980   191790556.377         276.377          40.000    36831347.494   148304570.989         213.774          47.000  
C33  26133922.941                       -2931.621          30.000                                                                  
C37  22851122.454   118991806.127        2679.648          44.000                                                                  
> 2025 10 27 02 51 08.7160000  0 19                     
G12  20745514.952   109018418.531         859.304          45.000    20745503.247    84949370.524         669.637          43.000  
G15  23268832.497                       -3257.289          33.000    23268829.181    95281957.337       -2537.670          32.000  
G18  23600651.038   124022240.465       -3679.364          35.000    23600646.389    96640669.183       -2867.027          37.000  
G23  19271647.573   101273185.684       -2099.861          46.000    19271635.814    78914095.882       -1636.102          47.000  
G24  20959716.918                       -3373.436          28.000    20959707.188    85826447.139       -2628.909          32.000  
G32  20889997.973   109777680.982        1500.346          46.000    20889987.589    85540995.501        1169.140          41.000  
C08  34712987.626   180759631.475        -343.909          46.000    34712970.570   139774733.957        -265.869          49.000  
C13  34712271.788   180755903.529         -46.716          47.000    34712262.580   139771884.118         -36.200          48.000  
C16  35671889.830   185752891.422          -1.522          47.000    35671880.830   143635878.526          -1.076          48.000  
C25  22275022.647   115991898.931       -2558.685          35.000                                                                  
C32  21045125.157   109587492.337         866.454          50.000                                                                  
C06  35363698.234   184148056.202         177.745          44.000    35363682.336   142394894.184         137.441          47.000  
G25  20478842.542   107617058.430        2539.817          41.000    20478834.884    83857406.147        1978.844          43.000  
G10  19505708.888   102503188.599        1030.823          50.000    19505697.035    79872570.643         803.149          43.000  
G28  22017794.111   115704305.620        2577.299          39.000    22017784.404    90159180.349        2008.110          42.000  
C23  20725152.012   107921303.002         248.170          50.000                                                                  
C09  36831356.850   191790545.307         276.661          40.000    36831345.369   148304562.435         213.799          47.000  
C33  26133945.407                       -2932.848          30.000                                                                  
C37  22851101.846   118991698.936        2679.737          44.000                                                                  
> 2025 10 27 02 51 08.7560000  0 19                     
G12  20745508.406   109018384.157         859.324          45.000    20745496.707    84949343.742         669.533          43.000  
G15  23268857.311                       -3256.978          33.000    23268853.950    95282058.822       -2537.125          32.000  
G18  23600679.035   124022387.601       -3678.644          35.000    23600674.387    96640783.849       -2866.862          36.000  
G23  19271663.563   101273269.675       -2099.811          46.000    19271651.794    78914161.335       -1636.281          47.000  
G24  20959742.600                       -3373.566          28.000    20959732.876    85826552.268       -2628.465          32.000  
G32  20889986.554   109777620.968        1500.356          46.000    20889976.148    85540948.742        1169.025          41.000  
C08  34712990.287   180759645.229        -343.878          46.000    34712973.185   139774744.595        -265.942          49.000  
C13  34712272.113   180755905.402         -46.796          47.000    34712262.955   139771885.566         -36.237          48.000  
C16  35671889.868   185752891.486          -1.611          47.000    35671880.836   143635878.579          -1.269          48.000  
C25  22275042.284   115992001.260       -2558.467          35.000                                                                  
C32  21045118.478   109587457.680         866.398          50.000                                                                  
C06  35363696.868   184148049.097         177.671          44.000    35363680.962   142394888.688         137.395          47.000  
G25  20478823.221   107616956.848        2539.591          41.000    20478815.531    83857326.987        1978.876          43.000  
G10  19505701.038   102503147.370        1030.719          50.000    19505689.184    79872538.517         803.076          43.000  
G28  22017774.503   115704202.547        2576.941          39.000    22017764.780    90159100.025        2008.079          42.000  
C23  20725150.099   107921293.079         248.080          50.000                                                                  
C09  36831354.747   191790534.252         276.539          40.000    36831343.251   148304553.890         213.654          47.000  
C33  26133967.913                       -2934.063          30.000                                                                  
C37  22851081.248   118991591.740        2679.895          44.000                                                                  
> 2025 10 27 02 51 08.7960000  0 19                     
G12  20745501.888   109018349.795         859.110          45.000    20745490.167    84949316.966         669.366          43.000  
G15  23268882.093                       -3257.450          33.000    23268878.743    95282160.324       -2537.206          32.000  
G18  23600707.037   124022534.768       -3678.992          35.000    23600702.402    96640898.516       -2866.718          36.000  
G23  19271679.533   101273353.666       -2099.817          46.000    19271667.776    78914226.783       -1636.269          47.000  
G24  20959768.262                       -3373.995          28.000    20959758.564    85826657.445       -2629.189          32.000  
G32  20889975.129   109777560.967        1500.107          46.000    20889964.728    85540901.980        1169.027          41.000  
C08  34712992.905   180759658.985        -343.915          46.000    34712975.813   139774755.230        -265.967          49.000  
C13  34712272.439   180755907.277         -46.875          47.000    34712263.304   139771887.019         -36.334          48.000  
C16  35671889.901   185752891.546          -1.563          47.000    35671880.864   143635878.625          -1.234          48.000  
C25  22275061.940   115992103.625       -2558.990          35.000                                                                  
C32  21045111.851   109587423.016         866.489          50.000                                                                  
C06  35363695.484   184148041.987         177.664          44.000    35363679.606   142394883.195         137.317          47.000  
G25  20478803.886   107616855.270        2539.429          40.000    20478796.195    83857247.837        1978.715          43.000  
G10  19505693.214   102503106.144        1030.591          50.000    19505681.341    79872506.395         802.985          43.000  
G28  22017754.886   115704099.474        2576.737          39.000    22017745.166    90159019.705        2007.979          42.000  
C23  20725148.153   107921283.162         247.914          50.000                                                                  
C09  36831352.627   191790523.198         276.412          40.000    36831341.142   148304545.343         213.643          47.000  
C33  26133990.447                       -2933.807          30.000                                                                  
C37  22851060.662   118991484.561        2679.634          44.000                                                                  
> 2025 10 27 02 51 08.8360000  0 19                     
G12  20745495.332   109018315.430         859.036          45.000    20745483.618    84949290.189         669.354          43.000  
G15  23268906.864                       -3256.243          33.000    23268903.500    95282261.815       -2537.297          32.000  
G18  23600735.040   124022681.957       -3679.581          35.000    23600730.398    96641013.169       -2866.436          36.000  
G23  19271695.538   101273437.668       -2099.990          46.000    19271683.763    78914292.241       -1636.441          47.000  
G24  20959793.920                       -3373.928          28.000    20959784.246    85826762.597       -2629.126          32.000  
G32  20889963.722   109777500.963        1500.055          46.000    20889953.320    85540855.228        1168.799          41.000  
C08  34712995.539   180759672.743        -343.958          46.000    34712978.444   139774765.871        -266.058          49.000  
C13  34712272.794   180755909.157         -46.997          47.000    34712263.673   139771888.468         -36.310          48.000  
C16  35671889.893   185752891.618          -1.770          47.000    35671880.845   143635878.675          -1.257          48.000  
C25  22275081.624   115992205.963       -2558.711          35.000                                                                  
C32  21045105.149   109587388.359         866.418          50.000                                                                  
C06  35363694.145   184148034.883         177.593          44.000    35363678.255   142394877.698         137.345          47.000  
G25  20478784.540   107616753.682        2539.556          40.000    20478776.855    83857168.682        1978.774          43.000  
G10  19505685.365   102503064.920        1030.518          50.000    19505673.487    79872474.275         802.917          43.000  
G28  22017735.273   115703996.394        2576.821          39.000    22017725.549    90158939.376        2008.105          42.000  
C23  20725146.256   107921273.240         247.946          50.000                                                                  
C09  36831350.525   191790512.152         276.213          40.000    36831339.020   148304536.802         213.539          47.000  
C33  26134012.962                       -2931.819          30.000                                                                  
C37  22851040.077   118991377.385        2679.430          44.000                                                                  
> 2025 10 27 02 51 08.8760000  0 19                     
G12  20745488.793   109018281.065         859.048          45.000    20745477.091    84949263.411         669.332          43.000  
G15  23268931.639                       -3255.847          33.000    23268928.330    95282363.319       -2537.580          32.000  
G18  23600763.071   124022829.122       -3679.372          35.000    23600758.405    96641127.862       -2866.962          36.000  
G23  19271711.513   101273521.666       -2100.020          46.000    19271699.739    78914357.692       -1636.391          47.000  
G24  20959819.607                       -3374.073          28.000    20959809.925    85826867.805       -2630.050          32.000  
G32  20889952.302   109777440.963        1499.968          46.000    20889941.897    85540808.474        1168.752          41.000  
C08  34712998.179   180759686.497        -343.903          46.000    34712981.090   139774776.513        -266.101          49.000  
C13  34712273.124   180755911.028         -46.875          47.000    34712264.064   139771889.914         -36.212          48.000  
C16  35671889.868   185752891.680          -1.680          47.000    35671880.855   143635878.732          -1.359          48.000  
C25  22275101.275   115992308.290       -2558.310          35.000                                                                  
C32  21045098.497   109587353.700         866.446          50.000                                                                  
C06  35363692.761   184148027.780         177.523          44.000    35363676.894   142394872.203         137.347          47.000  
G25  20478765.227   107616652.097        2539.627          40.000    20478757.525    83857089.530        1978.750          43.000  
G10  19505677.515   102503023.693        1030.542          50.000    19505665.641    79872442.149         803.052          43.000  
G28  22017715.667   115703893.314        2576.896          39.000    22017705.929    90158859.059        2007.949          42.000  
C23  20725144.368   107921263.323         247.923          50.000                                                                  
C09  36831348.408   191790501.106         276.135          40.000    36831336.918   148304528.253         213.660          47.000  
C33  26134035.437                       -2931.219          30.000                                                                  
C37  22851019.477   118991270.216        2679.221          44.000                                                                  
> 2025 10 27 02 51 08.9160000  0 19                     
G12  20745482.235   109018246.691         859.218          45.000    20745470.529    84949236.634         669.347          43.000  
G15  23268956.413                       -3256.181          33.000    23268953.135    95282464.863       -2538.345          32.000  
G18  23600791.080   124022976.262       -3678.732          35.000    23600786.390    96641242.527       -2866.822          36.000  
G23  19271727.490   101273605.658       -2099.878          46.000    19271715.722    78914423.138       -1636.243          47.000  
G24  20959845.289                       -3373.698          28.000    20959835.612    85826972.932       -2628.915          31.000  
G32  20889940.883   109777380.946        1500.230          46.000    20889930.457    85540761.719        1168.770          41.000  
C08  34713000.847   180759700.246        -343.781          46.000    34712983.739   139774787.146        -265.930          49.000  
C13  34712273.497   180755912.893         -46.710          47.000    34712264.412   139771891.361         -36.169          48.000  
C16  35671889.906   185752891.739          -1.547          47.000    35671880.872   143635878.771          -1.121          48.000  
C25  22275120.908   115992410.607       -2557.942          35.000                                                                  
C32  21045091.869   109587319.036         866.523          50.000                                                                  
C06  35363691.391   184148020.670         177.682          44.000    35363675.510   142394866.705         137.388          47.000  
G25  20478745.886   107616550.495        2540.001          40.000    20478738.161    83857010.348        1979.323          43.000  
G10  19505669.653   102502982.464        1030.646          50.000    19505657.785    79872410.009         803.369          43.000  
G28  22017696.044   115703790.227        2577.045          39.000    22017686.336    90158778.744        2007.863          43.000  
C23  20725142.479   107921253.397         248.028          50.000                                                                  
C09  36831346.280   191790490.035         276.526          40.000    36831334.788   148304519.699         213.810          47.000  
C33  26134057.976                       -2931.576          30.000                                                                  
C37  22850998.905   118991163.021        2679.628          44.000                                                                  
> 2025 10 27 02 51 08.9560000  0 19                     
G12  20745475.699   109018212.324         859.197          45.000    20745463.992    84949209.851         669.464          42.000  
G15  23268981.220                       -3257.506          33.000    23268977.935    95282566.360       -2537.883          32.000  
G18  23600819.079   124023123.418       -3678.775          35.000    23600814.390    96641357.199       -2866.884          36.000  
G23  19271743.458   101273689.654       -2099.909          46.000    19271731.706    78914488.588       -1636.261          47.000  
G24  20959870.947                       -3373.730          28.000    20959861.293    85827078.052       -2628.115          31.000  
G32  20889929.464   109777320.939        1500.201          46.000    20889919.023    85540714.954        1168.971          41.000  
C08  34713003.489   180759714.001        -343.854          46.000    34712986.410   139774797.779        -265.857          49.000  
C13  34712273.831   180755914.764         -46.759          47.000    34712264.788   139771892.808         -36.169          48.000  
C16  35671889.939   185752891.796          -1.452          47.000    35671880.877   143635878.824          -1.250          48.000  
C25  22275140.559   115992512.938       -2558.111          35.000                                                                  
C32  21045085.205   109587284.379         866.457          50.000                                                                  
C06  35363690.018   184148013.555         177.776          44.000    35363674.140   142394861.204         137.487          47.000  
G25  20478726.542   107616448.907        2539.840          40.000    20478718.832    83856931.195        1979.039          43.000  
G10  19505661.803   102502941.236        1030.670          50.000    19505649.959    79872377.890         803.131          43.000  
G28  22017676.423   115703687.147        2577.020          39.000    22017666.708    90158698.420        2007.995          43.000  
C23  20725140.558   107921243.473         248.085          50.000                                                                  
C09  36831344.109   191790478.977         276.522          40.000    36831332.632   148304511.149         213.789          47.000  
C33  26134080.490                       -2931.903          30.000                                                                  
C37  22850978.302   118991055.841        2679.582          44.000                                                                  
> 2025 10 27 02 51 08.9960000  0 19                     
G12  20745469.142   109018177.953         859.213          45.000    20745457.467    84949183.074         669.423          42.000  
G15  23269005.997                       -3257.411          33.000    23269002.757    95282667.885       -2538.048          32.000  
G18  23600847.073   124023270.570       -3678.724          35.000    23600842.396    96641471.872       -2866.920          36.000  
G23  19271759.418   101273773.649       -2099.897          46.000    19271747.675    78914554.042       -1636.335          47.000  
G24  20959896.627                       -3373.989          28.000    20959886.978    85827183.233       -2628.799          31.000  
G32  20889918.055   109777260.932        1500.193          46.000    20889907.619    85540668.195        1168.948          41.000  
C08  34713006.136   180759727.759        -343.909          46.000    34712989.068   139774808.417        -265.930          49.000  
C13  34712274.188   180755916.640         -46.887          47.000    34712265.132   139771894.257         -36.206          48.000  
C16  35671889.973   185752891.856          -1.448          47.000    35671880.895   143635878.870          -1.219          48.000  
C25  22275160.197   115992615.260       -2557.950          35.000                                                                  
C32  21045078.529   109587249.726         866.336          50.000                                                                  
C06  35363688.635   184148006.455         177.588          44.000    35363672.770   142394855.714         137.324          47.000  
G25  20478707.219   107616347.331        2539.546          40.000    20478699.505    83856852.040        1978.935          43.000  
G10  19505653.984   102502900.008        1030.707          50.000    19505642.132    79872345.767         803.040          43.000  
G28  22017656.816   115703584.068        2576.950          39.000    22017647.077    90158618.094        2008.075          42.000  
C23  20725138.634   107921233.556         247.947          50.000                                                                  
C09  36831341.983   191790467.929         276.308          40.000    36831330.491   148304502.601         213.738          47.000  
C33  26134103.001                       -2933.109          30.000                                                                  
C37  22850957.736   118990948.657        2679.569          44.000                                                                  
> 2025 10 27 02 51 09.0360000  0 19                     
G12  20745462.640   109018143.593         859.031          45.000    20745450.935    84949156.292         669.460          42.000  
G15  23269030.834                       -3256.798          33.000    23269027.543    95282769.381       -2537.692          32.000  
G18  23600875.088   124023417.775       -3679.674          35.000    23600870.415    96641586.541       -2866.832          36.000  
G23  19271775.427   101273857.654       -2100.069          46.000    19271763.680    78914619.494       -1636.310          47.000  
G24  20959922.313                       -3373.812          28.000    20959912.667    85827288.396       -2629.065          31.000  
G32  20889906.621   109777200.926        1500.154          46.000    20889896.204    85540621.433        1169.007          41.000  
C08  34713008.742   180759741.520        -344.037          46.000    34712991.719   139774819.055        -265.979          49.000  
C13  34712274.538   180755918.518         -46.985          47.000    34712265.474   139771895.707         -36.237          48.000  
C16  35671889.939   185752891.926          -1.674          47.000    35671880.899   143635878.914          -1.155          48.000  
C25  22275179.862   115992717.617       -2558.629          35.000                                                                  
C32  21045071.894   109587215.068         866.364          50.000                                                                  
C06  35363687.273   184147999.346         177.637          44.000    35363671.401   142394850.216         137.372          47.000  
G25  20478687.896   107616245.757        2539.343          41.000    20478680.151    83856772.891        1978.761          43.000  
G10  19505646.159   102502858.787        1030.560          50.000    19505634.275    79872313.645         802.954          43.000  
G28  22017637.222   115703481.013        2576.523          39.000    22017627.462    90158537.773        2008.044          42.000  
C23  20725136.733   107921223.641         247.858          50.000                                                                  
C09  36831339.878   191790456.874         276.347          40.000    36831328.371   148304494.057         213.625          47.000  
C33  26134125.498                       -2932.643          30.000                                                                  
C37  22850937.145   118990841.475        2679.549          44.000                                                                  
> 2025 10 27 02 51 09.0760000  0 19                     
G12  20745456.095   109018109.245         858.752          45.000    20745444.409    84949129.527         669.188          42.000  
G15  23269055.622                       -3256.345          33.000    23269052.338    95282870.902       -2538.002          32.000  
G18  23600903.088   124023564.929       -3679.345          35.000    23600898.406    96641701.197       -2866.545          36.000  
G23  19271791.388   101273941.656       -2100.112          46.000    19271779.655    78914684.951       -1636.422          47.000  
G24  20959948.014                       -3374.052          28.000    20959938.336    85827393.554       -2629.141          31.000  
G32  20889895.212   109777140.914        1500.233          46.000    20889884.782    85540574.679        1168.881          41.000  
C08  34713011.394   180759755.285        -344.135          46.000    34712994.348   139774829.695        -266.034          49.000  
C13  34712274.918   180755920.393         -46.960          47.000    34712265.833   139771897.151         -36.182          48.000  
C16  35671889.953   185752891.990          -1.676          47.000    35671880.893   143635878.965          -1.288          48.000  
C25  22275199.513   115992819.979       -2559.040          35.000                                                                  
C32  21045065.266   109587180.415         866.314          50.000                                                                  
C06  35363685.891   184147992.245         177.531          44.000    35363670.032   142394844.727         137.255          47.000  
G25  20478668.585   107616144.175        2539.437          41.000    20478660.818    83856693.734        1978.840          43.000  
G10  19505638.321   102502817.562        1030.566          50.000    19505626.454    79872281.528         802.875          43.000  
G28  22017617.607   115703377.922        2576.986          39.000    22017607.849    90158457.452        2008.018          42.000  
C23  20725134.788   107921213.734         247.681          50.000                                                                  
C09  36831337.747   191790445.816         276.443          39.000    36831326.212   148304485.516         213.480          47.000  
C33  26134148.029                       -2932.311          30.000                                                                  
C37  22850916.592   118990734.298        2679.463          44.000                                                                  
> 2025 10 27 02 51 09.1160000  0 19                     
G12  20745449.550   109018074.887         858.787          45.000    20745437.859    84949102.747         669.329          42.000  
G15  23269080.423   122279834.355       -3256.462          33.000    23269077.150    95282972.385       -2537.542          32.000  
G18  23600931.084   124023712.082       -3679.061          35.000    23600926.411    96641815.878       -2866.796          36.000  
G23  19271807.385   101274025.662       -2100.191          46.000    19271795.642    78914750.410       -1636.526          47.000  
G24  20959973.663                       -3373.556          28.000    20959964.036    85827498.689       -2628.551          31.000  
G32  20889883.773   109777080.906        1500.240          46.000    20889873.379    85540527.917        1168.927          41.000  
C08  34713014.030   180759769.038        -343.958          46.000    34712996.980   139774840.336        -266.083          49.000  
C13  34712275.277   180755922.264         -46.844          47.000    34712266.223   139771898.607         -36.346          48.000  
C16  35671889.984   185752892.057          -1.713          47.000    35671880.889   143635879.013          -1.258          48.000  
C25  22275219.164   115992922.294       -2558.360          35.000                                                                  
C32  21045058.607   109587145.757         866.380          50.000                                                                  
C06  35363684.529   184147985.140         177.556          44.000    35363668.673   142394839.235         137.238          47.000  
G25  20478649.262   107616042.599        2539.368          41.000    20478641.516    83856614.587        1978.662          43.000  
G10  19505630.490   102502776.337        1030.560          50.000    19505618.622    79872249.406         802.960          43.000  
G28  22017597.982   115703274.847        2576.904          39.000    22017588.251    90158377.129        2008.006          42.000  
C23  20725132.887   107921203.819         247.759          50.000                                                                  
C09  36831335.615   191790434.762         276.417          39.000    36831324.082   148304476.961         213.684          47.000  
C33  26134170.608                       -2931.955          30.000                                                                  
C37  22850895.994   118990627.116        2679.523          44.000                                                                  
> 2025 10 27 02 51 09.1560000  0 19                     
G12  20745443.007   109018040.513         859.141          45.000    20745431.308    84949075.958         669.569          42.000  
G15  23269105.231   122279964.644       -3256.896          33.000    23269101.958    95283073.943       -2538.583          32.000  
G18  23600959.077   124023859.221       -3678.514          35.000    23600954.409    96641930.528       -2866.396          36.000  
G23  19271823.358   101274109.658       -2100.018          46.000    19271811.633    78914815.866       -1636.482          47.000  
G24  20959999.366                       -3374.078          28.000    20959989.727    85827603.866       -2629.107          31.000  
G32  20889872.356   109777020.905        1500.116          46.000    20889861.939    85540481.159        1168.888          41.000  
C08  34713016.651   180759782.785        -343.738          46.000    34712999.612   139774850.969        -265.936          49.000  
C13  34712275.637   180755924.132         -46.698          47.000    34712266.583   139771900.053         -36.224          48.000  
C16  35671890.002   185752892.112          -1.509          47.000    35671880.909   143635879.068          -1.340          48.000  
C25  22275238.818   115993024.640       -2558.471          35.000                                                                  
C32  21045051.986   109587111.101         866.386          50.000                                                                  
C06  35363683.178   184147978.026         177.762          44.000    35363667.286   142394833.736         137.360          47.000  
G25  20478629.944   107615941.007        2539.634          40.000    20478622.185    83856535.437        1978.695          43.000  
G10  19505622.649   102502735.114        1030.554          50.000    19505610.777    79872217.283         803.052          43.000  
G28  22017578.356   115703171.759        2577.146          39.000    22017568.640    90158296.816        2007.825          42.000  
C23  20725131.039   107921193.892         248.039          50.000                                                                  
C09  36831333.502   191790423.704         276.428          39.000    36831321.938   148304468.411         213.759          47.000  
C33  26134193.145                       -2932.268          30.000                                                                  
C37  22850875.440   118990519.936        2679.536          44.000                                                                  
> 2025 10 27 02 51 09.1960000  0 19                     
G12  20745436.461   109018006.141         859.317          45.000    20745424.778    84949049.187         669.376          42.000  
G15  23269129.995   122280094.895       -3256.523          33.000    23269126.734    95283175.410       -2537.535          32.000  
G18  23600987.076   124024006.369       -3678.562          35.000    23600982.415    96642045.211       -2866.770          36.000  
G23  19271839.333   101274193.655       -2099.963          46.000    19271827.620    78914881.320       -1636.408          47.000  
G24  20960025.016                       -3374.052          28.000    20960015.419    85827709.022       -2629.001          32.000  
G32  20889860.943   109776960.892        1500.248          46.000    20889850.535    85540434.401        1168.877          41.000  
C08  34713019.303   180759796.538        -343.756          46.000    34713002.276   139774861.602        -265.839          49.000  
C13  34712275.997   180755926.001         -46.680          47.000    34712266.943   139771901.499         -36.169          48.000  
C16  35671890.027   185752892.161          -1.299          47.000    35671880.918   143635879.104          -1.092          48.000  
C25  22275258.463   115993126.969       -2558.250          35.000                                                                  
C32  21045045.371   109587076.437         866.513          50.000                                                                  
C06  35363681.818   184147970.915         177.817          44.000    35363665.921   142394828.238         137.416          47.000  
G25  20478610.614   107615839.411        2539.877          41.000    20478602.864    83856456.277        1978.874          43.000  
G10  19505614.775   102502693.887        1030.615          50.000    19505602.927    79872185.148         803.290          43.000  
G28  22017558.734   115703068.661        2577.380          39.000    22017549.001    90158216.494        2007.920          42.000  
C23  20725129.147   107921183.966         248.150          50.000                                                                  
C09  36831331.386   191790412.650         276.370          39.000    36831319.818   148304459.854         213.896          47.000  
C33  26134215.640                       -2932.007          30.000                                                                  
C37  22850854.871   118990412.749        2679.590          44.000                                                                  
> 2025 10 27 02 51 09.2360000  0 19                     
G12  20745429.942   109017971.777         859.206          45.000    20745418.235    84949022.407         669.384          42.000  
G15  23269154.796   122280225.159       -3256.509          33.000    23269151.522    95283276.941       -2537.998          32.000  
G18  23601015.058   124024153.556       -3679.260          35.000    23601010.415    96642159.899       -2867.127          36.000  
G23  19271855.329   101274277.655       -2099.969          46.000    19271843.611    78914946.774       -1636.359          47.000  
G24  20960050.714                       -3373.957          28.000    20960041.109    85827814.139       -2628.185          32.000  
G32  20889849.513   109776900.875        1500.407          46.000    20889839.113    85540387.622        1169.293          41.000  
C08  34713021.970   180759810.296        -343.890          46.000    34713004.978   139774872.235        -265.808          49.000  
C13  34712276.381   180755927.873         -46.753          47.000    34712267.279   139771902.941         -36.072          48.000  
C16  35671890.037   185752892.224          -1.434          47.000    35671880.930   143635879.153          -1.168          48.000  
C25  22275278.116   115993229.300       -2558.295          35.000                                                                  
C32  21045038.697   109587041.780         866.472          50.000                                                                  
C06  35363680.475   184147963.799         177.889          44.000    35363664.575   142394822.737         137.484          47.000  
G25  20478591.296   107615737.826        2539.770          41.000    20478583.531    83856377.112        1979.087          43.000  
G10  19505606.914   102502652.662        1030.597          50.000    19505595.058    79872153.028         803.107          43.000  
G28  22017539.111   115702965.574        2577.271          39.000    22017529.377    90158136.166        2008.139          42.000  
C23  20725127.196   107921174.049         248.048          50.000                                                                  
C09  36831329.250   191790401.589         276.466          39.000    36831317.665   148304451.302         213.895          47.000  
C33  26134238.138                       -2931.576          30.000                                                                  
C37  22850834.253   118990305.572        2679.484          44.000                                                                  
> 2025 10 27 02 51 09.2760000  0 19                     
G12  20745423.434   109017937.417         859.075          45.000    20745411.705    84948995.645         669.141          42.000  
G15  23269179.600   122280355.395       -3256.005          33.000    23269176.296    95283378.425       -2537.505          32.000  
G18  23601043.092   124024300.708       -3679.056          35.000    23601038.401    96642274.546       -2866.627          36.000  
G23  19271871.318   101274361.656       -2100.038          46.000    19271859.586    78915012.226       -1636.328          47.000  
G24  20960076.396                       -3373.588          28.000    20960066.793    85827919.317       -2628.823          31.000  
G32  20889838.086   109776840.861        1500.415          46.000    20889827.707    85540340.860        1169.195          41.000  
C08  34713024.612   180759824.053        -343.933          46.000    34713007.630   139774882.874        -265.918          49.000  
C13  34712276.733   180755929.741         -46.710          47.000    34712267.649   139771904.384         -36.066          48.000  
C16  35671890.055   185752892.285          -1.488          47.000    35671880.986   143635879.200          -1.195          48.000  
C25  22275297.767   115993331.635       -2558.270          35.000                                                                  
C32  21045032.049   109587007.117         866.529          50.000                                                                  
C06  35363679.108   184147956.693         177.753          44.000    35363663.239   142394817.243         137.377          47.000  
G25  20478571.969   107615636.252        2539.444          41.000    20478564.212    83856297.961        1978.925          43.000  
G10  19505599.054   102502611.432        1030.701          50.000    19505587.227    79872120.903         803.094          43.000  
G28  22017519.524   115702862.510        2576.798          39.000    22017509.747    90158055.838        2008.256          42.000  
C23  20725125.268   107921164.135         247.890          50.000                                                                  
C09  36831327.130   191790390.533         276.440          40.000    36831315.551   148304442.758         213.679          47.000  
C33  26134260.630                       -2932.071          30.000                                                                  
C37  22850813.631   118990198.395        2679.434          44.000                                                                  
> 2025 10 27 02 51 09.3160000  0 19                     
G12  20745416.895   109017903.059         858.941          45.000    20745405.172    84948968.870         669.218          42.000  
G15  23269204.405   122280485.690       -3256.814          33.000    23269201.098    95283479.951       -2537.875          32.000  
G18  23601071.066   124024447.869       -3679.032          35.000    23601066.419    96642389.208       -2866.489          36.000  
G23  19271887.302   101274445.662       -2100.142          46.000    19271875.598    78915077.687       -1636.476          47.000  
G24  20960102.057                       -3373.248          28.000    20960092.472    85828024.473       -2628.757          31.000  
G32  20889826.688   109776780.854        1500.264          46.000    20889816.302    85540294.098        1169.101          41.000  
C08  34713027.221   180759837.807        -343.890          46.000    34713010.260   139774893.513        -265.979          49.000  
C13  34712277.107   180755931.610         -46.704          47.000    34712267.981   139771905.836         -36.267          48.000  
C16  35671890.063   185752892.350          -1.624          47.000    35671880.991   143635879.252          -1.279          48.000  
C25  22275317.419   115993433.964       -2558.158          35.000                                                                  
C32  21045025.396   109586972.459         866.483          50.000                                                                  
C06  35363677.749   184147949.581         177.745          44.000    35363661.885   142394811.741         137.462          47.000  
G25  20478552.633   107615534.669        2539.458          41.000    20478544.914    83856218.808        1978.824          43.000  
G10  19505591.211   102502570.212        1030.524          50.000    19505579.417    79872088.782         803.027          43.000  
G28  22017499.887   115702759.441        2576.652          39.000    22017490.126    90157975.516        2008.142          43.000  
C23  20725123.369   107921154.219         247.868          50.000                                                                  
C09  36831325.010   191790379.483         276.256          40.000    36831313.457   148304434.207         213.699          47.000  
C33  26134283.161                       -2932.062          30.000                                                                  
C37  22850793.032   118990091.213        2679.468          44.000                                                                  
> 2025 10 27 02 51 09.3560000  0 19                     
G12  20745410.361   109017868.708         858.784          45.000    20745398.627    84948942.095         669.318          42.000  
G15  23269229.182   122280615.969       -3257.024          33.000    23269225.864    95283581.466       -2537.953          32.000  
G18  23601099.086   124024595.022       -3678.910          35.000    23601094.431    96642503.866       -2866.384          37.000  
G23  19271903.284   101274529.668       -2100.197          46.000    19271891.595    78915143.146       -1636.525          47.000  
G24  20960127.765                       -3373.663          28.000    20960118.152    85828129.656       -2629.387          31.000  
G32  20889815.280   109776720.845        1500.232          46.000    20889804.873    85540247.346        1168.924          41.000  
C08  34713029.880   180759851.566        -343.976          46.000    34713012.886   139774904.150        -265.991          49.000  
C13  34712277.479   180755933.489         -46.918          47.000    34712268.332   139771907.287         -36.334          48.000  
C16  35671890.069   185752892.416          -1.701          47.000    35671881.028   143635879.295          -1.179          48.000  
C25  22275337.080   115993536.305       -2558.431          35.000                                                                  
C32  21045018.752   109586937.804         866.374          50.000                                                                  
C06  35363676.350   184147942.469         177.773          44.000    35363660.515   142394806.240         137.478          47.000  
G25  20478533.311   107615433.100        2539.189          41.000    20478525.575    83856139.654        1978.785          43.000  
G10  19505583.385   102502529.000        1030.304          50.000    19505571.590    79872056.669         802.844          43.000  
G28  22017480.271   115702656.385        2576.381          39.000    22017470.535    90157895.201        2007.911          42.000  
C23  20725121.435   107921144.310         247.762          50.000                                                                  
C09  36831322.884   191790368.426         276.347          40.000    36831311.365   148304425.663         213.585          47.000  
C33  26134305.676                       -2931.973          30.000                                                                  
C37  22850772.448   118989984.029        2679.540          44.000                                                                  
> 2025 10 27 02 51 09.3960000  0 19                     
G12  20745403.836   109017834.357         858.719          46.000    20745392.097    84948915.325         669.265          42.000  
G15  23269253.968   122280746.247       -3257.111          33.000    23269250.644    95283682.938       -2537.317          32.000  
G18  23601127.109   124024742.165       -3678.714          35.000    23601122.431    96642618.548       -2866.837          37.000  
G23  19271919.272   101274613.677       -2100.258          46.000    19271907.591    78915208.605       -1636.550          47.000  
G24  20960153.373                       -3373.456          28.000    20960143.834    85828234.804       -2629.141          31.000  
G32  20889803.861   109776660.841        1500.098          46.000    20889793.439    85540200.595        1168.804          41.000  
C08  34713032.522   180759865.329        -344.098          46.000    34713015.545   139774914.789        -266.003          49.000  
C13  34712277.842   180755935.367         -46.985          47.000    34712268.699   139771908.744         -36.444          48.000  
C16  35671890.079   185752892.481          -1.695          47.000    35671881.036   143635879.347          -1.270          48.000  
C25  22275356.735   115993638.668       -2558.904          35.000                                                                  
C32  21045012.086   109586903.152         866.273          50.000                                                                  
C06  35363674.977   184147935.359         177.720          44.000    35363659.137   142394800.753         137.262          47.000  
G25  20478513.988   107615331.526        2539.174          41.000    20478506.265    83856060.511        1978.599          43.000  
G10  19505575.554   102502487.789        1030.188          50.000    19505563.732    79872024.561         802.661          43.000  
G28  22017460.653   115702553.300        2576.840          39.000    22017450.931    90157814.890        2007.725          42.000  
C23  20725119.507   107921134.403         247.656          50.000                                                                  
C09  36831320.772   191790357.377         276.221          40.000    36831309.243   148304417.119         213.511          47.000  
C33  26134328.231                       -2932.841          30.000                                                                  
C37  22850751.868   118989876.859        2679.349          44.000                                                                  
> 2025 10 27 02 51 09.4360000  0 19                     
G12  20745397.264   109017800.003         858.750          46.000    20745385.549    84948888.555         669.219          42.000  
G15  23269278.778   122280876.504       -3256.620          33.000    23269275.429    95283784.428       -2537.168          32.000  
G18  23601155.138   124024889.332       -3678.964          35.000    23601150.432    96642733.214       -2866.799          37.000  
G23  19271935.267   101274697.693       -2100.406          46.000    19271923.581    78915274.067       -1636.604          47.000  
G24  20960179.053                       -3374.115          28.000    20960169.512    85828339.954       -2628.799          31.000  
G32  20889792.442   109776600.840        1499.983          46.000    20889782.014    85540153.839        1168.794          41.000  
C08  34713035.168   180759879.090        -344.104          46.000    34713018.190   139774925.431        -266.089          49.000  
C13  34712278.214   180755937.243         -46.973          47.000    34712269.039   139771910.189         -36.273          48.000  
C16  35671890.080   185752892.546          -1.694          47.000    35671881.051   143635879.401          -1.346          48.000  
C25  22275376.383   115993741.021       -2559.001          35.000                                                                  
C32  21045005.425   109586868.503         866.187          50.000                                                                  
C06  35363673.599   184147928.265         177.411          44.000    35363657.748   142394795.256         137.321          47.000  
G25  20478494.639   107615229.952        2539.248          41.000    20478486.952    83855981.361        1978.603          43.000  
G10  19505567.697   102502446.575        1030.231          50.000    19505555.899    79871992.446         802.765          43.000  
G28  22017441.044   115702450.221        2576.988          39.000    22017431.303    90157734.571        2007.790          42.000  
C23  20725117.649   107921124.492         247.685          50.000                                                                  
C09  36831318.637   191790346.320         276.375          39.000    36831307.149   148304408.571         213.589          47.000  
C33  26134350.773                       -2932.389          30.000                                                                  
C37  22850731.291   118989769.683        2679.391          44.000                                                                  
> 2025 10 27 02 51 09.4760000  0 19                     
G12  20745390.705   109017765.647         858.837          46.000    20745379.001    84948861.786         669.215          42.000  
G15  23269303.569   122281006.807       -3257.276          33.000    23269300.214    95283885.968       -2538.076          32.000  
G18  23601183.131   124025036.499       -3679.221          35.000    23601178.415    96642847.893       -2866.999          37.000  
G23  19271951.255   101274781.703       -2100.355          46.000    19271939.569    78915339.529       -1636.592          47.000  
G24  20960204.703                       -3374.066          28.000    20960195.188    85828445.089       -2628.357          31.000  
G32  20889780.989   109776540.834        1500.034          46.000    20889770.615    85540107.072        1168.976          41.000  
C08  34713037.854   180759892.848        -344.043          46.000    34713020.857   139774936.073        -266.101          49.000  
C13  34712278.561   180755939.119         -46.960          47.000    34712269.356   139771911.636         -36.218          48.000  
C16  35671890.093   185752892.611          -1.664          47.000    35671881.068   143635879.449          -1.279          48.000  
C25  22275396.035   115993843.363       -2558.796          35.000                                                                  
C32  21044998.804   109586833.853         866.178          50.000                                                                  
C06  35363672.234   184147921.163         177.407          44.000    35363656.349   142394789.766         137.245          47.000  
G25  20478475.311   107615128.374        2539.335          41.000    20478467.649    83855902.209        1978.667          43.000  
G10  19505559.853   102502405.355        1030.383          50.000    19505548.051    79871960.321         803.021          43.000  
G28  22017421.447   115702347.140        2577.060          39.000    22017411.709    90157654.255        2007.797          42.000  
C23  20725115.741   107921114.584         247.675          50.000                                                                  
C09  36831316.493   191790335.264         276.444          39.000    36831305.030   148304400.023         213.646          47.000  
C33  26134373.285                       -2931.831          30.000                                                                  
C37  22850710.704   118989662.508        2679.354          44.000                                                                  
> 2025 10 27 02 51 09.5160000  0 19                     
G12  20745384.164   109017731.293         858.842          46.000    20745372.469    84948835.019         669.151          42.000  
G15  23269328.346   122281137.060       -3256.772          33.000    23269324.999    95283987.451       -2537.468          32.000  
G18  23601211.115   124025183.669       -3679.328          35.000    23601206.408    96642962.572       -2867.103          37.000  
G23  19271967.231   101274865.710       -2100.263          46.000    19271955.572    78915404.993       -1636.604          47.000  
G24  20960230.369                       -3374.139          28.000    20960220.880    85828550.265       -2628.823          31.000  
G32  20889769.559   109776480.824        1500.153          46.000    20889759.210    85540060.305        1169.123          41.000  
C08  34713040.538   180759906.606        -343.976          46.000    34713023.492   139774946.713        -266.046          49.000  
C13  34712278.947   180755940.995         -46.954          47.000    34712269.702   139771913.087         -36.255          48.000  
C16  35671890.125   185752892.664          -1.442          47.000    35671881.102   143635879.501          -1.285          48.000  
C25  22275415.697   115993945.714       -2558.852          35.000                                                                  
C32  21044992.177   109586799.198         866.282          50.000                                                                  
C06  35363670.867   184147914.056         177.477          44.000    35363654.956   142394784.267         137.378          47.000  
G25  20478455.988   107615026.791        2539.462          41.000    20478448.310    83855823.067        1978.536          43.000  
G10  19505551.968   102502364.132        1030.518          50.000    19505540.198    79871928.197         803.107          43.000  
G28  22017401.846   115702244.065        2576.915          39.000    22017392.079    90157573.934        2007.935          42.000  
C23  20725113.890   107921104.678         247.644          50.000                                                                  
C09  36831314.372   191790324.206         276.447          39.000    36831302.919   148304391.474         213.697          47.000  
C33  26134395.799                       -2931.797          30.000                                                                  
C37  22850690.136   118989555.325        2679.462          44.000                                                                  
> 2025 10 27 02 51 09.5560000  0 19                     
G12  20745377.633   109017696.939         858.821          46.000    20745365.938    84948808.260         668.979          42.000  
G15  23269353.137   122281267.315       -3256.392          33.000    23269349.792    95284088.955       -2537.543          32.000  
G18  23601239.126   124025330.834       -3679.254          35.000    23601234.414    96643077.227       -2866.700          37.000  
G23  19271983.225   101274949.716       -2100.183          46.000    19271971.557    78915470.450       -1636.499          47.000  
G24  20960256.034                       -3374.187          28.000    20960246.575                       -2628.886          31.000  
G32  20889758.152   109776420.822        1500.088          46.000    20889747.804    85540013.554        1168.926          41.000  
C08  34713043.189   180759920.364        -343.921          46.000    34713026.153   139774957.347        -265.936          49.000  
C13  34712279.302   180755942.870         -46.906          47.000    34712270.050   139771914.538         -36.292          48.000  
C16  35671890.132   185752892.728          -1.540          47.000    35671881.122   143635879.548          -1.208          48.000  
C25  22275435.352   115994048.050       -2558.649          35.000                                                                  
C32  21044985.544   109586764.538         866.450          50.000                                                                  
C06  35363669.505   184147906.944         177.694          44.000    35363653.565   142394778.772         137.362          47.000  
G25  20478436.665   107614925.210        2539.525          41.000    20478428.977    83855743.912        1978.710          43.000  
G10  19505544.142   102502322.918        1030.396          50.000    19505532.356    79871896.079         803.021          43.000  
G28  22017382.274   115702140.998        2576.722          39.000    22017372.451    90157493.613        2007.946          42.000  
C23  20725112.002   107921094.768         247.684          50.000                                                                  
C09  36831312.246   191790313.152         276.339          39.000    36831300.771   148304382.916         213.897          47.000  
C33  26134418.376                       -2932.686          30.000                                                                  
C37  22850669.540   118989448.156        2679.293          44.000                                                                  
> 2025 10 27 02 51 09.5960000  0 19                     
G12  20745371.114   109017662.590         858.738          46.000    20745359.406    84948781.486         669.164          42.000  
G15  23269377.914   122281397.589       -3256.539          33.000    23269374.599    95284190.485       -2538.101          32.000  
G18  23601267.132   124025477.992       -3679.024          35.000    23601262.414    96643191.896       -2866.731          37.000  
G23  19271999.192   101275033.730       -2100.275          46.000    19271987.533    78915535.914       -1636.567          47.000  
G24  20960281.721                       -3374.090          28.000    20960272.234                       -2628.414          31.000  
G32  20889746.733   109776360.812        1500.198          46.000    20889736.382    85539966.800        1168.844          41.000  
C08  34713045.853   180759934.127        -344.012          46.000    34713028.772   139774967.980        -265.857          49.000  
C13  34712279.670   180755944.742         -46.838          47.000    34712270.412   139771915.987         -36.249          48.000  
C16  35671890.139   185752892.791          -1.552          47.000    35671881.161   143635879.594          -1.191          48.000  
C25  22275455.032   115994150.369       -2558.163          35.000                                                                  
C32  21044978.873   109586729.885         866.376          50.000                                                                  
C06  35363668.135   184147899.845         177.584          44.000    35363652.215   142394773.274         137.401          47.000  
G25  20478417.325   107614823.629        2539.550          41.000    20478409.627    83855664.756        1978.818          43.000  
G10  19505536.344   102502281.704        1030.310          50.000    19505524.532    79871863.965         802.875          43.000  
G28  22017362.647   115702037.926        2576.673          39.000    22017352.812    90157413.298        2007.833          42.000  
C23  20725110.125   107921084.861         247.658          50.000                                                                  
C09  36831310.136   191790302.106         276.209          39.000    36831298.590   148304374.375         213.668          47.000  
C33  26134440.915                       -2932.591          30.000                                                                  
C37  22850648.968   118989340.975        2679.411          44.000                                                                  
> 2025 10 27 02 51 09.6360000  0 19                     
G12  20745364.572   109017628.237         858.772          46.000    20745352.866    84948754.716         669.214          42.000  
G15  23269402.698   122281527.853       -3256.396          33.000    23269399.386    95284292.017       -2538.330          32.000  
G18  23601295.127   124025625.126       -3678.383          35.000    23601290.417    96643306.558       -2866.615          37.000  
G23  19272015.159   101275117.734       -2100.158          46.000    19272003.501    78915601.375       -1636.567          47.000  
G24  20960307.419                       -3374.120          28.000    20960297.916                       -2629.045          31.000  
G32  20889735.323   109776300.798        1500.291          46.000    20889724.958    85539920.036        1168.976          41.000  
C08  34713048.475   180759947.878        -343.866          46.000    34713031.410   139774978.619        -265.967          49.000  
C13  34712280.055   180755946.618         -46.881          47.000    34712270.782   139771917.437         -36.285          48.000  
C16  35671890.171   185752892.854          -1.579          47.000    35671881.156   143635879.640          -1.174          48.000  
C25  22275474.664   115994252.715       -2558.423          35.000                                                                  
C32  21044972.177   109586695.231         866.341          50.000                                                                  
C06  35363666.771   184147892.741         177.612          44.000    35363650.855   142394767.785         137.247          46.000  
G25  20478398.022   107614722.060        2539.331          41.000    20478390.301    83855585.603        1978.806          43.000  
G10  19505528.496   102502240.491        1030.298          50.000    19505516.711    79871831.864         802.570          43.000  
G28  22017343.037   115701934.839        2576.954          39.000    22017333.174    90157332.983        2007.828          42.000  
C23  20725108.232   107921074.945         247.814          50.000                                                                  
C09  36831308.021   191790291.058         276.128          39.000    36831296.453   148304365.836         213.499          47.000  
C33  26134463.409                       -2931.658          30.000                                                                  
C37  22850628.384   118989233.797        2679.445          44.000                                                                  
> 2025 10 27 02 51 09.6760000  0 19                     
G12  20745358.048   109017593.894         858.577          46.000    20745346.325    84948727.962         668.955          42.000  
G15  23269427.461   122281658.094       -3255.934          33.000    23269424.163    95284393.528       -2538.024          32.000  
G18  23601323.106   124025772.260       -3678.178          35.000    23601318.418    96643421.212       -2866.438          37.000  
G23  19272031.161   101275201.748       -2100.288          46.000    19272019.512    78915666.846       -1636.771          47.000  
G24  20960333.097                       -3373.569          28.000    20960323.586                       -2628.905          31.000  
G32  20889723.905   109776240.791        1500.237          46.000    20889713.531    85539873.269        1169.108          41.000  
C08  34713051.110   180759961.638        -343.945          46.000    34713034.058   139774989.261        -266.077          49.000  
C13  34712280.404   180755948.495         -46.936          47.000    34712271.139   139771918.881         -36.151          48.000  
C16  35671890.168   185752892.918          -1.624          47.000    35671881.123   143635879.687          -1.203          48.000  
C25  22275494.314   115994355.049       -2558.393          35.000                                                                  
C32  21044965.506   109586660.577         866.309          50.000                                                                  
C06  35363665.404   184147885.627         177.789          44.000    35363649.478   142394762.285         137.390          46.000  
G25  20478378.705   107614620.491        2539.232          41.000    20478370.963    83855506.450        1978.799          43.000  
G10  19505520.619   102502199.277        1030.310          50.000    19505508.873    79871799.746         802.765          43.000  
G28  22017323.431   115701831.759        2576.978          39.000    22017313.565    90157252.664        2007.872          42.000  
C23  20725106.319   107921065.044         247.610          50.000                                                                  
C09  36831305.907   191790280.005         276.263          39.000    36831294.351   148304357.292         213.501          47.000  
C33  26134485.938                       -2932.870          30.000                                                                  
C37  22850607.811   118989126.619        2679.434          44.000                                                                  
> 2025 10 27 02 51 09.7160000  0 19                     
G12  20745351.534   109017559.550         858.497          46.000    20745339.796    84948701.199         668.945          42.000  
G15  23269452.252   122281788.389       -3256.675          33.000    23269448.962    95284495.021       -2537.656          32.000  
G18  23601351.113   124025919.420       -3678.510          35.000    23601346.442    96643535.869       -2866.307          37.000  
G23  19272047.181   101275285.770       -2100.503          46.000    19272035.493    78915732.313       -1636.776          47.000  
G24  20960358.788                       -3373.522          28.000    20960349.280                       -2628.957          31.000  
G32  20889712.477   109776180.791        1500.063          46.000    20889702.117    85539826.518        1168.873          41.000  
C08  34713053.772   180759975.398        -343.988          46.000    34713036.695   139774999.909        -266.211          49.000  
C13  34712280.776   180755950.370         -46.887          47.000    34712271.494   139771920.338         -36.365          48.000  
C16  35671890.178   185752892.997          -1.911          47.000    35671881.135   143635879.740          -1.312          48.000  
C25  22275513.972   115994457.429       -2559.231          35.000                                                                  
C32  21044958.844   109586625.935         866.105          50.000                                                                  
C06  35363664.025   184147878.524         177.692          44.000    35363648.095   142394756.795         137.255          46.000  
G25  20478359.373   107614518.922        2539.211          41.000    20478351.608    83855427.308        1978.624          43.000  
G10  19505512.795   102502158.070        1030.170          50.000    19505501.041    79871767.642         802.582          43.000  
G28  22017303.824   115701728.682        2576.927          39.000    22017293.958    90157172.369        2007.467          42.000  
C23  20725104.416   107921055.150         247.380          50.000                                                                  
C09  36831303.785   191790268.942         276.502          39.000    36831292.228   148304348.745         213.598          47.000  
C33  26134508.473                       -2931.769          30.000                                                                  
C37  22850587.207   118989019.459        2679.121          44.000                                                                  
> 2025 10 27 02 51 09.7560000  0 19                     
G12  20745344.967   109017525.208         858.464          46.000    20745333.246    84948674.432         669.044          42.000  
G15  23269477.025   122281918.674       -3257.011          33.000    23269473.776    95284596.534       -2537.750          32.000  
G18  23601379.111   124026066.588       -3678.979          35.000    23601374.435    96643650.559       -2866.936          37.000  
G23  19272063.203   101275369.794       -2100.638          46.000    19272051.495    78915797.779       -1636.744          47.000  
G24  20960384.485                       -3373.652          28.000    20960374.971                       -2629.726          31.000  
G32  20889701.055   109776120.791        1499.990          46.000    20889690.722    85539779.775        1168.631          41.000  
C08  34713056.412   180759989.163        -344.104          46.000    34713039.369   139775010.548        -266.101          49.000  
C13  34712281.170   180755952.253         -47.021          47.000    34712271.842   139771921.793         -36.407          48.000  
C16  35671890.194   185752893.068          -1.909          47.000    35671881.143   143635879.797          -1.433          48.000  
C25  22275533.642   115994559.788       -2559.240          35.000                                                                  
C32  21044952.191   109586591.287         866.117          50.000                                                                  
C06  35363662.667   184147871.421         177.604          44.000    35363646.758   142394751.297         137.350          46.000  
G25  20478340.045   107614417.343        2539.399          41.000    20478332.276    83855348.165        1978.517          43.000  
G10  19505504.955   102502116.863        1030.133          50.000    19505493.204    79871735.531         802.661          43.000  
G28  22017284.220   115701625.627        2576.447          39.000    22017274.358    90157092.055        2007.626          42.000  
C23  20725102.550   107921045.248         247.412          50.000                                                                  
C09  36831301.678   191790257.895         276.355          39.000    36831290.086   148304340.207         213.491          47.000  
C33  26134531.012                       -2930.943          30.000                                                                  
C37  22850566.626   118988912.281        2679.293          44.000                                                                  
> 2025 10 27 02 51 09.7960000  0 19                     
G12  20745338.445   109017490.868         858.437          46.000    20745326.717    84948647.677         668.890          42.000  
G15  23269501.804   122282048.980       -3257.610          33.000    23269498.525    95284698.007       -2537.246          32.000  
G18  23601407.099   124026213.737       -3678.733          35.000    23601402.451    96643765.256       -2867.388          37.000  
G23  19272079.202   101275453.817       -2100.680          46.000    19272067.477    78915863.251       -1636.824          47.000  
G24  20960410.158                       -3373.995          28.000    20960400.662                       -2629.067          31.000  
G32  20889689.635   109776060.791        1499.968          46.000    20889679.295    85539733.016        1168.807          41.000  
C08  34713059.069   180760002.931        -344.238          46.000    34713042.065   139775021.191        -266.125          49.000  
C13  34712281.506   180755954.140         -47.186          47.000    34712272.185   139771923.257         -36.597          47.000  
C16  35671890.227   185752893.128          -1.675          47.000    35671881.161   143635879.852          -1.460          48.000  
C25  22275553.305   115994662.131       -2558.856          35.000                                                                  
C32  21044945.527   109586556.640         866.118          50.000                                                                  
C06  35363661.327   184147864.317         177.551          44.000    35363645.413   142394745.805         137.283          46.000  
G25  20478320.718   107614315.776        2539.302          41.000    20478312.968    83855269.032        1978.285          43.000  
G10  19505497.121   102502075.661        1030.005          50.000    19505485.351    79871703.420         802.698          43.000  
G28  22017264.628   115701522.570        2576.309          39.000    22017254.723    90157011.729        2007.937          42.000  
C23  20725100.648   107921035.349         247.404          50.000                                                                  
C09  36831299.555   191790246.844         276.252          39.000    36831287.972   148304331.658         213.636          47.000  
C33  26134553.547                       -2931.610          30.000                                                                  
C37  22850546.056   118988805.110        2679.273          44.000                                                                  
> 2025 10 27 02 51 09.8360000  0 19                     
G12  20745331.902   109017456.529         858.407          46.000    20745320.195    84948620.916         668.966          42.000  
G15  23269526.597   122282179.220       -3256.421          33.000    23269523.301    95284799.579       -2538.672          32.000  
G18  23601435.108   124026360.925       -3679.325          34.000    23601430.467    96643879.934       -2867.291          37.000  
G23  19272095.202   101275537.842       -2100.691          46.000    19272083.452    78915928.724       -1636.874          47.000  
G24  20960435.863                       -3374.032          28.000    20960426.337                       -2628.678          31.000  
G32  20889678.219   109776000.792        1499.903          46.000    20889667.846    85539686.254        1168.941          41.000  
C08  34713061.697   180760016.700        -344.299          46.000    34713044.703   139775031.839        -266.211          48.000  
C13  34712281.864   180755956.033         -47.363          47.000    34712272.534   139771924.716         -36.603          47.000  
C16  35671890.277   185752893.196          -1.650          47.000    35671881.188   143635879.912          -1.534          47.000  
C25  22275572.986   115994764.466       -2558.474          35.000                                                                  
C32  21044938.890   109586521.996         866.069          50.000                                                                  
C06  35363659.945   184147857.223         177.379          44.000    35363644.075   142394740.317         137.201          46.000  
G25  20478301.384   107614214.221        2538.992          41.000    20478293.611    83855189.885        1978.464          43.000  
G10  19505489.274   102502034.459        1029.974          50.000    19505477.502    79871671.308         802.777          43.000  
G28  22017245.009   115701419.499        2576.606          39.000    22017235.109    90156931.415        2007.905          42.000  
C23  20725098.751   107921025.455         247.322          50.000                                                                  
C09  36831297.448   191790235.802         276.021          39.000    36831285.856   148304323.114         213.616          46.000  
C33  26134576.068                       -2933.466          30.000                                                                  
C37  22850525.478   118988697.939        2679.217          44.000                                                                  
> 2025 10 27 02 51 09.8760000  0 19                     
G12  20745325.363   109017422.187         858.447          46.000    20745313.671    84948594.163         668.830          42.000  
G15  23269551.358   122282309.457       -3255.854          33.000    23269548.092    95284901.091       -2538.341          32.000  
G18  23601463.137   124026508.135       -3680.042          34.000    23601458.481    96643994.595       -2866.878          37.000  
G23  19272111.167   101275621.868       -2100.691          46.000    19272099.463    78915994.199       -1636.941          47.000  
G24  20960461.558                       -3374.138          28.000    20960452.023                       -2629.106          31.000  
G32  20889666.819   109775940.799        1499.783          46.000    20889656.427    85539639.503        1168.843          41.000  
C08  34713064.307   180760030.467        -344.269          46.000    34713047.353   139775042.492        -266.327          47.000  
C13  34712282.245   180755957.915         -47.198          47.000    34712272.887   139771926.173         -36.530          46.000  
C16  35671890.283   185752893.274          -1.862          47.000    35671881.190   143635879.962          -1.373          47.000  
C25  22275592.654   115994866.831       -2558.932          35.000                                                                  
C32  21044932.250   109586487.349         866.090          50.000                                                                  
C06  35363658.578   184147850.129         177.294          44.000    35363642.713   142394734.838         137.000          45.000  
G25  20478282.056   107614112.667        2538.810          41.000    20478274.292    83855110.751        1978.371          43.000  
G10  19505481.411   102501993.253        1030.017          50.000    19505469.661    79871639.202         802.679          43.000  
G28  22017225.389   115701316.423        2576.867          39.000    22017215.501    90156851.102        2007.842          42.000  
C23  20725096.854   107921015.563         247.241          50.000                                                                  
C09  36831295.340   191790224.767         275.797          39.000    36831283.749   148304314.578         213.446          46.000  
C33  26134598.602                       -2933.492          30.000                                                                  
C37  22850504.883   118988590.775        2679.096          44.000                                                                  
> 2025 10 27 02 51 09.9160000  0 19                     
G12  20745318.821   109017387.858         858.248          46.000    20745307.178    84948567.412         668.743          42.000  
G15  23269576.149                       -3256.984          33.000    23269572.858    95285002.625       -2538.497          32.000  
G18  23601491.106   124026655.258       -3678.797          34.000    23601486.507    96644109.270       -2866.881          37.000  
G23  19272127.136   101275705.895       -2100.709          46.000    19272115.453    78916059.673       -1636.946          47.000  
G24  20960487.245                       -3374.112          28.000    20960477.698                       -2629.031          31.000  
G32  20889655.381   109775880.801        1499.839          46.000    20889645.027    85539592.756        1168.673          41.000  
C08  34713066.944   180760044.231        -344.196          46.000    34713049.998   139775053.134        -266.180          47.000  
C13  34712282.617   180755959.798         -47.113          47.000    34712273.257   139771927.624         -36.346          46.000  
C16  35671890.288   185752893.344          -1.846          47.000    35671881.193   143635880.021          -1.440          47.000  
C25  22275612.287   115994969.185       -2558.963          35.000                                                                  
C32  21044925.615   109586452.707         866.060          50.000                                                                  
C06  35363657.194   184147843.029         177.399          44.000    35363641.352   142394729.351         137.025          45.000  
G25  20478262.714   107614011.088        2539.170          41.000    20478254.958    83855031.598        1978.640          43.000  
G10  19505473.560   102501952.053        1029.974          50.000    19505461.810    79871607.104         802.484          43.000  
G28  22017205.779   115701213.365        2576.647          39.000    22017195.902    90156770.796        2007.674          42.000  
C23  20725094.993   107921005.666         247.315          50.000                                                                  
C09  36831293.203   191790213.722         275.941          39.000    36831281.626   148304306.038         213.429          46.000  
C33  26134621.130                       -2932.907          30.000                                                                  
C37  22850484.328   118988483.615        2679.004          44.000                                                                  
> 2025 10 27 02 51 09.9560000  0 19                     
G12  20745312.293   109017353.521         858.290          46.000    20745300.643    84948540.651         668.847          42.000  
G15  23269600.965                       -3257.363          33.000    23269597.632    95285104.096       -2537.543          32.000  
G18  23601519.106   124026802.410       -3678.674          34.000    23601514.487    96644223.925       -2866.548          37.000  
G23  19272143.142   101275789.919       -2100.666          46.000    19272131.460    78916125.148       -1636.921          47.000  
G24  20960512.929                       -3374.027          28.000    20960503.376                       -2628.738          31.000  
G32  20889643.947   109775820.804        1499.859          46.000    20889633.625    85539546.013        1168.516          41.000  
C08  34713069.579   180760057.998        -344.208          46.000    34713052.615   139775063.772        -266.009          47.000  
C13  34712282.971   180755961.676         -46.997          47.000    34712273.604   139771929.077         -36.316          46.000  
C16  35671890.309   185752893.420          -1.923          47.000    35671881.201   143635880.073          -1.361          47.000  
C25  22275631.941   115995071.529       -2558.852          35.000                                                                  
C32  21044918.984   109586418.065         866.035          50.000                                                                  
C06  35363655.821   184147835.922         177.577          44.000    35363639.998   142394723.859         137.147          45.000  
G25  20478243.402   107613909.531        2538.991          41.000    20478235.639    83854952.452        1978.653          43.000  
G10  19505465.745   102501910.856        1029.895          50.000    19505453.976    79871574.991         802.661          43.000  
G28  22017186.182   115701110.305        2576.554          39.000    22017176.303    90156690.497        2007.438          42.000  
C23  20725093.087   107920995.772         247.329          50.000                                                                  
C09  36831291.082   191790202.673         276.105          39.000    36831279.492   148304297.491         213.555          46.000  
C33  26134643.650                       -2932.368          30.000                                                                  
C37  22850463.744   118988376.452        2679.010          44.000                                                                  
> 2025 10 27 02 51 09.9960000  0 19                     
G12  20745305.757   109017319.186         858.299          46.000    20745294.084    84948513.894         668.867          42.000  
G15  23269625.772   122282700.382       -3257.905          33.000    23269622.432    95285205.599       -2537.450          32.000  
G18  23601547.105   124026949.593       -3679.221          34.000    23601542.498    96644338.591       -2866.576          37.000  
G23  19272159.130   101275873.945       -2100.666          46.000    19272147.446    78916190.626       -1636.964          47.000  
G24  20960538.614                       -3374.273          28.000    20960529.099                       -2629.211          31.000  
G32  20889632.512   109775760.801        1499.997          46.000    20889622.200    85539499.268        1168.476          41.000  
C08  34713072.236   180760071.764        -344.202          46.000    34713055.244   139775074.417        -266.046          47.000  
C13  34712283.323   180755963.557         -47.009          47.000    34712273.956   139771930.537         -36.450          46.000  
C16  35671890.343   185752893.485          -1.772          47.000    35671881.210   143635880.126          -1.351          47.000  
C25  22275651.603   115995173.883       -2558.876          35.000                                                                  
C32  21044912.346   109586383.423         866.004          50.000                                                                  
C06  35363654.434   184147828.826         177.510          44.000    35363638.635   142394718.374         137.136          45.000  
G25  20478224.066   107613807.965        2539.050          41.000    20478216.327    83854873.311        1978.565          43.000  
G10  19505457.904   102501869.655        1029.944          50.000    19505446.127    79871542.882         802.704          43.000  
G28  22017166.554   115701007.243        2576.555          39.000    22017156.694    90156610.191        2007.491          42.000  
C23  20725091.214   107920985.871         247.444          50.000                                                                  
C09  36831288.978   191790191.618         276.280          39.000    36831277.364   148304288.950         213.517          46.000  
C33  26134666.158                       -2932.652          30.000                                                                  
C37  22850443.152   118988269.288        2679.026          44.000                                                                  
> 2025 10 27 02 51 10.0360000  0 19                     
G12  20745299.218   109017284.847         858.377          46.000    20745287.553    84948487.132         668.986          42.000  
G15  23269650.553                       -3256.678          33.000    23269647.215    95285307.124       -2537.806          32.000  
G18  23601575.131   124027096.769       -3679.434          34.000    23601570.501    96644453.249       -2866.435          37.000  
G23  19272175.114   101275957.970       -2100.672          46.000    19272163.435    78916256.099       -1636.902          47.000  
G24  20960564.284                       -3374.448          28.000    20960554.787                       -2630.023          31.000  
G32  20889621.077   109775700.797        1500.112          46.000    20889610.786    85539452.509        1168.739          41.000  
C08  34713074.887   180760085.528        -344.153          46.000    34713057.915   139775085.061        -266.095          47.000  
C13  34712283.650   180755965.447         -47.217          47.000    34712274.317   139771931.996         -36.523          46.000  
C16  35671890.395   185752893.545          -1.583          47.000    35671881.209   143635880.178          -1.318          47.000  
C25  22275671.235   115995276.253       -2559.183          35.000                                                                  
C32  21044905.695   109586348.780         866.037          50.000                                                                  
C06  35363653.065   184147821.725         177.534          44.000    35363637.260   142394712.882         137.256          45.000  
G25  20478204.730   107613706.383        2539.370          41.000    20478196.986    83854794.178        1978.412          43.000  
G10  19505450.070   102501828.455        1029.968          50.000    19505438.300    79871510.788         802.466          43.000  
G28  22017146.931   115700904.171        2576.628          39.000    22017137.097    90156529.882        2007.610          42.000  
C23  20725089.295   107920975.979         247.325          50.000                                                                  
C09  36831286.833   191790180.575         276.171          39.000    36831275.272   148304280.410         213.492          46.000  
C33  26134688.696                       -2931.955          30.000                                                                  
C37  22850422.571   118988162.117        2679.173          44.000                                                                  
> 2025 10 27 02 51 10.0760000  0 19                     
G12  20745292.669   109017250.519         858.270          46.000    20745281.022    84948460.382         668.855          42.000  
G15  23269675.343                       -3256.622          33.000    23269671.996    95285408.669       -2538.317          32.000  
G18  23601603.143   124027243.886       -3678.412          34.000    23601598.505    96644567.933       -2866.893          37.000  
G23  19272191.093   101276041.995       -2100.678          46.000    19272179.419    78916321.573       -1636.878          47.000  
G24  20960590.003                       -3374.349          28.000    20960580.475                       -2629.546          31.000  
G32  20889609.645   109775640.789        1500.191          46.000    20889599.352    85539405.743        1169.061          41.000  
C08  34713077.511   180760099.298        -344.232          46.000    34713060.576   139775095.708        -266.168          47.000  
C13  34712283.988   180755967.338         -47.308          47.000    34712274.704   139771933.450         -36.456          46.000  
C16  35671890.403   185752893.619          -1.753          47.000    35671881.244   143635880.234          -1.386          47.000  
C25  22275690.878   115995378.599       -2558.992          35.000                                                                  
C32  21044899.051   109586314.132         866.120          50.000                                                                  
C06  35363651.689   184147814.621         177.614          44.000    35363635.889   142394707.387         137.336          45.000  
G25  20478185.384   107613604.822        2539.174          41.000    20478177.624    83854715.040        1978.382          43.000  
G10  19505442.237   102501787.257        1029.926          50.000    19505430.442    79871478.694         802.313          43.000  
G28  22017127.311   115700801.099        2576.702          39.000    22017117.464    90156449.569        2007.778          42.000  
C23  20725087.368   107920966.089         247.236          50.000                                                                  
C09  36831284.723   191790169.535         276.052          39.000    36831273.176   148304271.870         213.468          46.000  
C33  26134711.234                       -2932.396          30.000                                                                  
C37  22850401.978   118988054.947        2679.229          44.000                                                                  
> 2025 10 27 02 51 10.1160000  0 19                     
G12  20745286.107   109017216.183         858.330          46.000    20745274.510    84948433.625         668.846          42.000  
G15  23269700.154   122283091.183       -3256.890          33.000    23269696.824    95285510.180       -2538.191          32.000  
G18  23601631.134   124027391.035       -3678.450          34.000    23601626.511    96644682.613       -2867.026          37.000  
G23  19272207.092   101276126.020       -2100.666          46.000    19272195.386    78916387.041       -1636.742          47.000  
G24  20960615.646                       -3374.259          28.000    20960606.153                       -2629.534          31.000  
G32  20889598.235   109775580.784        1500.194          46.000    20889587.927    85539358.987        1169.001          41.000  
C08  34713080.158   180760113.065        -344.226          46.000    34713063.238   139775106.350        -266.132          47.000  
C13  34712284.347   180755969.213         -47.064          47.000    34712275.071   139771934.902         -36.371          46.000  
C16  35671890.457   185752893.692          -1.815          47.000    35671881.254   143635880.283          -1.313          47.000  
C25  22275710.532   115995480.953       -2558.880          35.000                                                                  
C32  21044892.408   109586279.484         866.176          50.000                                                                  
C06  35363650.359   184147807.514         177.675          44.000    35363634.526   142394701.899         137.279          45.000  
G25  20478166.070   107613503.269        2538.901          41.000    20478158.310    83854635.903        1978.374          43.000  
G10  19505434.374   102501746.052        1030.054          50.000    19505422.607    79871446.590         802.502          43.000  
G28  22017107.695   115700698.041        2576.490          39.000    22017097.837    90156369.246        2008.044          43.000  
C23  20725085.454   107920956.196         247.273          50.000                                                                  
C09  36831282.609   191790158.497         275.991          39.000    36831271.086   148304263.324         213.574          46.000  
C33  26134733.777                       -2932.648          30.000                                                                  
C37  22850381.421   118987947.773        2679.338          44.000                                                                  
> 2025 10 27 02 51 10.1560000  0 19                     
G12  20745279.569   109017181.840         858.510          46.000    20745267.988    84948406.876         668.752          42.000  
G15  23269724.942   122283221.453       -3256.827          33.000    23269721.643    95285611.699       -2538.173          32.000  
G18  23601659.127   124027538.197       -3678.762          34.000    23601654.517    96644797.274       -2866.725          37.000  
G23  19272223.079   101276210.042       -2100.604          46.000    19272211.359    78916452.510       -1636.694          47.000  
G24  20960641.337                       -3373.980          28.000    20960631.835                       -2628.253          31.000  
G32  20889586.799   109775520.773        1500.267          46.000    20889576.511    85539312.217        1169.182          41.000  
C08  34713082.784   180760126.820        -343.976          46.000    34713065.859   139775116.990        -266.034          48.000  
C13  34712284.732   180755971.085         -46.851          47.000    34712275.476   139771936.349         -36.212          46.000  
C16  35671890.517   185752893.754          -1.651          47.000    35671881.275   143635880.334          -1.288          47.000  
C25  22275730.199   115995583.297       -2558.547          35.000                                                                  
C32  21044885.724   109586244.833         866.263          50.000                                                                  
C06  35363648.967   184147800.403         177.783          44.000    35363633.170   142394696.398         137.444          45.000  
G25  20478146.759   107613401.708        2538.922          41.000    20478138.967    83854556.754        1978.577          43.000  
G10  19505426.524   102501704.844        1030.164          50.000    19505414.751    79871414.478         802.710          43.000  
G28  22017088.098   115700594.959        2576.878          39.000    22017078.247    90156288.930        2007.966          43.000  
C23  20725083.547   107920946.290         247.533          50.000                                                                  
C09  36831280.483   191790147.437         276.337          39.000    36831268.950   148304254.776         213.681          46.000  
C33  26134756.303                       -2931.557          30.000                                                                  
C37  22850360.832   118987840.597        2679.422          44.000                                                                  
> 2025 10 27 02 51 10.1960000  0 19                     
G12  20745273.045   109017147.497         858.590          46.000    20745261.432    84948380.113         668.948          42.000  
G15  23269749.742   122283351.708       -3256.517          33.000    23269746.441    95285713.166       -2537.297          32.000  
G18  23601687.132   124027685.339       -3678.606          34.000    23601682.511    96644911.933       -2866.484          37.000  
G23  19272239.069   101276294.061       -2100.506          46.000    19272227.354    78916517.979       -1636.719          47.000  
G24  20960666.991                       -3373.988          28.000    20960657.510                       -2628.183          31.000  
G32  20889575.402   109775460.775        1500.038          45.000    20889565.110    85539265.467        1168.892          41.000  
C08  34713085.404   180760140.571        -343.774          46.000    34713068.446   139775127.632        -266.022          48.000  
C13  34712285.101   180755972.959         -46.790          47.000    34712275.828   139771937.806         -36.353          46.000  
C16  35671890.562   185752893.816          -1.574          47.000    35671881.272   143635880.386          -1.295          47.000  
C25  22275749.823   115995685.617       -2558.000          35.000                                                                  
C32  21044879.059   109586210.184         866.242          50.000                                                                  
C06  35363647.609   184147793.307         177.554          44.000    35363631.809   142394690.896         137.577          45.000  
G25  20478127.432   107613300.136        2539.175          41.000    20478119.639    83854477.604        1978.702          43.000  
G10  19505418.717   102501663.646        1029.999          50.000    19505406.902    79871382.361         802.887          43.000  
G28  22017068.489   115700491.891        2576.820          39.000    22017058.632    90156208.622        2007.747          43.000  
C23  20725081.662   107920936.386         247.598          50.000                                                                  
C09  36831278.346   191790136.375         276.528          39.000    36831266.850   148304246.225         213.760          46.000  
C33  26134778.829                       -2931.679          30.000                                                                  
C37  22850340.236   118987733.431        2679.252          44.000                                                                  
> 2025 10 27 02 51 10.2360000  0 19                     
G12  20745266.511   109017113.165         858.404          46.000    20745254.887    84948353.359         668.888          42.000  
G15  23269774.532   122283481.966       -3256.472          33.000    23269771.243                       -2536.913          32.000  
G18  23601715.138   124027832.501       -3678.909          34.000    23601710.503    96645026.588       -2866.385          37.000  
G23  19272255.054   101276378.081       -2100.507          46.000    19272243.342    78916583.457       -1636.898          47.000  
G24  20960692.675                       -3373.534          28.000    20960683.187                       -2628.971          31.000  
G32  20889563.995   109775400.775        1499.949          46.000    20889553.690    85539218.719        1168.693          41.000  
C08  34713088.020   180760154.333        -343.951          46.000    34713071.073   139775138.268        -265.918          48.000  
C13  34712285.438   180755974.839         -46.924          47.000    34712276.203   139771939.259         -36.383          46.000  
C16  35671890.617   185752893.877          -1.522          47.000    35671881.297   143635880.440          -1.329          47.000  
C25  22275769.475   115995787.981       -2558.663          35.000                                                                  
C32  21044872.346   109586175.538         866.176          50.000                                                                  
C06  35363646.227   184147786.198         177.648          44.000    35363630.453   142394685.407         137.345          45.000  
G25  20478108.094   107613198.576        2539.070          41.000    20478100.304    83854398.466        1978.587          43.000  
G10  19505410.901   102501622.448        1029.913          50.000    19505399.058    79871350.260         802.643          43.000  
G28  22017048.871   115700388.820        2576.845          39.000    22017039.026    90156128.306        2007.791          43.000  
C23  20725079.760   107920926.490         247.476          50.000                                                                  
C09  36831276.214   191790125.324         276.424          39.000    36831264.743   148304237.671         213.827          46.000  
C33  26134801.368                       -2932.990          30.000                                                                  
C37  22850319.650   118987626.263        2679.164          44.000                                                                  
