     3.04           OBSERVATION DATA    M: Mixed            RINEX VERSION / TYPE
RTKCONV 2.4.3 b34                       20251027 032431 UTC PGM / RUN BY / DATE 
format: u-blox UBX                                          COMMENT             
log: D:\GPdata\10_27\fingure_up_220_40_10_27_2.ubx          COMMENT             
                                                            MARKER NAME         
                                                            MARKER NUMBER       
                                                            MARKER TYPE         
                                                            OBSERVER / AGENCY   
                                                            REC # / TYPE / VERS 
                                                            ANT # / TYPE        
        0.0000        0.0000        0.0000                  APPROX POSITION XYZ 
        0.0000        0.0000        0.0000                  ANTENNA: DELTA H/E/N
G    8 C1C L1C D1C S1C C2L L2L D2L S2L                      SYS / # / OBS TYPES 
C    8 C2I L2I D2I S2I C7I L7I D7I S7I                      SYS / # / OBS TYPES 
  2025    10    27    02    13   08.1160000     GPS         TIME OF FIRST OBS   
  2025    10    27    02    14   02.7560000     GPS         TIME OF LAST OBS    
G L1C                                                       SYS / PHASE SHIFT   
G L2L  0.00000                                              SYS / PHASE SHIFT   
C L2I                                                       SYS / PHASE SHIFT   
C L7I                                                       SYS / PHASE SHIFT   
  0                                                         GLONASS SLOT / FRQ #
 C1C    0.000 C1P    0.000 C2C    0.000 C2P    0.000        GLONASS COD/PHS/BIS 
                                                            END OF HEADER       
> 2025 10 27 02 13 08.1160000  0 21                     
G12  21398475.820   112449788.7341       2075.286          43.000    21398464.644    87623158.3231       1617.017          40.000  
G15  21907914.156   115126851.9951      -2997.532          41.000    21907904.250    89709210.2731      -2335.577          39.000  
G18  21997365.674   115596925.5781      -3604.451          42.000    21997355.333    90075475.7011      -2808.694          40.000  
G23  18654805.998    98031666.4781       -728.445          48.000    18654793.279    76388251.2561       -567.694          49.000  
G24  19628127.918   103146504.2221      -2674.792          40.000    19628116.885    80373846.9751      -2083.545          38.000  
G32  21587112.835   113441051.4691       1714.303          45.000    21587103.657    88395584.0851       1335.570          42.000  
C08  34636097.267   180359242.6471        -16.669          45.000    34636079.334   139465137.8151        -12.793          50.000  
C13  34752916.855   180967555.7451        221.765          46.000    34752907.018   139935554.4131        171.613          47.000  
C16  35729176.958   186051198.4061        278.294          47.000    35729165.584   143866544.9081        215.224          47.000  
C25  21353991.949   111195833.0211      -1583.511          45.000                                                                  
C32  21532700.072   112126416.5791       1326.229          46.000                                                                  
C06  35499950.834   184857556.6311        457.130          44.000    35499934.049   142943526.7581        353.423          45.000  
G25  21742827.392   114259344.2861       3186.654          42.000    21742821.124    89033231.3851       2483.414          39.000  
G10  20192661.458   106113149.9701       2064.484          47.000    20192650.467    82685535.8511       1608.585          42.000  
G28  23262176.086   122243568.6641       3123.792          37.000    23262168.210    95254670.8521       2434.069          41.000  
C23  21095108.294   109847765.4361       1425.401          51.000                                                                  
C09  37007547.662   192708014.0371        536.821          40.000    37007535.403   149014006.1611        415.209          46.000  
C33  24914303.585   129735306.4921      -2620.964          35.000                                                                  
C30  24592417.722   128059160.0011      -2035.189          37.000                                                                  
C27  25034068.891   130358942.6411      -2775.736          36.000                                                                  
C37  24128088.449   125641284.4461       3096.704          42.000                                                                  
> 2025 10 27 02 13 08.1560000  0 21                     
G12  21398460.039   112449705.731        2075.120          43.000    21398448.850    87623093.639        1617.037          40.000  
G15  21907936.961   115126971.884       -2997.363          41.000    21907927.065    89709303.702       -2335.696          39.000  
G18  21997393.125   115597069.752       -3604.407          42.000    21997382.779    90075588.033       -2808.420          40.000  
G23  18654811.530    98031695.612        -728.413          48.000    18654798.819    76388273.962        -567.724          49.000  
G24  19628148.282   103146611.192       -2674.432          40.000    19628137.246    80373930.337       -2083.881          38.000  
G32  21587099.776   113440982.884        1714.539          45.000    21587090.603    88395530.646        1335.785          42.000  
C08  34636097.395   180359243.308         -16.626          45.000    34636079.460   139465138.329         -12.854          50.000  
C13  34752915.179   180967546.859         222.015          46.000    34752905.314   139935547.551         171.570          47.000  
C16  35729174.840   186051187.271         278.358          47.000    35729163.433   143866536.296         215.263          47.000  
C25  21354004.108   111195896.354       -1583.396          45.000                                                                  
C32  21532689.887   112126363.525        1326.274          46.000                                                                  
C06  35499947.329   184857538.337         457.266          44.000    35499930.521   142943512.614         353.471          45.000  
G25  21742803.138   114259216.824        3186.587          42.000    21742796.882    89033132.047        2483.516          39.000  
G10  20192645.728   106113067.393        2064.449          47.000    20192634.734    82685471.501        1608.704          42.000  
G28  23262152.317   122243443.710        3123.750          37.000    23262144.430    95254573.478        2434.218          41.000  
C23  21095097.383   109847708.411        1425.538          51.000                                                                  
C09  37007543.555   192707992.563         536.795          40.000    37007531.288   149013989.553         415.146          46.000  
C33  24914323.689   129735411.328       -2620.877          35.000                                                                  
C30  24592433.353   128059241.427       -2035.426          37.000                                                                  
C27  25034090.202   130359053.676       -2775.791          36.000                                                                  
C37  24128064.662   125641160.570        3096.794          42.000                                                                  
> 2025 10 27 02 13 08.1960000  0 21                     
G12  21398444.228   112449622.724        2075.103          43.000    21398433.055    87623028.960        1616.955          40.000  
G15  21907959.757   115127091.768       -2997.165          41.000    21907949.877    89709397.118       -2335.503          39.000  
G18  21997420.548   115597213.925       -3604.352          42.000    21997410.216    90075700.385       -2808.658          40.000  
G23  18654817.081    98031724.750        -728.451          48.000    18654804.355    76388296.667        -567.691          49.000  
G24  19628168.646   103146718.171       -2674.469          40.000    19628157.622    80374013.711       -2084.277          38.000  
G32  21587086.740   113440914.313        1714.365          45.000    21587077.548    88395477.203        1335.997          42.000  
C08  34636097.516   180359243.968         -16.559          45.000    34636079.600   139465138.841         -12.860          50.000  
C13  34752913.470   180967537.981         221.991          46.000    34752903.615   139935540.684         171.625          47.000  
C16  35729172.708   186051176.132         278.433          47.000    35729161.266   143866527.687         215.211          47.000  
C25  21354016.244   111195959.698       -1583.551          45.000                                                                  
C32  21532679.704   112126310.471        1326.311          46.000                                                                  
C06  35499943.784   184857520.049         457.238          44.000    35499927.009   142943498.466         353.589          45.000  
G25  21742778.871   114259089.350        3186.744          42.000    21742772.651    89033032.718        2483.349          39.000  
G10  20192630.032   106112984.819        2064.373          47.000    20192619.006    82685407.140        1608.950          42.000  
G28  23262128.530   122243318.746        3123.960          37.000    23262120.646    95254476.098        2434.440          41.000  
C23  21095086.471   109847651.385        1425.613          51.000                                                                  
C09  37007539.410   192707971.082         536.920          40.000    37007527.161   149013972.946         415.096          46.000  
C33  24914343.815   129735516.164       -2620.848          35.000                                                                  
C30  24592448.996   128059322.855       -2035.601          37.000                                                                  
C27  25034111.519   130359164.719       -2776.011          36.000                                                                  
C37  24128040.832   125641036.703        3096.677          42.000                                                                  
> 2025 10 27 02 13 08.2360000  0 21                     
G12  21398428.414   112449539.715        2075.123          43.000    21398417.255    87622964.290        1616.753          40.000  
G15  21907982.594   115127211.665       -2997.334          41.000    21907972.697    89709490.549       -2335.703          39.000  
G18  21997447.984   115597358.095       -3604.277          42.000    21997437.661    90075812.730       -2808.682          40.000  
G23  18654822.627    98031753.895        -728.614          48.000    18654809.893    76388319.376        -567.761          49.000  
G24  19628188.994   103146825.141       -2674.304          40.000    19628177.995    80374097.096       -2084.625          38.000  
G32  21587073.716   113440845.741        1714.245          45.000    21587064.487    88395423.763        1336.078          42.000  
C08  34636097.631   180359244.625         -16.479          45.000    34636079.721   139465139.350         -12.756          50.000  
C13  34752911.732   180967529.108         221.887          46.000    34752901.912   139935533.815         171.680          47.000  
C16  35729170.593   186051164.997         278.378          47.000    35729159.124   143866519.074         215.249          47.000  
C25  21354028.394   111196023.044       -1583.677          45.000                                                                  
C32  21532669.510   112126257.420        1326.279          46.000                                                                  
C06  35499940.301   184857501.764         457.131          44.000    35499923.501   142943484.325         353.562          45.000  
G25  21742754.585   114258961.865        3187.064          42.000    21742748.402    89032933.402        2483.003          39.000  
G10  20192614.306   106112902.241        2064.414          47.000    20192603.328    82685342.809        1608.540          42.000  
G28  23262104.760   122243193.802        3123.700          37.000    23262096.870    95254378.723        2434.446          41.000  
C23  21095075.484   109847594.367        1425.502          51.000                                                                  
C09  37007535.315   192707949.587         537.255          40.000    37007523.037   149013956.336         415.159          46.000  
C33  24914363.931   129735621.020       -2621.190          35.000                                                                  
C30  24592464.644   128059404.278       -2035.624          37.000                                                                  
C27  25034132.878   130359275.768       -2776.184          36.000                                                                  
C37  24128017.052   125640912.828        3096.816          42.000                                                                  
> 2025 10 27 02 13 08.2760000  0 21                     
G12  21398412.622   112449456.705        2075.175          43.000    21398401.463    87622899.610        1616.911          40.000  
G15  21908005.423   115127331.558       -2997.365          41.000    21907995.502    89709583.982       -2335.826          39.000  
G18  21997475.412   115597502.274       -3604.403          42.000    21997465.093    90075925.071       -2808.626          40.000  
G23  18654828.148    98031783.034        -728.556          48.000    18654815.421    76388342.080        -567.690          49.000  
G24  19628209.377   103146932.128       -2674.579          40.000    19628198.356    80374180.462       -2084.375          38.000  
G32  21587060.659   113440777.173        1714.153          45.000    21587051.440    88395370.343        1335.692          42.000  
C08  34636097.737   180359245.288         -16.510          45.000    34636079.829   139465139.859         -12.732          50.000  
C13  34752910.024   180967520.232         221.881          46.000    34752900.226   139935526.949         171.649          46.000  
C16  35729168.460   186051153.866         278.281          47.000    35729157.007   143866510.465         215.225          47.000  
C25  21354040.526   111196086.386       -1583.668          45.000                                                                  
C32  21532659.315   112126204.367        1326.292          46.000                                                                  
C06  35499936.804   184857483.474         457.171          44.000    35499919.985   142943470.188         353.458          45.000  
G25  21742730.338   114258834.392        3187.004          42.000    21742724.124    89032834.074        2483.051          39.000  
G10  20192598.620   106112819.668        2064.369          47.000    20192587.611    82685278.465        1608.490          42.000  
G28  23262080.960   122243068.829        3124.094          37.000    23262073.097    95254281.363        2434.166          41.000  
C23  21095064.516   109847537.347        1425.490          51.000                                                                  
C09  37007531.184   192707928.108         537.097          40.000    37007518.923   149013939.723         415.297          46.000  
C33  24914384.077   129735725.880       -2621.418          35.000                                                                  
C30  24592480.295   128059485.694       -2035.563          37.000                                                                  
C27  25034154.194   130359386.828       -2776.506          36.000                                                                  
C37  24127993.241   125640788.955        3096.841          42.000                                                                  
> 2025 10 27 02 13 08.3160000  0 21                     
G12  21398396.832   112449373.700        2075.104          43.000    21398385.657    87622834.912        1617.298          40.000  
G15  21908028.235   115127451.461       -2997.520          41.000    21908018.343    89709677.393       -2335.426          39.000  
G18  21997502.840   115597646.445       -3604.309          42.000    21997492.534    90076037.418       -2808.650          40.000  
G23  18654833.700    98031812.178        -728.617          48.000    18654820.993    76388364.788        -567.728          49.000  
G24  19628229.752   103147039.109       -2674.579          40.000    19628218.698    80374263.790       -2083.490          38.000  
G32  21587047.608   113440708.605        1714.149          45.000    21587038.390    88395316.899        1335.952          42.000  
C08  34636097.849   180359245.954         -16.644          45.000    34636079.948   139465140.374         -12.830          50.000  
C13  34752908.291   180967511.357         221.869          46.000    34752898.502   139935520.094         171.436          46.000  
C16  35729166.310   186051142.735         278.231          47.000    35729154.909   143866501.863         215.062          47.000  
C25  21354052.708   111196149.729       -1583.681          45.000                                                                  
C32  21532649.139   112126151.315        1326.252          46.000                                                                  
C06  35499933.295   184857465.190         457.074          43.000    35499916.480   142943456.048         353.447          45.000  
G25  21742706.083   114258706.931        3186.688          42.000    21742699.861    89032734.756        2482.958          39.000  
G10  20192582.888   106112737.093        2064.355          47.000    20192571.906    82685214.120        1608.556          42.000  
G28  23262057.194   122242943.874        3124.053          37.000    23262049.310    95254184.002        2434.004          41.000  
C23  21095053.538   109847480.333        1425.370          51.000                                                                  
C09  37007527.031   192707906.627         537.009          40.000    37007514.768   149013923.120         415.134          46.000  
C33  24914404.223   129735830.727       -2621.361          35.000                                                                  
C30  24592495.938   128059567.120       -2035.701          37.000                                                                  
C27  25034175.538   130359497.865       -2776.248          36.000                                                                  
C37  24127969.444   125640665.074        3096.999          42.000                                                                  
> 2025 10 27 02 13 08.3560000  0 21                     
G12  21398381.017   112449290.693        2075.118          43.000    21398369.871    87622770.232        1617.173          40.000  
G15  21908051.052   115127571.361       -2997.563          41.000    21908041.159    89709770.800       -2335.186          39.000  
G18  21997530.262   115597790.619       -3604.346          42.000    21997519.958    90076149.757       -2808.538          40.000  
G23  18654839.237    98031841.312        -728.472          48.000    18654826.535    76388387.496        -567.740          49.000  
G24  19628250.102   103147146.088       -2674.512          40.000    19628239.053    80374347.157       -2083.838          38.000  
G32  21587034.575   113440640.028        1714.320          45.000    21587025.326    88395263.473        1335.769          42.000  
C08  34636097.988   180359246.618         -16.644          45.000    34636080.072   139465140.890         -12.897          50.000  
C13  34752906.571   180967502.480         221.881          46.000    34752896.801   139935513.228         171.533          46.000  
C16  35729164.171   186051131.600         278.292          47.000    35729152.768   143866493.259         215.020          47.000  
C25  21354064.874   111196213.071       -1583.628          45.000                                                                  
C32  21532638.955   112126098.260        1326.318          46.000                                                                  
C06  35499929.792   184857446.899         457.182          43.000    35499912.959   142943441.907         353.468          45.000  
G25  21742681.833   114258579.452        3186.866          42.000    21742675.619    89032635.427        2483.118          39.000  
G10  20192567.151   106112654.515        2064.396          47.000    20192556.184    82685149.773        1608.623          42.000  
G28  23262033.409   122242818.915        3124.061          37.000    23262025.541    95254086.634        2434.070          41.000  
C23  21095042.591   109847423.314        1425.404          51.000                                                                  
C09  37007522.910   192707885.164         536.649          40.000    37007510.638   149013906.507         415.215          46.000  
C33  24914424.378   129735935.564       -2621.028          35.000                                                                  
C30  24592511.566   128059648.531       -2035.434          37.000                                                                  
C27  25034196.865   130359608.911       -2776.261          36.000                                                                  
C37  24127945.655   125640541.206        3096.782          42.000                                                                  
> 2025 10 27 02 13 08.3960000  0 21                     
G12  21398365.232   112449207.677        2075.316          43.000    21398354.085    87622705.556        1616.986          40.000  
G15  21908073.876   115127691.248       -2997.325          41.000    21908063.992    89709864.228       -2335.450          39.000  
G18  21997557.736   115597934.796       -3604.415          42.000    21997547.403    90076262.106       -2808.733          40.000  
G23  18654844.763    98031870.457        -728.548          48.000    18654832.091    76388410.202        -567.689          49.000  
G24  19628270.454   103147253.081       -2674.805          40.000    19628259.398    80374430.525       -2084.058          38.000  
G32  21587021.519   113440571.457        1714.275          45.000    21587012.259    88395210.037        1335.845          42.000  
C08  34636098.113   180359247.281         -16.608          45.000    34636080.205   139465141.404         -12.872          50.000  
C13  34752904.866   180967493.598         221.985          46.000    34752895.078   139935506.359         171.649          46.000  
C16  35729162.035   186051120.465         278.332          47.000    35729150.630   143866484.647         215.172          47.000  
C25  21354077.062   111196276.413       -1583.628          45.000                                                                  
C32  21532628.741   112126045.207        1326.310          46.000                                                                  
C06  35499926.259   184857428.601         457.329          43.000    35499909.415   142943427.756         353.669          45.000  
G25  21742657.568   114258451.988        3186.670          42.000    21742651.361    89032536.105        2483.048          39.000  
G10  20192551.441   106112571.949        2064.189          47.000    20192540.482    82685085.433        1608.552          42.000  
G28  23262009.643   122242693.959        3123.987          37.000    23262001.762    95253989.270        2434.047          41.000  
C23  21095031.669   109847366.296        1425.418          51.000                                                                  
C09  37007518.797   192707863.695         536.615          40.000    37007506.528   149013889.899         415.203          46.000  
C33  24914444.502   129736040.399       -2620.856          35.000                                                                  
C30  24592527.209   128059729.958       -2035.606          37.000                                                                  
C27  25034218.191   130359719.953       -2776.205          36.000                                                                  
C37  24127921.891   125640417.341        3096.596          42.000                                                                  
> 2025 10 27 02 13 08.4360000  0 21                     
G12  21398349.439   112449124.681        2075.022          43.000    21398338.282    87622640.873        1616.980          40.000  
G15  21908096.699   115127811.156       -2997.625          41.000    21908086.812    89709957.662       -2335.761          39.000  
G18  21997585.178   115598078.973       -3604.458          42.000    21997574.834    90076374.444       -2808.639          40.000  
G23  18654850.320    98031899.605        -728.693          48.000    18654837.659    76388432.911        -567.740          49.000  
G24  19628290.836   103147360.065       -2674.713          40.000    19628279.747    80374513.888       -2084.070          38.000  
G32  21587008.497   113440502.879        1714.394          45.000    21586999.209    88395156.608        1335.764          42.000  
C08  34636098.230   180359247.946         -16.644          45.000    34636080.321   139465141.919         -12.866          50.000  
C13  34752903.167   180967484.721         221.948          46.000    34752893.362   139935499.499         171.539          46.000  
C16  35729159.875   186051109.340         278.202          47.000    35729148.492   143866476.039         215.144          47.000  
C25  21354089.203   111196339.765       -1583.800          45.000                                                                  
C32  21532618.525   112125992.161        1326.183          46.000                                                                  
C06  35499922.733   184857410.326         457.033          43.000    35499905.905   142943413.619         353.509          45.000  
G25  21742633.329   114258324.522        3186.642          42.000    21742627.107    89032436.780        2483.086          39.000  
G10  20192535.762   106112489.383        2064.082          47.000    20192524.778    82685021.096        1608.463          42.000  
G28  23261985.885   122242569.015        3123.701          37.000    23261977.975    95253891.894        2434.253          41.000  
C23  21095020.737   109847309.282        1425.334          51.000                                                                  
C09  37007514.663   192707842.206         536.983          40.000    37007502.378   149013873.298         415.060          46.000  
C33  24914464.644   129736145.224       -2620.515          35.000                                                                  
C30  24592542.861   128059811.393       -2035.903          37.000                                                                  
C27  25034239.492   130359830.974       -2775.738          36.000                                                                  
C37  24127898.086   125640293.473        3096.581          42.000                                                                  
> 2025 10 27 02 13 08.4760000  0 21                     
G12  21398333.633   112449041.687        2074.846          43.000    21398322.481    87622576.194        1617.010          40.000  
G15  21908119.516   115127931.037       -2997.251          41.000    21908109.621    89710051.090       -2335.815          39.000  
G18  21997612.628   115598223.161       -3604.695          42.000    21997602.284    90076486.806       -2808.974          40.000  
G23  18654855.897    98031928.756        -728.785          48.000    18654843.223    76388455.627        -567.884          49.000  
G24  19628311.196   103147467.059       -2674.847          40.000    19628300.126    80374597.268       -2084.344          38.000  
G32  21586995.476   113440434.304        1714.386          45.000    21586986.159    88395103.169        1335.896          42.000  
C08  34636098.380   180359248.610         -16.632          45.000    34636080.433   139465142.431         -12.836          50.000  
C13  34752901.453   180967475.857         221.667          46.000    34752891.647   139935492.634         171.558          47.000  
C16  35729157.716   186051098.216         278.095          47.000    35729146.322   143866467.429         215.189          47.000  
C25  21354101.377   111196403.117       -1583.860          45.000                                                                  
C32  21532608.342   112125939.111        1326.198          46.000                                                                  
C06  35499919.193   184857392.042         457.039          43.000    35499902.362   142943399.480         353.451          45.000  
G25  21742609.077   114258197.063        3186.498          42.000    21742602.855    89032337.444        2483.332          39.000  
G10  20192520.027   106112406.811        2064.149          47.000    20192509.060    82684956.755        1608.428          42.000  
G28  23261962.109   122242444.053        3123.872          37.000    23261954.185    95253794.516        2434.365          41.000  
C23  21095009.776   109847252.271        1425.240          51.000                                                                  
C09  37007510.521   192707820.724         537.051          40.000    37007498.223   149013856.691         415.123          46.000  
C33  24914484.796   129736250.091       -2621.304          35.000                                                                  
C30  24592558.505   128059892.810       -2035.685          37.000                                                                  
C27  25034260.827   130359942.024       -2776.027          36.000                                                                  
C37  24127874.298   125640169.600        3096.728          42.000                                                                  
> 2025 10 27 02 13 08.5160000  0 21                     
G12  21398317.829   112448958.684        2074.914          43.000    21398306.709    87622511.533        1616.655          40.000  
G15  21908142.329   115128050.938       -2997.458          41.000    21908132.447    89710144.524       -2335.894          39.000  
G18  21997640.055   115598367.339       -3604.599          42.000    21997629.716    90076599.152       -2808.867          40.000  
G23  18654861.419    98031957.904        -728.815          48.000    18654848.753    76388478.340        -567.901          49.000  
G24  19628331.547   103147574.047       -2674.817          40.000    19628320.480    80374680.635       -2084.247          38.000  
G32  21586982.436   113440365.743        1714.127          45.000    21586973.106    88395049.737        1335.826          42.000  
C08  34636098.523   180359249.268         -16.522          45.000    34636080.564   139465142.942         -12.805          50.000  
C13  34752899.788   180967466.981         221.759          46.000    34752889.945   139935485.770         171.564          47.000  
C16  35729155.600   186051087.079         278.265          47.000    35729144.197   143866458.824         215.130          47.000  
C25  21354113.559   111196466.465       -1583.813          45.000                                                                  
C32  21532598.154   112125886.067        1326.091          46.000                                                                  
C06  35499915.660   184857373.755         457.081          43.000    35499898.860   142943385.337         353.512          45.000  
G25  21742584.824   114258069.608        3186.376          42.000    21742578.601    89032238.128        2483.078          39.000  
G10  20192504.292   106112324.235        2064.282          47.000    20192493.333    82684892.423        1608.286          42.000  
G28  23261938.334   122242319.091        3124.000          37.000    23261930.409    95253697.152        2434.195          41.000  
C23  21094998.855   109847195.256        1425.268          51.000                                                                  
C09  37007506.391   192707799.241         537.099          40.000    37007494.093   149013840.091         414.979          46.000  
C33  24914504.942   129736354.956       -2621.586          35.000                                                                  
C30  24592574.175   128059974.257       -2036.125          37.000                                                                  
C27  25034282.150   130360053.065       -2776.065          36.000                                                                  
C37  24127850.500   125640045.728        3096.778          42.000                                                                  
> 2025 10 27 02 13 08.5560000  0 21                     
G12  21398302.026   112448875.682        2074.999          43.000    21398290.912    87622446.860        1616.698          40.000  
G15  21908165.142   115128170.838       -2997.519          41.000    21908155.266    89710237.952       -2335.869          39.000  
G18  21997667.481   115598511.514       -3604.493          42.000    21997657.135    90076711.480       -2808.449          40.000  
G23  18654866.984    98031987.051        -728.769          48.000    18654854.309    76388501.053        -567.893          49.000  
G24  19628351.930   103147681.037       -2674.799          40.000    19628340.844    80374764.000       -2084.180          38.000  
G32  21586969.369   113440297.181        1713.998          45.000    21586960.083    88394996.315        1335.619          42.000  
C08  34636098.647   180359249.941         -16.760          45.000    34636080.655   139465143.456         -12.866          50.000  
C13  34752898.066   180967458.105         221.820          46.000    34752888.265   139935478.911         171.466          47.000  
C16  35729153.467   186051075.946         278.302          47.000    35729142.065   143866450.221         215.073          47.000  
C25  21354125.735   111196529.816       -1583.838          45.000                                                                  
C32  21532587.975   112125833.015        1326.176          46.000                                                                  
C06  35499912.133   184857355.469         457.100          43.000    35499895.358   142943371.211         353.258          45.000  
G25  21742560.567   114257942.136        3186.603          42.000    21742554.345    89032138.804        2483.033          39.000  
G10  20192488.568   106112241.662        2064.313          47.000    20192477.617    82684828.083        1608.315          42.000  
G28  23261914.540   122242194.148        3123.777          37.000    23261906.635    95253599.784        2434.143          41.000  
C23  21094987.923   109847138.245        1425.238          51.000                                                                  
C09  37007502.249   192707777.773         536.792          40.000    37007489.972   149013823.483         415.036          46.000  
C33  24914525.042   129736459.779       -2620.992          35.000                                                                  
C30  24592589.813   128060055.700       -2036.206          37.000                                                                  
C27  25034303.480   130360164.090       -2775.778          36.000                                                                  
C37  24127826.704   125639921.861        3096.714          42.000                                                                  
> 2025 10 27 02 13 08.5960000  0 21                     
G12  21398286.248   112448792.685        2074.928          43.000    21398275.113    87622382.187        1616.778          40.000  
G15  21908187.926   115128290.736       -2997.486          41.000    21908178.086    89710331.369       -2335.594          39.000  
G18  21997694.902   115598655.689       -3604.444          42.000    21997684.571    90076823.824       -2808.456          40.000  
G23  18654872.524    98032016.199        -728.750          48.000    18654859.844    76388523.765        -567.849          49.000  
G24  19628372.285   103147788.023       -2674.725          40.000    19628361.191    80374847.371       -2084.332          38.000  
G32  21586956.318   113440228.613        1714.071          45.000    21586947.043    88394942.893        1335.502          42.000  
C08  34636098.776   180359250.608         -16.742          45.000    34636080.795   139465143.975         -12.958          50.000  
C13  34752896.378   180967449.226         221.948          46.000    34752886.579   139935472.056         171.350          47.000  
C16  35729151.325   186051064.822         278.152          47.000    35729139.926   143866441.614         215.088          47.000  
C25  21354137.910   111196593.173       -1583.925          45.000                                                                  
C32  21532577.793   112125779.964        1326.219          46.000                                                                  
C06  35499908.623   184857337.186         457.047          43.000    35499891.838   142943357.073         353.296          45.000  
G25  21742536.313   114257814.663        3186.752          42.000    21742530.102    89032039.490        2482.879          39.000  
G10  20192472.878   106112159.093        2064.238          47.000    20192461.899    82684763.744        1608.365          42.000  
G28  23261890.755   122242069.202        3123.646          37.000    23261882.867    95253502.429        2433.903          41.000  
C23  21094976.981   109847081.235        1425.220          51.000                                                                  
C09  37007498.123   192707756.291         536.848          40.000    37007485.867   149013806.879         415.030          46.000  
C33  24914545.186   129736564.623       -2620.987          35.000                                                                  
C30  24592605.444   128060137.096       -2035.387          37.000                                                                  
C27  25034324.805   130360275.163       -2776.552          36.000                                                                  
C37  24127802.914   125639797.991        3096.719          42.000                                                                  
> 2025 10 27 02 13 08.6360000  0 21                     
G12  21398270.450   112448709.686        2074.942          43.000    21398259.294    87622317.504        1617.006          40.000  
G15  21908210.727   115128410.635       -2997.512          41.000    21908200.915    89710424.810       -2335.900          39.000  
G18  21997722.339   115598799.883       -3604.768          42.000    21997712.005    90076936.183       -2808.756          40.000  
G23  18654878.079    98032045.354        -728.856          48.000    18654865.403    76388546.488        -568.043          49.000  
G24  19628392.647   103147895.014       -2674.817          40.000    19628381.546    80374930.724       -2083.984          38.000  
G32  21586943.271   113440160.045        1714.108          45.000    21586933.989    88394889.462        1335.649          42.000  
C08  34636098.913   180359251.275         -16.730          45.000    34636080.926   139465144.495         -13.025          50.000  
C13  34752894.684   180967440.355         221.832          46.000    34752884.869   139935465.199         171.356          46.000  
C16  35729149.188   186051053.698         278.063          47.000    35729137.763   143866433.010         215.076          47.000  
C25  21354150.080   111196656.525       -1583.878          45.000                                                                  
C32  21532567.576   112125726.925        1326.028          46.000                                                                  
C06  35499905.116   184857318.893         457.233          43.000    35499888.312   142943342.930         353.428          45.000  
G25  21742512.078   114257687.205        3186.524          42.000    21742505.849    89031940.167        2482.981          39.000  
G10  20192457.182   106112076.537        2063.977          47.000    20192446.184    82684699.404        1608.417          42.000  
G28  23261866.955   122241944.240        3123.859          37.000    23261859.097    95253405.064        2434.012          41.000  
C23  21094966.009   109847024.226        1425.176          51.000                                                                  
C09  37007494.018   192707734.819         536.744          40.000    37007481.711   149013790.271         415.124          46.000  
C33  24914565.321   129736669.490       -2621.461          35.000                                                                  
C30  24592621.086   128060218.517       -2035.387          37.000                                                                  
C27  25034346.138   130360386.212       -2776.402          36.000                                                                  
C37  24127779.167   125639674.123        3096.667          42.000                                                                  
> 2025 10 27 02 13 08.6760000  0 21                     
G12  21398254.672   112448626.693        2074.795          43.000    21398243.503    87622252.836        1616.818          40.000  
G15  21908233.552   115128530.539       -2997.605          41.000    21908223.729    89710518.229       -2335.668          39.000  
G18  21997749.775   115598944.067       -3604.779          42.000    21997739.421    90077048.540       -2808.942          40.000  
G23  18654883.655    98032074.512        -728.942          48.000    18654870.944    76388569.212        -568.148          49.000  
G24  19628413.002   103148002.011       -2674.951          40.000    19628401.910    80375014.109       -2084.393          38.000  
G32  21586930.235   113440091.477        1714.127          45.000    21586920.943    88394836.034        1335.675          42.000  
C08  34636099.037   180359251.952         -16.907          45.000    34636081.019   139465145.015         -13.062          50.000  
C13  34752892.955   180967431.487         221.716          46.000    34752883.169   139935458.343         171.368          46.000  
C16  35729147.063   186051042.572         278.075          47.000    35729135.621   143866424.413         214.949          47.000  
C25  21354162.241   111196719.886       -1584.011          45.000                                                                  
C32  21532557.382   112125673.885        1325.943          46.000                                                                  
C06  35499901.596   184857300.615         457.067          43.000    35499884.823   142943328.801         353.243          45.000  
G25  21742487.845   114257559.750        3186.361          42.000    21742481.590    89031840.844        2482.999          40.000  
G10  20192441.474   106111993.984        2063.788          47.000    20192430.489    82684635.067        1608.419          42.000  
G28  23261843.185   122241819.300        3123.580          37.000    23261835.323    95253307.712        2433.860          41.000  
C23  21094955.067   109846967.221        1425.114          51.000                                                                  
C09  37007489.904   192707713.380         536.118          40.000    37007477.621   149013773.673         414.987          46.000  
C33  24914585.473   129736774.340       -2621.396          35.000                                                                  
C30  24592636.695   128060299.962       -2035.894          37.000                                                                  
C27  25034367.483   130360497.253       -2776.196          36.000                                                                  
C37  24127755.378   125639550.261        3096.567          42.000                                                                  
> 2025 10 27 02 13 08.7160000  0 21                     
G12  21398238.880   112448543.706        2074.698          43.000    21398227.703    87622188.172        1616.628          40.000  
G15  21908256.370   115128650.452       -2997.802          41.000    21908246.562    89710611.681       -2336.116          39.000  
G18  21997777.215   115599088.243       -3604.565          42.000    21997766.863    90077160.884       -2808.784          40.000  
G23  18654889.217    98032103.676        -729.110          48.000    18654876.509    76388591.929        -568.026          49.000  
G24  19628433.382   103148109.012       -2675.122          40.000    19628422.278    80375097.479       -2084.302          38.000  
G32  21586917.198   113440022.911        1714.102          45.000    21586907.894    88394782.608        1335.668          42.000  
C08  34636099.182   180359252.630         -16.992          45.000    34636081.130   139465145.540         -13.159          50.000  
C13  34752891.250   180967422.622         221.606          46.000    34752881.458   139935451.479         171.515          46.000  
C16  35729144.909   186051031.450         278.038          47.000    35729133.476   143866415.812         214.951          47.000  
C25  21354174.443   111196783.236       -1583.876          45.000                                                                  
C32  21532547.189   112125620.845        1325.933          46.000                                                                  
C06  35499898.097   184857282.340         456.906          43.000    35499881.303   142943314.671         353.210          45.000  
G25  21742463.585   114257432.285        3186.464          42.000    21742457.340    89031741.515        2483.131          39.000  
G10  20192425.771   106111911.427        2063.799          47.000    20192414.764    82684570.728        1608.417          42.000  
G28  23261819.397   122241694.359        3123.405          37.000    23261811.537    95253210.340        2434.086          41.000  
C23  21094944.105   109846910.220        1425.008          51.000                                                                  
C09  37007485.811   192707691.902         536.597          40.000    37007473.494   149013757.076         414.907          46.000  
C33  24914605.608   129736879.195       -2621.458          35.000                                                                  
C30  24592652.338   128060381.391       -2035.865          37.000                                                                  
C27  25034388.807   130360608.289       -2776.036          36.000                                                                  
C37  24127731.598   125639426.405        3096.383          42.000                                                                  
> 2025 10 27 02 13 08.7560000  0 21                     
G12  21398223.074   112448460.708        2074.841          43.000    21398211.905    87622123.498        1616.727          40.000  
G15  21908279.181   115128770.347       -2997.520          41.000    21908269.385    89710705.112       -2335.952          39.000  
G18  21997804.657   115599232.436       -3604.765          42.000    21997794.311    90077273.233       -2808.715          40.000  
G23  18654894.764    98032132.833        -729.057          48.000    18654882.076    76388614.646        -567.982          49.000  
G24  19628453.725   103148215.994       -2674.780          40.000    19628442.645    80375180.862       -2084.521          38.000  
G32  21586904.133   113439954.350        1714.021          45.000    21586894.852    88394729.179        1335.693          42.000  
C08  34636099.318   180359253.287         -16.663          45.000    34636081.258   139465146.050         -12.909          50.000  
C13  34752889.558   180967413.751         221.667          46.000    34752879.741   139935444.617         171.545          46.000  
C16  35729142.777   186051020.323         278.084          47.000    35729131.333   143866407.204         215.081          47.000  
C25  21354186.588   111196846.591       -1583.869          45.000                                                                  
C32  21532536.982   112125567.796        1326.094          46.000                                                                  
C06  35499894.575   184857264.068         456.773          43.000    35499877.776   142943300.536         353.258          45.000  
G25  21742439.324   114257304.824        3186.471          42.000    21742433.106    89031642.205        2482.854          39.000  
G10  20192410.054   106111828.864        2063.951          47.000    20192399.068    82684506.408        1608.094          42.000  
G28  23261795.616   122241569.393        3123.837          37.000    23261787.777    95253112.983        2434.005          41.000  
C23  21094933.200   109846853.214        1425.049          51.000                                                                  
C09  37007481.691   192707670.431         536.740          40.000    37007469.384   149013740.471         415.033          46.000  
C33  24914625.746   129736984.047       -2621.382          35.000                                                                  
C30  24592667.970   128060462.846       -2036.205          37.000                                                                  
C27  25034410.116   130360719.333       -2776.107          36.000                                                                  
C37  24127707.829   125639302.537        3096.548          42.000                                                                  
> 2025 10 27 02 13 08.7960000  0 21                     
G12  21398207.295   112448377.719        2074.751          43.000    21398196.097    87622058.821        1616.835          40.000  
G15  21908301.982   115128890.251       -2997.577          41.000    21908292.188    89710798.542       -2335.827          39.000  
G18  21997832.104   115599376.621       -3604.708          42.000    21997821.753    90077385.581       -2808.703          40.000  
G23  18654900.314    98032161.988        -728.956          48.000    18654887.613    76388637.368        -568.058          49.000  
G24  19628474.089   103148323.002       -2675.092          40.000    19628463.005    80375264.251       -2084.760          38.000  
G32  21586891.070   113439885.787        1713.990          45.000    21586881.800    88394675.756        1335.624          42.000  
C08  34636099.451   180359253.953         -16.626          45.000    34636081.393   139465146.564         -12.842          50.000  
C13  34752887.891   180967404.882         221.692          46.000    34752878.036   139935437.759         171.460          46.000  
C16  35729140.661   186051009.194         278.176          47.000    35729129.184   143866398.603         215.042          47.000  
C25  21354198.731   111196909.948       -1583.875          45.000                                                                  
C32  21532526.815   112125514.750        1326.169          46.000                                                                  
C06  35499891.053   184857245.791         456.854          43.000    35499874.253   142943286.397         353.368          45.000  
G25  21742415.042   114257177.360        3186.535          42.000    21742408.819    89031542.877        2483.025          39.000  
G10  20192394.328   106111746.302        2063.995          47.000    20192383.383    82684442.084        1607.979          42.000  
G28  23261771.848   122241444.452        3123.633          37.000    23261763.982    95253015.630        2433.804          41.000  
C23  21094922.240   109846796.210        1425.044          51.000                                                                  
C09  37007477.584   192707648.945         537.004          40.000    37007465.262   149013723.864         415.132          46.000  
C33  24914645.857   129737088.902       -2621.451          35.000                                                                  
C30  24592683.608   128060544.275       -2035.931          38.000                                                                  
C27  25034431.453   130360830.373       -2776.095          36.000                                                                  
C37  24127684.046   125639178.670        3096.619          42.000                                                                  
> 2025 10 27 02 13 08.8360000  0 21                     
G12  21398191.489   112448294.726        2074.778          43.000    21398180.294    87621994.161        1616.600          40.000  
G15  21908324.803   115129010.158       -2997.652          41.000    21908315.014    89710891.965       -2335.604          39.000  
G18  21997859.541   115599520.800       -3604.533          42.000    21997849.203    90077497.943       -2808.984          40.000  
G23  18654905.873    98032191.148        -728.994          48.000    18654893.161    76388660.093        -568.158          49.000  
G24  19628494.442   103148430.005       -2675.189          40.000    19628483.349    80375347.615       -2084.296          38.000  
G32  21586877.998   113439817.221        1714.067          45.000    21586868.753    88394622.321        1335.749          42.000  
C08  34636099.574   180359254.627         -16.779          45.000    34636081.511   139465147.085         -12.964          50.000  
C13  34752886.167   180967396.012         221.753          46.000    34752876.326   139935430.905         171.362          46.000  
C16  35729138.521   186050998.072         278.097          47.000    35729127.040   143866390.004         214.951          47.000  
C25  21354210.843   111196973.318       -1584.147          45.000                                                                  
C32  21532516.649   112125461.700        1326.230          46.000                                                                  
C06  35499887.521   184857227.507         456.992          43.000    35499870.722   142943272.261         353.367          45.000  
G25  21742390.798   114257049.898        3186.548          42.000    21742384.573    89031443.567        2482.818          39.000  
G10  20192378.603   106111663.732        2064.177          47.000    20192367.667    82684377.741        1608.282          42.000  
G28  23261748.067   122241319.516        3123.411          37.000    23261740.222    95252918.265        2433.948          41.000  
C23  21094911.264   109846739.211        1424.968          51.000                                                                  
C09  37007473.466   192707627.478         536.847          40.000    37007461.144   149013707.263         415.031          46.000  
C33  24914665.988   129737193.759       -2621.570          35.000                                                                  
C30  24592699.230   128060625.691       -2035.569          38.000                                                                  
C27  25034452.796   130360941.422       -2776.238          36.000                                                                  
C37  24127660.246   125639054.810        3096.548          42.000                                                                  
> 2025 10 27 02 13 08.8760000  0 21                     
G12  21398175.710   112448211.742        2074.633          43.000    21398164.510    87621929.502        1616.436          40.000  
G15  21908347.630   115129130.060       -2997.557          41.000    21908337.824    89710985.395       -2335.668          39.000  
G18  21997886.964   115599664.979       -3604.491          42.000    21997876.643    90077610.304       -2809.088          40.000  
G23  18654911.437    98032220.311        -729.095          48.000    18654898.705    76388682.814        -568.106          49.000  
G24  19628514.795   103148537.003       -2675.061          40.000    19628503.689    80375430.991       -2084.381          38.000  
G32  21586864.963   113439748.656        1714.059          44.000    21586855.713    88394568.901        1335.540          42.000  
C08  34636099.718   180359255.316         -17.145          45.000    34636081.623   139465147.607         -13.049          50.000  
C13  34752884.464   180967387.146         221.680          46.000    34752874.609   139935424.052         171.265          46.000  
C16  35729136.384   186050986.957         277.909          47.000    35729124.926   143866381.398         215.055          47.000  
C25  21354223.006   111197036.676       -1584.048          45.000                                                                  
C32  21532506.434   112125408.663        1326.025          46.000                                                                  
C06  35499884.011   184857209.228         456.989          44.000    35499867.204   142943258.134         353.216          45.000  
G25  21742366.544   114256922.438        3186.489          42.000    21742360.312    89031344.238        2483.116          39.000  
G10  20192362.914   106111581.167        2064.158          47.000    20192351.959    82684313.398        1608.500          42.000  
G28  23261724.302   122241194.576        3123.387          37.000    23261716.449    95252820.905        2434.003          41.000  
C23  21094900.348   109846682.213        1424.918          51.000                                                                  
C09  37007469.346   192707606.014         536.647          40.000    37007457.034   149013690.663         414.969          46.000  
C33  24914686.125   129737298.616       -2621.544          35.000                                                                  
C30  24592714.868   128060707.129       -2035.767          38.000                                                                  
C27  25034474.105   130361052.488       -2776.560          36.000                                                                  
C37  24127636.448   125638930.949        3096.463          42.000                                                                  
> 2025 10 27 02 13 08.9160000  0 21                     
G12  21398159.899   112448128.755        2074.616          43.000    21398148.719    87621864.843        1616.370          40.000  
G15  21908370.452   115129249.981       -2997.882          41.000    21908360.640    89711078.821       -2335.656          39.000  
G18  21997914.416   115599809.168       -3604.648          42.000    21997904.087    90077722.645       -2808.788          40.000  
G23  18654917.005    98032249.475        -729.117          48.000    18654904.269    76388705.542        -568.199          49.000  
G24  19628535.170   103148644.007       -2675.128          40.000    19628524.064    80375514.366       -2084.430          38.000  
G32  21586851.913   113439680.097        1714.023          44.000    21586842.681    88394515.485        1335.378          42.000  
C08  34636099.864   180359255.990         -17.029          45.000    34636081.756   139465148.131         -13.116          50.000  
C13  34752882.747   180967378.285         221.533          46.000    34752872.913   139935417.191         171.399          47.000  
C16  35729134.250   186050975.838         277.873          47.000    35729122.813   143866372.797         215.023          47.000  
C25  21354235.171   111197100.042       -1584.137          45.000                                                                  
C32  21532496.236   112125355.634        1325.794          46.000                                                                  
C06  35499880.516   184857190.951         456.948          44.000    35499863.687   142943243.999         353.264          45.000  
G25  21742342.293   114256794.986        3186.288          42.000    21742336.054    89031244.916        2483.153          39.000  
G10  20192347.225   106111498.616        2063.905          47.000    20192336.242    82684249.075        1608.212          42.000  
G28  23261700.521   122241069.627        3123.593          37.000    23261692.675    95252723.542        2434.076          41.000  
C23  21094889.389   109846625.218        1424.844          51.000                                                                  
C09  37007465.242   192707584.542         536.724          40.000    37007452.896   149013674.060         415.032          46.000  
C33  24914706.268   129737403.461       -2621.344          35.000                                                                  
C30  24592730.530   128060788.586       -2036.245          38.000                                                                  
C27  25034495.425   130361163.552       -2776.655          36.000                                                                  
C37  24127612.661   125638807.092        3096.342          42.000                                                                  
> 2025 10 27 02 13 08.9560000  0 21                     
G12  21398144.107   112448045.766        2074.661          43.000    21398132.913    87621800.168        1616.666          40.000  
G15  21908393.290   115129369.886       -2997.762          41.000    21908383.479    89711172.272       -2336.130          39.000  
G18  21997941.854   115599953.355       -3604.671          42.000    21997931.503    90077835.001       -2808.844          40.000  
G23  18654922.564    98032278.647        -729.280          48.000    18654909.815    76388728.268        -568.198          49.000  
G24  19628555.533   103148750.991       -2674.780          40.000    19628544.402    80375597.735       -2084.363          38.000  
G32  21586838.861   113439611.536        1713.999          44.000    21586829.637    88394462.047        1335.721          42.000  
C08  34636099.999   180359256.662         -16.870          45.000    34636081.871   139465148.652         -13.092          50.000  
C13  34752881.082   180967369.408         221.790          46.000    34752871.200   139935410.332         171.436          47.000  
C16  35729132.137   186050964.718         277.915          47.000    35729120.682   143866364.202         214.894          47.000  
C25  21354247.340   111197163.404       -1584.077          45.000                                                                  
C32  21532486.072   112125302.596        1325.842          46.000                                                                  
C06  35499876.994   184857172.679         456.859          43.000    35499860.230   142943229.871         353.173          45.000  
G25  21742318.040   114256667.528        3186.329          42.000    21742311.806    89031145.608        2482.862          39.000  
G10  20192331.511   106111416.064        2063.793          47.000    20192320.524    82684184.743        1608.196          42.000  
G28  23261676.756   122240944.679        3123.741          37.000    23261668.893    95252626.189        2433.943          41.000  
C23  21094878.461   109846568.218        1424.910          51.000                                                                  
C09  37007461.102   192707563.076         536.675          40.000    37007448.776   149013657.457         415.063          46.000  
C33  24914726.422   129737508.312       -2621.244          35.000                                                                  
C30  24592746.156   128060870.015       -2035.983          38.000                                                                  
C27  25034516.738   130361274.584       -2776.099          36.000                                                                  
C37  24127588.849   125638683.228        3096.442          42.000                                                                  
> 2025 10 27 02 13 08.9960000  0 21                     
G12  21398128.313   112447962.773        2074.750          43.000    21398117.122    87621735.495        1616.804          40.000  
G15  21908416.098   115129489.783       -2997.543          41.000    21908406.299    89711265.701       -2335.927          39.000  
G18  21997969.293   115600097.550       -3604.858          42.000    21997958.938    90077947.360       -2808.944          40.000  
G23  18654928.119    98032307.813        -729.266          48.000    18654915.358    76388750.992        -568.160          49.000  
G24  19628575.895   103148857.987       -2674.817          40.000    19628564.769    80375681.106       -2084.302          38.000  
G32  21586825.822   113439542.977        1713.923          44.000    21586816.577    88394408.625        1335.638          42.000  
C08  34636100.174   180359257.334         -16.797          45.000    34636081.977   139465149.172         -13.062          50.000  
C13  34752879.387   180967360.538         221.765          46.000    34752869.494   139935403.476         171.423          46.000  
C16  35729130.023   186050953.588         278.131          47.000    35729118.548   143866355.604         214.890          47.000  
C25  21354259.526   111197226.764       -1584.027          45.000                                                                  
C32  21532475.899   112125249.554        1325.971          46.000                                                                  
C06  35499873.483   184857154.393         457.045          43.000    35499856.706   142943215.731         353.378          45.000  
G25  21742293.794   114256540.073        3186.363          42.000    21742287.544    89031046.302        2482.598          39.000  
G10  20192315.793   106111333.507        2063.826          47.000    20192304.822    82684120.414        1608.187          42.000  
G28  23261652.965   122240819.736        3123.673          37.000    23261645.095    95252528.822        2434.009          41.000  
C23  21094867.531   109846511.219        1424.911          51.000                                                                  
C09  37007457.004   192707541.612         536.587          40.000    37007444.683   149013640.857         415.026          46.000  
C33  24914746.553   129737613.175       -2621.508          35.000                                                                  
C30  24592761.813   128060951.467       -2036.239          38.000                                                                  
C27  25034538.081   130361385.609       -2775.666          36.000                                                                  
C37  24127565.072   125638559.362        3096.518          42.000                                                                  
> 2025 10 27 02 13 09.0360000  0 21                     
G12  21398112.502   112447879.791        2074.571          43.000    21398101.342    87621670.843        1616.478          40.000  
G15  21908438.930   115129609.690       -2997.627          41.000    21908429.108    89711359.133       -2335.821          39.000  
G18  21997996.750   115600241.748       -3604.974          42.000    21997986.360    90078059.710       -2808.851          40.000  
G23  18654933.673    98032336.981        -729.284          48.000    18654920.931    76388773.720        -568.223          49.000  
G24  19628596.248   103148964.998       -2675.165          40.000    19628585.146    80375764.488       -2084.497          38.000  
G32  21586812.762   113439474.413        1714.006          44.000    21586803.530    88394355.207        1335.493          42.000  
C08  34636100.321   180359258.000         -16.656          45.000    34636082.117   139465149.695         -13.080          50.000  
C13  34752877.698   180967351.671         221.716          46.000    34752867.792   139935396.617         171.442          46.000  
C16  35729127.901   186050942.460         278.198          47.000    35729116.400   143866347.003         214.944          47.000  
C25  21354271.704   111197290.126       -1584.046          45.000                                                                  
C32  21532465.713   112125196.510        1326.072          46.000                                                                  
C06  35499869.957   184857136.124         456.872          43.000    35499853.182   142943201.594         353.388          45.000  
G25  21742269.539   114256412.622        3186.288          42.000    21742263.293    89030946.984        2482.733          39.000  
G10  20192300.072   106111250.953        2063.831          47.000    20192289.113    82684056.077        1608.279          42.000  
G28  23261629.182   122240694.805        3123.400          37.000    23261621.318    95252431.472        2433.812          41.000  
C23  21094856.582   109846454.225        1424.846          51.000                                                                  
C09  37007452.871   192707520.145         536.575          40.000    37007440.551   149013624.266         414.833          46.000  
C33  24914766.712   129737718.055       -2621.948          35.000                                                                  
C30  24592777.441   128061032.902       -2036.003          38.000                                                                  
C27  25034559.410   130361496.646       -2775.823          36.000                                                                  
C37  24127541.312   125638435.503        3096.481          42.000                                                                  
> 2025 10 27 02 13 09.0760000  0 21                     
G12  21398096.702   112447796.810        2074.457          43.000    21398085.561    87621606.179        1616.511          40.000  
G15  21908461.746   115129729.602       -2997.763          41.000    21908451.918    89711452.563       -2335.746          39.000  
G18  21998024.191   115600385.929       -3604.718          42.000    21998013.818    90078172.070       -2809.007          40.000  
G23  18654939.205    98032366.150        -729.283          48.000    18654926.486    76388796.451        -568.285          49.000  
G24  19628616.618   103149072.013       -2675.409          40.000    19628605.520    80375847.882       -2084.778          38.000  
G32  21586799.716   113439405.857        1713.911          44.000    21586790.500    88394301.780        1335.563          42.000  
C08  34636100.457   180359258.675         -16.766          45.000    34636082.239   139465150.217         -13.098          50.000  
C13  34752875.970   180967342.810         221.576          46.000    34752866.110   139935389.768         171.271          46.000  
C16  35729125.726   186050931.341         278.051          47.000    35729114.285   143866338.404         214.910          47.000  
C25  21354283.870   111197353.505       -1584.364          45.000                                                                  
C32  21532455.539   112125143.473        1326.020          46.000                                                                  
C06  35499866.443   184857117.852         456.781          43.000    35499849.680   142943187.462         353.313          45.000  
G25  21742245.257   114256285.154        3186.565          42.000    21742239.026    89030847.664        2482.892          39.000  
G10  20192284.353   106111168.399        2063.790          47.000    20192273.415    82683991.764        1607.928          42.000  
G28  23261605.391   122240569.852        3123.601          37.000    23261597.559    95252334.122        2433.716          41.000  
C23  21094845.632   109846397.232        1424.811          51.000                                                                  
C09  37007448.735   192707498.682         536.570          40.000    37007436.442   149013607.665         414.909          46.000  
C33  24914786.828   129737822.887       -2621.146          35.000                                                                  
C30  24592793.093   128061114.332       -2035.797          38.000                                                                  
C27  25034580.721   130361607.702       -2776.272          36.000                                                                  
C37  24127517.527   125638311.640        3096.544          42.000                                                                  
> 2025 10 27 02 13 09.1160000  0 21                     
G12  21398080.915   112447713.831        2074.377          43.000    21398069.746    87621541.508        1616.710          40.000  
G15  21908484.562   115129849.520       -2997.917          41.000    21908474.726    89711546.008       -2336.034          39.000  
G18  21998051.625   115600530.118       -3604.731          42.000    21998041.278    90078284.433       -2809.086          40.000  
G23  18654944.755    98032395.321        -729.319          48.000    18654932.049    76388819.186        -568.403          49.000  
G24  19628637.001   103149179.031       -2675.586          40.000    19628625.894    80375931.263       -2084.674          38.000  
G32  21586786.638   113439337.293        1714.019          44.000    21586777.446    88394248.357        1335.563          42.000  
C08  34636100.611   180359259.351         -16.901          45.000    34636082.389   139465150.743         -13.177          50.000  
C13  34752874.275   180967333.952         221.436          46.000    34752864.418   139935382.913         171.289          46.000  
C16  35729123.567   186050920.227         277.898          47.000    35729112.161   143866329.811         214.833          47.000  
C25  21354296.032   111197416.877       -1584.409          45.000                                                                  
C32  21532445.366   112125090.436        1325.923          46.000                                                                  
C06  35499862.939   184857099.584         456.687          43.000    35499846.197   142943173.343         353.055          45.000  
G25  21742221.004   114256157.698        3186.500          42.000    21742214.767    89030748.338        2483.060          40.000  
G10  20192268.637   106111085.846        2063.793          47.000    20192257.699    82683927.430        1608.152          42.000  
G28  23261581.618   122240444.930        3123.213          37.000    23261573.790    95252236.754        2434.010          41.000  
C23  21094834.719   109846340.237        1424.812          51.000                                                                  
C09  37007444.615   192707477.222         536.509          40.000    37007432.324   149013591.072         414.847          46.000  
C33  24914806.961   129737927.732       -2620.924          35.000                                                                  
C30  24592808.736   128061195.781       -2036.102          38.000                                                                  
C27  25034602.067   130361718.762       -2776.460          36.000                                                                  
C37  24127493.727   125638187.789        3096.359          42.000                                                                  
> 2025 10 27 02 13 09.1560000  0 21                     
G12  21398065.113   112447630.843        2074.520          43.000    21398053.962    87621476.845        1616.652          40.000  
G15  21908507.379   115129969.429       -2997.816          41.000    21908497.540    89711639.444       -2335.989          39.000  
G18  21998079.071   115600674.311       -3604.863          42.000    21998068.711    90078396.785       -2808.879          40.000  
G23  18654950.299    98032424.490        -729.294          48.000    18654937.600    76388841.914        -568.326          49.000  
G24  19628657.368   103149286.034       -2675.311          40.000    19628646.271    80376014.653       -2084.698          38.000  
G32  21586773.596   113439268.736        1713.924          44.000    21586764.381    88394194.937        1335.481          42.000  
C08  34636100.752   180359260.032         -17.023          45.000    34636082.540   139465151.268         -13.177          50.000  
C13  34752872.570   180967325.094         221.393          46.000    34752862.717   139935376.063         171.234          46.000  
C16  35729121.405   186050909.116         277.760          47.000    35729110.041   143866321.213         214.876          47.000  
C25  21354308.220   111197480.244       -1584.293          45.000                                                                  
C32  21532435.144   112125037.406        1325.759          46.000                                                                  
C06  35499859.451   184857081.317         456.621          43.000    35499842.681   142943159.214         353.079          45.000  
G25  21742196.756   114256030.245        3186.354          42.000    21742190.522    89030649.030        2482.801          40.000  
G10  20192252.936   106111003.298        2063.702          47.000    20192241.981    82683863.120        1607.861          42.000  
G28  23261557.858   122240319.987        3123.408          37.000    23261550.012    95252139.390        2434.077          41.000  
C23  21094823.740   109846283.247        1424.743          51.000                                                                  
C09  37007440.513   192707455.755         536.603          40.000    37007428.193   149013574.475         414.873          46.000  
C33  24914827.108   129738032.626       -2621.849          35.000                                                                  
C30  24592824.388   128061277.211       -2035.842          37.000                                                                  
C27  25034623.382   130361829.821       -2776.456          36.000                                                                  
C37  24127469.942   125638063.928        3096.426          42.000                                                                  
> 2025 10 27 02 13 09.1960000  0 21                     
G12  21398049.339   112447547.871        2074.351          43.000    21398038.187    87621412.191        1616.434          40.000  
G15  21908530.194   115130089.344       -2997.859          41.000    21908520.340    89711732.876       -2335.844          39.000  
G18  21998106.527   115600818.512       -3605.042          42.000    21998096.146    90078509.142       -2808.918          40.000  
G23  18654955.847    98032453.661        -729.293          48.000    18654943.137    76388864.648        -568.363          49.000  
G24  19628677.705   103149393.042       -2675.226          40.000    19628666.639    80376098.039       -2084.680          38.000  
G32  21586760.547   113439200.176        1713.944          44.000    21586751.331    88394141.515        1335.489          42.000  
C08  34636100.893   180359260.710         -17.023          45.000    34636082.669   139465151.792         -13.141          50.000  
C13  34752870.876   180967316.228         221.521          46.000    34752861.012   139935369.210         171.246          46.000  
C16  35729119.280   186050898.003         277.747          47.000    35729107.901   143866312.616         214.889          47.000  
C25  21354320.382   111197543.612       -1584.248          45.000                                                                  
C32  21532424.977   112124984.372        1325.782          46.000                                                                  
C06  35499855.935   184857063.025         457.069          43.000    35499839.171   142943145.079         353.255          45.000  
G25  21742172.522   114255902.788        3186.381          42.000    21742166.268    89030549.717        2482.836          40.000  
G10  20192237.212   106110920.748        2063.672          47.000    20192226.275    82683798.785        1608.145          42.000  
G28  23261534.099   122240195.032        3123.754          37.000    23261526.230    95252042.039        2433.811          41.000  
C23  21094812.764   109846226.258        1424.713          51.000                                                                  
C09  37007436.400   192707434.284         536.733          40.000    37007424.061   149013557.876         414.916          46.000  
C33  24914847.241   129738137.485       -2621.721          35.000                                                                  
C30  24592840.034   128061358.653       -2035.957          37.000                                                                  
C27  25034644.692   130361940.855       -2775.981          36.000                                                                  
C37  24127446.174   125637940.058        3096.657          42.000                                                                  
> 2025 10 27 02 13 09.2360000  0 21                     
G12  21398033.557   112447464.881        2074.581          43.000    21398022.397    87621347.534        1616.347          40.000  
G15  21908553.006   115130209.244       -2997.629          41.000    21908543.161    89711826.316       -2335.926          39.000  
G18  21998133.959   115600962.696       -3604.810          42.000    21998123.568    90078621.487       -2808.688          40.000  
G23  18654961.387    98032482.836        -729.368          48.000    18654948.700    76388887.380        -568.350          49.000  
G24  19628698.059   103149500.037       -2674.963          40.000    19628687.006    80376181.432       -2084.784          38.000  
G32  21586747.502   113439131.612        1714.038          44.000    21586738.295    88394088.088        1335.616          42.000  
C08  34636101.066   180359261.387         -16.986          45.000    34636082.845   139465152.313         -13.068          50.000  
C13  34752869.182   180967307.357         221.698          46.000    34752859.302   139935362.351         171.356          46.000  
C16  35729117.141   186050886.886         277.815          47.000    35729105.749   143866304.013         214.999          47.000  
C25  21354332.539   111197606.988       -1584.427          45.000                                                                  
C32  21532414.805   112124931.333        1325.891          46.000                                                                  
C06  35499852.411   184857044.754         456.909          43.000    35499835.623   142943130.949         353.253          45.000  
G25  21742148.246   114255775.332        3186.362          42.000    21742142.021    89030450.391        2482.984          40.000  
G10  20192221.517   106110838.200        2063.647          47.000    20192210.580    82683734.451        1608.280          42.000  
G28  23261510.315   122240070.095        3123.562          37.000    23261502.471    95251944.690        2433.629          41.000  
C23  21094801.804   109846169.268        1424.715          51.000                                                                  
C09  37007432.274   192707412.826         536.590          40.000    37007419.915   149013541.274         414.997          46.000  
C33  24914867.369   129738242.363       -2621.944          35.000                                                                  
C30  24592855.675   128061440.098       -2036.115          37.000                                                                  
C27  25034666.042   130362051.892       -2775.803          36.000                                                                  
C37  24127422.407   125637816.205        3096.448          42.000                                                                  
> 2025 10 27 02 13 09.2760000  0 21                     
G12  21398017.752   112447381.897        2074.637          43.000    21398006.621    87621282.877        1616.310          40.000  
G15  21908575.805   115130329.151       -2997.650          41.000    21908565.985    89711919.742       -2335.721          39.000  
G18  21998161.401   115601106.883       -3604.685          42.000    21998151.015    90078733.844       -2808.757          40.000  
G23  18654966.951    98032512.012        -729.424          48.000    18654954.251    76388910.112        -568.343          49.000  
G24  19628718.417   103149607.031       -2674.847          40.000    19628707.357    80376264.788       -2084.174          38.000  
G32  21586734.466   113439063.054        1713.994          44.000    21586725.263    88394034.666        1335.557          42.000  
C08  34636101.198   180359262.061         -16.907          45.000    34636082.996   139465152.831         -12.994          50.000  
C13  34752867.466   180967298.489         221.735          46.000    34752857.591   139935355.497         171.338          47.000  
C16  35729115.032   186050875.757         278.099          47.000    35729103.606   143866295.418         214.905          47.000  
C25  21354344.743   111197670.353       -1584.254          45.000                                                                  
C32  21532404.651   112124878.295        1325.929          46.000                                                                  
C06  35499848.886   184857026.480         456.869          43.000    35499832.098   142943116.821         353.185          45.000  
G25  21742124.005   114255647.886        3186.180          42.000    21742117.778    89030351.088        2482.694          39.000  
G10  20192205.795   106110755.637        2063.928          47.000    20192194.872    82683670.135        1608.031          42.000  
G28  23261486.546   122239945.142        3123.748          37.000    23261478.697    95251847.335        2433.719          41.000  
C23  21094790.895   109846112.272        1424.824          51.000                                                                  
C09  37007428.152   192707391.364         536.546          40.000    37007415.784   149013524.672         415.039          46.000  
C33  24914887.526   129738347.197       -2621.207          35.000                                                                  
C30  24592871.294   128061521.534       -2036.045          37.000                                                                  
C27  25034687.387   130362162.937       -2775.963          36.000                                                                  
C37  24127398.618   125637692.354        3096.323          42.000                                                                  
> 2025 10 27 02 13 09.3160000  0 21                     
G12  21398001.978   112447298.917        2074.546          43.000    21397990.835    87621218.213        1616.453          40.000  
G15  21908598.636   115130449.062       -2997.788          41.000    21908588.808    89712013.179       -2335.841          39.000  
G18  21998188.841   115601251.079       -3604.836          42.000    21998178.443    90078846.199       -2808.839          40.000  
G23  18654972.503    98032541.184        -729.373          48.000    18654959.797    76388932.844        -568.324          49.000  
G24  19628738.784   103149714.043       -2675.146          40.000    19628727.711    80376348.149       -2083.948          38.000  
G32  21586721.428   113438994.490        1714.090          44.000    21586712.221    88393981.246        1335.475          42.000  
C08  34636101.338   180359262.733         -16.833          45.000    34636083.120   139465153.354         -13.037          50.000  
C13  34752865.774   180967289.620         221.710          46.000    34752855.884   139935348.631         171.552          47.000  
C16  35729112.905   186050864.634         278.119          47.000    35729101.470   143866286.819         214.939          47.000  
C25  21354356.932   111197733.720       -1584.210          45.000                                                                  
C32  21532394.471   112124825.260        1325.895          46.000                                                                  
C06  35499845.384   184857008.212         456.717          43.000    35499828.596   142943102.684         353.350          45.000  
G25  21742099.728   114255520.430        3186.283          42.000    21742093.523    89030251.769        2482.842          39.000  
G10  20192190.105   106110673.083        2063.888          47.000    20192179.143    82683605.800        1608.203          42.000  
G28  23261462.775   122239820.203        3123.613          37.000    23261454.923    95251749.977        2433.828          41.000  
C23  21094779.934   109846055.283        1424.759          51.000                                                                  
C09  37007424.009   192707369.898         536.615          40.000    37007411.660   149013508.082         414.796          46.000  
C33  24914907.689   129738452.054       -2621.260          35.000                                                                  
C30  24592886.935   128061602.973       -2036.032          37.000                                                                  
C27  25034708.730   130362273.996       -2776.325          36.000                                                                  
C37  24127374.815   125637568.507        3096.178          42.000                                                                  
> 2025 10 27 02 13 09.3560000  0 21                     
G12  21397986.212   112447215.942        2074.413          43.000    21397975.029    87621153.554        1616.427          40.000  
G15  21908621.455   115130568.967       -2997.745          41.000    21908611.636    89712106.612       -2335.790          39.000  
G18  21998216.283   115601395.274       -3604.905          42.000    21998205.883    90078958.555       -2808.889          40.000  
G23  18654978.059    98032570.358        -729.379          48.000    18654965.340    76388955.579        -568.406          49.000  
G24  19628759.165   103149821.068       -2675.568          40.000    19628748.087    80376431.546       -2084.650          38.000  
G32  21586708.391   113438925.939        1713.855          44.000    21586699.173    88393927.825        1335.457          42.000  
C08  34636101.469   180359263.411         -16.901          45.000    34636083.279   139465153.875         -13.055          50.000  
C13  34752864.071   180967280.760         221.533          46.000    34752854.177   139935341.781         171.368          47.000  
C16  35729110.744   186050853.516         278.011          47.000    35729099.332   143866278.225         214.875          47.000  
C25  21354369.077   111197797.103       -1584.464          45.000                                                                  
C32  21532384.261   112124772.222        1325.895          46.000                                                                  
C06  35499841.891   184856989.936         456.807          43.000    35499825.110   142943088.553         353.294          45.000  
G25  21742075.474   114255392.968        3186.472          42.000    21742069.266    89030152.453        2482.892          39.000  
G10  20192174.412   106110590.535        2063.739          47.000    20192163.427    82683541.470        1608.219          42.000  
G28  23261438.995   122239695.265        3123.536          37.000    23261431.124    95251652.618        2433.877          41.000  
C23  21094768.961   109845998.296        1424.682          51.000                                                                  
C09  37007419.899   192707348.431         536.620          40.000    37007407.545   149013491.493         414.711          46.000  
C33  24914927.811   129738556.905       -2621.244          35.000                                                                  
C30  24592902.582   128061684.421       -2036.137          37.000                                                                  
C27  25034730.068   130362385.038       -2776.179          36.000                                                                  
C37  24127351.028   125637444.645        3096.388          42.000                                                                  
> 2025 10 27 02 13 09.3960000  0 21                     
G12  21397970.423   112447132.962        2074.467          43.000    21397959.250    87621088.895        1616.427          40.000  
G15  21908644.298   115130688.876       -2997.756          41.000    21908634.439    89712200.065       -2336.208          39.000  
G18  21998243.709   115601539.461       -3604.836          42.000    21998233.322    90079070.933       -2809.318          40.000  
G23  18654983.619    98032599.540        -729.542          48.000    18654970.903    76388978.318        -568.494          49.000  
G24  19628779.541   103149928.094       -2675.787          40.000    19628768.473    80376514.953       -2085.132          38.000  
G32  21586695.336   113438857.375        1713.995          44.000    21586686.123    88393874.401        1335.515          42.000  
C08  34636101.600   180359264.095         -17.072          45.000    34636083.425   139465154.405         -13.208          50.000  
C13  34752862.387   180967271.903         221.387          46.000    34752852.477   139935334.934         171.204          47.000  
C16  35729108.635   186050842.402         277.855          47.000    35729097.223   143866269.630         214.865          47.000  
C25  21354381.270   111197860.473       -1584.359          45.000                                                                  
C32  21532374.080   112124719.187        1325.870          46.000                                                                  
C06  35499838.381   184856971.671         456.630          43.000    35499821.604   142943074.427         353.168          45.000  
G25  21742051.223   114255265.516        3186.376          42.000    21742045.017    89030053.131        2483.036          39.000  
G10  20192158.718   106110507.990        2063.601          47.000    20192147.724    82683477.153        1607.996          42.000  
G28  23261415.221   122239570.332        3123.388          37.000    23261407.349    95251555.278        2433.556          41.000  
C23  21094758.039   109845941.308        1424.644          51.000                                                                  
C09  37007415.778   192707326.963         536.651          40.000    37007403.400   149013474.899         414.769          46.000  
C33  24914947.938   129738661.767       -2621.483          35.000                                                                  
C30  24592918.229   128061765.876       -2036.324          38.000                                                                  
C27  25034751.408   130362496.080       -2776.034          36.000                                                                  
C37  24127327.264   125637320.782        3096.542          42.000                                                                  
> 2025 10 27 02 13 09.4360000  0 21                     
G12  21397954.649   112447049.986        2074.357          43.000    21397943.465    87621024.235        1616.467          40.000  
G15  21908667.119   115130808.789       -2997.862          41.000    21908657.266    89712293.498       -2336.083          39.000  
G18  21998271.136   115601683.654       -3604.810          42.000    21998260.753    90079183.286       -2809.040          40.000  
G23  18654989.166    98032628.718        -729.533          48.000    18654976.439    76389001.054        -568.473          49.000  
G24  19628799.904   103150035.101       -2675.488          40.000    19628788.832    80376598.337       -2084.851          38.000  
G32  21586682.292   113438788.817        1713.989          44.000    21586673.051    88393820.976        1335.583          42.000  
C08  34636101.752   180359264.776         -17.090          45.000    34636083.570   139465154.934         -13.281          50.000  
C13  34752860.690   180967263.036         221.527          46.000    34752850.748   139935328.075         171.332          47.000  
C16  35729106.494   186050831.294         277.685          47.000    35729095.077   143866261.035         214.851          47.000  
C25  21354393.445   111197923.854       -1584.492          45.000                                                                  
C32  21532363.893   112124666.153        1325.839          46.000                                                                  
C06  35499834.863   184856953.400         456.667          43.000    35499818.084   142943060.306         353.007          45.000  
G25  21742026.973   114255138.070        3186.162          42.000    21742020.769    89029953.821        2482.846          40.000  
G10  20192142.996   106110425.435        2063.721          47.000    20192132.004    82683412.836        1607.882          42.000  
G28  23261391.439   122239445.400        3123.279          37.000    23261383.578    95251457.917        2433.742          41.000  
C23  21094747.097   109845884.324        1424.563          51.000                                                                  
C09  37007411.654   192707305.499         536.588          40.000    37007399.283   149013458.304         414.850          46.000  
C33  24914968.085   129738766.638       -2621.768          35.000                                                                  
C30  24592933.858   128061847.330       -2036.429          37.000                                                                  
C27  25034772.730   130362607.145       -2776.371          36.000                                                                  
C37  24127303.500   125637196.908        3096.813          42.000                                                                  
> 2025 10 27 02 13 09.4760000  0 21                     
G12  21397938.848   112446967.015        2074.264          43.000    21397927.650    87620959.578        1616.415          40.000  
G15  21908689.950   115130928.717       -2998.140          41.000    21908680.077    89712386.943       -2336.270          39.000  
G18  21998298.546   115601827.846       -3604.797          42.000    21998288.181    90079295.634       -2808.785          40.000  
G23  18654994.734    98032657.900        -729.602          48.000    18654981.990    76389023.792        -568.491          49.000  
G24  19628820.256   103150142.100       -2675.153          40.000    19628809.191    80376681.724       -2084.705          38.000  
G32  21586669.234   113438720.266        1713.800          44.000    21586660.025    88393767.560        1335.406          42.000  
C08  34636101.914   180359265.453         -17.029          45.000    34636083.698   139465155.459         -13.232          50.000  
C13  34752858.994   180967254.177         221.466          46.000    34752849.052   139935321.231         171.143          47.000  
C16  35729104.373   186050820.182         277.690          47.000    35729092.905   143866252.441         214.840          47.000  
C25  21354405.595   111197987.233       -1584.515          45.000                                                                  
C32  21532353.688   112124613.121        1325.783          46.000                                                                  
C06  35499831.326   184856935.129         456.716          43.000    35499814.567   142943046.183         352.988          45.000  
G25  21742002.729   114255010.620        3186.190          42.000    21741996.526    89029854.511        2482.759          40.000  
G10  20192127.280   106110342.892        2063.589          47.000    20192116.286    82683348.512        1607.954          42.000  
G28  23261367.638   122239320.473        3123.148          37.000    23261359.795    95251360.576        2433.567          41.000  
C23  21094736.132   109845827.341        1424.515          51.000                                                                  
C09  37007407.533   192707284.041         536.427          40.000    37007395.196   149013441.700         415.037          46.000  
C33  24914988.203   129738871.504       -2621.822          35.000                                                                  
C30  24592949.507   128061928.763       -2036.055          37.000                                                                  
C27  25034794.046   130362718.189       -2776.176          36.000                                                                  
C37  24127279.714   125637073.054        3096.562          42.000                                                                  
> 2025 10 27 02 13 09.5160000  0 21                     
G12  21397923.055   112446884.044        2074.197          43.000    21397911.872    87620894.931        1616.180          40.000  
G15  21908712.778   115131048.635       -2998.094          41.000    21908702.890    89712480.377       -2336.049          39.000  
G18  21998325.983   115601972.039       -3604.810          42.000    21998315.611    90079408.010       -2809.236          40.000  
G23  18655000.295    98032687.085        -729.683          48.000    18654987.556    76389046.536        -568.604          49.000  
G24  19628840.624   103150249.108       -2675.122          40.000    19628829.546    80376765.111       -2084.705          38.000  
G32  21586656.203   113438651.712        1713.783          44.000    21586646.988    88393714.143        1335.325          42.000  
C08  34636102.067   180359266.138         -17.120          45.000    34636083.829   139465155.986         -13.220          50.000  
C13  34752857.264   180967245.323         221.338          46.000    34752847.350   139935314.379         171.198          47.000  
C16  35729102.234   186050809.062         277.841          47.000    35729090.761   143866243.847         214.821          47.000  
C25  21354417.804   111198050.615       -1584.570          45.000                                                                  
C32  21532343.513   112124560.093        1325.708          46.000                                                                  
C06  35499827.810   184856916.859         456.743          43.000    35499811.064   142943032.047         353.193          45.000  
G25  21741978.480   114254883.178        3186.066          42.000    21741972.277    89029755.229        2482.188          39.000  
G10  20192111.594   106110260.358        2063.372          47.000    20192100.587    82683284.196        1607.836          42.000  
G28  23261343.876   122239195.537        3123.280          37.000    23261336.028    95251263.218        2433.757          41.000  
C23  21094725.185   109845770.360        1424.479          51.000                                                                  
C09  37007403.409   192707262.585         536.405          40.000    37007391.072   149013425.098         415.059          46.000  
C33  24915008.340   129738976.352       -2621.414          35.000                                                                  
C30  24592965.152   128062010.210       -2036.063          37.000                                                                  
C27  25034815.363   130362829.248       -2776.427          36.000                                                                  
C37  24127255.926   125636949.204        3096.311          42.000                                                                  
> 2025 10 27 02 13 09.5560000  0 21                     
G12  21397907.267   112446801.076        2074.149          43.000    21397896.084    87620830.276        1616.260          40.000  
G15  21908735.582   115131168.544       -2997.862          41.000    21908725.713    89712573.816       -2335.986          39.000  
G18  21998353.433   115602116.241       -3605.010          42.000    21998343.049    90079520.373       -2809.253          40.000  
G23  18655005.844    98032716.271        -729.738          48.000    18654993.110    76389069.276        -568.583          49.000  
G24  19628860.999   103150356.127       -2675.366          40.000    19628849.896    80376848.502       -2084.821          38.000  
G32  21586643.139   113438583.149        1713.960          44.000    21586633.930    88393660.724        1335.359          42.000  
C08  34636102.201   180359266.825         -17.212          45.000    34636083.966   139465156.513         -13.226          50.000  
C13  34752855.571   180967236.459         221.466          46.000    34752845.641   139935307.531         171.161          47.000  
C16  35729100.119   186050797.952         277.758          47.000    35729088.631   143866235.256         214.749          47.000  
C25  21354429.966   111198113.993       -1584.525          45.000                                                                  
C32  21532333.356   112124507.066        1325.659          46.000                                                                  
C06  35499824.291   184856898.588         456.782          43.000    35499807.552   142943017.922         353.167          45.000  
G25  21741954.227   114254755.721        3186.275          42.000    21741948.025    89029655.926        2482.289          39.000  
G10  20192095.895   106110177.813        2063.472          47.000    20192084.869    82683219.879        1607.834          42.000  
G28  23261320.106   122239070.602        3123.370          37.000    23261312.259    95251165.864        2433.807          41.000  
C23  21094714.241   109845713.379        1424.474          51.000                                                                  
C09  37007399.274   192707241.140         536.157          40.000    37007386.947   149013408.506         414.883          46.000  
C33  24915028.478   129739081.220       -2621.539          35.000                                                                  
C30  24592980.779   128062091.648       -2035.939          37.000                                                                  
C27  25034836.690   130362940.306       -2776.545          36.000                                                                  
C37  24127232.140   125636825.351        3096.265          42.000                                                                  
> 2025 10 27 02 13 09.5960000  0 21                     
G12  21397891.469   112446718.091        2074.430          43.000    21397880.297    87620765.628        1616.107          40.000  
G15  21908758.381   115131288.452       -2997.688          41.000    21908748.541    89712667.244       -2335.718          39.000  
G18  21998380.866   115602260.435       -3604.933          42.000    21998370.481    90079632.723       -2808.933          40.000  
G23  18655011.384    98032745.453        -729.654          48.000    18654998.642    76389092.013        -568.507          49.000  
G24  19628881.371   103150463.150       -2675.598          40.000    19628870.261    80376931.873       -2084.448          38.000  
G32  21586630.080   113438514.589        1713.996          44.000    21586620.861    88393607.290        1335.674          42.000  
C08  34636102.327   180359267.498         -17.004          45.000    34636084.126   139465157.042         -13.232          50.000  
C13  34752853.868   180967227.596         221.539          46.000    34752843.939   139935300.679         171.259          47.000  
C16  35729097.995   186050786.834         277.848          47.000    35729086.480   143866226.657         214.887          47.000  
C25  21354442.154   111198177.369       -1584.474          45.000                                                                  
C32  21532323.159   112124454.028        1325.826          46.000                                                                  
C06  35499820.785   184856880.321         456.708          44.000    35499804.061   142943003.800         353.066          45.000  
G25  21741929.975   114254628.270        3186.299          42.000    21741923.761    89029556.599        2482.851          39.000  
G10  20192080.179   106110095.267        2063.573          47.000    20192069.176    82683155.559        1607.925          42.000  
G28  23261296.340   122238945.657        3123.555          37.000    23261288.484    95251068.507        2433.892          41.000  
C23  21094703.315   109845656.397        1424.503          51.000                                                                  
C09  37007395.160   192707219.686         536.240          40.000    37007382.840   149013391.919         414.679          46.000  
C33  24915048.625   129739186.086       -2621.615          35.000                                                                  
C30  24592996.432   128062173.091       -2035.965          37.000                                                                  
C27  25034858.025   130363051.323       -2775.771          36.000                                                                  
C37  24127208.337   125636701.501        3096.210          42.000                                                                  
> 2025 10 27 02 13 09.6360000  0 21                     
G12  21397875.707   112446635.120        2074.345          43.000    21397864.512    87620700.968        1616.313          40.000  
G15  21908781.197   115131408.348       -2997.442          41.000    21908771.366    89712760.687       -2335.876          39.000  
G18  21998408.297   115602404.633       -3604.964          42.000    21998397.925    90079745.082       -2808.941          40.000  
G23  18655016.919    98032774.633        -729.565          48.000    18655004.184    76389114.750        -568.463          49.000  
G24  19628901.737   103150570.172       -2675.653          40.000    19628890.628    80377015.270       -2084.705          38.000  
G32  21586617.036   113438446.031        1713.957          44.000    21586607.815    88393553.864        1335.664          42.000  
C08  34636102.466   180359268.175         -16.956          45.000    34636084.277   139465157.564         -13.110          50.000  
C13  34752852.147   180967218.736         221.509          46.000    34752842.236   139935293.824         171.338          47.000  
C16  35729095.883   186050775.716         277.933          47.000    35729084.374   143866218.051         215.059          47.000  
C25  21354454.311   111198240.752       -1584.557          45.000                                                                  
C32  21532313.002   112124400.991        1325.901          46.000                                                                  
C06  35499817.276   184856862.046         456.813          44.000    35499800.540   142942989.665         353.239          45.000  
G25  21741905.733   114254500.821        3186.267          42.000    21741899.506    89029457.263        2483.305          39.000  
G10  20192064.464   106110012.717        2063.690          47.000    20192053.451    82683091.226        1608.208          42.000  
G28  23261272.565   122238820.719        3123.507          37.000    23261264.700    95250971.154        2433.840          41.000  
C23  21094692.408   109845599.409        1424.630          51.000                                                                  
C09  37007391.038   192707198.205         536.788          40.000    37007378.756   149013375.327         414.700          46.000  
C33  24915068.764   129739290.970       -2622.006          35.000                                                                  
C30  24593012.050   128062254.533       -2036.024          37.000                                                                  
C27  25034879.348   130363162.369       -2775.925          36.000                                                                  
C37  24127184.576   125636577.646        3096.265          42.000                                                                  
> 2025 10 27 02 13 09.6760000  0 21                     
G12  21397859.905   112446552.140        2074.426          43.000    21397848.727    87620636.304        1616.542          40.000  
G15  21908804.019   115131528.258       -2997.620          41.000    21908794.174    89712854.128       -2336.008          39.000  
G18  21998435.697   115602548.827       -3604.902          42.000    21998425.359    90079857.428       -2808.712          40.000  
G23  18655022.464    98032803.807        -729.408          48.000    18655009.749    76389137.492        -568.533          49.000  
G24  19628922.117   103150677.192       -2675.653          40.000    19628910.998    80377098.658       -2084.735          38.000  
G32  21586604.003   113438377.478        1713.825          44.000    21586594.768    88393500.445        1335.485          42.000  
C08  34636102.598   180359268.856         -17.023          45.000    34636084.414   139465158.087         -13.074          50.000  
C13  34752850.445   180967209.878         221.454          46.000    34752840.539   139935286.970         171.375          47.000  
C16  35729093.751   186050764.600         277.917          47.000    35729082.236   143866209.457         214.932          47.000  
C25  21354466.480   111198304.125       -1584.384          45.000                                                                  
C32  21532302.825   112124347.959        1325.841          46.000                                                                  
C06  35499813.726   184856843.765         456.976          43.000    35499797.025   142942975.530         353.359          45.000  
G25  21741881.492   114254373.379        3186.116          42.000    21741875.246    89029357.939        2483.259          39.000  
G10  20192048.744   106109930.171        2063.672          47.000    20192037.738    82683026.912        1607.988          42.000  
G28  23261248.778   122238695.775        3123.591          37.000    23261240.920    95250873.799        2433.845          41.000  
C23  21094681.458   109845542.424        1424.621          51.000                                                                  
C09  37007386.926   192707176.729         536.984          40.000    37007374.643   149013358.726         414.855          46.000  
C33  24915088.911   129739395.815       -2621.398          35.000                                                                  
C30  24593027.703   128062335.987       -2036.237          37.000                                                                  
C27  25034900.683   130363273.398       -2775.715          36.000                                                                  
C37  24127160.801   125636453.792        3096.264          42.000                                                                  
> 2025 10 27 02 13 09.7160000  0 21                     
G12  21397844.134   112446469.165        2074.382          43.000    21397832.915    87620571.660        1616.206          40.000  
G15  21908826.844   115131648.184       -2998.075          41.000    21908816.988    89712947.570       -2336.044          39.000  
G18  21998463.152   115602693.025       -3604.938          42.000    21998452.790    90079969.777       -2808.721          40.000  
G23  18655028.042    98032832.998        -729.669          48.000    18655015.304    76389160.235        -568.596          49.000  
G24  19628942.475   103150784.197       -2675.360          40.000    19628931.368    80377182.054       -2084.900          38.000  
G32  21586590.940   113438308.926        1713.777          44.000    21586581.735    88393447.025        1335.424          42.000  
C08  34636102.722   180359269.545         -17.200          45.000    34636084.555   139465158.611         -13.074          50.000  
C13  34752848.742   180967201.015         221.497          46.000    34752838.826   139935280.121         171.265          47.000  
C16  35729091.619   186050753.486         277.838          47.000    35729080.122   143866200.863         214.860          47.000  
C25  21354478.625   111198367.512       -1584.569          45.000                                                                  
C32  21532292.636   112124294.925        1325.814          46.000                                                                  
C06  35499810.205   184856825.499         456.781          44.000    35499793.552   142942961.406         353.212          45.000  
G25  21741857.233   114254245.929        3186.142          42.000    21741851.007    89029258.636        2482.764          39.000  
G10  20192033.041   106109847.628        2063.604          47.000    20192022.035    82682962.602        1607.792          42.000  
G28  23261224.995   122238570.841        3123.451          37.000    23261217.148    95250776.454        2433.640          41.000  
C23  21094670.477   109845485.447        1424.486          51.000                                                                  
C09  37007382.784   192707155.270         536.719          40.000    37007370.505   149013342.122         415.010          46.000  
C33  24915109.055   129739500.658       -2621.034          35.000                                                                  
C30  24593043.361   128062417.448       -2036.512          37.000                                                                  
C27  25034921.991   130363384.453       -2776.083          36.000                                                                  
C37  24127137.001   125636329.943        3096.169          42.000                                                                  
> 2025 10 27 02 13 09.7560000  0 21                     
G12  21397828.334   112446386.200        2074.185          43.000    21397817.130    87620507.014        1616.102          40.000  
G15  21908849.670   115131768.112       -2998.277          41.000    21908839.785    89713041.003       -2335.977          39.000  
G18  21998490.568   115602837.219       -3604.889          42.000    21998480.214    90080082.151       -2809.170          40.000  
G23  18655033.624    98032862.192        -729.843          48.000    18655020.859    76389182.979        -568.645          49.000  
G24  19628962.844   103150891.202       -2675.201          40.000    19628951.731    80377265.434       -2084.631          38.000  
G32  21586577.891   113438240.364        1713.916          44.000    21586568.699    88393393.621        1335.099          42.000  
C08  34636102.851   180359270.219         -17.010          45.000    34636084.705   139465159.140         -13.208          50.000  
C13  34752847.048   180967192.153         221.503          46.000    34752837.151   139935273.270         171.234          47.000  
C16  35729089.472   186050742.368         277.877          47.000    35729078.016   143866192.274         214.720          47.000  
C25  21354490.776   111198430.905       -1584.784          45.000                                                                  
C32  21532282.470   112124241.892        1325.815          46.000                                                                  
C06  35499806.711   184856807.236         456.591          44.000    35499790.052   142942947.277         353.206          45.000  
G25  21741832.980   114254118.474        3186.293          42.000    21741826.772    89029159.345        2482.349          39.000  
G10  20192017.335   106109765.086        2063.530          47.000    20192006.315    82682898.275        1607.990          42.000  
G28  23261201.204   122238445.900        3123.491          37.000    23261193.351    95250679.096        2433.805          41.000  
C23  21094659.552   109845428.468        1424.444          51.000                                                                  
C09  37007378.652   192707133.803         536.694          40.000    37007366.374   149013325.532         414.829          46.000  
C33  24915129.198   129739605.516       -2621.232          35.000                                                                  
C30  24593059.019   128062498.904       -2036.526          37.000                                                                  
C27  25034943.321   130363495.520       -2776.587          36.000                                                                  
C37  24127113.211   125636206.078        3096.488          42.000                                                                  
> 2025 10 27 02 13 09.7960000  0 21                     
G12  21397812.523   112446303.226        2074.231          43.000    21397801.331    87620442.351        1616.404          40.000  
G15  21908872.493   115131888.017       -2997.880          41.000    21908862.610    89713134.441       -2336.026          39.000  
G18  21998517.999   115602981.411       -3604.827          42.000    21998507.660    90080194.510       -2809.117          40.000  
G23  18655039.171    98032891.381        -729.841          48.000    18655026.411    76389205.727        -568.732          49.000  
G24  19628983.202   103150998.227       -2675.519          40.000    19628972.105    80377348.822       -2084.625          38.000  
G32  21586564.850   113438171.810        1713.877          44.000    21586555.644    88393340.203        1335.216          42.000  
C08  34636102.980   180359270.899         -17.017          45.000    34636084.873   139465159.669         -13.245          50.000  
C13  34752845.359   180967183.294         221.454          46.000    34752835.432   139935266.417         171.307          47.000  
C16  35729087.319   186050731.254         277.840          47.000    35729075.870   143866183.678         214.803          47.000  
C25  21354502.974   111198494.280       -1584.558          45.000                                                                  
C32  21532272.287   112124188.863        1325.733          46.000                                                                  
C06  35499803.210   184856788.973         456.479          44.000    35499786.543   142942933.149         353.194          45.000  
G25  21741808.742   114253991.020        3186.310          42.000    21741802.521    89029060.035        2482.474          39.000  
G10  20192001.649   106109682.549        2063.394          47.000    20191990.602    82682833.953        1608.021          42.000  
G28  23261177.445   122238320.982        3123.075          37.000    23261169.576    95250581.737        2433.887          41.000  
C23  21094648.615   109845371.492        1424.368          51.000                                                                  
C09  37007374.521   192707112.355         536.320          40.000    37007362.271   149013308.943         414.692          46.000  
C33  24915149.335   129739710.389       -2621.586          35.000                                                                  
C30  24593074.700   128062580.355       -2036.404          37.000                                                                  
C27  25034964.621   130363606.564       -2776.428          36.000                                                                  
C37  24127089.433   125636082.217        3096.567          42.000                                                                  
> 2025 10 27 02 13 09.8360000  0 21                     
G12  21397796.728   112446220.263        2074.088          43.000    21397785.538    87620377.700        1616.410          40.000  
G15  21908895.307   115132007.928       -2997.763          41.000    21908885.446    89713227.885       -2336.125          39.000  
G18  21998545.440   115603125.601       -3604.804          42.000    21998535.102    90080306.888       -2809.421          40.000  
G23  18655044.728    98032920.575        -729.927          48.000    18655031.953    76389228.469        -568.649          49.000  
G24  19629003.584   103151105.246       -2675.568          40.000    19628992.464    80377432.219       -2084.845          38.000  
G32  21586551.777   113438103.254        1713.858          44.000    21586542.587    88393286.772        1335.576          42.000  
C08  34636103.103   180359271.582         -17.078          45.000    34636085.008   139465160.195         -13.208          50.000  
C13  34752843.645   180967174.433         221.472          46.000    34752833.701   139935259.563         171.320          47.000  
C16  35729085.191   186050720.149         277.665          47.000    35729073.763   143866175.082         214.855          47.000  
C25  21354515.163   111198557.660       -1584.534          45.000                                                                  
C32  21532262.089   112124135.834        1325.696          46.000                                                                  
C06  35499799.716   184856770.703         456.575          44.000    35499783.013   142942919.022         353.176          45.000  
G25  21741784.469   114253863.571        3186.240          42.000    21741778.271    89028960.720        2482.632          39.000  
G10  20191985.932   106109600.013        2063.335          47.000    20191974.898    82682769.628        1608.097          42.000  
G28  23261153.673   122238196.053        3123.086          37.000    23261145.800    95250484.392        2433.701          41.000  
C23  21094637.690   109845314.514        1424.384          51.000                                                                  
C09  37007370.426   192707090.901         536.178          40.000    37007358.142   149013292.354         414.656          46.000  
C33  24915169.474   129739815.269       -2621.978          35.000                                                                  
C30  24593090.327   128062661.794       -2036.102          37.000                                                                  
C27  25034985.975   130363717.610       -2776.226          36.000                                                                  
C37  24127065.657   125635958.362        3096.479          42.000                                                                  
> 2025 10 27 02 13 09.8760000  0 21                     
G12  21397780.928   112446137.291        2074.245          43.000    21397769.745    87620313.047        1616.443          40.000  
G15  21908918.103   115132127.840       -2997.752          41.000    21908908.253    89713321.324       -2336.067          39.000  
G18  21998572.876   115603269.800       -3604.967          42.000    21998562.545    90080419.257       -2809.374          40.000  
G23  18655050.279    98032949.760        -729.748          48.000    18655037.497    76389251.211        -568.611          49.000  
G24  19629023.934   103151212.266       -2675.568          40.000    19629012.837    80377515.614       -2084.949          38.000  
G32  21586538.738   113438034.697        1713.904          44.000    21586529.528    88393233.356        1335.505          42.000  
C08  34636103.256   180359272.259         -17.004          45.000    34636085.169   139465160.722         -13.208          50.000  
C13  34752841.930   180967165.577         221.375          46.000    34752831.976   139935252.710         171.344          47.000  
C16  35729083.071   186050709.032         277.771          47.000    35729071.603   143866166.492         214.777          47.000  
C25  21354527.308   111198621.048       -1584.648          45.000                                                                  
C32  21532251.887   112124082.806        1325.660          46.000                                                                  
C06  35499796.206   184856752.431         456.703          44.000    35499779.519   142942904.905         352.966          45.000  
G25  21741760.213   114253736.132        3186.039          42.000    21741754.024    89028861.406        2482.784          39.000  
G10  20191970.206   106109517.461        2063.583          47.000    20191959.192    82682705.329        1607.651          42.000  
G28  23261129.903   122238071.109        3123.376          37.000    23261122.040    95250387.034        2433.872          41.000  
C23  21094626.764   109845257.535        1424.418          51.000                                                                  
C09  37007366.301   192707069.446         536.213          40.000    37007354.018   149013275.760         414.751          46.000  
C33  24915189.614   129739920.133       -2621.831          35.000                                                                  
C30  24593105.984   128062743.241       -2036.216          37.000                                                                  
C27  25035007.287   130363828.637       -2775.785          36.000                                                                  
C37  24127041.888   125635834.505        3096.492          42.000                                                                  
> 2025 10 27 02 13 09.9160000  0 21                     
G12  21397765.133   112446054.316        2074.352          43.000    21397753.945    87620248.396        1616.384          40.000  
G15  21908940.908   115132247.743       -2997.547          41.000    21908931.070    89713414.763       -2336.005          39.000  
G18  21998600.328   115603413.992       -3604.852          42.000    21998589.971    90080531.590       -2808.683          40.000  
G23  18655055.836    98032978.940        -729.599          48.000    18655043.071    76389273.953        -568.554          49.000  
G24  19629044.301   103151319.281       -2675.427          40.000    19629033.203    80377598.999       -2084.760          38.000  
G32  21586525.679   113437966.138        1713.934          44.000    21586516.462    88393179.937        1335.504          42.000  
C08  34636103.369   180359272.940         -16.998          45.000    34636085.320   139465161.244         -13.116          50.000  
C13  34752840.225   180967156.710         221.552          46.000    34752830.263   139935245.860         171.277          47.000  
C16  35729080.945   186050697.916         277.836          47.000    35729069.478   143866157.895         214.869          47.000  
C25  21354539.473   111198684.424       -1584.475          45.000                                                                  
C32  21532241.718   112124029.765        1325.889          46.000                                                                  
C06  35499792.715   184856734.154         456.870          44.000    35499776.012   142942890.770         353.228          45.000  
G25  21741735.968   114253608.669        3186.343          42.000    21741729.776    89028762.085        2483.016          39.000  
G10  20191954.485   106109434.915        2063.654          47.000    20191943.489    82682640.995        1608.037          42.000  
G28  23261106.114   122237946.161        3123.663          37.000    23261098.270    95250289.687        2433.717          41.000  
C23  21094615.829   109845200.552        1424.500          51.000                                                                  
C09  37007362.172   192707047.980         536.482          40.000    37007349.882   149013259.165         414.832          46.000  
C33  24915209.739   129740025.022       -2622.165          35.000                                                                  
C30  24593121.634   128062824.684       -2036.094          37.000                                                                  
C27  25035028.606   130363939.683       -2775.957          36.000                                                                  
C37  24127018.116   125635710.656        3096.306          42.000                                                                  
> 2025 10 27 02 13 09.9560000  0 21                     
G12  21397749.346   112445971.342        2074.388          43.000    21397738.151    87620183.741        1616.330          40.000  
G15  21908963.703   115132367.650       -2997.594          41.000    21908953.874    89713508.187       -2335.693          39.000  
G18  21998627.748   115603558.179       -3604.722          42.000    21998617.416    90080643.948       -2808.754          40.000  
G23  18655061.407    98033008.124        -729.601          48.000    18655048.630    76389296.693        -568.517          49.000  
G24  19629064.679   103151426.302       -2675.488          40.000    19629053.573    80377682.391       -2084.796          38.000  
G32  21586512.639   113437897.577        1714.002          44.000    21586503.440    88393126.502        1335.819          42.000  
C08  34636103.513   180359273.620         -16.998          45.000    34636085.459   139465161.770         -13.129          50.000  
C13  34752838.523   180967147.844         221.637          46.000    34752828.589   139935239.001         171.399          47.000  
C16  35729078.814   186050686.789         278.068          47.000    35729067.348   143866149.296         214.931          47.000  
C25  21354551.623   111198747.814       -1584.636          45.000                                                                  
C32  21532231.533   112123976.726        1325.943          46.000                                                                  
C06  35499789.185   184856715.878         456.909          44.000    35499772.522   142942876.635         353.356          45.000  
G25  21741711.711   114253481.219        3186.316          42.000    21741705.538    89028662.764        2483.100          39.000  
G10  20191938.786   106109352.363        2063.776          47.000    20191927.775    82682576.668        1608.173          42.000  
G28  23261082.330   122237821.227        3123.492          37.000    23261074.501    95250192.344        2433.589          41.000  
C23  21094604.863   109845143.574        1424.473          51.000                                                                  
C09  37007358.044   192707026.510         536.712          40.000    37007345.778   149013242.561         415.049          46.000  
C33  24915229.891   129740129.871       -2621.558          35.000                                                                  
C30  24593137.288   128062906.146       -2036.422          38.000                                                                  
C27  25035049.914   130364050.729       -2776.076          36.000                                                                  
C37  24126994.355   125635586.793        3096.461          42.000                                                                  
> 2025 10 27 02 13 09.9960000  0 21                     
G12  21397733.561   112445888.370        2074.353          43.000    21397722.343    87620119.082        1616.386          40.000  
G15  21908986.532   115132487.566       -2997.819          41.000    21908976.679    89713601.622       -2335.822          39.000  
G18  21998655.197   115603702.379       -3604.885          42.000    21998644.848    90080756.304       -2808.775          40.000  
G23  18655066.972    98033037.321        -729.822          48.000    18655054.182    76389319.439        -568.613          49.000  
G24  19629085.039   103151533.323       -2675.494          40.000    19629073.942    80377765.789       -2084.961          38.000  
G32  21586499.610   113437829.019        1713.995          44.000    21586490.412    88393073.078        1335.727          42.000  
C08  34636103.674   180359274.289         -16.815          45.000    34636085.610   139465162.293         -13.098          50.000  
C13  34752836.828   180967138.969         221.820          46.000    34752826.888   139935232.149         171.362          47.000  
C16  35729076.692   186050675.672         277.991          47.000    35729065.218   143866140.695         214.986          47.000  
C25  21354563.819   111198811.190       -1584.508          45.000                                                                  
C32  21532221.346   112123923.686        1326.023          46.000                                                                  
C06  35499785.656   184856697.602         456.905          44.000    35499769.033   142942862.506         353.319          45.000  
G25  21741687.441   114253353.761        3186.384          42.000    21741681.295    89028563.467        2482.631          39.000  
G10  20191923.098   106109269.821        2063.657          47.000    20191912.071    82682512.353        1608.018          42.000  
G28  23261058.555   122237696.284        3123.530          37.000    23261050.701    95250094.986        2433.764          41.000  
C23  21094593.901   109845086.595        1424.447          51.000                                                                  
C09  37007353.908   192707005.032         536.939          40.000    37007341.682   149013225.959         415.116          46.000  
C33  24915250.023   129740234.713       -2621.170          35.000                                                                  
C30  24593152.946   128062987.597       -2036.375          38.000                                                                  
C27  25035071.262   130364161.765       -2775.995          36.000                                                                  
C37  24126970.565   125635462.940        3096.350          42.000                                                                  
> 2025 10 27 02 13 10.0360000  0 21                     
G12  21397717.780   112445805.399        2074.249          43.000    21397706.552    87620054.415        1616.569          40.000  
G15  21909009.348   115132607.484       -2997.980          41.000    21908999.510    89713695.039       -2335.549          39.000  
G18  21998682.637   115603846.567       -3604.785          42.000    21998672.283    90080868.672       -2809.081          40.000  
G23  18655072.521    98033066.510        -729.840          48.000    18655059.726    76389342.182        -568.599          49.000  
G24  19629105.408   103151640.327       -2675.208          40.000    19629094.305    80377849.160       -2084.454          38.000  
G32  21586486.555   113437760.457        1714.052          44.000    21586477.370    88393019.656        1335.605          42.000  
C08  34636103.809   180359274.967         -16.864          45.000    34636085.764   139465162.815         -13.068          50.000  
C13  34752835.109   180967130.105         221.674          46.000    34752825.193   139935225.292         171.405          47.000  
C16  35729074.548   186050664.549         278.068          47.000    35729063.101   143866132.097         214.958          47.000  
C25  21354575.989   111198874.575       -1584.578          45.000                                                                  
C32  21532211.177   112123870.647        1325.995          46.000                                                                  
C06  35499782.175   184856679.328         456.876          44.000    35499765.526   142942848.380         353.198          45.000  
G25  21741663.212   114253226.315        3186.259          42.000    21741657.057    89028464.161        2482.553          39.000  
G10  20191907.406   106109187.275        2063.630          47.000    20191896.369    82682448.025        1608.121          42.000  
G28  23261034.780   122237571.349        3123.458          37.000    23261026.927    95249997.606        2434.290          41.000  
C23  21094582.989   109845029.614        1424.479          51.000                                                                  
C09  37007349.767   192706983.567         536.755          40.000    37007337.558   149013209.357         415.083          46.000  
C33  24915270.156   129740339.549       -2620.939          35.000                                                                  
C30  24593168.601   128063069.021       -2035.790          38.000                                                                  
C27  25035092.606   130364272.814       -2776.169          36.000                                                                  
C37  24126946.754   125635339.082        3096.430          42.000                                                                  
> 2025 10 27 02 13 10.0760000  0 21                     
G12  21397701.974   112445722.427        2074.251          43.000    21397690.772    87619989.779        1616.118          40.000  
G15  21909032.162   115132727.396       -2997.941          41.000    21909022.322    89713788.493       -2336.054          39.000  
G18  21998710.087   115603990.767       -3604.948          42.000    21998699.710    90080981.023       -2808.905          40.000  
G23  18655078.077    98033095.696        -729.750          48.000    18655065.304    76389364.931        -568.719          49.000  
G24  19629125.755   103151747.348       -2675.360          40.000    19629114.664    80377932.558       -2084.747          38.000  
G32  21586473.477   113437691.893        1714.069          44.000    21586464.325    88392966.245        1335.335          42.000  
C08  34636103.929   180359275.651         -17.053          45.000    34636085.900   139465163.341         -13.123          50.000  
C13  34752833.413   180967121.252         221.393          46.000    34752823.508   139935218.442         171.295          47.000  
C16  35729072.408   186050653.434         277.927          47.000    35729060.972   143866123.506         214.787          47.000  
C25  21354588.159   111198937.959       -1584.603          45.000                                                                  
C32  21532200.962   112123817.626        1325.665          46.000                                                                  
C06  35499778.676   184856661.065         456.619          44.000    35499762.030   142942834.255         353.113          45.000  
G25  21741638.950   114253098.859        3186.353          42.000    21741632.794    89028364.843        2482.757          39.000  
G10  20191891.694   106109104.739        2063.439          47.000    20191880.654    82682383.713        1607.881          42.000  
G28  23261011.016   122237446.417        3123.319          37.000    23261003.151    95249900.260        2433.931          41.000  
C23  21094572.025   109844972.636        1424.447          51.000                                                                  
C09  37007345.628   192706962.110         536.512          40.000    37007333.431   149013192.766         414.844          46.000  
C33  24915290.300   129740444.430       -2621.627          35.000                                                                  
C30  24593184.240   128063150.477       -2036.148          38.000                                                                  
C27  25035113.940   130364383.878       -2776.434          36.000                                                                  
C37  24126922.953   125635215.215        3096.582          42.000                                                                  
> 2025 10 27 02 13 10.1160000  0 21                     
G12  21397686.175   112445639.466        2074.081          43.000    21397674.998    87619925.143        1615.855          40.000  
G15  21909054.975   115132847.308       -2997.909          41.000    21909045.139    89713881.930       -2336.020          39.000  
G18  21998737.546   115604134.968       -3605.059          42.000    21998727.150    90081093.383       -2808.974          40.000  
G23  18655083.657    98033124.897        -729.977          48.000    18655070.860    76389387.685        -568.887          49.000  
G24  19629146.127   103151854.382       -2675.739          40.000    19629135.025    80378015.960       -2084.979          38.000  
G32  21586460.458   113437623.352        1713.647          44.000    21586451.272    88392912.824        1335.383          42.000  
C08  34636104.080   180359276.341         -17.236          45.000    34636086.038   139465163.870         -13.220          50.000  
C13  34752831.715   180967112.399         221.246          46.000    34752821.790   139935211.593         171.228          47.000  
C16  35729070.252   186050642.332         277.593          47.000    35729058.866   143866114.916         214.702          47.000  
C25  21354600.333   111199001.358       -1584.895          45.000                                                                  
C32  21532190.758   112123764.601        1325.555          46.000                                                                  
C06  35499775.157   184856642.798         456.569          44.000    35499758.500   142942820.127         353.130          45.000  
G25  21741614.711   114252971.415        3186.190          42.000    21741608.529    89028265.532        2482.769          39.000  
G10  20191876.003   106109022.210        2063.229          47.000    20191864.912    82682319.393        1607.928          42.000  
G28  23260987.241   122237321.477        3123.346          37.000    23260979.395    95249802.915        2433.666          41.000  
C23  21094561.069   109844915.669        1424.216          51.000                                                                  
C09  37007341.541   192706940.655         536.320          40.000    37007329.286   149013176.183         414.560          46.000  
C33  24915310.452   129740549.290       -2621.656          35.000                                                                  
C30  24593199.887   128063231.928       -2036.234          38.000                                                                  
C27  25035135.253   130364494.891       -2775.603          36.000                                                                  
C37  24126899.190   125635091.357        3096.542          42.000                                                                  
> 2025 10 27 02 13 10.1560000  0 21                     
G12  21397670.387   112445556.506        2073.950          43.000    21397659.218    87619860.511        1615.731          40.000  
G15  21909077.787   115132967.240       -2998.232          41.000    21909067.984    89713975.397       -2336.529          39.000  
G18  21998764.982   115604279.180       -3605.274          42.000    21998754.575    90081205.751       -2809.179          40.000  
G23  18655089.227    98033154.099        -730.100          48.000    18655076.408    76389410.443        -569.017          49.000  
G24  19629166.493   103151961.420       -2676.038          40.000    19629155.387    80378099.356       -2085.004          38.000  
G32  21586447.424   113437554.816        1713.368          44.000    21586438.226    88392859.412        1335.252          42.000  
C08  34636104.222   180359277.027         -17.255          45.000    34636086.198   139465164.404         -13.361          50.000  
C13  34752830.017   180967103.543         221.301          46.000    34752820.081   139935204.742         171.222          47.000  
C16  35729068.153   186050631.224         277.576          47.000    35729056.709   143866106.335         214.518          47.000  
C25  21354612.505   111199064.751       -1584.922          45.000                                                                  
C32  21532180.584   112123711.572        1325.590          46.000                                                                  
C06  35499771.644   184856624.537         456.518          44.000    35499754.994   142942806.006         353.027          45.000  
G25  21741590.460   114252843.981        3185.882          42.000    21741584.263    89028166.223        2482.711          39.000  
G10  20191860.289   106108939.676        2063.234          47.000    20191849.215    82682255.089        1607.672          42.000  
G28  23260963.463   122237196.556        3123.174          37.000    23260955.615    95249705.574        2433.463          41.000  
C23  21094550.107   109844858.704        1424.087          51.000                                                                  
C09  37007337.445   192706919.213         536.063          40.000    37007325.171   149013159.594         414.550          46.000  
C33  24915330.583   129740654.172       -2621.976          35.000                                                                  
C30  24593215.540   128063313.387       -2036.446          38.000                                                                  
C27  25035156.598   130364605.933       -2775.777          36.000                                                                  
C37  24126875.406   125634967.517        3096.217          42.000                                                                  
> 2025 10 27 02 13 10.1960000  0 21                     
G12  21397654.617   112445473.558        2073.667          43.000    21397643.419    87619795.867        1615.907          40.000  
G15  21909100.613   115133087.167       -2998.361          41.000    21909090.792    89714068.846       -2336.533          39.000  
G18  21998792.424   115604423.380       -3605.128          42.000    21998782.015    90081318.123       -2809.352          40.000  
G23  18655094.785    98033183.305        -730.204          48.000    18655081.948    76389433.202        -569.095          49.000  
G24  19629186.865   103152068.443       -2675.812          40.000    19629175.765    80378182.775       -2085.492          38.000  
G32  21586434.365   113437486.266        1713.506          44.000    21586425.179    88392806.005        1335.167          42.000  
C08  34636104.379   180359277.715         -17.273          45.000    34636086.354   139465164.943         -13.519          50.000  
C13  34752828.296   180967094.701         221.088          46.000    34752818.369   139935197.898         171.130          47.000  
C16  35729066.022   186050620.123         277.460          47.000    35729054.574   143866097.751         214.500          47.000  
C25  21354624.645   111199128.160       -1585.230          45.000                                                                  
C32  21532170.404   112123658.552        1325.453          46.000                                                                  
C06  35499768.167   184856606.270         456.579          44.000    35499751.508   142942791.890         352.852          45.000  
G25  21741566.211   114252716.545        3185.812          42.000    21741560.030    89028066.927        2482.468          39.000  
G10  20191844.584   106108857.147        2063.165          47.000    20191833.505    82682190.776        1607.700          42.000  
G28  23260939.686   122237071.640        3122.963          37.000    23260931.838    95249608.247        2433.131          41.000  
C23  21094539.202   109844801.740        1424.016          51.000                                                                  
C09  37007333.322   192706897.779         535.798          40.000    37007321.032   149013143.009         414.534          46.000  
C33  24915350.724   129740759.054       -2622.090          35.000                                                                  
C30  24593231.193   128063394.852       -2036.664          38.000                                                                  
C27  25035177.926   130364716.995       -2776.384          36.000                                                                  
C37  24126851.628   125634843.682        3095.927          42.000                                                                  
> 2025 10 27 02 13 10.2360000  0 21                     
G12  21397638.849   112445390.612        2073.549          43.000    21397627.633    87619731.220        1616.047          40.000  
G15  21909123.453   115133207.089       -2998.253          41.000    21909113.609    89714162.283       -2336.207          39.000  
G18  21998819.862   115604567.583       -3605.109          42.000    21998809.437    90081430.502       -2809.511          40.000  
G23  18655100.363    98033212.519        -730.389          48.000    18655087.495    76389455.959        -569.048          49.000  
G24  19629207.226   103152175.481       -2675.940          40.000    19629196.152    80378266.169       -2085.175          38.000  
G32  21586421.323   113437417.710        1713.760          44.000    21586412.125    88392752.582        1335.382          42.000  
C08  34636104.507   180359278.409         -17.352          45.000    34636086.497   139465165.476         -13.477          50.000  
C13  34752826.631   180967085.848         221.204          46.000    34752816.654   139935191.060         170.959          47.000  
C16  35729063.884   186050609.031         277.273          47.000    35729052.436   143866089.169         214.466          47.000  
C25  21354636.843   111199191.563       -1585.250          45.000                                                                  
C32  21532160.225   112123605.540        1325.292          46.000                                                                  
C06  35499764.658   184856588.017         456.371          44.000    35499748.006   142942777.778         352.701          45.000  
G25  21741541.967   114252589.114        3185.696          42.000    21741535.766    89027967.621        2482.554          39.000  
G10  20191828.878   106108774.619        2063.137          47.000    20191817.820    82682126.485        1607.329          42.000  
G28  23260915.925   122236946.717        3123.049          37.000    23260908.062    95249510.905        2433.302          41.000  
C23  21094528.289   109844744.783        1423.892          51.000                                                                  
C09  37007329.199   192706876.322         536.144          40.000    37007316.919   149013126.416         414.710          46.000  
C33  24915370.870   129740863.950       -2622.494          35.000                                                                  
C30  24593246.824   128063476.320       -2036.818          38.000                                                                  
C27  25035199.266   130364828.070       -2776.897          36.000                                                                  
C37  24126827.866   125634719.839        3095.934          42.000                                                                  
> 2025 10 27 02 13 10.2760000  0 21                     
G12  21397623.075   112445307.648        2073.893          43.000    21397611.854    87619666.581        1615.969          40.000  
G15  21909146.261   115133327.009       -2998.115          41.000    21909136.432    89714255.731       -2336.213          39.000  
G18  21998847.308   115604711.801       -3605.365          42.000    21998836.881    90081542.866       -2809.277          40.000  
G23  18655105.894    98033241.722        -730.234          48.000    18655093.040    76389478.720        -569.085          49.000  
G24  19629227.586   103152282.511       -2675.867          40.000    19629216.506    80378349.561       -2084.930          38.000  
G32  21586408.263   113437349.163        1713.714          44.000    21586399.079    88392699.167        1335.324          42.000  
C08  34636104.660   180359279.103         -17.389          45.000    34636086.636   139465166.011         -13.440          50.000  
C13  34752824.950   180967076.993         221.320          46.000    34752814.964   139935184.217         171.002          47.000  
C16  35729061.771   186050597.925         277.460          47.000    35729050.278   143866080.570         214.786          47.000  
C25  21354649.017   111199254.962       -1585.131          45.000                                                                  
C32  21532150.039   112123552.515        1325.435          46.000                                                                  
C06  35499761.165   184856569.764         456.295          44.000    35499744.472   142942763.652         352.938          45.000  
G25  21741517.705   114252461.661        3186.076          42.000    21741511.516    89027868.313        2482.668          39.000  
G10  20191813.157   106108692.091        2063.135          47.000    20191802.108    82682062.176        1607.472          42.000  
G28  23260892.141   122236821.784        3123.290          37.000    23260884.281    95249413.545        2433.740          41.000  
C23  21094517.360   109844687.819        1423.961          51.000                                                                  
C09  37007325.074   192706854.866         536.281          40.000    37007312.778   149013109.825         414.759          46.000  
C33  24915391.016   129740968.804       -2621.810          35.000                                                                  
C30  24593262.451   128063557.785       -2036.814          38.000                                                                  
C27  25035220.608   130364939.130       -2776.734          36.000                                                                  
C37  24126804.095   125634595.992        3096.054          42.000                                                                  
> 2025 10 27 02 13 10.3160000  0 21                     
G12  21397607.276   112445224.691        2073.948          43.000    21397596.050    87619601.931        1616.141          40.000  
G15  21909169.062   115133446.924       -2997.966          41.000    21909159.245    89714349.172       -2336.057          39.000  
G18  21998874.741   115604856.009       -3605.319          42.000    21998864.316    90081655.222       -2809.011          40.000  
G23  18655111.435    98033270.927        -730.189          48.000    18655098.596    76389501.473        -568.952          49.000  
G24  19629247.957   103152389.546       -2675.909          40.000    19629236.893    80378432.968       -2085.126          38.000  
G32  21586395.203   113437280.616        1713.676          44.000    21586386.064    88392645.760        1335.154          42.000  
C08  34636104.819   180359279.798         -17.413          45.000    34636086.791   139465166.543         -13.342          50.000  
C13  34752823.248   180967068.134         221.454          46.000    34752813.264   139935177.372         171.069          47.000  
C16  35729059.671   186050586.808         277.780          47.000    35729048.123   143866071.984         214.708          47.000  
C25  21354661.189   111199318.354       -1584.926          45.000                                                                  
C32  21532139.854   112123499.488        1325.601          46.000                                                                  
C06  35499757.630   184856551.498         456.482          44.000    35499740.949   142942749.527         353.042          45.000  
G25  21741493.445   114252334.217        3186.149          42.000    21741487.270    89027769.016        2482.510          39.000  
G10  20191797.450   106108609.566        2063.087          47.000    20191786.400    82681997.876        1607.396          42.000  
G28  23260868.357   122236696.863        3123.199          37.000    23260860.523    95249316.197        2433.764          41.000  
C23  21094506.437   109844630.855        1424.026          51.000                                                                  
C09  37007320.943   192706833.402         536.541          40.000    37007308.653   149013093.236         414.765          46.000  
C33  24915411.173   129741073.661       -2621.445          35.000                                                                  
C30  24593278.076   128063639.224       -2036.251          38.000                                                                  
C27  25035241.919   130365050.149       -2775.854          36.000                                                                  
C37  24126780.316   125634472.138        3096.245          42.000                                                                  
> 2025 10 27 02 13 10.3560000  0 21                     
G12  21397591.482   112445141.722        2074.180          43.000    21397580.262    87619537.291        1616.043          40.000  
G15  21909191.876   115133566.831       -2997.743          41.000    21909182.070    89714442.616       -2336.014          39.000  
G18  21998902.196   115605000.199       -3604.926          42.000    21998891.778    90081767.584       -2808.962          40.000  
G23  18655116.961    98033300.126        -730.039          48.000    18655104.133    76389524.227        -568.884          49.000  
G24  19629268.330   103152496.566       -2675.623          40.000    19629257.256    80378516.364       -2084.973          38.000  
G32  21586382.145   113437212.066        1713.688          44.000    21586373.007    88392592.339        1335.390          42.000  
C08  34636104.971   180359280.481         -17.194          45.000    34636086.915   139465167.071         -13.232          50.000  
C13  34752821.507   180967059.279         221.436          46.000    34752811.541   139935170.522         171.167          46.000  
C16  35729057.551   186050575.695         277.896          47.000    35729045.975   143866063.397         214.648          47.000  
C25  21354673.334   111199381.752       -1584.929          45.000                                                                  
C32  21532129.675   112123446.461        1325.689          46.000                                                                  
C06  35499754.126   184856533.233         456.578          44.000    35499737.443   142942735.405         353.066          45.000  
G25  21741469.187   114252206.769        3186.229          42.000    21741463.023    89027669.707        2482.681          39.000  
G10  20191781.749   106108527.029        2063.308          47.000    20191770.703    82681933.550        1607.910          42.000  
G28  23260844.574   122236571.925        3123.351          37.000    23260836.755    95249218.862        2433.506          41.000  
C23  21094495.496   109844573.883        1424.219          51.000                                                                  
C09  37007316.799   192706811.951         536.453          40.000    37007304.536   149013076.640         414.871          46.000  
C33  24915431.331   129741178.528       -2621.466          35.000                                                                  
C30  24593293.734   128063720.688       -2036.464          38.000                                                                  
C27  25035263.235   130365161.216       -2776.307          36.000                                                                  
C37  24126756.525   125634348.284        3096.365          42.000                                                                  
> 2025 10 27 02 13 10.3960000  0 21                     
G12  21397575.702   112445058.770        2073.934          43.000    21397564.470    87619472.652        1615.921          40.000  
G15  21909214.718   115133686.760       -2998.056          41.000    21909204.895    89714536.052       -2335.923          39.000  
G18  21998929.652   115605144.407       -3605.078          42.000    21998919.224    90081879.972       -2809.475          40.000  
G23  18655122.527    98033329.333        -730.148          48.000    18655109.692    76389546.984        -568.936          49.000  
G24  19629288.692   103152603.602       -2675.793          40.000    19629277.622    80378599.762       -2085.010          38.000  
G32  21586369.111   113437143.517        1713.695          44.000    21586359.978    88392538.923        1335.440          42.000  
C08  34636105.082   180359281.165         -17.096          45.000    34636087.055   139465167.600         -13.202          50.000  
C13  34752819.823   180967050.429         221.295          46.000    34752809.865   139935163.681         171.075          47.000  
C16  35729055.424   186050564.581         277.908          47.000    35729043.837   143866054.808         214.654          47.000  
C25  21354685.506   111199445.151       -1584.976          45.000                                                                  
C32  21532119.472   112123393.436        1325.647          46.000                                                                  
C06  35499750.622   184856514.980         456.433          44.000    35499733.972   142942721.287         353.013          45.000  
G25  21741444.948   114252079.337        3185.970          42.000    21741438.781    89027570.399        2482.769          39.000  
G10  20191766.054   106108444.497        2063.311          47.000    20191754.968    82681869.243        1607.814          42.000  
G28  23260820.801   122236447.008        3123.102          37.000    23260812.976    95249121.508        2433.744          41.000  
C23  21094484.543   109844516.924        1424.074          51.000                                                                  
C09  37007312.671   192706790.495         536.394          40.000    37007300.425   149013060.046         414.856          46.000  
C33  24915451.443   129741283.405       -2621.769          35.000                                                                  
C30  24593309.361   128063802.150       -2036.487          38.000                                                                  
C27  25035284.547   130365272.264       -2776.201          36.000                                                                  
C37  24126732.760   125634224.440        3096.207          42.000                                                                  
> 2025 10 27 02 13 10.4360000  0 21                     
G12  21397559.934   112444975.821        2073.744          43.000    21397548.702    87619408.011        1615.929          40.000  
G15  21909237.525   115133806.690       -2998.242          41.000    21909227.734    89714629.511       -2336.259          39.000  
G18  21998957.093   115605288.609       -3605.111          42.000    21998946.651    90081992.327       -2809.117          40.000  
G23  18655128.095    98033358.548        -730.342          48.000    18655115.248    76389569.745        -569.017          49.000  
G24  19629309.066   103152710.641       -2675.977          40.000    19629297.976    80378683.181       -2085.364          38.000  
G32  21586356.063   113437074.969        1713.701          44.000    21586346.930    88392485.515        1335.242          42.000  
C08  34636105.197   180359281.848         -17.120          45.000    34636087.206   139465168.133         -13.287          50.000  
C13  34752818.106   180967041.583         221.167          46.000    34752808.194   139935156.833         171.149          47.000  
C16  35729053.252   186050553.473         277.766          47.000    35729041.715   143866046.218         214.700          47.000  
C25  21354697.694   111199508.541       -1584.836          45.000                                                                  
C32  21532109.283   112123340.411        1325.627          46.000                                                                  
C06  35499747.106   184856496.716         456.477          44.000    35499730.492   142942707.160         353.116          45.000  
G25  21741420.695   114251951.900        3185.915          42.000    21741414.523    89027471.093        2482.749          39.000  
G10  20191750.348   106108361.966        2063.335          47.000    20191739.276    82681804.939        1607.642          42.000  
G28  23260797.036   122236322.097        3122.872          37.000    23260789.210    95249024.168        2433.628          41.000  
C23  21094473.609   109844459.958        1424.094          51.000                                                                  
C09  37007308.562   192706769.048         536.239          40.000    37007296.307   149013043.464         414.619          46.000  
C33  24915471.576   129741388.273       -2621.806          35.000                                                                  
C30  24593325.018   128063883.616       -2036.672          38.000                                                                  
C27  25035305.874   130365383.309       -2776.083          36.000                                                                  
C37  24126708.984   125634100.594        3096.129          42.000                                                                  
> 2025 10 27 02 13 10.4760000  0 21                     
G12  21397544.139   112444892.866        2073.772          43.000    21397532.924    87619343.385        1615.645          40.000  
G15  21909260.346   115133926.604       -2998.003          41.000    21909250.558    89714722.961       -2336.295          39.000  
G18  21998984.579   115605432.816       -3605.198          42.000    21998974.085    90082104.687       -2809.006          40.000  
G23  18655133.634    98033387.754        -730.277          48.000    18655120.802    76389592.508        -569.130          49.000  
G24  19629329.428   103152817.677       -2676.007          40.000    19629318.345    80378766.582       -2085.205          38.000  
G32  21586343.035   113437006.425        1713.626          44.000    21586333.879    88392432.097        1335.338          42.000  
C08  34636105.325   180359282.539         -17.267          45.000    34636087.368   139465168.670         -13.409          50.000  
C13  34752816.373   180967032.729         221.259          46.000    34752806.505   139935149.987         171.161          47.000  
C16  35729051.071   186050542.372         277.593          47.000    35729039.581   143866037.625         214.771          47.000  
C25  21354709.874   111199571.943       -1584.978          45.000                                                                  
C32  21532099.103   112123287.389        1325.569          46.000                                                                  
C06  35499743.568   184856478.457         456.437          44.000    35499726.994   142942693.048         352.884          45.000  
G25  21741396.465   114251824.456        3185.958          42.000    21741390.275    89027371.788        2482.665          39.000  
G10  20191734.678   106108279.441        2063.187          47.000    20191723.568    82681740.629        1607.679          42.000  
G28  23260773.255   122236197.160        3123.202          37.000    23260765.439    95248926.838        2433.322          41.000  
C23  21094462.684   109844403.000        1423.979          51.000                                                                  
C09  37007304.452   192706747.595         536.246          40.000    37007292.175   149013026.886         414.440          46.000  
C33  24915491.719   129741493.153       -2621.991          35.000                                                                  
C30  24593340.645   128063965.081       -2036.733          38.000                                                                  
C27  25035327.191   130365494.341       -2775.792          36.000                                                                  
C37  24126685.211   125633976.750        3096.027          42.000                                                                  
> 2025 10 27 02 13 10.5160000  0 21                     
G12  21397528.368   112444809.922        2073.624          43.000    21397517.123    87619278.748        1615.785          40.000  
G15  21909283.157   115134046.528       -2998.028          41.000    21909273.367    89714816.395       -2335.989          39.000  
G18  21999012.009   115605577.020       -3605.166          42.000    21999001.537    90082217.070       -2809.362          40.000  
G23  18655139.168    98033416.959        -730.207          48.000    18655126.360    76389615.273        -569.184          49.000  
G24  19629349.805   103152924.717       -2676.044          40.000    19629338.718    80378849.977       -2085.034          38.000  
G32  21586330.011   113436937.875        1713.695          44.000    21586320.840    88392378.681        1335.356          42.000  
C08  34636105.467   180359283.235         -17.426          45.000    34636087.534   139465169.209         -13.501          50.000  
C13  34752814.664   180967023.877         221.289          46.000    34752804.802   139935143.143         171.082          47.000  
C16  35729048.900   186050531.274         277.442          47.000    35729037.432   143866029.043         214.615          47.000  
C25  21354722.071   111199635.360       -1585.351          45.000                                                                  
C32  21532088.935   112123234.371        1325.457          46.000                                                                  
C06  35499740.053   184856460.186         456.620          44.000    35499723.472   142942678.927         352.922          45.000  
G25  21741372.211   114251697.012        3186.014          42.000    21741366.035    89027272.490        2482.495          39.000  
G10  20191718.977   106108196.913        2063.163          47.000    20191707.867    82681676.323        1607.625          42.000  
G28  23260749.455   122236072.212        3123.556          37.000    23260741.659    95248829.493        2433.429          41.000  
C23  21094451.764   109844346.043        1423.898          51.000                                                                  
C09  37007300.309   192706726.143         536.272          40.000    37007288.062   149013010.302         414.486          46.000  
C33  24915511.873   129741598.055       -2622.500          35.000                                                                  
C30  24593356.261   128064046.550       -2036.891          38.000                                                                  
C27  25035348.527   130365605.397       -2776.245          36.000                                                                  
C37  24126661.445   125633852.903        3096.095          42.000                                                                  
> 2025 10 27 02 13 10.5560000  0 21                     
G12  21397512.571   112444726.967        2073.766          43.000    21397501.336    87619214.105        1615.951          40.000  
G15  21909305.975   115134166.456       -2998.166          41.000    21909296.182    89714909.850       -2336.246          39.000  
G18  21999039.453   115605721.238       -3605.433          42.000    21999028.977    90082329.444       -2809.391          40.000  
G23  18655144.723    98033446.171        -730.264          48.000    18655131.902    76389638.031        -569.082          49.000  
G24  19629370.178   103153031.753       -2676.001          40.000    19629359.093    80378933.378       -2085.010          38.000  
G32  21586316.959   113436869.332        1713.581          44.000    21586307.806    88392325.270        1335.261          42.000  
C08  34636105.590   180359283.932         -17.511          45.000    34636087.696   139465169.739         -13.367          50.000  
C13  34752812.974   180967015.025         221.265          46.000    34752803.080   139935136.294         171.155          47.000  
C16  35729046.741   186050520.164         277.583          47.000    35729035.322   143866020.455         214.631          47.000  
C25  21354734.242   111199698.767       -1585.345          45.000                                                                  
C32  21532078.770   112123181.351        1325.440          46.000                                                                  
C06  35499736.552   184856441.929         456.555          44.000    35499719.957   142942664.808         352.943          45.000  
G25  21741347.939   114251569.574        3185.887          42.000    21741341.781    89027173.189        2482.446          39.000  
G10  20191703.269   106108114.380        2063.263          47.000    20191692.165    82681612.020        1607.584          42.000  
G28  23260725.665   122235947.305        3122.961          37.000    23260717.896    95248732.139        2433.674          41.000  
C23  21094440.813   109844289.087        1423.836          51.000                                                                  
C09  37007296.203   192706704.682         536.421          40.000    37007283.931   149012993.713         414.630          46.000  
C33  24915532.022   129741702.927       -2622.146          35.000                                                                  
C30  24593371.904   128064127.995       -2036.420          38.000                                                                  
C27  25035369.874   130365716.430       -2776.013          36.000                                                                  
C37  24126637.666   125633729.052        3096.192          42.000                                                                  
> 2025 10 27 02 13 10.5960000  0 21                     
G12  21397496.767   112444644.008        2073.885          43.000    21397485.537    87619149.456        1616.125          40.000  
G15  21909328.801   115134286.387       -2998.321          41.000    21909319.006    89715003.309       -2336.387          39.000  
G18  21999066.899   115605865.445       -3605.287          42.000    21999056.401    90082441.814       -2809.340          40.000  
G23  18655150.271    98033475.384        -730.352          48.000    18655137.444    76389660.795        -569.120          49.000  
G24  19629390.554   103153138.788       -2675.958          40.000    19629379.469    80379016.790       -2085.126          38.000  
G32  21586303.901   113436800.779        1713.715          44.000    21586294.733    88392271.859        1335.199          42.000  
C08  34636105.743   180359284.620         -17.316          45.000    34636087.842   139465170.275         -13.403          50.000  
C13  34752811.263   180967006.176         221.228          46.000    34752801.413   139935129.451         171.100          47.000  
C16  35729044.581   186050509.060         277.584          47.000    35729033.185   143866011.868         214.624          47.000  
C25  21354746.433   111199762.168       -1585.183          45.000                                                                  
C32  21532068.607   112123128.329        1325.485          46.000                                                                  
C06  35499733.059   184856423.674         456.431          44.000    35499716.425   142942650.686         353.010          45.000  
G25  21741323.680   114251442.134        3185.921          42.000    21741317.530    89027073.889        2482.429          39.000  
G10  20191687.568   106108031.860        2063.071          47.000    20191676.447    82681547.700        1607.830          42.000  
G28  23260701.897   122235822.386        3122.877          37.000    23260694.123    95248634.789        2433.712          41.000  
C23  21094429.897   109844232.127        1423.883          51.000                                                                  
C09  37007292.093   192706683.238         536.190          40.000    37007279.798   149012977.119         414.785          46.000  
C33  24915552.133   129741807.784       -2621.699          35.000                                                                  
C30  24593387.540   128064209.451       -2036.354          38.000                                                                  
C27  25035391.209   130365827.480       -2776.232          36.000                                                                  
C37  24126613.853   125633605.213        3096.017          42.000                                                                  
> 2025 10 27 02 13 10.6360000  0 21                     
G12  21397480.983   112444561.061        2073.765          43.000    21397469.729    87619084.805        1616.287          40.000  
G15  21909351.608   115134406.305       -2998.063          41.000    21909341.835    89715096.754       -2336.236          39.000  
G18  21999094.321   115606009.649       -3605.188          42.000    21999083.833    90082554.177       -2809.185          39.000  
G23  18655155.834    98033504.602        -730.458          48.000    18655142.998    76389683.559        -569.119          49.000  
G24  19629410.924   103153245.834       -2676.117          40.000    19629399.819    80379100.209       -2085.376          38.000  
G32  21586290.844   113436732.220        1713.915          44.000    21586281.682    88392218.443        1335.314          42.000  
C08  34636105.890   180359285.305         -17.175          45.000    34636088.021   139465170.804         -13.312          50.000  
C13  34752809.555   180966997.324         221.240          46.000    34752799.722   139935122.608         171.063          47.000  
C16  35729042.460   186050497.953         277.624          47.000    35729031.038   143866003.286         214.527          47.000  
C25  21354758.633   111199825.565       -1585.032          45.000                                                                  
C32  21532058.457   112123075.301        1325.606          46.000                                                                  
C06  35499729.565   184856405.415         456.390          44.000    35499712.902   142942636.571         352.904          45.000  
G25  21741299.452   114251314.697        3185.833          42.000    21741293.278    89026974.587        2482.442          39.000  
G10  20191671.873   106107949.343        2062.917          47.000    20191660.740    82681483.410        1607.442          42.000  
G28  23260678.140   122235697.481        3122.576          37.000    23260670.367    95248537.456        2433.427          41.000  
C23  21094418.932   109844175.173        1423.827          51.000                                                                  
C09  37007287.974   192706661.794         536.111          40.000    37007275.678   149012960.525         414.846          46.000  
C33  24915572.279   129741912.662       -2621.788          35.000                                                                  
C30  24593403.195   128064290.916       -2036.500          38.000                                                                  
C27  25035412.518   130365938.545       -2776.642          36.000                                                                  
C37  24126590.067   125633481.364        3096.116          42.000                                                                  
> 2025 10 27 02 13 10.6760000  0 21                     
G12  21397465.200   112444478.115        2073.676          43.000    21397453.961    87619020.177        1615.895          40.000  
G15  21909374.404   115134526.224       -2997.971          41.000    21909364.657    89715190.201       -2336.219          39.000  
G18  21999121.758   115606153.852       -3605.095          42.000    21999111.275    90082666.541       -2809.086          39.000  
G23  18655161.419    98033533.827        -730.618          48.000    18655148.588    76389706.329        -569.244          49.000  
G24  19629431.296   103153352.880       -2676.208          40.000    19629420.188    80379183.607       -2085.144          38.000  
G32  21586277.809   113436663.674        1713.755          44.000    21586268.637    88392165.032        1335.263          42.000  
C08  34636106.023   180359285.999         -17.285          45.000    34636088.155   139465171.342         -13.397          50.000  
C13  34752807.845   180966988.470         221.289          46.000    34752798.027   139935115.775         170.831          47.000  
C16  35729040.365   186050486.846         277.648          47.000    35729028.886   143865994.701         214.523          47.000  
C25  21354770.798   111199888.977       -1585.218          45.000                                                                  
C32  21532048.278   112123022.279        1325.552          46.000                                                                  
C06  35499726.064   184856387.165         456.243          44.000    35499709.407   142942622.450         352.964          45.000  
G25  21741275.231   114251187.267        3185.748          42.000    21741269.040    89026875.288        2482.470          39.000  
G10  20191656.167   106107866.828        2062.839          47.000    20191645.039    82681419.111        1607.375          42.000  
G28  23260654.341   122235572.543        3123.008          37.000    23260646.597    95248440.128        2433.197          41.000  
C23  21094407.997   109844118.219        1423.784          51.000                                                                  
C09  37007283.834   192706640.342         536.218          40.000    37007271.557   149012943.940         414.727          46.000  
C33  24915592.430   129742017.531       -2621.810          35.000                                                                  
C30  24593418.815   128064372.391       -2036.744          38.000                                                                  
C27  25035433.855   130366049.603       -2776.644          36.000                                                                  
C37  24126566.280   125633357.525        3095.981          42.000                                                                  
> 2025 10 27 02 13 10.7160000  0 21                     
G12  21397449.429   112444395.177        2073.462          43.000    21397438.205    87618955.569        1615.282          40.000  
G15  21909397.243   115134646.151       -2998.072          41.000    21909387.481    89715283.640       -2336.077          39.000  
G18  21999149.217   115606298.069       -3605.300          42.000    21999138.721    90082778.919       -2809.323          39.000  
G23  18655166.962    98033563.047        -730.621          48.000    18655154.156    76389729.099        -569.299          49.000  
G24  19629451.642   103153459.918       -2676.062          40.000    19629440.578    80379267.028       -2085.413          38.000  
G32  21586264.779   113436595.147        1713.335          44.000    21586255.609    88392111.619        1335.308          42.000  
C08  34636106.175   180359286.701         -17.505          45.000    34636088.302   139465171.885         -13.556          50.000  
C13  34752806.154   180966979.627         221.094          46.000    34752796.327   139935108.935         170.905          47.000  
C16  35729038.232   186050475.747         277.504          47.000    35729026.782   143865986.121         214.474          47.000  
C25  21354782.974   111199952.394       -1585.393          45.000                                                                  
C32  21532038.081   112122969.269        1325.299          46.000                                                                  
C06  35499722.538   184856368.917         456.125          44.000    35499705.890   142942608.337         352.846          45.000  
G25  21741251.002   114251059.828        3185.811          42.000    21741244.807    89026775.966        2482.930          39.000  
G10  20191640.445   106107784.307        2062.885          47.000    20191629.338    82681354.806        1607.509          42.000  
G28  23260630.575   122235447.621        3123.035          37.000    23260622.813    95248342.786        2433.330          41.000  
C23  21094397.038   109844061.273        1423.652          51.000                                                                  
C09  37007279.722   192706618.902         536.011          40.000    37007267.408   149012927.368         414.397          46.000  
C33  24915612.575   129742122.407       -2621.947          35.000                                                                  
C30  24593434.457   128064453.873       -2037.024          38.000                                                                  
C27  25035455.160   130366160.645       -2776.382          36.000                                                                  
C37  24126542.508   125633233.687        3095.907          42.000                                                                  
> 2025 10 27 02 13 10.7560000  0 21                     
G12  21397433.640   112444312.234        2073.472          43.000    21397422.418    87618890.948        1615.289          40.000  
G15  21909420.066   115134766.091       -2998.370          41.000    21909410.297    89715377.088       -2336.178          39.000  
G18  21999176.651   115606442.282       -3605.349          42.000    21999166.173    90082891.298       -2809.440          39.000  
G23  18655172.490    98033592.271        -730.657          48.000    18655159.721    76389751.872        -569.373          49.000  
G24  19629472.001   103153566.967       -2676.221          40.000    19629460.964    80379350.444       -2085.492          38.000  
G32  21586251.709   113436526.622        1713.089          45.000    21586242.558    88392058.218        1335.114          42.000  
C08  34636106.328   180359287.398         -17.523          45.000    34636088.449   139465172.425         -13.574          50.000  
C13  34752804.465   180966970.792         220.862          46.000    34752794.624   139935102.097         170.905          47.000  
C16  35729036.094   186050464.663         277.172          47.000    35729024.682   143865977.537         214.508          47.000  
C25  21354795.147   111200015.821       -1585.662          45.000                                                                  
C32  21532027.894   112122916.266        1325.043          46.000                                                                  
C06  35499719.005   184856350.672         456.039          44.000    35499702.382   142942594.229         352.699          45.000  
G25  21741226.777   114250932.401        3185.713          42.000    21741220.552    89026676.681        2482.427          39.000  
G10  20191624.746   106107701.790        2062.848          47.000    20191613.623    82681290.506        1607.440          42.000  
G28  23260606.796   122235322.712        3122.830          37.000    23260599.031    95248245.444        2433.403          41.000  
C23  21094386.085   109844004.328        1423.585          51.000                                                                  
C09  37007275.590   192706597.465         535.876          40.000    37007263.298   149012910.792         414.325          46.000  
C33  24915632.726   129742227.292       -2622.176          35.000                                                                  
C30  24593450.097   128064535.329       -2036.655          38.000                                                                  
C27  25035476.507   130366271.680       -2775.995          36.000                                                                  
C37  24126518.726   125633109.856        3095.750          42.000                                                                  
> 2025 10 27 02 13 10.7960000  0 21                     
G12  21397417.862   112444229.298        2073.367          43.000    21397406.622    87618826.318        1615.524          40.000  
G15  21909442.911   115134886.022       -2998.355          41.000    21909433.126    89715470.542       -2336.314          39.000  
G18  21999204.097   115606586.514       -3605.697          42.000    21999193.610    90083003.666       -2809.270          39.000  
G23  18655178.039    98033621.495        -730.675          48.000    18655165.284    76389774.648        -569.446          49.000  
G24  19629492.379   103153674.012       -2676.196          40.000    19629481.352    80379433.862       -2085.559          38.000  
G32  21586238.672   113436458.088        1713.157          44.000    21586229.516    88392004.816        1335.021          42.000  
C08  34636106.477   180359288.102         -17.633          45.000    34636088.587   139465172.967         -13.580          50.000  
C13  34752802.760   180966961.957         220.764          46.000    34752792.949   139935095.258         170.966          47.000  
C16  35729033.938   186050453.575         277.078          47.000    35729022.581   143865968.959         214.418          47.000  
C25  21354807.354   111200079.235       -1585.561          45.000                                                                  
C32  21532017.739   112122863.256        1325.107          46.000                                                                  
C06  35499715.487   184856332.411         456.300          44.000    35499698.881   142942580.122         352.620          45.000  
G25  21741202.530   114250804.971        3185.683          42.000    21741196.316    89026577.397        2482.122          39.000  
G10  20191609.050   106107619.279        2062.751          47.000    20191597.918    82681226.213        1607.290          42.000  
G28  23260583.049   122235197.817        3122.483          37.000    23260575.272    95248148.106        2433.452          41.000  
C23  21094375.143   109843947.380        1423.615          51.000                                                                  
C09  37007271.474   192706576.030         535.797          40.000    37007259.197   149012894.208         414.483          46.000  
C33  24915652.850   129742332.187       -2622.422          35.000                                                                  
C30  24593465.747   128064616.805       -2036.834          38.000                                                                  
C27  25035497.838   130366382.758       -2776.613          35.000                                                                  
C37  24126494.935   125632986.015        3095.889          42.000                                                                  
> 2025 10 27 02 13 10.8360000  0 21                     
G12  21397402.073   112444146.365        2073.295          43.000    21397390.825    87618761.674        1615.924          40.000  
G15  21909465.722   115135005.958       -2998.436          41.000    21909455.961    89715564.006       -2336.593          39.000  
G18  21999231.528   115606730.729       -3605.538          42.000    21999221.061    90083116.055       -2809.531          39.000  
G23  18655183.596    98033650.721        -730.686          48.000    18655170.836    76389797.418        -569.356          49.000  
G24  19629512.730   103153781.063       -2676.276          40.000    19629501.716    80379517.278       -2085.547          38.000  
G32  21586225.640   113436389.544        1713.430          44.000    21586216.481    88391951.413        1335.031          42.000  
C08  34636106.625   180359288.798         -17.517          45.000    34636088.768   139465173.504         -13.483          50.000  
C13  34752801.065   180966953.109         220.996          46.000    34752791.256   139935088.415         171.069          47.000  
C16  35729031.784   186050442.477         277.301          47.000    35729020.430   143865960.384         214.336          47.000  
C25  21354819.549   111200142.645       -1585.349          45.000                                                                  
C32  21532007.543   112122810.241        1325.282          46.000                                                                  
C06  35499712.016   184856314.149         456.480          44.000    35499695.398   142942566.006         352.769          45.000  
G25  21741178.275   114250677.548        3185.565          42.000    21741172.088    89026478.112        2481.993          39.000  
G10  20191593.360   106107536.764        2062.767          47.000    20191582.217    82681161.922        1607.178          42.000  
G28  23260559.295   122235072.895        3122.819          37.000    23260551.502    95248050.765        2433.477          41.000  
C23  21094364.208   109843890.435        1423.591          51.000                                                                  
C09  37007267.357   192706554.578         536.066          40.000    37007255.096   149012877.626         414.521          46.000  
C33  24915672.980   129742437.080       -2622.430          35.000                                                                  
C30  24593481.400   128064698.281       -2036.952          38.000                                                                  
C27  25035519.155   130366493.810       -2776.454          35.000                                                                  
C37  24126471.163   125632862.178        3095.895          42.000                                                                  
> 2025 10 27 02 13 10.8760000  0 21                     
G12  21397386.280   112444063.420        2073.507          43.000    21397375.022    87618697.037        1615.935          40.000  
G15  21909488.550   115135125.894       -2998.453          41.000    21909478.800    89715657.484       -2336.963          39.000  
G18  21999258.963   115606874.939       -3605.345          42.000    21999248.500    90083228.422       -2809.313          40.000  
G23  18655189.145    98033679.949        -730.722          48.000    18655176.396    76389820.194        -569.400          49.000  
G24  19629533.093   103153888.122       -2676.520          40.000    19629522.098    80379600.691       -2085.425          38.000  
G32  21586212.583   113436320.994        1713.679          45.000    21586203.446    88391897.996        1335.315          42.000  
C08  34636106.789   180359289.497         -17.511          45.000    34636088.908   139465174.044         -13.519          50.000  
C13  34752799.369   180966944.268         221.014          46.000    34752789.538   139935081.578         170.978          47.000  
C16  35729029.684   186050431.375         277.467          47.000    35729018.290   143865951.807         214.366          47.000  
C25  21354831.747   111200206.064       -1585.433          45.000                                                                  
C32  21531997.393   112122757.230        1325.287          46.000                                                                  
C06  35499708.519   184856295.904         456.266          43.000    35499691.925   142942551.896         352.715          45.000  
G25  21741154.032   114250550.120        3185.572          42.000    21741147.848    89026378.800        2482.456          39.000  
G10  20191577.648   106107454.247        2062.815          47.000    20191566.503    82681097.621        1607.308          42.000  
G28  23260535.515   122234947.990        3122.655          37.000    23260527.739    95247953.421        2433.611          41.000  
C23  21094353.287   109843833.492        1423.566          51.000                                                                  
C09  37007263.253   192706533.133         536.083          40.000    37007250.985   149012861.042         414.569          46.000  
C33  24915693.120   129742541.947       -2621.918          35.000                                                                  
C30  24593497.071   128064779.766       -2037.157          38.000                                                                  
C27  25035540.479   130366604.874       -2776.578          35.000                                                                  
C37  24126447.350   125632738.328        3096.126          42.000                                                                  
> 2025 10 27 02 13 10.9160000  0 21                     
G12  21397370.487   112443980.473        2073.638          43.000    21397359.236    87618632.414        1615.658          40.000  
G15  21909511.359   115135245.826       -2998.352          41.000    21909501.596    89715750.922       -2336.431          39.000  
G18  21999286.403   115607019.154       -3605.340          42.000    21999275.929    90083340.800       -2809.432          40.000  
G23  18655194.700    98033709.183        -730.848          48.000    18655181.964    76389842.972        -569.456          49.000  
G24  19629553.462   103153995.171       -2676.410          40.000    19629542.484    80379684.097       -2085.254          38.000  
G32  21586199.526   113436252.456        1713.555          45.000    21586190.408    88391844.594        1335.142          42.000  
C08  34636106.931   180359290.194         -17.462          45.000    34636089.053   139465174.588         -13.568          50.000  
C13  34752797.665   180966935.421         221.112          46.000    34752787.842   139935074.748         170.807          47.000  
C16  35729027.559   186050420.285         277.333          47.000    35729016.141   143865943.228         214.428          47.000  
C25  21354843.910   111200269.491       -1585.636          45.000                                                                  
C32  21531987.206   112122704.215        1325.356          46.000                                                                  
C06  35499704.991   184856277.661         456.094          44.000    35499688.407   142942537.781         352.806          45.000  
G25  21741129.781   114250422.685        3185.781          42.000    21741123.597    89026279.517        2482.209          39.000  
G10  20191561.956   106107371.730        2062.870          47.000    20191550.817    82681033.327        1607.354          42.000  
G28  23260511.748   122234823.080        3122.622          37.000    23260503.986    95247856.102        2433.198          41.000  
C23  21094342.350   109843776.551        1423.490          51.000                                                                  
C09  37007259.156   192706511.688         536.070          40.000    37007246.872   149012844.460         414.569          46.000  
C33  24915713.276   129742646.824       -2621.922          35.000                                                                  
C30  24593512.688   128064861.222       -2036.740          38.000                                                                  
C27  25035561.795   130366715.894       -2775.825          35.000                                                                  
C37  24126423.553   125632614.492        3095.994          42.000                                                                  
> 2025 10 27 02 13 10.9560000  0 21                     
G12  21397354.713   112443897.548        2073.279          43.000    21397343.467    87618567.796        1615.452          40.000  
G15  21909534.189   115135365.762       -2998.409          41.000    21909524.415    89715844.372       -2336.327          39.000  
G18  21999313.866   115607163.380       -3605.564          42.000    21999303.376    90083453.201       -2809.886          39.000  
G23  18655200.249    98033738.415        -730.858          48.000    18655187.520    76389865.753        -569.556          49.000  
G24  19629573.834   103154102.224       -2676.440          40.000    19629562.856    80379767.515       -2085.431          38.000  
G32  21586186.499   113436183.924        1713.380          45.000    21586177.365    88391791.196        1335.011          42.000  
C08  34636107.067   180359290.899         -17.596          45.000    34636089.202   139465175.128         -13.544          50.000  
C13  34752795.962   180966926.582         221.021          46.000    34752786.123   139935067.913         170.807          47.000  
C16  35729025.447   186050409.193         277.302          47.000    35729013.987   143865934.647         214.499          47.000  
C25  21354856.076   111200332.920       -1585.774          45.000                                                                  
C32  21531976.980   112122651.209        1325.228          46.000                                                                  
C06  35499701.476   184856259.416         456.073          44.000    35499684.874   142942523.667         352.858          45.000  
G25  21741105.544   114250295.259        3185.685          42.000    21741099.355    89026180.223        2482.273          39.000  
G10  20191546.251   106107289.225        2062.671          47.000    20191535.084    82680969.030        1607.378          42.000  
G28  23260487.976   122234698.143        3123.098          37.000    23260480.206    95247758.772        2433.168          41.000  
C23  21094331.438   109843719.608        1423.498          51.000                                                                  
C09  37007255.016   192706490.250         535.971          40.000    37007242.752   149012827.890         414.307          46.000  
C33  24915733.441   129742751.723       -2622.309          35.000                                                                  
C30  24593528.310   128064942.704       -2036.969          38.000                                                                  
C27  25035583.117   130366826.961       -2776.417          35.000                                                                  
C37  24126399.761   125632490.669        3095.674          42.000                                                                  
> 2025 10 27 02 13 10.9960000  0 21                     
G12  21397338.940   112443814.612        2073.270          43.000    21397327.694    87618503.196        1615.051          40.000  
G15  21909557.033   115135485.687       -2998.266          41.000    21909547.247    89715937.831       -2336.478          39.000  
G18  21999341.286   115607307.595       -3605.470          42.000    21999330.826    90083565.576       -2809.640          39.000  
G23  18655205.795    98033767.648        -730.888          48.000    18655193.094    76389888.530        -569.504          49.000  
G24  19629594.214   103154209.261       -2676.099          40.000    19629583.226    80379850.942       -2085.669          38.000  
G32  21586173.465   113436115.384        1713.438          45.000    21586164.318    88391737.788        1335.106          42.000  
C08  34636107.207   180359291.594         -17.438          45.000    34636089.348   139465175.669         -13.544          50.000  
C13  34752794.231   180966917.737         221.082          46.000    34752784.410   139935061.071         170.935          47.000  
C16  35729023.315   186050398.099         277.323          47.000    35729011.840   143865926.065         214.541          47.000  
C25  21354868.260   111200396.338       -1585.591          45.000                                                                  
C32  21531966.826   112122598.198        1325.254          46.000                                                                  
C06  35499697.993   184856241.168         456.108          44.000    35499681.363   142942509.562         352.708          45.000  
G25  21741081.306   114250167.837        3185.572          42.000    21741075.110    89026080.935        2482.276          39.000  
G10  20191530.541   106107206.707        2062.809          47.000    20191519.402    82680904.743        1607.269          42.000  
G28  23260464.211   122234573.249        3122.664          37.000    23260456.422    95247661.441        2433.164          41.000  
C23  21094320.484   109843662.666        1423.479          51.000                                                                  
C09  37007250.901   192706468.818         535.798          40.000    37007238.638   149012811.308         414.440          46.000  
C33  24915753.598   129742856.605       -2622.163          35.000                                                                  
C30  24593543.958   128065024.196       -2037.282          38.000                                                                  
C27  25035604.453   130366938.021       -2776.570          35.000                                                                  
C37  24126376.000   125632366.827        3095.846          42.000                                                                  
> 2025 10 27 02 13 11.0360000  0 21                     
G12  21397323.159   112443731.679        2073.259          43.000    21397311.907    87618438.559        1615.522          40.000  
G15  21909579.862   115135605.626       -2998.499          41.000    21909570.062    89716031.290       -2336.597          39.000  
G18  21999368.748   115607451.813       -3605.457          42.000    21999358.267    90083677.956       -2809.565          39.000  
G23  18655211.344    98033796.876        -730.780          48.000    18655198.634    76389911.304        -569.396          49.000  
G24  19629614.611   103154316.315       -2676.239          40.000    19629603.595    80379934.358       -2085.522          38.000  
G32  21586160.404   113436046.836        1713.646          45.000    21586151.284    88391684.376        1335.205          42.000  
C08  34636107.308   180359292.296         -17.529          45.000    34636089.496   139465176.210         -13.556          50.000  
C13  34752792.505   180966908.896         221.008          46.000    34752782.673   139935054.236         170.892          47.000  
C16  35729021.177   186050387.001         277.393          47.000    35729009.731   143865917.491         214.416          47.000  
C25  21354880.440   111200459.757       -1585.535          45.000                                                                  
C32  21531956.624   112122545.194        1325.115          46.000                                                                  
C06  35499694.511   184856222.905         456.430          44.000    35499677.861   142942495.446         352.808          45.000  
G25  21741057.022   114250040.398        3185.844          42.000    21741050.858    89025981.631        2482.513          39.000  
G10  20191514.846   106107124.200        2062.710          47.000    20191503.687    82680840.442        1607.407          42.000  
G28  23260440.433   122234448.340        3122.614          37.000    23260432.647    95247564.110        2433.194          41.000  
C23  21094309.516   109843605.728        1423.423          51.000                                                                  
C09  37007246.787   192706447.376         535.886          40.000    37007234.514   149012794.730         414.421          46.000  
C33  24915773.715   129742961.506       -2622.443          35.000                                                                  
C30  24593559.585   128065105.658       -2036.844          38.000                                                                  
C27  25035625.800   130367049.097       -2776.929          35.000                                                                  
C37  24126352.232   125632242.987        3095.929          42.000                                                                  
> 2025 10 27 02 13 11.0760000  0 21                     
G12  21397307.370   112443648.742        2073.331          43.000    21397296.129    87618373.931        1615.640          40.000  
G15  21909602.696   115135725.563       -2998.528          41.000    21909592.874    89716124.736       -2336.358          39.000  
G18  21999396.203   115607596.033       -3605.501          42.000    21999385.706    90083790.316       -2809.167          39.000  
G23  18655216.918    98033826.108        -730.800          48.000    18655204.196    76389934.083        -569.479          49.000  
G24  19629634.992   103154423.372       -2676.392          40.000    19629623.965    80380017.768       -2085.394          38.000  
G32  21586147.351   113435978.303        1713.443          45.000    21586138.242    88391630.972        1335.116          42.000  
C08  34636107.434   180359293.000         -17.584          45.000    34636089.646   139465176.752         -13.568          50.000  
C13  34752790.814   180966900.056         220.953          46.000    34752780.991   139935047.399         170.874          47.000  
C16  35729019.035   186050375.910         277.294          47.000    35729007.625   143865908.912         214.397          47.000  
C25  21354892.632   111200523.176       -1585.525          45.000                                                                  
C32  21531946.429   112122492.178        1325.289          46.000                                                                  
C06  35499690.993   184856204.662         456.200          44.000    35499674.378   142942481.341         352.661          45.000  
G25  21741032.793   114249912.977        3185.641          42.000    21741026.608    89025882.322        2482.692          39.000  
G10  20191499.156   106107041.702        2062.495          47.000    20191488.021    82680776.157        1607.206          42.000  
G28  23260416.668   122234323.430        3122.652          37.000    23260408.895    95247466.774        2433.350          41.000  
C23  21094298.603   109843548.788        1423.424          51.000                                                                  
C09  37007242.688   192706425.947         535.725          40.000    37007230.394   149012778.154         414.371          46.000  
C33  24915793.827   129743066.384       -2622.174          35.000                                                                  
C30  24593575.246   128065187.136       -2036.863          38.000                                                                  
C27  25035647.111   130367160.148       -2776.608          35.000                                                                  
C37  24126328.435   125632119.166        3095.647          42.000                                                                  
> 2025 10 27 02 13 11.1160000  0 21                     
G12  21397291.604   112443565.806        2073.376          43.000    21397280.344    87618309.312        1615.524          40.000  
G15  21909625.521   115135845.525       -2998.943          41.000    21909615.684    89716218.193       -2336.390          39.000  
G18  21999423.664   115607740.252       -3605.475          42.000    21999413.156    90083902.691       -2809.270          39.000  
G23  18655222.476    98033855.343        -730.875          48.000    18655209.751    76389956.863        -569.491          49.000  
G24  19629655.361   103154530.440       -2676.666          40.000    19629644.339    80380101.189       -2085.535          38.000  
G32  21586134.316   113435909.773        1713.275          45.000    21586125.205    88391577.563        1335.187          42.000  
C08  34636107.549   180359293.704         -17.615          45.000    34636089.773   139465177.296         -13.623          50.000  
C13  34752789.123   180966891.219         220.905          46.000    34752779.301   139935040.563         170.880          47.000  
C16  35729016.886   186050364.824         277.167          47.000    35729005.526   143865900.341         214.275          47.000  
C25  21354904.788   111200586.602       -1585.665          45.000                                                                  
C32  21531936.234   112122439.169        1325.281          46.000                                                                  
C06  35499687.490   184856186.424         456.000          44.000    35499670.892   142942467.230         352.690          45.000  
G25  21741008.551   114249785.553        3185.560          42.000    21741002.360    89025783.033        2482.451          39.000  
G10  20191483.459   106106959.200        2062.463          47.000    20191472.321    82680711.860        1607.338          42.000  
G28  23260392.896   122234198.514        3122.849          37.000    23260385.132    95247369.443        2433.321          41.000  
C23  21094287.656   109843491.851        1423.367          51.000                                                                  
C09  37007238.573   192706404.507         535.876          40.000    37007226.309   149012761.573         414.446          46.000  
C33  24915813.982   129743171.278       -2622.305          35.000                                                                  
C30  24593590.895   128065268.607       -2036.822          38.000                                                                  
C27  25035668.456   130367271.183       -2776.116          35.000                                                                  
C37  24126304.662   125631995.322        3095.934          42.000                                                                  
> 2025 10 27 02 13 11.1560000  0 21                     
G12  21397275.825   112443482.873        2073.344          43.000    21397264.570    87618244.677        1615.733          40.000  
G15  21909648.344   115135965.453       -2998.484          41.000    21909638.492    89716311.648       -2336.358          39.000  
G18  21999451.111   115607884.478       -3605.612          42.000    21999440.583    90084015.074       -2809.559          39.000  
G23  18655228.022    98033884.580        -730.943          48.000    18655215.333    76389979.648        -569.617          49.000  
G24  19629675.726   103154637.483       -2676.312          40.000    19629664.712    80380184.595       -2085.297          38.000  
G32  21586121.287   113435841.245        1713.183          45.000    21586112.139    88391524.162        1335.047          42.000  
C08  34636107.663   180359294.409         -17.645          45.000    34636089.950   139465177.841         -13.641          50.000  
C13  34752787.438   180966882.386         220.825          46.000    34752777.618   139935033.729         170.862          47.000  
C16  35729014.746   186050353.738         277.099          47.000    35729003.449   143865891.766         214.298          47.000  
C25  21354916.970   111200650.042       -1585.968          45.000                                                                  
C32  21531926.056   112122386.163        1325.172          46.000                                                                  
C06  35499683.983   184856168.173         456.129          44.000    35499667.394   142942453.120         352.698          45.000  
G25  21740984.302   114249658.130        3185.529          42.000    21740978.121    89025683.761        2481.935          39.000  
G10  20191467.745   106106876.694        2062.513          47.000    20191456.628    82680647.577        1607.173          42.000  
G28  23260369.134   122234073.608        3122.796          37.000    23260361.359    95247272.104        2433.416          41.000  
C23  21094276.732   109843434.913        1423.376          51.000                                                                  
C09  37007234.436   192706383.057         536.137          40.000    37007222.215   149012744.999         414.359          46.000  
C33  24915834.116   129743276.169       -2622.279          35.000                                                                  
C30  24593606.555   128065350.081       -2036.823          38.000                                                                  
C27  25035689.802   130367382.253       -2776.461          35.000                                                                  
C37  24126280.862   125631871.496        3095.740          42.000                                                                  
> 2025 10 27 02 13 11.1960000  0 21                     
G12  21397260.062   112443399.944        2073.256          43.000    21397248.794    87618180.058        1615.507          40.000  
G15  21909671.195   115136085.384       -2998.331          41.000    21909661.318    89716405.097       -2336.253          39.000  
G18  21999478.564   115608028.690       -3605.400          42.000    21999468.026    90084127.471       -2809.905          39.000  
G23  18655233.591    98033913.818        -730.999          48.000    18655220.883    76390002.432        -569.646          49.000  
G24  19629696.115   103154744.543       -2676.404          40.000    19629685.059    80380268.034       -2085.779          38.000  
G32  21586108.237   113435772.704        1713.354          45.000    21586099.105    88391470.762        1334.973          42.000  
C08  34636107.794   180359295.110         -17.566          45.000    34636090.098   139465178.385         -13.660          50.000  
C13  34752785.759   180966873.547         220.886          46.000    34752775.891   139935026.900         170.752          47.000  
C16  35729012.635   186050342.640         277.297          47.000    35729001.334   143865883.183         214.449          47.000  
C25  21354929.140   111200713.469       -1585.866          45.000                                                                  
C32  21531915.878   112122333.157        1325.128          46.000                                                                  
C06  35499680.470   184856149.930         456.064          44.000    35499663.881   142942439.009         352.711          45.000  
G25  21740960.045   114249530.697        3185.681          42.000    21740953.861    89025584.464        2482.180          39.000  
G10  20191452.028   106106794.169        2062.931          47.000    20191440.932    82680583.271        1607.451          42.000  
G28  23260345.377   122233948.705        3122.670          37.000    23260337.609    95247174.777        2433.271          41.000  
C23  21094265.812   109843377.975        1423.384          51.000                                                                  
C09  37007230.319   192706361.611         536.197          40.000    37007218.083   149012728.416         414.478          46.000  
C33  24915854.280   129743381.049       -2622.099          35.000                                                                  
C30  24593622.215   128065431.566       -2036.984          38.000                                                                  
C27  25035711.121   130367493.288       -2776.075          35.000                                                                  
C37  24126257.061   125631747.663        3095.793          42.000                                                                  
> 2025 10 27 02 13 11.2360000  0 21                     
G12  21397244.283   112443317.010        2073.301          43.000    21397233.032    87618115.445        1615.280          40.000  
G15  21909694.026   115136205.305       -2998.109          41.000    21909684.126    89716498.561       -2336.478          39.000  
G18  21999506.020   115608172.909       -3605.445          42.000    21999495.477    90084239.830       -2809.290          39.000  
G23  18655239.151    98033943.057        -731.016          48.000    18655226.452    76390025.211        -569.556          49.000  
G24  19629716.486   103154851.586       -2676.129          40.000    19629705.436    80380351.445       -2085.425          38.000  
G32  21586095.191   113435704.167        1713.404          45.000    21586086.050    88391417.358        1335.000          42.000  
C08  34636107.936   180359295.808         -17.499          45.000    34636090.231   139465178.927         -13.586          50.000  
C13  34752784.090   180966864.703         221.008          46.000    34752774.206   139935020.065         170.819          47.000  
C16  35729010.496   186050331.539         277.442          47.000    35728999.185   143865874.603         214.484          47.000  
C25  21354941.328   111200776.884       -1585.573          45.000                                                                  
C32  21531905.720   112122280.145        1325.232          46.000                                                                  
C06  35499676.951   184856131.675         456.312          44.000    35499660.374   142942424.894         352.822          45.000  
G25  21740935.801   114249403.269        3185.706          42.000    21740929.625    89025485.175        2482.168          39.000  
G10  20191436.322   106106711.655        2062.926          47.000    20191425.219    82680518.984        1607.310          42.000  
G28  23260321.590   122233823.780        3123.008          37.000    23260313.846    95247077.445        2433.321          41.000  
C23  21094254.925   109843321.034        1423.468          51.000                                                                  
C09  37007226.227   192706340.171         536.045          40.000    37007213.956   149012711.839         414.453          46.000  
C33  24915874.427   129743485.933       -2622.056          35.000                                                                  
C30  24593637.878   128065513.068       -2037.423          38.000                                                                  
C27  25035732.450   130367604.339       -2776.209          35.000                                                                  
C37  24126233.293   125631623.829        3095.804          42.000                                                                  
> 2025 10 27 02 13 11.2760000  0 21                     
G12  21397228.508   112443234.077        2073.289          43.000    21397217.256    87618050.821        1615.431          40.000  
G15  21909716.860   115136325.228       -2998.087          41.000    21909706.960    89716592.019       -2336.521          39.000  
G18  21999533.483   115608317.134       -3605.582          42.000    21999522.920    90084352.221       -2809.668          39.000  
G23  18655244.708    98033972.292        -730.952          48.000    18655232.003    76390047.995        -569.620          49.000  
G24  19629736.856   103154958.642       -2676.270          40.000    19629725.802    80380434.868       -2085.529          38.000  
G32  21586082.148   113435635.638        1713.264          45.000    21586073.001    88391363.960        1334.886          42.000  
C08  34636108.057   180359296.504         -17.407          45.000    34636090.393   139465179.466         -13.525          50.000  
C13  34752782.400   180966855.856         221.130          46.000    34752772.513   139935013.224         170.959          47.000  
C16  35729008.353   186050320.445         277.399          47.000    35728997.042   143865866.027         214.426          47.000  
C25  21354953.494   111200840.308       -1585.576          45.000                                                                  
C32  21531895.523   112122227.132        1325.261          46.000                                                                  
C06  35499673.476   184856113.423         456.358          44.000    35499656.896   142942410.781         352.819          45.000  
G25  21740911.555   114249275.844        3185.629          42.000    21740905.358    89025385.883        2482.251          39.000  
G10  20191420.636   106106629.149        2062.755          47.000    20191409.526    82680454.687        1607.408          42.000  
G28  23260297.814   122233698.861        3123.064          37.000    23260290.075    95246980.108        2433.389          41.000  
C23  21094244.017   109843264.093        1423.505          51.000                                                                  
C09  37007222.153   192706318.734         535.940          40.000    37007209.837   149012695.263         414.402          46.000  
C33  24915894.564   129743590.804       -2621.833          35.000                                                                  
C30  24593653.527   128065594.543       -2037.116          38.000                                                                  
C27  25035753.760   130367715.411       -2776.696          35.000                                                                  
C37  24126209.499   125631499.985        3095.969          42.000                                                                  
> 2025 10 27 02 13 11.3160000  0 21                     
G12  21397212.704   112443151.146        2073.250          43.000    21397201.446    87617986.192        1615.583          40.000  
G15  21909739.683   115136445.176       -2998.498          41.000    21909729.780    89716685.481       -2336.582          39.000  
G18  21999560.957   115608461.364       -3605.743          42.000    21999550.374    90084464.595       -2809.561          39.000  
G23  18655250.285    98034001.534        -731.028          48.000    18655237.557    76390070.778        -569.633          49.000  
G24  19629757.225   103155065.710       -2676.563          40.000    19629746.181    80380518.287       -2085.541          38.000  
G32  21586069.109   113435567.094        1713.447          45.000    21586059.937    88391310.538        1335.283          42.000  
C08  34636108.196   180359297.210         -17.572          45.000    34636090.525   139465180.011         -13.605          50.000  
C13  34752780.647   180966847.018         221.039          46.000    34752770.835   139935006.385         170.990          47.000  
C16  35729006.210   186050309.357         277.249          47.000    35728994.896   143865857.451         214.407          47.000  
C25  21354965.676   111200903.734       -1585.615          45.000                                                                  
C32  21531885.334   112122174.124        1325.210          46.000                                                                  
C06  35499669.988   184856095.174         456.315          44.000    35499653.392   142942396.679         352.622          45.000  
G25  21740887.302   114249148.419        3185.592          42.000    21740881.096    89025286.578        2482.552          39.000  
G10  20191404.958   106106546.645        2062.625          47.000    20191393.822    82680390.397        1607.313          42.000  
G28  23260274.053   122233573.978        3122.387          37.000    23260266.310    95246882.780        2433.332          41.000  
C23  21094233.083   109843207.161        1423.383          51.000                                                                  
C09  37007218.014   192706297.309         535.699          40.000    37007205.731   149012678.692         414.278          46.000  
C33  24915914.675   129743695.702       -2622.228          35.000                                                                  
C30  24593669.183   128065676.034       -2037.288          38.000                                                                  
C27  25035775.080   130367826.457       -2776.335          35.000                                                                  
C37  24126185.724   125631376.139        3096.140          42.000                                                                  
> 2025 10 27 02 13 11.3560000  0 21                     
G12  21397196.908   112443068.219        2073.188          43.000    21397185.665    87617921.575        1615.401          40.000  
G15  21909762.517   115136565.124       -2998.721          41.000    21909752.610    89716778.931       -2336.401          39.000  
G18  21999588.406   115608605.581       -3605.586          42.000    21999577.817    90084576.978       -2809.667          39.000  
G23  18655255.826    98034030.769        -730.952          48.000    18655243.133    76390093.566        -569.733          49.000  
G24  19629777.592   103155172.770       -2676.605          40.000    19629766.563    80380601.731       -2085.962          38.000  
G32  21586056.077   113435498.562        1713.358          45.000    21586046.909    88391257.131        1335.263          42.000  
C08  34636108.329   180359297.918         -17.682          45.000    34636090.660   139465180.555         -13.623          50.000  
C13  34752778.946   180966838.177         221.021          46.000    34752769.143   139934999.551         170.898          47.000  
C16  35729004.090   186050298.267         277.199          47.000    35728992.752   143865848.876         214.362          47.000  
C25  21354977.861   111200967.165       -1585.729          45.000                                                                  
C32  21531875.155   112122121.116        1325.198          46.000                                                                  
C06  35499666.470   184856076.931         456.162          44.000    35499649.919   142942382.577         352.501          45.000  
G25  21740863.057   114249020.992        3185.644          42.000    21740856.843    89025187.273        2482.635          39.000  
G10  20191389.261   106106464.145        2062.491          47.000    20191378.138    82680326.109        1607.202          42.000  
G28  23260250.290   122233449.070        3122.476          37.000    23260242.554    95246785.459        2433.073          41.000  
C23  21094222.129   109843150.230        1423.276          51.000                                                                  
C09  37007213.908   192706275.866         535.926          40.000    37007201.615   149012662.109         414.441          46.000  
C33  24915934.847   129743800.611       -2622.751          35.000                                                                  
C30  24593684.827   128065757.516       -2037.212          38.000                                                                  
C27  25035796.394   130367937.521       -2776.408          35.000                                                                  
C37  24126161.937   125631252.312        3095.867          42.000                                                                  
> 2025 10 27 02 13 11.3960000  0 21                     
G12  21397181.129   112442985.298        2073.018          43.000    21397169.894    87617856.950        1615.499          40.000  
G15  21909785.329   115136685.059       -2998.569          41.000    21909775.438    89716872.388       -2336.401          39.000  
G18  21999615.866   115608749.800       -3605.511          42.000    21999605.287    90084689.367       -2809.740          39.000  
G23  18655261.398    98034060.015        -731.103          48.000    18655248.694    76390116.348        -569.675          49.000  
G24  19629797.974   103155279.847       -2676.910          40.000    19629786.937    80380685.155       -2085.822          38.000  
G32  21586043.022   113435430.024        1713.435          45.000    21586033.907    88391203.742        1334.877          42.000  
C08  34636108.463   180359298.624         -17.700          45.000    34636090.787   139465181.099         -13.641          50.000  
C13  34752777.219   180966829.343         220.868          46.000    34752767.428   139934992.717         170.844          47.000  
C16  35729001.967   186050287.178         277.183          47.000    35728990.625   143865840.303         214.304          47.000  
C25  21354990.050   111201030.603       -1585.938          45.000                                                                  
C32  21531864.967   112122068.116        1325.034          46.000                                                                  
C06  35499662.965   184856058.692         455.996          44.000    35499646.394   142942368.462         352.690          45.000  
G25  21740838.811   114248893.576        3185.481          42.000    21740832.591    89025087.998        2482.117          39.000  
G10  20191373.555   106106381.642        2062.444          47.000    20191362.456    82680261.825        1607.065          42.000  
G28  23260226.513   122233324.142        3122.908          37.000    23260218.803    95246688.125        2433.196          41.000  
C23  21094211.189   109843093.302        1423.177          51.000                                                                  
C09  37007209.753   192706254.432         535.869          40.000    37007197.518   149012645.529         414.490          46.000  
C33  24915955.017   129743905.487       -2622.342          35.000                                                                  
C30  24593700.458   128065838.977       -2036.746          38.000                                                                  
C27  25035817.705   130368048.571       -2776.191          35.000                                                                  
C37  24126138.178   125631128.482        3095.708          42.000                                                                  
> 2025 10 27 02 13 11.4360000  0 21                     
G12  21397165.325   112442902.373        2073.027          43.000    21397154.110    87617792.333        1615.404          40.000  
G15  21909808.150   115136804.999       -2998.536          41.000    21909798.261    89716965.840       -2336.340          39.000  
G18  21999643.320   115608894.019       -3605.493          42.000    21999632.735    90084801.743       -2809.514          39.000  
G23  18655266.974    98034089.261        -731.202          48.000    18655254.241    76390139.135        -569.706          49.000  
G24  19629818.328   103155386.911       -2676.825          40.000    19629807.317    80380768.570       -2085.510          38.000  
G32  21586029.962   113435361.484        1713.504          45.000    21586020.862    88391150.339        1334.905          42.000  
C08  34636108.590   180359299.325         -17.627          45.000    34636090.915   139465181.648         -13.721          50.000  
C13  34752775.509   180966820.508         220.795          46.000    34752765.737   139934985.884         170.782          47.000  
C16  35728999.854   186050276.095         277.063          47.000    35728988.495   143865831.733         214.241          47.000  
C25  21355002.221   111201094.038       -1585.952          45.000                                                                  
C32  21531854.779   112122015.113        1324.998          46.000                                                                  
C06  35499659.465   184856040.454         455.916          44.000    35499642.905   142942354.356         352.650          45.000  
G25  21740814.571   114248766.157        3185.419          42.000    21740808.346    89024988.715        2481.996          39.000  
G10  20191357.828   106106299.135        2062.555          47.000    20191346.754    82680197.538        1607.072          42.000  
G28  23260202.754   122233199.232        3122.865          37.000    23260195.024    95246590.787        2433.361          41.000  
C23  21094200.288   109843036.369        1423.231          51.000                                                                  
C09  37007205.652   192706232.988         536.005          40.000    37007193.403   149012628.956         414.365          46.000  
C33  24915975.185   129744010.374       -2622.229          35.000                                                                  
C30  24593716.117   128065920.451       -2036.711          38.000                                                                  
C27  25035839.017   130368159.642       -2776.554          35.000                                                                  
C37  24126114.391   125631004.664        3095.450          42.000                                                                  
> 2025 10 27 02 13 11.4760000  0 21                     
G12  21397149.529   112442819.439        2073.240          43.000    21397138.335    87617727.716        1615.328          40.000  
G15  21909830.945   115136924.933       -2998.431          41.000    21909821.071    89717059.295       -2336.302          39.000  
G18  21999670.762   115609038.249       -3605.661          42.000    21999660.172    90084914.120       -2809.478          39.000  
G23  18655272.526    98034118.507        -731.219          48.000    18655259.814    76390161.925        -569.774          49.000  
G24  19629838.690   103155493.965       -2676.508          40.000    19629827.682    80380851.989       -2085.492          38.000  
G32  21586016.911   113435292.952        1713.402          45.000    21586007.834    88391096.935        1334.983          42.000  
C08  34636108.713   180359300.034         -17.719          45.000    34636091.066   139465182.194         -13.696          50.000  
C13  34752773.806   180966811.673         220.782          46.000    34752764.047   139934979.050         170.807          47.000  
C16  35728997.707   186050265.009         277.100          47.000    35728986.399   143865823.150         214.452          47.000  
C25  21355014.423   111201157.471       -1585.892          45.000                                                                  
C32  21531844.600   112121962.108        1325.006          46.000                                                                  
C06  35499655.981   184856022.202         456.130          44.000    35499639.381   142942340.246         352.646          45.000  
G25  21740790.299   114248638.727        3185.641          42.000    21740784.096    89024889.422        2482.176          39.000  
G10  20191342.104   106106216.630        2062.596          47.000    20191331.043    82680133.240        1607.272          42.000  
G28  23260179.011   122233074.352        3122.231          37.000    23260171.254    95246493.454        2433.324          41.000  
C23  21094189.373   109842979.435        1423.283          51.000                                                                  
C09  37007201.515   192706211.547         536.036          40.000    37007189.292   149012612.384         414.279          46.000  
C33  24915995.321   129744115.273       -2622.473          35.000                                                                  
C30  24593731.748   128066001.927       -2036.803          38.000                                                                  
C27  25035860.333   130368270.683       -2776.198          35.000                                                                  
C37  24126090.583   125630880.840        3095.424          42.000                                                                  
> 2025 10 27 02 13 11.5160000  0 21                     
G12  21397133.750   112442736.524        2072.996          43.000    21397122.570    87617663.111        1615.096          40.000  
G15  21909853.773   115137044.875       -2998.494          41.000    21909843.905    89717152.774       -2336.693          39.000  
G18  21999698.193   115609182.474       -3605.660          42.000    21999687.620    90085026.502       -2809.484          39.000  
G23  18655278.093    98034147.760        -731.343          48.000    18655265.408    76390184.719        -569.874          49.000  
G24  19629859.044   103155601.027       -2676.483          40.000    19629848.043    80380935.419       -2085.602          38.000  
G32  21586003.860   113435224.425        1713.226          45.000    21585994.795    88391043.537        1334.914          42.000  
C08  34636108.824   180359300.739         -17.725          45.000    34636091.184   139465182.740         -13.702          50.000  
C13  34752772.134   180966802.840         220.782          46.000    34752762.352   139934972.219         170.746          47.000  
C16  35728995.571   186050253.923         277.115          47.000    35728984.328   143865814.575         214.416          47.000  
C25  21355026.627   111201220.911       -1586.000          45.000                                                                  
C32  21531834.439   112121909.110        1324.925          46.000                                                                  
C06  35499652.478   184856003.964         455.991          44.000    35499635.884   142942326.145         352.518          45.000  
G25  21740766.049   114248511.310        3185.527          42.000    21740759.843    89024790.128        2482.290          39.000  
G10  20191326.420   106106134.132        2062.476          47.000    20191315.374    82680068.955        1607.163          42.000  
G28  23260155.242   122232949.437        3122.523          37.000    23260147.483    95246396.134        2433.083          41.000  
C23  21094178.431   109842922.511        1423.149          51.000                                                                  
C09  37007197.418   192706190.129         535.581          40.000    37007185.166   149012595.813         414.204          46.000  
C33  24916015.438   129744220.165       -2622.479          35.000                                                                  
C30  24593747.378   128066083.423       -2037.302          38.000                                                                  
C27  25035881.649   130368381.726       -2776.045          35.000                                                                  
C37  24126066.809   125630757.009        3095.602          42.000                                                                  
> 2025 10 27 02 13 11.5560000  0 21                     
G12  21397117.977   112442653.602        2072.986          43.000    21397106.794    87617598.510        1614.944          40.000  
G15  21909876.602   115137164.811       -2998.450          41.000    21909866.750    89717246.239       -2336.678          39.000  
G18  21999725.631   115609326.708       -3605.840          42.000    21999715.076    90085138.879       -2809.404          39.000  
G23  18655283.644    98034177.005        -731.253          48.000    18655270.967    76390207.513        -569.922          49.000  
G24  19629879.429   103155708.094       -2676.617          40.000    19629868.429    80381018.848       -2085.651          38.000  
G32  21585990.818   113435155.901        1713.090          45.000    21585981.744    88390990.141        1334.871          42.000  
C08  34636108.927   180359301.449         -17.786          45.000    34636091.294   139465183.288         -13.727          50.000  
C13  34752770.454   180966794.002         220.874          46.000    34752760.685   139934965.392         170.667          47.000  
C16  35728993.453   186050242.831         277.244          47.000    35728982.200   143865806.006         214.246          47.000  
C25  21355038.840   111201284.351       -1586.047          45.000                                                                  
C32  21531824.241   112121856.105        1324.997          46.000                                                                  
C06  35499648.960   184855985.725         455.926          44.000    35499632.379   142942312.034         352.632          45.000  
G25  21740741.826   114248383.895        3185.401          42.000    21740735.596    89024690.844        2482.118          39.000  
G10  20191310.725   106106051.636        2062.366          47.000    20191299.678    82680004.671        1607.064          42.000  
G28  23260131.478   122232824.540        3122.435          37.000    23260123.721    95246298.819        2432.846          41.000  
C23  21094167.484   109842865.587        1423.067          51.000                                                                  
C09  37007193.317   192706168.703         535.521          40.000    37007181.037   149012579.240         414.255          46.000  
C33  24916035.588   129744325.055       -2622.308          35.000                                                                  
C30  24593763.035   128066164.910       -2037.289          38.000                                                                  
C27  25035902.946   130368492.780       -2776.222          35.000                                                                  
C37  24126043.040   125630633.175        3095.742          42.000                                                                  
> 2025 10 27 02 13 11.5960000  0 21                     
G12  21397102.185   112442570.685        2072.905          43.000    21397091.016    87617533.897        1615.114          40.000  
G15  21909899.432   115137284.753       -2998.493          41.000    21909889.598    89717339.693       -2336.517          39.000  
G18  21999753.071   115609470.937       -3605.807          42.000    21999742.536    90085251.264       -2809.542          39.000  
G23  18655289.199    98034206.258        -731.328          48.000    18655276.536    76390230.305        -569.889          49.000  
G24  19629899.789   103155815.170       -2676.843          40.000    19629888.812    80381102.296       -2086.090          38.000  
G32  21585977.782   113435087.375        1713.067          45.000    21585968.702    88390936.744        1334.866          42.000  
C08  34636109.036   180359302.162         -17.889          45.000    34636091.424   139465183.838         -13.770          50.000  
C13  34752768.769   180966785.169         220.801          46.000    34752758.985   139934958.563         170.660          47.000  
C16  35728991.296   186050231.751         277.079          47.000    35728980.064   143865797.445         214.017          47.000  
C25  21355051.023   111201347.793       -1586.084          45.000                                                                  
C32  21531814.046   112121803.106        1324.952          46.000                                                                  
C06  35499645.455   184855967.490         455.818          43.000    35499628.852   142942297.930         352.579          45.000  
G25  21740717.588   114248256.484        3185.238          42.000    21740711.356    89024591.567        2481.911          39.000  
G10  20191295.043   106105969.144        2062.252          47.000    20191283.974    82679940.403        1606.716          42.000  
G28  23260107.713   122232699.643        3122.358          37.000    23260099.934    95246201.491        2432.981          41.000  
C23  21094156.537   109842808.666        1423.000          51.000                                                                  
C09  37007189.181   192706147.276         535.536          40.000    37007176.910   149012562.668         414.275          46.000  
C33  24916055.721   129744429.939       -2622.204          35.000                                                                  
C30  24593778.704   128066246.397       -2037.306          38.000                                                                  
C27  25035924.301   130368603.854       -2776.751          35.000                                                                  
C37  24126019.243   125630509.346        3095.740          42.000                                                                  
> 2025 10 27 02 13 11.6360000  0 21                     
G12  21397086.404   112442487.771        2072.806          43.000    21397075.215    87617469.276        1615.401          40.000  
G15  21909922.244   115137404.710       -2998.854          41.000    21909912.433    89717433.153       -2336.493          39.000  
G18  21999780.507   115609615.180       -3606.062          42.000    21999769.979    90085363.676       -2810.126          39.000  
G23  18655294.754    98034235.518        -731.484          48.000    18655282.123    76390253.102        -569.971          49.000  
G24  19629920.159   103155922.241       -2676.886          40.000    19629909.199    80381185.726       -2085.968          38.000  
G32  21585964.750   113435018.855        1712.956          45.000    21585955.643    88390883.348        1334.840          42.000  
C08  34636109.192   180359302.881         -18.030          45.000    34636091.581   139465184.396         -13.922          50.000  
C13  34752767.092   180966776.337         220.789          46.000    34752757.293   139934951.737         170.605          47.000  
C16  35728989.144   186050220.675         276.893          47.000    35728977.930   143865788.880         214.011          47.000  
C25  21355063.190   111201411.237       -1586.146          45.000                                                                  
C32  21531803.860   112121750.107        1324.914          46.000                                                                  
C06  35499641.980   184855949.251         455.882          43.000    35499625.352   142942283.828         352.544          45.000  
G25  21740693.356   114248129.072        3185.152          42.000    21740687.098    89024492.281        2481.983          39.000  
G10  20191279.363   106105886.657        2062.114          47.000    20191268.263    82679876.126        1606.722          42.000  
G28  23260083.943   122232574.729        3122.645          37.000    23260076.156    95246104.168        2432.998          41.000  
C23  21094145.598   109842751.749        1422.894          51.000                                                                  
C09  37007185.077   192706125.841         535.718          40.000    37007172.786   149012546.099         414.193          46.000  
C33  24916075.865   129744534.860       -2622.776          35.000                                                                  
C30  24593794.379   128066327.887       -2037.271          38.000                                                                  
C27  25035945.624   130368714.926       -2776.959          35.000                                                                  
C37  24125995.447   125630385.529        3095.529          42.000                                                                  
> 2025 10 27 02 13 11.6760000  0 21                     
G12  21397070.635   112442404.860        2072.739          43.000    21397059.442    87617404.670        1615.296          40.000  
G15  21909945.094   115137524.666       -2998.957          41.000    21909935.256    89717526.634       -2336.910          39.000  
G18  21999807.950   115609759.406       -3605.823          42.000    21999797.419    90085476.066       -2810.029          39.000  
G23  18655300.317    98034264.780        -731.594          48.000    18655287.676    76390275.903        -570.063          49.000  
G24  19629940.526   103156029.321       -2677.026          40.000    19629929.579    80381269.158       -2085.809          38.000  
G32  21585951.686   113434950.326        1713.097          45.000    21585942.601    88390829.948        1334.923          42.000  
C08  34636109.301   180359303.600         -18.091          45.000    34636091.697   139465184.949         -13.922          50.000  
C13  34752765.415   180966767.516         220.526          46.000    34752755.600   139934944.914         170.526          47.000  
C16  35728987.009   186050209.598         276.861          47.000    35728975.788   143865780.313         214.080          47.000  
C25  21355075.383   111201474.683       -1586.201          45.000                                                                  
C32  21531793.656   112121697.124        1324.598          46.000                                                                  
C06  35499638.485   184855931.012         455.958          43.000    35499621.867   142942269.739         352.282          45.000  
G25  21740669.096   114248001.651        3185.331          42.000    21740662.839    89024392.995        2482.034          39.000  
G10  20191263.656   106105804.169        2062.103          47.000    20191252.559    82679811.837        1606.960          42.000  
G28  23260060.178   122232449.848        3122.163          37.000    23260052.390    95246006.854        2432.861          41.000  
C23  21094134.666   109842694.834        1422.809          51.000                                                                  
C09  37007180.948   192706104.413         535.730          40.000    37007168.686   149012529.532         414.132          46.000  
C33  24916096.030   129744639.758       -2622.540          35.000                                                                  
C30  24593810.024   128066409.405       -2037.688          38.000                                                                  
C27  25035966.967   130368825.984       -2776.719          35.000                                                                  
C37  24125971.661   125630261.707        3095.454          42.000                                                                  
> 2025 10 27 02 13 11.7160000  0 21                     
G12  21397054.859   112442321.946        2072.780          43.000    21397043.656    87617340.056        1615.339          40.000  
G15  21909967.919   115137644.619       -2998.929          41.000    21909958.086    89717620.091       -2336.609          39.000  
G18  21999835.405   115609903.645       -3605.923          42.000    21999824.860    90085588.449       -2809.778          39.000  
G23  18655305.870    98034294.044        -731.667          48.000    18655293.248    76390298.709        -570.168          49.000  
G24  19629960.899   103156136.395       -2676.965          40.000    19629949.931    80381352.594       -2085.809          38.000  
G32  21585938.645   113434881.806        1713.002          45.000    21585929.548    88390776.544        1335.042          42.000  
C08  34636109.418   180359304.307         -17.822          45.000    34636091.857   139465185.502         -13.885          50.000  
C13  34752763.714   180966758.696         220.416          46.000    34752753.901   139934938.083         170.667          47.000  
C16  35728984.892   186050198.520         276.872          47.000    35728973.667   143865771.747         214.108          47.000  
C25  21355087.559   111201538.138       -1586.377          45.000                                                                  
C32  21531783.465   112121644.135        1324.585          46.000                                                                  
C06  35499634.998   184855912.783         455.794          44.000    35499618.398   142942255.638         352.356          45.000  
G25  21740644.843   114247874.237        3185.332          42.000    21740638.599    89024293.717        2481.940          39.000  
G10  20191247.954   106105721.679        2062.148          47.000    20191236.858    82679747.567        1606.794          42.000  
G28  23260036.425   122232324.941        3122.377          37.000    23260028.631    95245909.531        2432.925          41.000  
C23  21094123.717   109842637.919        1422.781          51.000                                                                  
C09  37007176.816   192706082.989         535.617          40.000    37007164.541   149012512.963         414.158          46.000  
C33  24916116.209   129744744.671       -2622.860          35.000                                                                  
C30  24593825.664   128066490.911       -2037.792          38.000                                                                  
C27  25035988.303   130368937.036       -2776.393          35.000                                                                  
C37  24125947.861   125630137.887        3095.446          42.000                                                                  
> 2025 10 27 02 13 11.7560000  0 21                     
G12  21397039.096   112442239.033        2072.814          43.000    21397027.887    87617275.454        1615.142          40.000  
G15  21909990.744   115137764.564       -2998.729          41.000    21909980.904    89717713.562       -2336.715          39.000  
G18  21999862.835   115610047.880       -3605.929          42.000    21999852.325    90085700.836       -2809.716          39.000  
G23  18655311.419    98034323.298        -731.495          48.000    18655298.807    76390321.507        -570.077          49.000  
G24  19629981.282   103156243.469       -2676.868          40.000    19629970.317    80381436.009       -2085.376          38.000  
G32  21585925.603   113434813.282        1713.015          45.000    21585916.507    88390723.146        1334.958          42.000  
C08  34636109.538   180359305.013         -17.688          45.000    34636091.991   139465186.049         -13.763          50.000  
C13  34752762.014   180966749.866         220.557          46.000    34752752.222   139934931.255         170.685          47.000  
C16  35728982.769   186050187.441         276.906          47.000    35728971.526   143865763.176         214.245          47.000  
C25  21355099.738   111201601.581       -1586.240          45.000                                                                  
C32  21531773.284   112121591.129        1324.932          46.000                                                                  
C06  35499631.485   184855894.555         455.707          44.000    35499614.893   142942241.547         352.227          45.000  
G25  21740620.594   114247746.817        3185.458          42.000    21740614.331    89024194.426        2482.123          39.000  
G10  20191232.242   106105639.185        2062.250          47.000    20191221.182    82679683.295        1606.741          42.000  
G28  23260012.665   122232200.063        3122.081          37.000    23260004.859    95245812.216        2432.839          41.000  
C23  21094112.812   109842581.001        1422.880          51.000                                                                  
C09  37007172.734   192706061.564         535.549          40.000    37007160.427   149012496.398         414.109          46.000  
C33  24916136.333   129744849.570       -2622.651          35.000                                                                  
C30  24593841.323   128066572.396       -2037.380          38.000                                                                  
C27  25036009.636   130369048.109       -2776.644          35.000                                                                  
C37  24125924.092   125630014.065        3095.487          42.000                                                                  
> 2025 10 27 02 13 11.7960000  0 21                     
G12  21397023.314   112442156.118        2072.852          43.000    21397012.111    87617210.852        1615.068          40.000  
G15  21910013.563   115137884.505       -2998.575          41.000    21910003.743    89717807.033       -2336.776          39.000  
G18  21999890.262   115610192.102       -3605.661          42.000    21999879.778    90085813.236       -2809.948          39.000  
G23  18655317.010    98034352.558        -731.521          48.000    18655304.348    76390344.300        -569.908          49.000  
G24  19630001.646   103156350.540       -2676.758          40.000    19629990.691    80381519.451       -2085.736          38.000  
G32  21585912.588   113434744.759        1713.054          45.000    21585903.449    88390669.756        1334.796          42.000  
C08  34636109.646   180359305.728         -17.822          45.000    34636092.117   139465186.598         -13.708          50.000  
C13  34752760.339   180966741.026         220.850          46.000    34752750.515   139934924.425         170.758          47.000  
C16  35728980.638   186050176.357         277.016          47.000    35728969.399   143865754.601         214.365          47.000  
C25  21355111.927   111201665.022       -1586.079          45.000                                                                  
C32  21531763.121   112121538.122        1325.164          46.000                                                                  
C06  35499627.987   184855876.316         455.853          44.000    35499611.376   142942227.438         352.473          45.000  
G25  21740596.351   114247619.408        3185.280          42.000    21740590.067    89024095.141        2482.129          39.000  
G10  20191216.555   106105556.693        2062.286          47.000    20191205.467    82679619.013        1606.924          42.000  
G28  23259988.887   122232075.173        3122.180          37.000    23259981.087    95245714.883        2433.076          41.000  
C23  21094101.905   109842524.083        1422.932          51.000                                                                  
C09  37007168.618   192706040.135         535.681          40.000    37007156.296   149012479.821         414.283          46.000  
C33  24916156.478   129744954.471       -2622.590          35.000                                                                  
C30  24593856.961   128066653.855       -2036.737          38.000                                                                  
C27  25036030.959   130369159.165       -2776.545          35.000                                                                  
C37  24125900.319   125629890.239        3095.590          42.000                                                                  
> 2025 10 27 02 13 11.8360000  0 21                     
G12  21397007.530   112442073.197        2072.997          43.000    21396996.329    87617146.230        1615.355          40.000  
G15  21910036.410   115138004.449       -2998.564          41.000    21910026.574    89717900.488       -2336.470          39.000  
G18  21999917.717   115610336.327       -3605.594          42.000    21999907.237    90085925.618       -2809.678          40.000  
G23  18655322.547    98034381.813        -731.420          48.000    18655309.910    76390367.093        -569.846          49.000  
G24  19630022.020   103156457.615       -2676.788          40.000    19630011.055    80381602.883       -2085.773          38.000  
G32  21585899.526   113434676.226        1713.256          45.000    21585890.400    88390616.356        1334.892          42.000  
C08  34636109.761   180359306.445         -17.932          45.000    34636092.245   139465187.149         -13.745          50.000  
C13  34752758.620   180966732.190         220.911          46.000    34752748.804   139934917.589         170.892          47.000  
C16  35728978.503   186050165.276         277.020          47.000    35728967.298   143865746.030         214.346          47.000  
C25  21355124.116   111201728.467       -1586.102          45.000                                                                  
C32  21531752.939   112121485.117        1325.223          46.000                                                                  
C06  35499624.513   184855858.074         455.988          44.000    35499607.858   142942213.326         352.704          45.000  
G25  21740572.101   114247491.988        3185.413          42.000    21740565.823    89023995.857        2482.109          39.000  
G10  20191200.849   106105474.196        2062.377          47.000    20191189.758    82679554.712        1607.355          42.000  
G28  23259965.116   122231950.257        3122.752          37.000    23259957.324    95245617.547        2433.275          41.000  
C23  21094090.976   109842467.159        1423.059          51.000                                                                  
C09  37007164.513   192706018.699         535.887          40.000    37007152.198   149012463.247         414.338          46.000  
C33  24916176.616   129745059.349       -2622.180          35.000                                                                  
C30  24593872.612   128066735.348       -2037.027          38.000                                                                  
C27  25036052.291   130369270.221       -2776.478          35.000                                                                  
C37  24125876.556   125629766.404        3095.791          42.000                                                                  
> 2025 10 27 02 13 11.8760000  0 21                     
G12  21396991.772   112441990.281        2072.944          43.000    21396980.548    87617081.617        1615.313          40.000  
G15  21910059.241   115138124.395       -2998.596          41.000    21910049.386    89717993.942       -2336.323          39.000  
G18  21999945.161   115610480.552       -3605.583          42.000    21999934.675    90086038.001       -2809.586          40.000  
G23  18655328.114    98034411.069        -731.415          48.000    18655315.486    76390389.897        -570.011          49.000  
G24  19630042.384   103156564.686       -2676.746          40.000    19630031.431    80381686.332       -2086.182          38.000  
G32  21585886.488   113434607.691        1713.411          45.000    21585877.356    88390562.959        1334.892          42.000  
C08  34636109.877   180359307.157         -17.871          45.000    34636092.384   139465187.693         -13.654          50.000  
C13  34752756.936   180966723.354         220.929          46.000    34752747.107   139934910.755         170.892          47.000  
C16  35728976.378   186050154.190         277.107          47.000    35728965.185   143865737.462         214.220          47.000  
C25  21355136.295   111201791.909       -1586.091          45.000                                                                  
C32  21531742.762   112121432.116        1325.097          46.000                                                                  
C06  35499621.018   184855839.825         456.159          44.000    35499604.362   142942199.224         352.633          45.000  
G25  21740547.844   114247364.575        3185.355          42.000    21740541.559    89023896.573        2482.083          39.000  
G10  20191185.157   106105391.703        2062.361          47.000    20191174.081    82679490.445        1606.987          42.000  
G28  23259941.340   122231825.347        3122.844          37.000    23259933.543    95245520.210        2433.448          41.000  
C23  21094080.013   109842410.241        1423.011          51.000                                                                  
C09  37007160.399   192705997.280         535.623          40.000    37007148.094   149012446.679         414.250          46.000  
C33  24916196.763   129745164.244       -2622.251          35.000                                                                  
C30  24593888.227   128066816.856       -2037.480          38.000                                                                  
C27  25036073.625   130369381.294       -2776.771          35.000                                                                  
C37  24125852.794   125629642.571        3095.844          42.000                                                                  
> 2025 10 27 02 13 11.9160000  0 21                     
G12  21396976.011   112441907.363        2072.988          43.000    21396964.758    87617017.009        1615.250          40.000  
G15  21910082.061   115138244.333       -2998.491          41.000    21910072.209    89718087.407       -2336.500          39.000  
G18  21999972.600   115610624.789       -3605.795          42.000    21999962.118    90086150.383       -2809.532          40.000  
G23  18655333.674    98034440.326        -731.409          48.000    18655321.036    76390412.699        -570.066          49.000  
G24  19630062.765   103156671.761       -2676.819          40.000    19630051.800    80381769.754       -2085.773          38.000  
G32  21585873.461   113434539.166        1713.282          45.000    21585864.328    88390509.575        1334.640          42.000  
C08  34636110.015   180359307.854         -17.566          45.000    34636092.514   139465188.242         -13.696          50.000  
C13  34752755.244   180966714.514         221.027          46.000    34752745.406   139934903.931         170.703          47.000  
C16  35728974.244   186050143.107         277.094          47.000    35728963.072   143865728.892         214.202          47.000  
C25  21355148.478   111201855.355       -1586.136          45.000                                                                  
C32  21531732.595   112121379.121        1324.945          46.000                                                                  
C06  35499617.537   184855821.586         456.081          44.000    35499600.865   142942185.120         352.617          45.000  
G25  21740523.585   114247237.158        3185.348          42.000    21740517.326    89023797.291        2482.008          39.000  
G10  20191169.446   106105309.209        2062.352          47.000    20191158.392    82679426.166        1606.927          42.000  
G28  23259917.559   122231700.450        3122.634          37.000    23259909.791    95245422.906        2432.878          41.000  
C23  21094069.065   109842353.323        1422.965          51.000                                                                  
C09  37007156.272   192705975.834         535.966          40.000    37007143.967   149012430.107         414.282          46.000  
C33  24916216.888   129745269.170       -2622.893          35.000                                                                  
C30  24593903.881   128066898.344       -2037.345          38.000                                                                  
C27  25036094.942   130369492.332       -2776.246          35.000                                                                  
C37  24125829.029   125629518.746        3095.740          42.000                                                                  
> 2025 10 27 02 13 11.9560000  0 21                     
G12  21396960.243   112441824.451        2072.873          43.000    21396948.979    87616952.406        1615.131          40.000  
G15  21910104.864   115138364.277       -2998.542          41.000    21910095.042    89718180.876       -2336.693          39.000  
G18  22000000.037   115610769.024       -3605.900          42.000    21999989.580    90086262.767       -2809.520          40.000  
G23  18655339.245    98034469.585        -731.466          48.000    18655326.587    76390435.493        -569.940          49.000  
G24  19630083.143   103156778.830       -2676.758          40.000    19630072.165    80381853.178       -2085.638          38.000  
G32  21585860.417   113434470.640        1713.155          45.000    21585851.298    88390456.173        1334.869          42.000  
C08  34636110.142   180359308.563         -17.621          45.000    34636092.639   139465188.793         -13.763          50.000  
C13  34752753.569   180966705.684         220.868          46.000    34752743.688   139934897.103         170.654          47.000  
C16  35728972.113   186050132.020         277.143          47.000    35728960.928   143865720.323         214.190          47.000  
C25  21355160.661   111201918.804       -1586.218          45.000                                                                  
C32  21531722.415   112121326.126        1324.858          46.000                                                                  
C06  35499614.054   184855803.353         455.911          44.000    35499597.340   142942171.016         352.604          45.000  
G25  21740499.303   114247109.736        3185.468          42.000    21740493.072    89023698.006        2482.002          39.000  
G10  20191153.766   106105226.717        2062.297          47.000    20191142.683    82679361.874        1607.147          42.000  
G28  23259893.797   122231575.544        3122.608          37.000    23259886.040    95245325.592        2432.752          41.000  
C23  21094058.131   109842296.401        1423.023          51.000                                                                  
C09  37007152.167   192705954.402         535.864          40.000    37007139.860   149012413.534         414.325          46.000  
C33  24916237.041   129745374.041       -2622.167          35.000                                                                  
C30  24593919.553   128066979.829       -2037.199          38.000                                                                  
C27  25036116.252   130369603.374       -2776.088          35.000                                                                  
C37  24125805.253   125629394.920        3095.669          42.000                                                                  
> 2025 10 27 02 13 11.9960000  0 21                     
G12  21396944.475   112441741.542        2072.786          43.000    21396933.179    87616887.804        1615.031          40.000  
G15  21910127.676   115138484.225       -2998.667          41.000    21910117.875    89718274.332       -2336.549          39.000  
G18  22000027.479   115610913.253       -3605.831          42.000    22000017.026    90086375.168       -2809.863          40.000  
G23  18655344.826    98034498.846        -731.523          48.000    18655332.151    76390458.289        -569.922          49.000  
G24  19630103.503   103156885.911       -2676.910          40.000    19630092.544    80381936.621       -2085.870          38.000  
G32  21585847.399   113434402.119        1713.044          45.000    21585838.270    88390402.768        1335.057          42.000  
C08  34636110.264   180359309.280         -17.847          45.000    34636092.775   139465189.345         -13.812          50.000  
C13  34752751.841   180966696.860         220.660          46.000    34752741.987   139934890.275         170.654          47.000  
C16  35728969.995   186050120.944         276.980          47.000    35728958.814   143865711.757         214.147          47.000  
C25  21355172.862   111201982.251       -1586.222          45.000                                                                  
C32  21531712.231   112121273.132        1324.797          46.000                                                                  
C06  35499610.553   184855785.122         455.727          44.000    35499593.832   142942156.917         352.484          45.000  
G25  21740475.051   114246982.313        3185.529          42.000    21740468.832    89023598.709        2482.208          39.000  
G10  20191138.082   106105144.223        2062.318          47.000    20191126.984    82679297.600        1607.010          42.000  
G28  23259870.039   122231450.662        3122.130          37.000    23259862.276    95245228.269        2432.849          41.000  
C23  21094047.182   109842239.485        1422.938          51.000                                                                  
C09  37007148.077   192705932.975         535.752          40.000    37007135.740   149012396.961         414.337          46.000  
C33  24916257.182   129745478.915       -2621.885          35.000                                                                  
C30  24593935.200   128067061.322       -2037.225          38.000                                                                  
C27  25036137.579   130369714.431       -2776.366          35.000                                                                  
C37  24125781.462   125629271.090        3095.720          42.000                                                                  
> 2025 10 27 02 13 12.0360000  0 21                     
G12  21396928.687   112441658.635        2072.660          43.000    21396917.405    87616823.193        1615.199          40.000  
G15  21910150.495   115138604.171       -2998.678          41.000    21910140.699    89718367.798       -2336.636          39.000  
G18  22000054.913   115611057.482       -3605.800          42.000    22000044.483    90086487.561       -2809.866          40.000  
G23  18655350.412    98034528.115        -731.709          48.000    18655337.716    76390481.094        -570.067          49.000  
G24  19630123.908   103156992.980       -2676.764          40.000    19630112.930    80382020.068       -2086.139          38.000  
G32  21585834.341   113434333.589        1713.165          45.000    21585825.228    88390349.371        1334.959          42.000  
C08  34636110.399   180359309.989         -17.810          45.000    34636092.913   139465189.898         -13.837          50.000  
C13  34752750.150   180966688.026         220.740          46.000    34752740.307   139934883.442         170.758          47.000  
C16  35728967.869   186050109.868         276.880          47.000    35728956.684   143865703.187         214.188          47.000  
C25  21355185.041   111202045.701       -1586.279          45.000                                                                  
C32  21531702.072   112121220.133        1324.874          46.000                                                                  
C06  35499607.048   184855766.884         455.806          44.000    35499590.294   142942142.810         352.565          45.000  
G25  21740450.820   114246854.896        3185.479          42.000    21740444.589    89023499.415        2482.282          39.000  
G10  20191122.379   106105061.738        2062.148          47.000    20191111.287    82679233.325        1606.946          42.000  
G28  23259846.278   122231325.775        3122.036          37.000    23259838.501    95245130.940        2433.022          41.000  
C23  21094036.238   109842182.571        1422.850          51.000                                                                  
C09  37007143.940   192705911.552         535.597          40.000    37007131.632   149012380.390         414.325          46.000  
C33  24916277.310   129745583.830       -2622.530          35.000                                                                  
C30  24593950.860   128067142.810       -2037.174          38.000                                                                  
C27  25036158.901   130369825.481       -2776.384          35.000                                                                  
C37  24125757.676   125629147.275        3095.472          42.000                                                                  
> 2025 10 27 02 13 12.0760000  0 21                     
G12  21396912.887   112441575.714        2072.872          43.000    21396901.611    87616758.581        1615.281          40.000  
G15  21910173.346   115138724.119       -2998.752          41.000    21910163.547    89718461.262       -2336.584          39.000  
G18  22000082.350   115611201.711       -3605.718          42.000    22000071.946    90086599.942       -2809.686          40.000  
G23  18655355.957    98034557.374        -731.607          48.000    18655343.286    76390503.904        -570.249          49.000  
G24  19630144.286   103157100.066       -2677.026          40.000    19630133.307    80382103.507       -2086.151          38.000  
G32  21585821.280   113434265.052        1713.365          45.000    21585812.211    88390295.974        1334.909          42.000  
C08  34636110.510   180359310.699         -17.792          45.000    34636093.020   139465190.445         -13.727          50.000  
C13  34752748.460   180966679.197         220.703          46.000    34752738.577   139934876.608         170.844          47.000  
C16  35728965.784   186050098.776         277.128          47.000    35728954.583   143865694.621         214.156          47.000  
C25  21355197.246   111202109.141       -1586.106          45.000                                                                  
C32  21531691.907   112121167.132        1324.957          46.000                                                                  
C06  35499603.511   184855748.648         455.842          44.000    35499586.778   142942128.712         352.461          45.000  
G25  21740426.588   114246727.478        3185.467          42.000    21740420.343    89023400.127        2482.276          39.000  
G10  20191106.659   106104979.248        2062.174          47.000    20191095.571    82679169.033        1607.164          42.000  
G28  23259822.497   122231200.868        3122.347          37.000    23259814.733    95245033.614        2433.108          41.000  
C23  21094025.347   109842125.654        1422.877          51.000                                                                  
C09  37007139.813   192705890.121         535.698          40.000    37007127.518   149012363.819         414.300          46.000  
C33  24916297.474   129745688.722       -2622.452          35.000                                                                  
C30  24593966.513   128067224.303       -2037.238          38.000                                                                  
C27  25036180.245   130369936.555       -2776.743          35.000                                                                  
C37  24125733.908   125629023.450        3095.528          42.000                                                                  
> 2025 10 27 02 13 12.1160000  0 21                     
G12  21396897.103   112441492.792        2073.003          43.000    21396885.842    87616693.968        1615.316          40.000  
G15  21910196.164   115138844.062       -2998.664          41.000    21910186.359    89718554.728       -2336.622          39.000  
G18  22000109.774   115611345.942       -3605.794          42.000    22000099.392    90086712.322       -2809.531          40.000  
G23  18655361.507    98034586.634        -731.543          48.000    18655348.853    76390526.703        -570.113          49.000  
G24  19630164.675   103157207.132       -2676.807          40.000    19630153.686    80382186.934       -2085.889          38.000  
G32  21585808.237   113434196.516        1713.419          45.000    21585799.164    88390242.566        1335.131          42.000  
C08  34636110.622   180359311.412         -17.828          45.000    34636093.142   139465190.993         -13.708          50.000  
C13  34752746.798   180966670.359         220.868          46.000    34752736.911   139934869.778         170.795          47.000  
C16  35728963.657   186050087.684         277.254          47.000    35728952.457   143865686.046         214.272          47.000  
C25  21355209.425   111202172.581       -1585.973          45.000                                                                  
C32  21531681.760   112121114.125        1325.108          46.000                                                                  
C06  35499600.023   184855730.407         455.961          44.000    35499583.282   142942114.605         352.588          45.000  
G25  21740402.335   114246600.069        3185.297          42.000    21740396.092    89023300.839        2482.238          39.000  
G10  20191090.966   106104896.750        2062.325          47.000    20191079.898    82679104.754        1607.052          42.000  
G28  23259798.735   122231075.966        3122.488          37.000    23259790.975    95244936.283        2433.231          41.000  
C23  21094014.458   109842068.735        1422.923          51.000                                                                  
C09  37007135.694   192705868.683         535.847          40.000    37007123.414   149012347.243         414.349          46.000  
C33  24916317.650   129745793.636       -2622.800          35.000                                                                  
C30  24593982.169   128067305.794       -2037.250          38.000                                                                  
C27  25036201.575   130370047.608       -2776.565          35.000                                                                  
C37  24125710.139   125628899.614        3095.785          42.000                                                                  
> 2025 10 27 02 13 12.1560000  0 21                     
G12  21396881.332   112441409.890        2072.703          43.000    21396870.069    87616629.362        1615.200          40.000  
G15  21910218.999   115138964.005       -2998.595          41.000    21910209.206    89718648.180       -2336.341          39.000  
G18  22000137.226   115611490.163       -3605.619          42.000    22000126.840    90086824.710       -2809.632          40.000  
G23  18655367.053    98034615.887        -731.380          48.000    18655354.406    76390549.495        -569.912          49.000  
G24  19630185.047   103157314.209       -2676.929          40.000    19630174.053    80382270.360       -2085.687          38.000  
G32  21585795.210   113434127.988        1713.292          45.000    21585786.096    88390189.160        1335.197          42.000  
C08  34636110.763   180359312.117         -17.706          45.000    34636093.263   139465191.536         -13.617          50.000  
C13  34752745.121   180966661.521         220.959          46.000    34752735.218   139934862.945         170.819          47.000  
C16  35728961.513   186050076.602         277.161          47.000    35728950.339   143865677.473         214.322          47.000  
C25  21355221.630   111202236.020       -1585.938          45.000                                                                  
C32  21531671.583   112121061.123        1325.105          46.000                                                                  
C06  35499596.572   184855712.156         456.192          44.000    35499579.773   142942100.502         352.567          45.000  
G25  21740378.088   114246472.652        3185.349          42.000    21740371.827    89023201.552        2482.175          39.000  
G10  20191075.267   106104814.254        2062.402          47.000    20191064.208    82679040.478        1606.935          42.000  
G28  23259774.950   122230951.043        3122.944          37.000    23259767.206    95244838.961        2433.120          41.000  
C23  21094003.558   109842011.816        1422.949          51.000                                                                  
C09  37007131.613   192705847.246         535.896          40.000    37007119.299   149012330.672         414.286          46.000  
C33  24916337.772   129745898.537       -2622.722          35.000                                                                  
C30  24593997.821   128067387.288       -2037.333          38.000                                                                  
C27  25036222.864   130370158.655       -2776.297          35.000                                                                  
C37  24125686.362   125628775.777        3095.927          42.000                                                                  
> 2025 10 27 02 13 12.1960000  0 21                     
G12  21396865.574   112441326.975        2072.794          43.000    21396854.308    87616564.768        1614.855          40.000  
G15  21910241.810   115139083.950       -2998.609          41.000    21910232.021    89718741.647       -2336.574          39.000  
G18  22000164.694   115611634.397       -3605.789          42.000    22000154.290    90086937.091       -2809.589          40.000  
G23  18655372.657    98034645.151        -731.514          48.000    18655359.982    76390572.299        -570.034          49.000  
G24  19630205.418   103157421.288       -2676.990          40.000    19630194.436    80382353.802       -2085.907          38.000  
G32  21585782.177   113434059.461        1713.185          45.000    21585773.052    88390135.764        1334.980          42.000  
C08  34636110.873   180359312.829         -17.767          45.000    34636093.381   139465192.083         -13.660          50.000  
C13  34752743.447   180966652.686         220.941          46.000    34752733.544   139934856.115         170.770          47.000  
C16  35728959.354   186050065.522         277.036          47.000    35728948.227   143865668.894         214.422          47.000  
C25  21355233.802   111202299.476       -1586.239          45.000                                                                  
C32  21531661.403   112121008.121        1325.079          46.000                                                                  
C06  35499593.070   184855693.913         456.151          44.000    35499576.282   142942086.393         352.657          45.000  
G25  21740353.835   114246345.230        3185.449          42.000    21740347.580    89023102.287        2481.709          39.000  
G10  20191059.562   106104731.774        2062.122          47.000    20191048.522    82678976.212        1606.686          42.000  
G28  23259751.175   122230826.156        3122.455          37.000    23259743.420    95244741.634        2433.123          41.000  
C23  21093992.598   109841954.905        1422.832          51.000                                                                  
C09  37007127.492   192705825.813         535.858          40.000    37007115.176   149012314.099         414.293          46.000  
C33  24916357.883   129746003.419       -2622.191          35.000                                                                  
C30  24594013.470   128067468.784       -2037.375          38.000                                                                  
C27  25036244.181   130370269.703       -2776.199          35.000                                                                  
C37  24125662.574   125628651.953        3095.676          42.000                                                                  
> 2025 10 27 02 13 12.2360000  0 21                     
G12  21396849.805   112441244.061        2072.807          43.000    21396838.549    87616500.173        1614.689          40.000  
G15  21910264.629   115139203.900       -2998.696          41.000    21910254.837    89718835.111       -2336.592          39.000  
G18  22000192.142   115611778.632       -3605.875          42.000    22000181.746    90087049.477       -2809.652          40.000  
G23  18655378.235    98034674.422        -731.722          48.000    18655365.573    76390595.104        -570.128          49.000  
G24  19630225.818   103157528.369       -2677.081          40.000    19630214.816    80382437.232       -2085.803          38.000  
G32  21585769.158   113433990.943        1712.985          45.000    21585760.010    88390082.373        1334.748          42.000  
C08  34636110.984   180359313.536         -17.719          45.000    34636093.504   139465192.641         -13.898          50.000  
C13  34752741.730   180966643.852         220.880          46.000    34752731.836   139934849.285         170.752          47.000  
C16  35728957.222   186050054.443         276.941          47.000    35728946.137   143865660.334         214.140          47.000  
C25  21355245.978   111202362.933       -1586.427          45.000                                                                  
C32  21531651.229   112120955.119        1325.059          46.000                                                                  
C06  35499589.568   184855675.674         456.044          44.000    35499572.773   142942072.288         352.662          45.000  
G25  21740329.568   114246217.803        3185.618          42.000    21740323.316    89023002.986        2482.180          39.000  
G10  20191043.865   106104649.292        2062.008          47.000    20191032.838    82678911.940        1606.696          42.000  
G28  23259727.420   122230701.263        3122.325          37.000    23259719.659    95244644.311        2433.058          41.000  
C23  21093981.658   109841897.998        1422.661          51.000                                                                  
C09  37007123.356   192705804.393         535.571          40.000    37007111.090   149012297.530         414.212          46.000  
C33  24916378.034   129746108.305       -2622.038          35.000                                                                  
C30  24594029.110   128067550.274       -2037.311          38.000                                                                  
C27  25036265.498   130370380.743       -2775.964          35.000                                                                  
C37  24125638.771   125628528.140        3095.364          42.000                                                                  
> 2025 10 27 02 13 12.2760000  0 21                     
G12  21396834.041   112441161.151        2072.743          43.000    21396822.772    87616435.559        1615.038          40.000  
G15  21910287.450   115139323.850       -2998.751          41.000    21910277.656    89718928.572       -2336.555          39.000  
G18  22000219.583   115611922.869       -3605.961          42.000    22000209.198    90087161.874       -2809.939          39.000  
G23  18655383.799    98034703.693        -731.858          48.000    18655371.159    76390617.915        -570.271          49.000  
G24  19630246.190   103157635.450       -2677.081          40.000    19630235.197    80382520.684       -2086.182          38.000  
G32  21585756.104   113433922.415        1713.076          45.000    21585746.961    88390028.982        1334.651          42.000  
C08  34636111.116   180359314.253         -17.871          45.000    34636093.618   139465193.195         -13.940          50.000  
C13  34752740.038   180966635.028         220.642          46.000    34752730.169   139934842.460         170.630          47.000  
C16  35728955.085   186050043.368         276.828          47.000    35728944.018   143865651.766         214.111          47.000  
C25  21355258.164   111202426.396       -1586.613          45.000                                                                  
C32  21531641.023   112120902.130        1324.806          46.000                                                                  
C06  35499586.042   184855657.455         455.600          44.000    35499569.246   142942058.193         352.445          45.000  
G25  21740305.312   114246090.389        3185.414          42.000    21740299.047    89022903.694        2482.305          39.000  
G10  20191028.156   106104566.800        2062.146          47.000    20191017.131    82678847.652        1606.963          42.000  
G28  23259703.657   122230576.365        3122.330          37.000    23259695.898    95244547.000        2432.795          41.000  
C23  21093970.752   109841841.090        1422.613          51.000                                                                  
C09  37007119.256   192705782.968         535.523          40.000    37007106.959   149012280.965         414.125          46.000  
C33  24916398.162   129746213.207       -2622.385          35.000                                                                  
C30  24594044.759   128067631.774       -2037.424          38.000                                                                  
C27  25036286.818   130370491.804       -2776.208          35.000                                                                  
C37  24125614.991   125628404.321        3095.333          42.000                                                                  
