     3.04           OBSERVATION DATA    M: Mixed            RINEX VERSION / TYPE
RTKCONV 2.4.3 b34                       20251027 032912 UTC PGM / RUN BY / DATE 
format: u-blox UBX                                          COMMENT             
log: D:\GPdata\10_27\fingure_190_rev_10_27_2.ubx            COMMENT             
                                                            MARKER NAME         
                                                            MARKER NUMBER       
                                                            MARKER TYPE         
                                                            OBSERVER / AGENCY   
                                                            REC # / TYPE / VERS 
                                                            ANT # / TYPE        
        0.0000        0.0000        0.0000                  APPROX POSITION XYZ 
        0.0000        0.0000        0.0000                  ANTENNA: DELTA H/E/N
G    8 C1C L1C D1C S1C C2L L2L D2L S2L                      SYS / # / OBS TYPES 
C    8 C2I L2I D2I S2I C7I L7I D7I S7I                      SYS / # / OBS TYPES 
  2025    10    27    02    55   09.7560000     GPS         TIME OF FIRST OBS   
  2025    10    27    02    55   36.3960000     GPS         TIME OF LAST OBS    
G L1C                                                       SYS / PHASE SHIFT   
G L2L  0.00000                                              SYS / PHASE SHIFT   
C L2I                                                       SYS / PHASE SHIFT   
C L7I                                                       SYS / PHASE SHIFT   
  0                                                         GLONASS SLOT / FRQ #
 C1C    0.000 C1P    0.000 C2C    0.000 C2P    0.000        GLONASS COD/PHS/BIS 
                                                            END OF HEADER       
> 2025 10 27 02 55 09.7560000  0 19                     
G12  20709703.468   108830227.5961        702.731          45.000    20709692.097    84802729.0941        547.494          43.000  
G15  23418843.232                1      -3281.470          33.000    23418840.844    95896313.3531      -2557.374          33.000  
G18  23768934.934   124906598.7251      -3656.037          33.000    23768932.225    97329790.5731      -2848.773          38.000  
G23  19371236.845   101796528.5251      -2240.894          47.000    19371224.949    79321894.9501      -1746.284          47.000  
G24  21115631.753   110963391.8601      -3422.042          29.000    21115623.001                       -2666.921          29.000  
G32  20821851.179   109419561.9181       1472.089          45.000    20821841.095    85261961.4051       1146.973          42.000  
C08  34729915.969   180847761.3251       -386.371          46.000    34729895.252   139842881.3241       -298.706          49.000  
C13  34715318.012   180771746.8541        -83.557          47.000    34715305.533   139784135.0081        -64.709          48.000  
C16  35672663.996   185756908.0441        -30.560          48.000    35672649.499   143638975.8971        -23.515          48.000  
C25  22395444.900   116618960.5431      -2643.384          32.000                                                                  
C32  21006560.434   109386656.9621        800.517          50.000                                                                  
C06  35356191.970   184108958.6131        147.909          45.000    35356171.774   142364655.7161        114.360          46.000  
G25  20364817.571   107017849.7351       2432.183          45.000    20364808.878    83390490.4821       1895.410          42.000  
G10  19461596.046   102271377.8011        893.115          50.000    19461584.899    79691936.3971        695.835          45.000  
G28  21901288.559   115092042.9961       2503.871          43.000    21901277.334    89682084.8361       1951.207          43.000  
C23  20716752.451   107877544.8191        116.096          50.000                                                                  
C09  36819267.716   191727567.9211        247.407          43.000    36819251.562   148255869.6551        191.292          47.000  
C33  26270446.194                2      -2963.539          26.000                                                                  
C37  22728647.834   118354032.9901       2611.902          46.000                                                                  
> 2025 10 27 02 55 09.7960000  0 19                     
G12  20709698.137   108830199.491         702.587          45.000    20709686.745    84802707.189         547.527          43.000  
G15  23418868.230                       -3283.224          33.000    23418865.815    95896415.657       -2557.428          33.000  
G18  23768962.749   124906744.988       -3656.311          33.000    23768960.051    97329904.530       -2848.795          38.000  
G23  19371253.939   101796618.169       -2241.048          47.000    19371242.020    79321964.798       -1746.222          47.000  
G24  21115657.810                       -3423.476          30.000    21115649.084                       -2667.033          29.000  
G32  20821839.958   109419503.034        1472.051          45.000    20821829.916    85261915.533        1146.739          42.000  
C08  34729918.978   180847776.786        -386.505          46.000    34729898.204   139842893.276        -298.767          49.000  
C13  34715318.639   180771750.202         -83.655          47.000    34715306.175   139784137.593         -64.655          48.000  
C16  35672664.252   185756909.263         -30.559          48.000    35672649.746   143638976.831         -23.392          48.000  
C25  22395465.205   116619066.235       -2642.722          32.000                                                                  
C32  21006554.263   109386624.945         800.428          50.000                                                                  
C06  35356190.856   184108952.692         147.949          45.000    35356170.649   142364651.136         114.413          46.000  
G25  20364799.079   107017752.451        2432.101          45.000    20364790.354    83390414.676        1895.238          42.000  
G10  19461589.246   102271342.079         893.072          50.000    19461578.098    79691908.561         695.786          45.000  
G28  21901269.509   115091942.843        2503.839          43.000    21901258.297    89682006.796        1951.086          43.000  
C23  20716751.558   107877540.175         116.083          50.000                                                                  
C09  36819265.849   191727558.037         247.167          43.000    36819249.665   148255862.004         191.284          48.000  
C33  26270469.091                2      -2963.356          26.000                                                                  
C37  22728627.795   118353928.516        2611.841          46.000                                                                  
> 2025 10 27 02 55 09.8360000  0 19                     
G12  20709692.800   108830171.398         702.358          45.000    20709681.385    84802685.288         547.456          43.000  
G15  23418893.235                       -3283.520          33.000    23418890.826    95896518.016       -2558.508          33.000  
G18  23768990.565   124906891.231       -3656.271          33.000    23768987.887    97330018.516       -2849.394          38.000  
G23  19371271.017   101796707.816       -2241.202          47.000    19371259.093    79322034.652       -1746.340          47.000  
G24  21115683.860   110963665.750       -3423.491          30.000    21115675.145    86465143.326       -2667.076          29.000  
G32  20821828.740   109419444.155        1471.962          45.000    20821818.716    85261869.649        1146.876          42.000  
C08  34729921.963   180847792.251        -386.646          46.000    34729901.169   139842905.227        -298.816          49.000  
C13  34715319.255   180771753.556         -83.832          47.000    34715306.830   139784140.184         -64.771          48.000  
C16  35672664.505   185756910.489         -30.681          48.000    35672649.952   143638977.781         -23.633          48.000  
C25  22395485.488   116619171.888       -2641.727          32.000                                                                  
C32  21006548.103   109386592.928         800.423          50.000                                                                  
C06  35356189.717   184108946.776         147.877          45.000    35356169.509   142364646.558         114.432          46.000  
G25  20364780.557   107017655.170        2432.024          45.000    20364771.845    83390338.870        1895.111          42.000  
G10  19461582.448   102271306.357         893.035          50.000    19461571.309    79691880.728         695.737          45.000  
G28  21901250.470   115091842.702        2503.615          43.000    21901239.233    89681928.769        1950.813          43.000  
C23  20716750.635   107877535.541         115.884          50.000                                                                  
C09  36819263.951   191727548.151         247.132          43.000    36819247.757   148255854.356         191.208          48.000  
C33  26270491.304                2      -2963.659          26.000                                                                  
C37  22728607.685   118353824.052        2611.603          46.000                                                                  
> 2025 10 27 02 55 09.8760000  0 19                     
G12  20709687.440   108830143.289         702.520          45.000    20709676.033    84802663.401         547.208          43.000  
G15  23418918.217                       -3282.579          33.000    23418915.824    95896620.343       -2558.500          33.000  
G18  23769018.407   124907037.508       -3656.848          33.000    23769015.724    97330132.498       -2849.615          38.000  
G23  19371288.074   101796797.466       -2241.305          47.000    19371276.156    79322104.503       -1746.327          47.000  
G24  21115709.923   110963802.656       -3423.030          30.000    21115701.183                       -2667.131          29.000  
G32  20821817.543   109419385.269        1472.034          45.000    20821807.501    85261823.750        1147.253          42.000  
C08  34729924.956   180847807.705        -386.505          46.000    34729904.159   139842917.180        -298.859          49.000  
C13  34715319.893   180771756.909         -83.875          47.000    34715307.479   139784142.777         -64.819          48.000  
C16  35672664.756   185756911.710         -30.630          48.000    35672650.205   143638978.731         -23.732          48.000  
C25  22395505.832   116619277.597       -2642.304          32.000                                                                  
C32  21006541.992   109386560.908         800.456          50.000                                                                  
C06  35356188.579   184108940.859         147.874          45.000    35356168.381   142364641.983         114.366          46.000  
G25  20364762.043   107017557.891        2431.942          45.000    20364753.343    83390263.076        1894.882          42.000  
G10  19461575.666   102271270.643         892.881          50.000    19461564.512    79691852.894         695.756          45.000  
G28  21901231.416   115091742.556        2503.572          43.000    21901220.184    89681850.726        1950.958          43.000  
C23  20716749.779   107877530.902         115.868          50.000                                                                  
C09  36819262.046   191727538.258         247.227          43.000    36819245.887   148255846.710         191.120          47.000  
C33  26270514.534                2      -2963.416          26.000                                                                  
C37  22728587.662   118353719.579        2611.694          46.000                                                                  
> 2025 10 27 02 55 09.9160000  0 19                     
G12  20709682.091   108830115.177         702.723          45.000    20709670.703    84802641.490         547.560          43.000  
G15  23418943.202                       -3283.156          33.000    23418940.850    95896722.706       -2559.242          33.000  
G18  23769046.259   124907183.797       -3657.221          33.000    23769043.564    97330246.462       -2849.338          38.000  
G23  19371305.113   101796887.111       -2241.249          47.000    19371293.204    79322174.355       -1746.345          47.000  
G24  21115735.976   110963939.577       -3423.077          30.000    21115727.229    86465356.690       -2667.087          29.000  
G32  20821806.340   109419326.383        1472.102          45.000    20821796.293    85261777.861        1147.279          42.000  
C08  34729927.897   180847823.158        -386.401          46.000    34729907.157   139842929.135        -298.914          49.000  
C13  34715320.531   180771760.266         -83.936          47.000    34715308.133   139784145.370         -64.844          48.000  
C16  35672665.011   185756912.926         -30.498          48.000    35672650.445   143638979.672         -23.643          48.000  
C25  22395526.139   116619383.338       -2643.228          32.000                                                                  
C32  21006535.845   109386528.890         800.437          50.000                                                                  
C06  35356187.473   184108934.948         147.776          45.000    35356167.234   142364637.417         114.197          46.000  
G25  20364743.510   107017460.603        2432.058          45.000    20364734.825    83390187.275        1894.927          42.000  
G10  19461568.887   102271234.928         892.832          50.000    19461557.719    79691825.065         695.670          45.000  
G28  21901212.383   115091642.407        2503.674          43.000    21901201.120    89681772.694        1950.845          43.000  
C23  20716748.885   107877526.263         115.898          50.000                                                                  
C09  36819260.164   191727528.365         247.251          43.000    36819244.012   148255839.067         191.033          47.000  
C33  26270537.155                2      -2963.154          26.000                                                                  
C37  22728567.616   118353615.108        2611.731          46.000                                                                  
> 2025 10 27 02 55 09.9560000  0 19                     
G12  20709676.730   108830087.067         702.783          45.000    20709665.336    84802619.586         547.606          43.000  
G15  23418968.199                       -3283.146          33.000    23418965.875    95896825.013       -2558.476          33.000  
G18  23769074.086   124907330.027       -3656.305          33.000    23769071.390    97330360.424       -2849.172          38.000  
G23  19371322.172   101796976.755       -2241.162          47.000    19371310.290    79322244.211       -1746.413          47.000  
G24  21115762.037   110964076.467       -3422.561          30.000    21115753.268                       -2667.205          29.000  
G32  20821795.111   109419267.494        1472.189          45.000    20821785.091    85261731.977        1147.123          42.000  
C08  34729930.829   180847838.617        -386.475          46.000    34729910.095   139842941.087        -298.871          49.000  
C13  34715321.182   180771763.618         -83.905          47.000    34715308.801   139784147.961         -64.844          48.000  
C16  35672665.262   185756914.144         -30.455          48.000    35672650.722   143638980.614         -23.590          48.000  
C25  22395546.420   116619489.076       -2643.656          32.000                                                                  
C32  21006529.682   109386496.875         800.386          50.000                                                                  
C06  35356186.382   184108929.023         147.957          45.000    35356166.096   142364632.838         114.303          46.000  
G25  20364725.000   107017363.324        2431.970          45.000    20364716.318    83390111.467        1895.054          42.000  
G10  19461562.076   102271199.211         892.858          50.000    19461550.922    79691797.228         695.806          45.000  
G28  21901193.316   115091542.267        2503.556          43.000    21901182.065    89681694.663        1950.708          43.000  
C23  20716748.007   107877521.624         115.907          50.000                                                                  
C09  36819258.249   191727518.475         247.219          43.000    36819242.091   148255831.411         191.248          47.000  
C33  26270560.030                2      -2963.612          26.000                                                                  
C37  22728547.538   118353510.637        2611.768          46.000                                                                  
> 2025 10 27 02 55 09.9960000  0 19                     
G12  20709671.384   108830058.966         702.625          45.000    20709659.978    84802597.696         547.427          43.000  
G15  23418993.189                       -3282.305          33.000    23418990.835    95896927.313       -2557.780          33.000  
G18  23769101.945   124907476.254       -3655.733          33.000    23769099.204    97330474.350       -2848.474          38.000  
G23  19371339.241   101797066.398       -2241.082          47.000    19371327.335    79322314.060       -1746.320          47.000  
G24  21115788.083   110964213.346       -3421.957          30.000    21115779.307    86465570.060       -2667.084          29.000  
G32  20821783.910   109419208.606        1472.180          45.000    20821773.911    85261686.103        1146.893          41.000  
C08  34729933.796   180847854.075        -386.469          46.000    34729913.067   139842953.044        -298.932          49.000  
C13  34715321.849   180771766.958         -83.594          47.000    34715309.448   139784150.548         -64.734          48.000  
C16  35672665.477   185756915.363         -30.476          48.000    35672650.950   143638981.553         -23.514          48.000  
C25  22395566.720   116619594.782       -2643.098          32.000                                                                  
C32  21006523.547   109386464.854         800.444          50.000                                                                  
C06  35356185.269   184108923.102         148.035          45.000    35356164.955   142364628.259         114.377          46.000  
G25  20364706.502   107017266.042        2432.007          45.000    20364697.800    83390035.656        1895.205          42.000  
G10  19461555.257   102271163.487         893.000          50.000    19461544.105    79691769.396         695.788          45.000  
G28  21901174.237   115091442.110        2503.793          43.000    21901163.011    89681616.624        1950.847          43.000  
C23  20716747.101   107877516.983         115.980          50.000                                                                  
C09  36819256.342   191727508.582         247.296          43.000    36819240.212   148255823.759         191.298          47.000  
C33  26270582.679                2      -2963.553          26.000                                                                  
C37  22728527.486   118353406.164        2611.810          46.000                                                                  
> 2025 10 27 02 55 10.0360000  0 19                     
G12  20709666.049   108830030.861         702.635          45.000    20709654.617    84802575.790         547.535          43.000  
G15  23419018.166                       -3282.388          33.000    23419015.820    95897029.609       -2557.411          33.000  
G18  23769129.766   124907622.491       -3655.669          33.000    23769127.054    97330588.310       -2848.662          38.000  
G23  19371356.282   101797156.039       -2241.015          47.000    19371344.410    79322383.917       -1746.425          47.000  
G24  21115814.118   110964350.263       -3422.588          30.000    21115805.368    86465676.750       -2667.167          29.000  
G32  20821772.729   109419149.714        1472.255          45.000    20821762.706    85261640.223        1146.919          42.000  
C08  34729936.772   180847869.528        -386.414          46.000    34729916.011   139842964.996        -298.877          49.000  
C13  34715322.493   180771770.305         -83.624          47.000    34715310.068   139784153.137         -64.734          48.000  
C16  35672665.693   185756916.584         -30.516          48.000    35672651.176   143638982.501         -23.641          48.000  
C25  22395587.003   116619700.471       -2642.401          32.000                                                                  
C32  21006517.409   109386432.834         800.468          50.000                                                                  
C06  35356184.119   184108917.178         148.082          45.000    35356163.846   142364623.674         114.534          46.000  
G25  20364687.980   107017168.756        2432.095          45.000    20364679.276    83389959.860        1894.974          42.000  
G10  19461548.451   102271127.766         893.011          50.000    19461537.325    79691741.567         695.695          45.000  
G28  21901155.193   115091341.961        2503.735          43.000    21901143.937    89681538.593        1950.779          43.000  
C23  20716746.213   107877512.340         116.057          50.000                                                                  
C09  36819254.458   191727498.689         247.315          43.000    36819238.313   148255816.113         191.189          47.000  
C33  26270605.591                2      -2963.686          26.000                                                                  
C37  22728507.432   118353301.686        2611.920          46.000                                                                  
> 2025 10 27 02 55 10.0760000  0 19                     
G12  20709660.716   108830002.766         702.427          45.000    20709649.290    84802553.891         547.475          43.000  
G15  23419043.161                       -3282.598          33.000    23419040.809    95897131.913       -2557.452          33.000  
G18  23769157.592   124907768.751       -3656.176          33.000    23769154.890    97330702.300       -2849.413          38.000  
G23  19371373.374   101797245.687       -2241.145          47.000    19371361.463    79322453.773       -1746.462          47.000  
G24  21115840.190   110964487.183       -3422.990          30.000    21115831.416    86465783.417       -2666.965          29.000  
G32  20821761.513   109419090.830        1472.184          45.000    20821751.494    85261594.329        1147.146          42.000  
C08  34729939.746   180847884.983        -386.426          46.000    34729918.990   139842976.945        -298.810          49.000  
C13  34715323.126   180771773.659         -83.777          47.000    34715310.714   139784155.727         -64.752          48.000  
C16  35672665.920   185756917.802         -30.495          48.000    35672651.392   143638983.441         -23.561          48.000  
C25  22395607.320   116619806.181       -2642.471          32.000                                                                  
C32  21006511.215   109386400.819         800.385          50.000                                                                  
C06  35356182.988   184108911.263         147.948          45.000    35356162.704   142364619.099         114.407          46.000  
G25  20364669.450   107017071.468        2432.184          45.000    20364660.747    83389884.054        1895.051          42.000  
G10  19461541.666   102271092.055         892.832          50.000    19461530.545    79691713.738         695.671          45.000  
G28  21901136.154   115091241.816        2503.635          43.000    21901124.857    89681460.550        1951.004          43.000  
C23  20716745.313   107877507.701         116.001          50.000                                                                  
C09  36819252.580   191727488.798         247.282          43.000    36819236.439   148255808.462         191.222          47.000  
C33  26270628.652                2      -2963.926          26.000                                                                  
C37  22728487.338   118353197.210        2611.920          46.000                                                                  
> 2025 10 27 02 55 10.1160000  0 19                     
G12  20709655.381   108829974.684         702.110          45.000    20709643.956    84802532.005         547.231          43.000  
G15  23419068.158                       -3282.659          33.000    23419065.800    95897234.280       -2558.796          33.000  
G18  23769185.432   124907915.036       -3656.921          33.000    23769182.730    97330816.248       -2849.107          38.000  
G23  19371390.481   101797335.346       -2241.404          47.000    19371378.531    79322523.636       -1746.597          47.000  
G24  21115866.267   110964624.103       -3423.132          29.000    21115857.455    86465890.075       -2666.689          29.000  
G32  20821750.305   109419031.960        1471.853          45.000    20821740.305    85261548.446        1147.091          42.000  
C08  34729942.706   180847900.447        -386.548          46.000    34729921.968   139842988.899        -298.816          49.000  
C13  34715323.727   180771777.016         -83.954          47.000    34715311.351   139784158.326         -64.941          48.000  
C16  35672666.148   185756919.025         -30.569          48.000    35672651.596   143638984.385         -23.601          48.000  
C25  22395627.592   116619911.905       -2642.936          32.000                                                                  
C32  21006505.049   109386368.807         800.290          51.000                                                                  
C06  35356181.831   184108905.359         147.679          45.000    35356161.560   142364614.528         114.265          46.000  
G25  20364650.943   107016974.190        2432.015          45.000    20364642.256    83389808.248        1895.111          42.000  
G10  19461534.888   102271056.347         892.679          50.000    19461523.745    79691685.913         695.585          45.000  
G28  21901117.110   115091141.680        2503.443          43.000    21901105.809    89681382.526        1950.722          43.000  
C23  20716744.387   107877503.075         115.736          50.000                                                                  
C09  36819250.664   191727478.914         247.131          43.000    36819234.518   148255800.818         191.102          47.000  
C33  26270651.377                2      -2964.118          26.000                                                                  
C37  22728467.292   118353092.757        2611.469          46.000                                                                  
> 2025 10 27 02 55 10.1560000  0 19                     
G12  20709650.031   108829946.590         702.156          46.000    20709638.619    84802510.123         547.036          43.000  
G15  23419093.150                       -3283.108          33.000    23419090.796    95897336.637       -2559.202          33.000  
G18  23769213.277   124908061.289       -3656.634          33.000    23769210.562    97330930.225       -2849.369          38.000  
G23  19371407.537   101797424.992       -2241.298          47.000    19371395.612    79322593.488       -1746.473          47.000  
G24  21115892.334   110964761.017       -3423.182          30.000    21115883.496                       -2667.358          29.000  
G32  20821739.094   109418973.085        1471.749          45.000    20821729.092    85261502.566        1147.028          42.000  
C08  34729945.693   180847915.911        -386.597          46.000    34729924.945   139843000.856        -298.920          49.000  
C13  34715324.366   180771780.370         -83.929          47.000    34715312.001   139784160.923         -64.996          48.000  
C16  35672666.418   185756920.250         -30.638          48.000    35672651.811   143638985.337         -23.757          48.000  
C25  22395647.893   116620017.642       -2643.416          32.000                                                                  
C32  21006498.888   109386336.799         800.177          51.000                                                                  
C06  35356180.735   184108899.438         147.839          45.000    35356160.422   142364609.952         114.332          46.000  
G25  20364632.438   107016876.922        2431.754          45.000    20364623.721    83389732.450        1894.977          42.000  
G10  19461528.082   102271020.637         892.643          50.000    19461516.956    79691658.085         695.647          45.000  
G28  21901098.042   115091041.534        2503.544          43.000    21901086.753    89681304.489        1950.816          43.000  
C23  20716743.497   107877498.445         115.657          50.000                                                                  
C09  36819248.782   191727469.025         247.165          43.000    36819232.620   148255793.169         191.147          47.000  
C33  26270674.028                2      -2964.159          26.000                                                                  
C37  22728447.224   118352988.293        2611.462          46.000                                                                  
> 2025 10 27 02 55 10.1960000  0 19                     
G12  20709644.673   108829918.483         702.445          46.000    20709633.265    84802488.223         547.289          43.000  
G15  23419118.136                       -3283.451          33.000    23419115.774                       -2557.744          33.000  
G18  23769241.114   124908207.520       -3655.988          33.000    23769238.380    97331044.186       -2849.233          38.000  
G23  19371424.596   101797514.649       -2241.402          47.000    19371412.663    79322663.347       -1746.504          47.000  
G24  21115918.420   110964897.970       -3423.645          30.000    21115909.571                       -2667.299          29.000  
G32  20821727.897   109418914.201        1471.891          45.000    20821717.869    85261456.692        1146.846          42.000  
C08  34729948.663   180847931.367        -386.493          46.000    34729927.904   139843012.808        -298.877          49.000  
C13  34715325.018   180771783.716         -83.746          47.000    34715312.639   139784163.510         -64.795          48.000  
C16  35672666.646   185756921.471         -30.589          48.000    35672652.043   143638986.282         -23.714          48.000  
C25  22395668.208   116620123.345       -2642.969          32.000                                                                  
C32  21006492.779   109386304.779         800.367          51.000                                                                  
C06  35356179.592   184108893.522         147.866          45.000    35356159.268   142364605.384         114.235          46.000  
G25  20364613.921   107016779.638        2431.930          45.000    20364605.223    83389656.651        1894.928          42.000  
G10  19461521.277   102270984.917         892.865          50.000    19461510.109    79691630.241         695.974          45.000  
G28  21901078.976   115090941.385        2503.656          43.000    21901067.710    89681226.446        1950.978          43.000  
C23  20716742.603   107877493.807         115.798          50.000                                                                  
C09  36819246.876   191727459.133         247.247          43.000    36819230.726   148255785.521         191.179          47.000  
C33  26270697.155                2      -2963.865          26.000                                                                  
C37  22728427.194   118352883.826        2611.584          46.000                                                                  
> 2025 10 27 02 55 10.2360000  0 19                     
G12  20709639.334   108829890.382         702.519          46.000    20709627.909    84802466.324         547.404          43.000  
G15  23419143.139                       -3283.755          33.000    23419140.750                       -2557.763          33.000  
G18  23769268.941   124908353.767       -3656.084          33.000    23769266.198    97331158.140       -2848.979          38.000  
G23  19371441.645   101797604.295       -2241.260          47.000    19371429.731    79322733.207       -1746.534          47.000  
G24  21115944.421   110965034.875       -3423.092          30.000    21115935.652    86466210.167       -2667.222          29.000  
G32  20821716.683   109418855.312        1472.093          45.000    20821706.673    85261410.812        1146.870          41.000  
C08  34729951.626   180847946.828        -386.517          46.000    34729930.839   139843024.765        -298.938          49.000  
C13  34715325.635   180771787.068         -83.789          47.000    34715313.253   139784166.098         -64.734          48.000  
C16  35672666.888   185756922.689         -30.504          48.000    35672652.275   143638987.224         -23.633          48.000  
C25  22395688.507   116620229.052       -2642.791          32.000                                                                  
C32  21006486.662   109386272.763         800.404          51.000                                                                  
C06  35356178.431   184108887.601         147.952          45.000    35356158.140   142364600.808         114.296          46.000  
G25  20364595.395   107016682.365        2431.865          45.000    20364586.699    83389580.838        1895.161          42.000  
G10  19461514.486   102270949.202         892.865          50.000    19461503.303    79691602.414         695.769          45.000  
G28  21901059.924   115090841.246        2503.461          43.000    21901048.658    89681148.409        1950.965          43.000  
C23  20716741.760   107877489.172         115.831          50.000                                                                  
C09  36819244.989   191727449.246         247.184          43.000    36819228.845   148255777.878         191.079          47.000  
C33  26270719.653                2      -2963.660          26.000                                                                  
C37  22728407.148   118352779.352        2611.798          46.000                                                                  
> 2025 10 27 02 55 10.2760000  0 19                     
G12  20709633.963   108829862.282         702.496          45.000    20709622.546    84802444.424         547.505          43.000  
G15  23419168.110                       -3282.863          33.000    23419165.759    95897643.577       -2558.416          33.000  
G18  23769296.782   124908500.008       -3656.078          33.000    23769294.049    97331272.113       -2849.189          38.000  
G23  19371458.718   101797693.949       -2241.322          47.000    19371446.782    79322803.066       -1746.528          47.000  
G24  21115970.482                       -3421.550          30.000    21115961.730                       -2667.409          29.000  
G32  20821705.450   109418796.421        1472.238          45.000    20821695.472    85261364.925        1147.021          41.000  
C08  34729954.621   180847962.289        -386.548          46.000    34729933.804   139843036.718        -298.895          49.000  
C13  34715326.238   180771790.426         -83.929          47.000    34715313.885   139784168.687         -64.722          48.000  
C16  35672667.121   185756923.909         -30.505          48.000    35672652.467   143638988.170         -23.690          48.000  
C25  22395708.829   116620334.763       -2642.842          32.000                                                                  
C32  21006480.541   109386240.746         800.428          51.000                                                                  
C06  35356177.282   184108881.678         148.062          45.000    35356157.013   142364596.229         114.449          46.000  
G25  20364576.893   107016585.085        2431.932          45.000    20364568.181    83389505.036        1895.104          42.000  
G10  19461507.727   102270913.497         892.698          50.000    19461496.517    79691574.595         695.535          45.000  
G28  21901040.870   115090741.102        2503.545          43.000    21901029.602    89681070.367        1951.014          43.000  
C23  20716740.850   107877484.542         115.759          50.000                                                                  
C09  36819243.065   191727439.353         247.234          43.000    36819226.948   148255770.229         191.142          47.000  
C33  26270742.267                2      -2963.522          26.000                                                                  
C37  22728387.072   118352674.882        2611.792          46.000                                                                  
> 2025 10 27 02 55 10.3160000  0 19                     
G12  20709628.623   108829834.195         702.257          45.000    20709617.188    84802422.539         547.249          43.000  
G15  23419193.061                       -3282.510          33.000    23419190.752                       -2558.945          33.000  
G18  23769324.591   124908646.303       -3657.010          33.000    23769321.903    97331386.085       -2849.276          38.000  
G23  19371475.799   101797783.608       -2241.438          47.000    19371463.854    79322872.928       -1746.565          47.000  
G24  21115996.541                       -3422.474          30.000    21115987.756                       -2667.188          29.000  
G32  20821694.254   109418737.545        1472.013          45.000    20821684.272    85261319.045        1146.945          41.000  
C08  34729957.593   180847977.752        -386.597          46.000    34729936.749   139843048.675        -298.907          49.000  
C13  34715326.873   180771793.779         -83.905          47.000    34715314.523   139784171.284         -64.911          48.000  
C16  35672667.365   185756925.138         -30.685          48.000    35672652.682   143638989.114         -23.643          48.000  
C25  22395729.092   116620440.476       -2642.860          32.000                                                                  
C32  21006474.376   109386208.735         800.298          51.000                                                                  
C06  35356176.107   184108875.778         147.675          45.000    35356155.884   142364591.658         114.304          46.000  
G25  20364558.384   107016487.806        2431.938          45.000    20364549.676    83389429.244        1894.901          42.000  
G10  19461500.941   102270877.793         892.563          50.000    19461489.718    79691546.781         695.327          45.000  
G28  21901021.815   115090640.968        2503.396          43.000    21901010.538    89680992.358        1950.441          42.000  
C23  20716739.934   107877479.915         115.651          50.000                                                                  
C09  36819241.177   191727429.461         247.310          43.000    36819225.037   148255762.584         191.097          47.000  
C33  26270765.179                2      -2963.584          26.000                                                                  
C37  22728367.011   118352570.419        2611.627          46.000                                                                  
> 2025 10 27 02 55 10.3560000  0 19                     
G12  20709623.298   108829806.121         701.919          45.000    20709611.855    84802400.667         546.863          43.000  
G15  23419218.074                       -3282.641          33.000    23419215.717                       -2558.164          33.000  
G18  23769352.451   124908792.566       -3656.988          33.000    23769349.739    97331500.039       -2848.989          38.000  
G23  19371492.881   101797873.274       -2241.642          47.000    19371480.925    79322942.794       -1746.664          47.000  
G24  21116022.598   110965445.540       -3422.512          30.000    21116013.776                       -2666.917          29.000  
G32  20821683.028   109418678.667        1471.930          45.000    20821673.069    85261273.166        1146.907          41.000  
C08  34729960.554   180847993.224        -386.786          46.000    34729939.737   139843060.636        -299.023          49.000  
C13  34715327.513   180771797.137         -83.984          47.000    34715315.145   139784173.886         -65.070          48.000  
C16  35672667.567   185756926.365         -30.760          48.000    35672652.899   143638990.061         -23.717          48.000  
C25  22395749.391   116620546.200       -2643.076          32.000                                                                  
C32  21006468.220   109386176.733         800.082          51.000                                                                  
C06  35356174.965   184108869.871         147.633          45.000    35356154.786   142364587.092         114.161          46.000  
G25  20364539.887   107016390.537        2431.814          45.000    20364531.176    83389353.454        1894.749          42.000  
G10  19461494.176   102270842.092         892.465          50.000    19461482.913    79691518.957         695.439          45.000  
G28  21901002.756   115090540.838        2503.241          43.000    21900991.459    89680914.329        1950.539          42.000  
C23  20716739.068   107877475.294         115.539          50.000                                                                  
C09  36819239.271   191727419.589         246.925          43.000    36819223.162   148255754.940         191.054          47.000  
C33  26270787.790                2      -2963.324          26.000                                                                  
C37  22728346.926   118352465.963        2611.407          46.000                                                                  
> 2025 10 27 02 55 10.3960000  0 19                     
G12  20709617.957   108829778.036         701.943          45.000    20709606.495    84802378.783         546.934          43.000  
G15  23419243.078                       -3283.223          33.000    23419240.718                       -2557.262          33.000  
G18  23769380.327   124908938.788       -3656.159          33.000    23769377.567    97331613.996       -2848.953          38.000  
G23  19371509.932   101797962.935       -2241.628          47.000    19371497.991    79323012.660       -1746.706          47.000  
G24  21116048.672                       -3424.026          30.000    21116039.829                       -2667.234          29.000  
G32  20821671.832   109418619.793        1471.872          45.000    20821661.866    85261227.299        1146.704          41.000  
C08  34729963.532   180848008.680        -386.566          46.000    34729942.749   139843072.600        -299.121          49.000  
C13  34715328.161   180771800.498         -84.058          47.000    34715315.818   139784176.478         -64.911          48.000  
C16  35672667.782   185756927.596         -30.828          48.000    35672653.120   143638991.012         -23.778          48.000  
C25  22395769.680   116620651.945       -2643.605          32.000                                                                  
C32  21006462.053   109386144.733         799.940          51.000                                                                  
C06  35356173.832   184108863.957         147.744          45.000    35356153.647   142364582.524         114.119          46.000  
G25  20364521.383   107016293.271        2431.666          45.000    20364512.653    83389277.659        1894.817          42.000  
G10  19461487.385   102270806.396         892.337          50.000    19461476.124    79691491.139         695.396          45.000  
G28  21900983.689   115090440.690        2503.517          43.000    21900972.395    89680836.301        1950.583          42.000  
C23  20716738.205   107877470.671         115.505          50.000                                                                  
C09  36819237.399   191727409.708         246.910          43.000    36819221.254   148255747.302         190.948          47.000  
C33  26270810.642                2      -2963.405          26.000                                                                  
C37  22728326.881   118352361.501        2611.432          46.000                                                                  
> 2025 10 27 02 55 10.4360000  0 19                     
G12  20709612.589   108829749.951         702.019          45.000    20709601.137    84802356.890         547.158          43.000  
G15  23419268.065                       -3282.912          33.000    23419265.677                       -2557.979          33.000  
G18  23769408.147   124909085.041       -3656.290          33.000    23769405.410    97331727.947       -2848.758          38.000  
G23  19371526.978   101798052.597       -2241.609          47.000    19371515.041    79323082.528       -1746.724          47.000  
G24  21116074.725                       -3423.893          30.000    21116065.878                       -2667.044          29.000  
G32  20821660.626   109418560.910        1471.957          45.000    20821650.669    85261181.412        1146.914          41.000  
C08  34729966.501   180848024.150        -386.670          46.000    34729945.717   139843084.559        -299.042          49.000  
C13  34715328.823   180771803.856         -84.003          47.000    34715316.447   139784179.080         -65.002          48.000  
C16  35672668.043   185756928.827         -30.848          48.000    35672653.347   143638991.967         -23.892          48.000  
C25  22395789.987   116620757.672       -2643.380          32.000                                                                  
C32  21006455.900   109386112.723         800.081          51.000                                                                  
C06  35356172.681   184108858.049         147.698          45.000    35356152.551   142364577.952         114.198          46.000  
G25  20364502.892   107016196.014        2431.442          45.000    20364494.145    83389201.878        1894.589          42.000  
G10  19461480.581   102270770.695         892.381          50.000    19461469.307    79691463.318         695.452          45.000  
G28  21900964.653   115090340.562        2503.311          43.000    21900953.369    89680758.275        1950.577          42.000  
C23  20716737.307   107877466.050         115.468          50.000                                                                  
C09  36819235.492   191727399.829         246.868          43.000    36819219.372   148255739.662         190.950          47.000  
C33  26270833.338                2      -2963.484          26.000                                                                  
C37  22728306.803   118352257.041        2611.426          46.000                                                                  
> 2025 10 27 02 55 10.4760000  0 19                     
G12  20709607.208   108829721.851         702.365          45.000    20709595.788    84802334.997         547.271          43.000  
G15  23419293.024                       -3282.583          33.000    23419290.681                       -2559.508          33.000  
G18  23769435.981   124909231.334       -3657.059          33.000    23769433.206    97331841.916       -2849.037          38.000  
G23  19371544.019   101798142.259       -2241.603          47.000    19371532.111    79323152.394       -1746.730          47.000  
G24  21116100.777                       -3423.983          30.000    21116091.953                       -2667.139          29.000  
G32  20821649.434   109418502.035        1471.907          45.000    20821639.456    85261135.526        1147.048          41.000  
C08  34729969.470   180848039.614        -386.627          46.000    34729948.676   139843096.517        -298.969          49.000  
C13  34715329.507   180771807.215         -84.009          47.000    34715317.071   139784181.676         -64.954          48.000  
C16  35672668.280   185756930.050         -30.688          48.000    35672653.581   143638992.914         -23.796          48.000  
C25  22395810.304   116620863.381       -2642.929          32.000                                                                  
C32  21006449.799   109386080.717         800.120          51.000                                                                  
C06  35356171.587   184108852.143         147.626          45.000    35356151.410   142364573.372         114.396          46.000  
G25  20364484.390   107016098.743        2431.610          45.000    20364475.634    83389126.078        1894.814          42.000  
G10  19461473.790   102270734.994         892.449          50.000    19461462.520    79691435.503         695.366          45.000  
G28  21900945.590   115090240.421        2503.405          43.000    21900934.282    89680680.239        1950.821          42.000  
C23  20716736.454   107877461.424         115.575          50.000                                                                  
C09  36819233.583   191727389.945         247.022          43.000    36819217.477   148255732.012         191.134          47.000  
C33  26270855.558                2      -2963.531          27.000                                                                  
C37  22728286.735   118352152.581        2611.456          46.000                                                                  
> 2025 10 27 02 55 10.5160000  0 19                     
G12  20709601.888   108829693.768         702.202          45.000    20709590.437    84802313.110         547.202          43.000  
G15  23419318.003                       -3282.303          33.000    23419315.665                       -2557.862          33.000  
G18  23769463.804   124909377.569       -3656.438          33.000    23769461.046    97331955.897       -2849.409          38.000  
G23  19371561.099   101798231.917       -2241.553          47.000    19371549.145    79323222.258       -1746.662          47.000  
G24  21116126.833                       -3423.948          30.000    21116118.022                       -2667.428          29.000  
G32  20821638.216   109418443.158        1471.875          45.000    20821628.230    85261089.638        1147.174          42.000  
C08  34729972.438   180848055.089        -386.847          46.000    34729951.636   139843108.470        -298.883          49.000  
C13  34715330.141   180771810.572         -83.978          47.000    34715317.743   139784184.270         -64.880          48.000  
C16  35672668.511   185756931.275         -30.638          48.000    35672653.800   143638993.865         -23.797          48.000  
C25  22395830.614   116620969.070       -2642.408          32.000                                                                  
C32  21006443.657   109386048.702         800.299          51.000                                                                  
C06  35356170.450   184108846.227         147.766          45.000    35356150.290   142364568.808         114.219          46.000  
G25  20364465.858   107016001.472        2431.724          45.000    20364457.110    83389050.290        1894.718          42.000  
G10  19461466.989   102270699.288         892.560          50.000    19461455.730    79691407.676         695.570          45.000  
G28  21900926.551   115090140.288        2503.324          43.000    21900915.195    89680602.209        1950.820          42.000  
C23  20716735.550   107877456.804         115.510          50.000                                                                  
C09  36819231.672   191727380.055         247.178          43.000    36819215.566   148255724.364         191.201          47.000  
C33  26270878.360                2      -2964.165          27.000                                                                  
C37  22728266.678   118352048.115        2611.584          46.000                                                                  
> 2025 10 27 02 55 10.5560000  0 19                     
G12  20709596.550   108829665.692         701.969          45.000    20709585.106    84802291.246         546.715          43.000  
G15  23419342.994                       -3283.406          33.000    23419340.652                       -2558.025          33.000  
G18  23769491.640   124909523.801       -3655.968          33.000    23769488.908    97332069.866       -2849.332          38.000  
G23  19371578.161   101798321.585       -2241.708          47.000    19371566.195    79323292.129       -1746.773          47.000  
G24  21116152.878                       -3423.469          30.000    21116144.089                       -2667.389          29.000  
G32  20821627.021   109418384.291        1471.680          45.000    20821617.038    85261043.772        1146.829          42.000  
C08  34729975.448   180848070.556        -386.780          46.000    34729954.606   139843120.435        -299.036          49.000  
C13  34715330.797   180771813.931         -83.997          47.000    34715318.398   139784186.866         -64.886          48.000  
C16  35672668.757   185756932.501         -30.639          48.000    35672654.013   143638994.816         -23.815          48.000  
C25  22395850.916   116621074.788       -2642.725          32.000                                                                  
C32  21006437.485   109386016.699         800.161          51.000                                                                  
C06  35356169.330   184108840.319         147.717          45.000    35356149.156   142364564.242         114.114          46.000  
G25  20364447.357   107015904.204        2431.722          45.000    20364438.606    83388974.496        1894.822          42.000  
G10  19461460.202   102270663.588         892.510          50.000    19461448.966    79691379.863         695.415          45.000  
G28  21900907.464   115090040.148        2503.424          43.000    21900896.157    89680524.192        1950.532          42.000  
C23  20716734.665   107877452.180         115.550          50.000                                                                  
C09  36819229.756   191727370.168         247.226          43.000    36819213.648   148255716.729         190.955          47.000  
C33  26270901.321                2      -2964.023          27.000                                                                  
C37  22728246.618   118351943.657        2611.487          46.000                                                                  
> 2025 10 27 02 55 10.5960000  0 19                     
G12  20709591.218   108829637.618         701.825          45.000    20709579.753    84802269.364         546.836          43.000  
G15  23419367.998                       -3283.720          33.000    23419365.626                       -2558.429          33.000  
G18  23769519.484   124909670.052       -3656.055          33.000    23769516.742    97332183.830       -2849.193          38.000  
G23  19371595.231   101798411.249       -2241.701          47.000    19371583.263    79323362.005       -1746.908          47.000  
G24  21116178.947                       -3422.827          30.000    21116170.146                       -2667.425          29.000  
G32  20821615.826   109418325.412        1471.841          45.000    20821605.860    85260997.889        1146.923          42.000  
C08  34729978.411   180848086.025        -386.774          46.000    34729957.567   139843132.399        -299.121          49.000  
C13  34715331.420   180771817.293         -84.064          47.000    34715319.039   139784189.468         -65.033          48.000  
C16  35672668.967   185756933.735         -30.784          48.000    35672654.243   143638995.764         -23.763          48.000  
C25  22395871.202   116621180.550       -2643.755          32.000                                                                  
C32  21006431.312   109385984.698         800.034          51.000                                                                  
C06  35356168.195   184108834.408         147.710          45.000    35356148.031   142364559.677         114.078          46.000  
G25  20364428.878   107015806.948        2431.510          45.000    20364420.076    83388898.705        1894.806          42.000  
G10  19461453.432   102270627.895         892.344          50.000    19461442.183    79691352.048         695.329          45.000  
G28  21900888.417   115089940.025        2503.162          43.000    21900877.093    89680446.169        1950.483          42.000  
C23  20716733.748   107877447.564         115.413          50.000                                                                  
C09  36819227.845   191727360.293         247.012          43.000    36819211.723   148255709.093         190.862          47.000  
C33  26270924.077                2      -2964.077          27.000                                                                  
C37  22728226.545   118351839.205        2611.316          46.000                                                                  
> 2025 10 27 02 55 10.6360000  0 19                     
G12  20709585.854   108829609.534         701.934          45.000    20709574.427    84802247.487         546.868          43.000  
G15  23419393.007                       -3283.097          33.000    23419390.607                       -2558.898          33.000  
G18  23769547.307   124909816.324       -3656.651          33.000    23769544.589    97332297.809       -2849.409          38.000  
G23  19371612.305   101798500.921       -2241.811          47.000    19371600.311    79323431.874       -1746.846          47.000  
G24  21116204.986                       -3422.541          30.000    21116196.220                       -2667.456          29.000  
G32  20821604.636   109418266.548        1471.647          45.000    20821594.661    85260952.018        1146.762          41.000  
C08  34729981.360   180848101.491        -386.719          46.000    34729960.531   139843144.361        -299.115          49.000  
C13  34715332.065   180771820.655         -84.076          47.000    34715319.676   139784192.069         -65.063          48.000  
C16  35672669.179   185756934.966         -30.836          48.000    35672654.453   143638996.716         -23.810          48.000  
C25  22395891.528   116621286.279       -2643.584          32.000                                                                  
C32  21006425.191   109385952.691         800.093          51.000                                                                  
C06  35356167.075   184108828.498         147.719          45.000    35356146.957   142364555.112         114.055          46.000  
G25  20364410.381   107015709.680        2431.600          45.000    20364401.568    83388822.910        1894.830          42.000  
G10  19461446.632   102270592.204         892.252          50.000    19461435.391    79691324.235         695.305          45.000  
G28  21900869.371   115089839.887        2503.313          43.000    21900858.038    89680368.141        1950.565          42.000  
C23  20716732.881   107877442.941         115.501          50.000                                                                  
C09  36819225.980   191727350.412         247.000          43.000    36819209.816   148255701.452         190.933          47.000  
C33  26270947.009                2      -2963.947          27.000                                                                  
C37  22728206.505   118351734.750        2611.310          46.000                                                                  
> 2025 10 27 02 55 10.6760000  0 19                     
G12  20709580.506   108829581.451         702.007          45.000    20709569.089    84802225.602         547.004          43.000  
G15  23419417.969                       -3282.813          33.000    23419415.584                       -2558.472          33.000  
G18  23769575.156   124909962.597       -3656.888          33.000    23769572.428    97332411.759       -2849.012          38.000  
G23  19371629.341   101798590.590       -2241.804          47.000    19371617.390    79323501.741       -1746.778          47.000  
G24  21116231.033                       -3422.842          30.000    21116222.292                       -2667.228          29.000  
G32  20821593.430   109418207.659        1471.993          45.000    20821583.462    85260906.156        1146.575          41.000  
C08  34729984.325   180848116.966        -386.859          46.000    34729963.486   139843156.323        -299.097          49.000  
C13  34715332.711   180771824.008         -83.911          47.000    34715320.344   139784194.667         -65.015          48.000  
C16  35672669.404   185756936.193         -30.740          48.000    35672654.698   143638997.663         -23.751          48.000  
C25  22395911.821   116621392.009       -2643.397          32.000                                                                  
C32  21006419.058   109385920.686         800.075          51.000                                                                  
C06  35356165.926   184108822.592         147.646          45.000    35356145.820   142364550.532         114.321          46.000  
G25  20364391.863   107015612.414        2431.613          45.000    20364383.070    83388747.125        1894.668          42.000  
G10  19461439.823   102270556.507         892.321          50.000    19461428.579    79691296.420         695.311          45.000  
G28  21900850.320   115089739.755        2503.276          43.000    21900839.012    89680290.100        1950.921          42.000  
C23  20716731.979   107877438.327         115.411          50.000                                                                  
C09  36819224.086   191727340.528         247.031          43.000    36819207.917   148255693.806         191.078          47.000  
C33  26270969.705                2      -2964.152          27.000                                                                  
C37  22728186.450   118351630.286        2611.493          46.000                                                                  
> 2025 10 27 02 55 10.7160000  0 19                     
G12  20709575.177   108829553.380         701.816          45.000    20709563.763    84802203.730         546.874          43.000  
G15  23419442.942                       -3280.919          33.000    23419440.550                       -2557.363          33.000  
G18  23769603.015   124910108.854       -3656.668          33.000    23769600.258    97332525.718       -2848.989          38.000  
G23  19371646.389   101798680.256       -2241.712          47.000    19371634.432    79323571.609       -1746.747          47.000  
G24  21116257.122                       -3422.754          30.000    21116248.357                       -2667.210          29.000  
G32  20821582.242   109418148.779        1472.033          45.000    20821572.242    85260860.276        1146.808          41.000  
C08  34729987.299   180848132.430        -386.725          46.000    34729966.450   139843168.282        -299.036          49.000  
C13  34715333.333   180771827.369         -83.972          47.000    34715320.970   139784197.259         -64.862          48.000  
C16  35672669.615   185756937.415         -30.630          48.000    35672654.924   143638998.619         -23.877          48.000  
C25  22395932.084   116621497.705       -2642.551          32.000                                                                  
C32  21006412.943   109385888.678         800.152          51.000                                                                  
C06  35356164.807   184108816.679         147.770          45.000    35356144.661   142364545.955         114.387          46.000  
G25  20364373.352   107015515.150        2431.591          45.000    20364364.578    83388671.335        1894.651          42.000  
G10  19461433.030   102270520.807         892.450          50.000    19461421.780    79691268.609         695.231          45.000  
G28  21900831.248   115089639.624        2503.270          43.000    21900819.952    89680212.079        1950.688          42.000  
C23  20716731.087   107877433.709         115.414          50.000                                                                  
C09  36819222.199   191727330.643         247.082          43.000    36819206.020   148255686.167         191.008          47.000  
C33  26270992.449                2      -2963.994          27.000                                                                  
C37  22728166.387   118351525.829        2611.432          46.000                                                                  
> 2025 10 27 02 55 10.7560000  0 19                     
G12  20709569.836   108829525.286         702.131          45.000    20709558.398    84802181.847         546.958          43.000  
G15  23419467.931                3      -3280.762          33.000    23419465.529                       -2558.223          33.000  
G18  23769630.847   124910255.123       -3656.777          33.000    23769628.094    97332639.668       -2848.818          38.000  
G23  19371663.452   101798769.919       -2241.582          47.000    19371651.490    79323641.482       -1746.809          47.000  
G24  21116283.146                       -3422.667          30.000    21116274.426                       -2666.979          29.000  
G32  20821571.037   109418089.900        1472.017          45.000    20821561.034    85260814.394        1146.987          41.000  
C08  34729990.266   180848147.891        -386.572          46.000    34729969.427   139843180.240        -298.956          49.000  
C13  34715333.983   180771830.728         -83.960          47.000    34715321.608   139784199.852         -64.832          48.000  
C16  35672669.837   185756938.639         -30.602          48.000    35672655.134   143638999.564         -23.757          48.000  
C25  22395952.383   116621603.449       -2643.203          32.000                                                                  
C32  21006406.804   109385856.674         800.106          51.000                                                                  
C06  35356163.684   184108810.771         147.734          45.000    35356143.510   142364541.392         114.177          46.000  
G25  20364354.842   107015417.883        2431.632          45.000    20364346.073    83388595.551        1894.563          42.000  
G10  19461426.234   102270485.103         892.573          50.000    19461414.991    79691240.792         695.355          45.000  
G28  21900812.192   115089539.489        2503.320          43.000    21900800.912    89680134.054        1950.600          42.000  
C23  20716730.205   107877429.092         115.415          50.000                                                                  
C09  36819220.320   191727320.758         247.133          43.000    36819204.088   148255678.522         191.090          47.000  
C33  26271015.355                2      -2963.852          27.000                                                                  
C37  22728146.337   118351421.368        2611.487          46.000                                                                  
> 2025 10 27 02 55 10.7960000  0 19                     
G12  20709564.511   108829497.210         701.998          45.000    20709553.063    84802159.954         547.224          43.000  
G15  23419492.909                3      -3281.104          33.000    23419490.533                       -2558.042          33.000  
G18  23769658.685   124910401.372       -3656.464          33.000    23769655.902    97332753.638       -2849.150          38.000  
G23  19371680.520   101798859.585       -2241.601          47.000    19371668.572    79323711.356       -1746.871          47.000  
G24  21116309.196                       -3422.763          30.000    21116300.473                       -2667.314          29.000  
G32  20821559.837   109418031.029        1471.847          45.000    20821549.817    85260768.510        1147.099          41.000  
C08  34729993.227   180848163.358        -386.609          46.000    34729972.410   139843192.200        -298.993          49.000  
C13  34715334.640   180771834.082         -83.905          47.000    34715322.274   139784202.452         -64.960          48.000  
C16  35672670.046   185756939.869         -30.694          48.000    35672655.343   143639000.512         -23.712          48.000  
C25  22395972.700   116621709.151       -2642.802          32.000                                                                  
C32  21006400.638   109385824.669         800.107          51.000                                                                  
C06  35356162.551   184108804.876         147.427          45.000    35356142.346   142364536.825         114.077          46.000  
G25  20364336.354   107015320.626        2431.482          45.000    20364327.562    83388519.760        1894.618          42.000  
G10  19461419.437   102270449.403         892.523          50.000    19461408.202    79691212.968         695.546          45.000  
G28  21900793.144   115089439.354        2503.357          43.000    21900781.866    89680056.040        1950.352          42.000  
C23  20716729.307   107877424.478         115.343          50.000                                                                  
C09  36819218.432   191727310.871         247.188          43.000    36819202.172   148255670.876         191.133          47.000  
C33  26271037.941                2      -2963.872          27.000                                                                  
C37  22728126.302   118351316.910        2611.420          46.000                                                                  
> 2025 10 27 02 55 10.8360000  0 19                     
G12  20709559.175   108829469.134         701.936          45.000    20709547.735    84802138.071         547.139          43.000  
G15  23419517.902                3      -3280.811          33.000    23419515.541                       -2558.073          33.000  
G18  23769686.520   124910547.606       -3656.085          33.000    23769683.735    97332867.610       -2849.318          38.000  
G23  19371697.590   101798949.253       -2241.688          47.000    19371685.622    79323781.226       -1746.815          47.000  
G24  21116335.254                       -3423.275          30.000    21116326.541                       -2667.514          29.000  
G32  20821548.635   109417972.151        1471.889          45.000    20821538.609    85260722.627        1147.126          41.000  
C08  34729996.182   180848178.827        -386.700          46.000    34729975.370   139843204.167        -299.145          49.000  
C13  34715335.309   180771837.443         -83.990          47.000    34715322.894   139784205.055         -65.076          48.000  
C16  35672670.301   185756941.095         -30.694          48.000    35672655.566   143639001.460         -23.735          48.000  
C25  22395992.993   116621814.878       -2643.025          32.000                                                                  
C32  21006394.542   109385792.662         800.146          51.000                                                                  
C06  35356161.417   184108798.955         147.744          45.000    35356141.220   142364532.257         114.092          46.000  
G25  20364317.835   107015223.363        2431.497          45.000    20364309.043    83388443.968        1894.692          42.000  
G10  19461412.663   102270413.713         892.313          50.000    19461401.419    79691185.158         695.354          45.000  
G28  21900774.105   115089339.226        2503.232          43.000    21900762.805    89679978.016        1950.443          42.000  
C23  20716728.433   107877419.856         115.454          50.000                                                                  
C09  36819216.526   191727300.992         247.068          43.000    36819200.284   148255663.231         191.138          47.000  
C33  26271060.416                2      -2963.497          27.000                                                                  
C37  22728106.252   118351212.458        2611.273          46.000                                                                  
> 2025 10 27 02 55 10.8760000  0 19                     
G12  20709553.823   108829441.059         701.873          45.000    20709542.393    84802116.209         546.696          43.000  
G15  23419542.868                3      -3283.154          33.000    23419540.509                       -2558.306          33.000  
G18  23769714.339   124910693.848       -3656.004          33.000    23769711.566    97332981.573       -2849.208          38.000  
G23  19371714.655   101799038.927       -2241.848          47.000    19371702.662    79323851.099       -1746.870          47.000  
G24  21116361.324                       -3423.442          30.000    21116352.603                       -2667.638          29.000  
G32  20821537.425   109417913.274        1471.882          45.000    20821527.413    85260676.752        1146.966          42.000  
C08  34729999.137   180848194.300        -386.829          46.000    34729978.353   139843216.127        -299.078          49.000  
C13  34715335.928   180771840.806         -84.082          47.000    34715323.540   139784207.649         -64.935          48.000  
C16  35672670.522   185756942.328         -30.817          48.000    35672655.780   143639002.410         -23.754          48.000  
C25  22396013.302   116621920.636       -2643.920          32.000                                                                  
C32  21006388.400   109385760.660         800.095          51.000                                                                  
C06  35356160.262   184108793.049         147.682          45.000    35356140.062   142364527.689         114.115          46.000  
G25  20364299.323   107015126.104        2431.454          45.000    20364290.530    83388368.174        1894.806          42.000  
G10  19461405.867   102270378.027         892.142          50.000    19461394.636    79691157.342         695.379          45.000  
G28  21900755.049   115089239.091        2503.295          43.000    21900743.772    89679900.004        1950.325          42.000  
C23  20716727.487   107877415.245         115.317          50.000                                                                  
C09  36819214.627   191727291.108         247.081          43.000    36819198.404   148255655.591         191.050          47.000  
C33  26271083.350                2      -2963.678          27.000                                                                  
C37  22728086.170   118351108.005        2611.200          46.000                                                                  
> 2025 10 27 02 55 10.9160000  0 19                     
G12  20709548.474   108829412.989         701.779          45.000    20709537.068    84802094.342         546.563          43.000  
G15  23419567.873                3      -3283.740          33.000    23419565.500                       -2558.288          33.000  
G18  23769742.151   124910840.130       -3656.750          33.000    23769739.408    97333095.535       -2849.142          38.000  
G23  19371731.718   101799128.599       -2241.897          47.000    19371719.729    79323920.970       -1746.802          47.000  
G24  21116387.387                       -3423.355          30.000    21116378.681                       -2667.515          29.000  
G32  20821526.206   109417854.392        1471.966          45.000    20821516.203    85260630.877        1146.872          41.000  
C08  34730002.079   180848209.773        -386.853          46.000    34729981.335   139843228.089        -299.060          49.000  
C13  34715336.578   180771844.162         -84.021          47.000    34715324.187   139784210.248         -64.996          48.000  
C16  35672670.753   185756943.562         -30.865          48.000    35672655.992   143639003.361         -23.786          48.000  
C25  22396033.634   116622026.365       -2643.738          32.000                                                                  
C32  21006382.240   109385728.661         799.979          51.000                                                                  
C06  35356159.145   184108787.132         147.841          45.000    35356138.917   142364523.109         114.346          46.000  
G25  20364280.799   107015028.839        2431.534          45.000    20364272.016    83388292.380        1894.825          42.000  
G10  19461399.083   102270342.336         892.167          50.000    19461387.830    79691129.537         695.157          45.000  
G28  21900735.993   115089138.960        2503.295          43.000    21900724.698    89679821.957        1950.899          42.000  
C23  20716726.610   107877410.631         115.286          50.000                                                                  
C09  36819212.759   191727281.219         247.227          43.000    36819196.519   148255647.951         191.007          47.000  
C33  26271106.210                2      -2963.993          27.000                                                                  
C37  22728066.107   118351003.545        2611.359          46.000                                                                  
> 2025 10 27 02 55 10.9560000  0 19                     
G12  20709543.129   108829384.924         701.639          45.000    20709531.738    84802072.469         546.642          43.000  
G15  23419592.860                3      -3282.520          33.000    23419590.482                       -2558.447          33.000  
G18  23769770.017   124910986.384       -3656.491          33.000    23769767.237    97333209.484       -2848.872          38.000  
G23  19371748.793   101799218.272       -2241.927          47.000    19371736.794    79323990.845       -1746.882          47.000  
G24  21116413.437                       -3423.000          30.000    21116404.704                       -2667.257          29.000  
G32  20821515.014   109417795.518        1471.882          45.000    20821505.001    85260584.996        1146.951          42.000  
C08  34730005.040   180848225.245        -386.865          46.000    34729984.328   139843240.050        -299.066          49.000  
C13  34715337.228   180771847.525         -84.106          47.000    34715324.847   139784212.849         -65.057          48.000  
C16  35672670.992   185756944.789         -30.769          48.000    35672656.211   143639004.317         -23.917          48.000  
C25  22396053.910   116622132.108       -2643.773          32.000                                                                  
C32  21006376.121   109385696.659         799.988          50.000                                                                  
C06  35356158.006   184108781.222         147.820          45.000    35356137.777   142364518.539         114.309          46.000  
G25  20364262.322   107014931.583        2431.436          45.000    20364253.508    83388216.590        1894.750          42.000  
G10  19461392.288   102270306.648         892.162          50.000    19461381.048    79691101.728         695.127          45.000  
G28  21900716.938   115089038.826        2503.301          43.000    21900705.647    89679743.919        1951.007          42.000  
C23  20716725.733   107877406.015         115.334          50.000                                                                  
C09  36819210.867   191727271.341         247.036          43.000    36819194.606   148255640.310         190.988          47.000  
C33  26271129.373                2      -2963.753          27.000                                                                  
C37  22728046.051   118350899.088        2611.377          46.000                                                                  
> 2025 10 27 02 55 10.9960000  0 19                     
G12  20709537.798   108829356.853         701.717          45.000    20709526.411    84802050.580         547.009          43.000  
G15  23419617.828                2      -3281.721          33.000    23419615.480                       -2558.217          33.000  
G18  23769797.827   124911132.607       -3655.832          33.000    23769795.068    97333323.451       -2849.094          38.000  
G23  19371765.863   101799307.952       -2242.038          47.000    19371753.848    79324060.723       -1746.993          47.000  
G24  21116439.500                       -3423.265          30.000    21116430.781                       -2667.458          29.000  
G32  20821503.814   109417736.646        1471.806          45.000    20821493.790    85260539.119        1146.913          42.000  
C08  34730008.004   180848240.713        -386.761          46.000    34729987.277   139843252.013        -299.084          49.000  
C13  34715337.872   180771850.888         -84.143          47.000    34715325.480   139784215.445         -65.002          48.000  
C16  35672671.197   185756946.023         -30.809          48.000    35672656.437   143639005.261         -23.729          48.000  
C25  22396074.227   116622237.803       -2642.928          32.000                                                                  
C32  21006369.979   109385664.659         799.943          51.000                                                                  
C06  35356156.830   184108775.312         147.783          45.000    35356136.667   142364513.974         114.167          46.000  
G25  20364243.792   107014834.317        2431.561          45.000    20364234.991    83388140.808        1894.573          42.000  
G10  19461385.473   102270270.959         892.156          50.000    19461374.247    79691073.916         695.189          45.000  
G28  21900697.885   115088938.702        2503.095          43.000    21900686.593    89679665.892        1950.811          42.000  
C23  20716724.862   107877401.404         115.256          50.000                                                                  
C09  36819208.942   191727261.468         246.855          43.000    36819192.711   148255632.662         191.114          47.000  
C33  26271151.780                2      -2964.286          27.000                                                                  
C37  22728026.004   118350794.631        2611.401          46.000                                                                  
> 2025 10 27 02 55 11.0360000  0 19                     
G12  20709532.451   108829328.775         701.872          45.000    20709521.073    84802028.707         546.945          43.000  
G15  23419642.822                2      -3282.017          33.000    23419640.473                       -2558.802          33.000  
G18  23769825.660   124911278.848       -3656.000          33.000    23769822.888    97333437.412       -2849.139          38.000  
G23  19371782.906   101799397.629       -2242.018          47.000    19371770.908    79324130.598       -1746.968          47.000  
G24  21116465.543                       -3422.722          30.000    21116456.838                       -2667.130          29.000  
G32  20821492.584   109417677.769        1471.838          45.000    20821482.574    85260493.236        1146.998          41.000  
C08  34730010.982   180848256.181        -386.713          46.000    34729990.231   139843263.976        -299.109          49.000  
C13  34715338.535   180771854.252         -84.161          47.000    34715326.099   139784218.041         -64.960          48.000  
C16  35672671.449   185756947.245         -30.638          48.000    35672656.646   143639006.211         -23.780          48.000  
C25  22396094.541   116622343.525       -2642.911          32.000                                                                  
C32  21006363.865   109385632.657         799.977          51.000                                                                  
C06  35356155.691   184108769.407         147.656          45.000    35356135.538   142364509.410         114.084          46.000  
G25  20364225.294   107014737.057        2431.492          45.000    20364216.499    83388065.031        1894.395          42.000  
G10  19461378.682   102270235.268         892.199          50.000    19461367.479    79691046.102         695.294          45.000  
G28  21900678.849   115088838.579        2502.997          43.000    21900667.548    89679587.883        1950.369          42.000  
C23  20716723.958   107877396.793         115.205          50.000                                                                  
C09  36819207.045   191727251.586         246.933          43.000    36819190.809   148255625.026         190.949          47.000  
C33  26271174.499                2      -2964.251          27.000                                                                  
C37  22728005.949   118350690.175        2611.346          46.000                                                                  
> 2025 10 27 02 55 11.0760000  0 19                     
G12  20709527.111   108829300.703         701.818          45.000    20709515.748    84802006.825         547.053          43.000  
G15  23419667.791                2      -3283.278          33.000    23419665.471    95899690.176       -2558.656          33.000  
G18  23769853.501   124911425.115       -3656.417          33.000    23769850.719    97333551.368       -2848.993          38.000  
G23  19371799.956   101799487.293       -2241.740          47.000    19371787.983    79324200.476       -1747.017          47.000  
G24  21116491.600                       -3422.738          30.000    21116482.873                       -2667.095          29.000  
G32  20821481.386   109417618.899        1471.750          45.000    20821471.361    85260447.360        1146.939          41.000  
C08  34730013.966   180848271.649        -386.707          46.000    34729993.194   139843275.941        -299.145          49.000  
C13  34715339.196   180771857.613         -84.076          47.000    34715326.716   139784220.640         -64.996          48.000  
C16  35672671.668   185756948.478         -30.754          48.000    35672656.851   143639007.158         -23.740          48.000  
C25  22396114.835   116622449.258       -2643.159          32.000                                                                  
C32  21006357.761   109385600.654         800.029          51.000                                                                  
C06  35356154.540   184108763.502         147.622          45.000    35356134.429   142364504.843         114.103          46.000  
G25  20364206.794   107014639.800        2431.421          45.000    20364197.973    83387989.243        1894.529          42.000  
G10  19461371.892   102270199.581         892.168          50.000    19461360.697    79691018.302         695.053          45.000  
G28  21900659.806   115088738.443        2503.242          43.000    21900648.494    89679509.863        1950.360          42.000  
C23  20716723.097   107877392.182         115.208          50.000                                                                  
C09  36819205.151   191727241.707         246.933          43.000    36819188.914   148255617.383         191.008          47.000  
C33  26271197.482                2      -2963.724          27.000                                                                  
C37  22727985.873   118350585.725        2611.255          46.000                                                                  
> 2025 10 27 02 55 11.1160000  0 19                     
G12  20709521.775   108829272.633         701.752          45.000    20709510.408    84801984.970         546.563          43.000  
G15  23419692.798                2      -3284.510          33.000    23419690.441    95899792.473       -2557.857          33.000  
G18  23769881.360   124911571.375       -3656.503          33.000    23769878.543    97333665.335       -2849.124          38.000  
G23  19371817.020   101799576.971       -2241.865          47.000    19371805.040    79324270.352       -1746.961          47.000  
G24  21116517.709                       -3422.721          30.000    21116508.947                       -2667.103          29.000  
G32  20821470.166   109417560.025        1471.791          45.000    20821460.159    85260401.490        1146.769          41.000  
C08  34730016.934   180848287.119        -386.749          46.000    34729996.153   139843287.902        -299.072          49.000  
C13  34715339.848   180771860.973         -84.021          47.000    34715327.367   139784223.243         -65.070          48.000  
C16  35672671.904   185756949.705         -30.727          48.000    35672657.105   143639008.118         -23.971          48.000  
C25  22396135.150   116622554.988       -2643.270          32.000                                                                  
C32  21006351.626   109385568.653         800.016          50.000                                                                  
C06  35356153.400   184108757.587         147.734          45.000    35356133.327   142364500.268         114.282          46.000  
G25  20364188.289   107014542.539        2431.472          45.000    20364179.448    83387913.456        1894.645          42.000  
G10  19461365.094   102270163.892         892.174          50.000    19461353.895    79690990.487         695.214          45.000  
G28  21900640.749   115088638.308        2503.302          43.000    21900629.457    89679431.849        1950.281          42.000  
C23  20716722.249   107877387.566         115.306          50.000                                                                  
C09  36819203.222   191727231.823         247.028          43.000    36819186.993   148255609.739         191.064          47.000  
C33  26271220.129                2      -2963.988          27.000                                                                  
C37  22727965.861   118350481.268        2611.328          46.000                                                                  
> 2025 10 27 02 55 11.1560000  0 19                     
G12  20709516.412   108829244.564         701.693          45.000    20709505.075    84801963.113         546.358          43.000  
G15  23419717.780                2      -3284.428          33.000    23419715.450    95899894.807       -2558.016          33.000  
G18  23769909.185   124911717.629       -3656.412          33.000    23769906.379    97333779.277       -2848.774          38.000  
G23  19371834.098   101799666.649       -2241.976          47.000    19371822.116    79324340.234       -1747.041          47.000  
G24  21116543.753                       -3422.616          30.000    21116534.984                       -2667.060          29.000  
G32  20821458.975   109417501.159        1471.648          45.000    20821448.943    85260355.631        1146.482          42.000  
C08  34730019.919   180848302.595        -386.914          46.000    34729999.142   139843299.865        -299.084          49.000  
C13  34715340.485   180771864.336         -84.064          47.000    34715328.014   139784225.848         -65.155          48.000  
C16  35672672.123   185756950.941         -30.846          48.000    35672657.351   143639009.069         -23.933          48.000  
C25  22396155.464   116622660.721       -2643.349          32.000                                                                  
C32  21006345.446   109385536.652         800.002          50.000                                                                  
C06  35356152.243   184108751.688         147.542          45.000    35356132.209   142364495.697         114.270          46.000  
G25  20364169.792   107014445.285        2431.359          45.000    20364160.941    83387837.674        1894.612          42.000  
G10  19461358.319   102270128.210         892.045          50.000    19461347.113    79690962.686         695.079          45.000  
G28  21900621.693   115088538.179        2503.201          43.000    21900610.350    89679353.820        1950.551          42.000  
C23  20716721.330   107877382.961         115.163          50.000                                                                  
C09  36819201.331   191727221.942         247.040          43.000    36819185.130   148255602.098         191.019          47.000  
C33  26271242.690                2      -2964.193          27.000                                                                  
C37  22727945.819   118350376.819        2611.200          46.000                                                                  
> 2025 10 27 02 55 11.1960000  0 19                     
G12  20709511.076   108829216.509         701.445          45.000    20709499.725    84801941.236         546.646          43.000  
G15  23419742.771                2      -3283.153          33.000    23419740.423    95899997.131       -2557.939          33.000  
G18  23769937.029   124911863.896       -3656.632          33.000    23769934.201    97333893.249       -2849.088          38.000  
G23  19371851.166   101799756.334       -2242.148          47.000    19371839.188    79324410.113       -1747.022          47.000  
G24  21116569.798                       -3422.744          30.000    21116561.059                       -2667.149          29.000  
G32  20821447.758   109417442.279        1471.853          45.000    20821437.754    85260309.742        1146.924          42.000  
C08  34730022.877   180848318.070        -386.938          46.000    34730002.129   139843311.829        -299.072          49.000  
C13  34715341.140   180771867.697         -84.039          47.000    34715328.667   139784228.442         -64.960          48.000  
C16  35672672.355   185756952.173         -30.863          48.000    35672657.587   143639010.020         -23.878          48.000  
C25  22396175.790   116622766.451       -2643.343          32.000                                                                  
C32  21006339.296   109385504.652         799.984          50.000                                                                  
C06  35356151.143   184108745.778         147.612          45.000    35356131.075   142364491.128         114.229          46.000  
G25  20364151.311   107014348.038        2431.199          45.000    20364142.407    83387761.886        1894.668          42.000  
G10  19461351.521   102270092.521         892.119          50.000    19461340.344    79690934.879         695.129          45.000  
G28  21900602.656   115088438.056        2503.058          43.000    21900591.281    89679275.788        1950.755          42.000  
C23  20716720.473   107877378.359         115.051          50.000                                                                  
C09  36819199.417   191727212.066         246.952          43.000    36819183.230   148255594.459         190.969          47.000  
C33  26271265.256                2      -2963.930          27.000                                                                  
C37  22727925.738   118350272.366        2611.243          46.000                                                                  
> 2025 10 27 02 55 11.2360000  0 19                     
G12  20709505.729   108829188.437         701.613          45.000    20709494.372    84801919.349         547.001          43.000  
G15  23419767.732                2      -3282.147          33.000    23419765.412    95900099.474       -2558.312          33.000  
G18  23769964.860   124912010.129       -3656.083          33.000    23769962.053    97334007.221       -2849.265          38.000  
G23  19371868.219   101799846.010       -2242.024          47.000    19371856.268    79324479.990       -1746.979          47.000  
G24  21116595.851                       -3423.180          30.000    21116587.114                       -2667.119          29.000  
G32  20821436.558   109417383.400        1471.962          45.000    20821426.554    85260263.860        1147.071          42.000  
C08  34730025.848   180848333.541        -386.859          46.000    34730005.071   139843323.788        -298.993          49.000  
C13  34715341.790   180771871.055         -83.984          47.000    34715329.332   139784231.036         -64.893          48.000  
C16  35672672.598   185756953.398         -30.736          48.000    35672657.784   143639010.969         -23.792          48.000  
C25  22396196.090   116622872.160       -2642.880          32.000                                                                  
C32  21006333.173   109385472.648         800.061          50.000                                                                  
C06  35356150.062   184108739.867         147.733          45.000    35356129.932   142364486.570         114.011          46.000  
G25  20364132.790   107014250.782        2431.235          45.000    20364123.898    83387686.105        1894.568          42.000  
G10  19461344.717   102270056.836         892.095          50.000    19461333.553    79690907.069         695.221          45.000  
G28  21900583.598   115088337.935        2502.974          43.000    21900572.231    89679197.769        1950.566          42.000  
C23  20716719.593   107877373.748         115.171          50.000                                                                  
C09  36819197.526   191727202.185         246.977          43.000    36819181.331   148255586.827         190.813          47.000  
C33  26271287.587                2      -2964.070          27.000                                                                  
C37  22727905.685   118350167.909        2611.346          46.000                                                                  
> 2025 10 27 02 55 11.2760000  0 19                     
G12  20709500.384   108829160.362         701.747          45.000    20709489.030    84801897.478         546.909          43.000  
G15  23419792.717                2      -3282.102          33.000    23419790.420    95900201.796       -2558.208          33.000  
G18  23769992.713   124912156.400       -3656.555          33.000    23769989.887    97334121.180       -2849.172          38.000  
G23  19371885.292   101799935.687       -2241.943          47.000    19371873.321    79324549.865       -1746.886          47.000  
G24  21116621.918                       -3423.460          30.000    21116613.206                       -2667.389          29.000  
G32  20821425.371   109417324.519        1472.016          45.000    20821415.354    85260217.981        1147.045          41.000  
C08  34730028.846   180848349.015        -386.896          46.000    34730008.018   139843335.754        -299.103          49.000  
C13  34715342.412   180771874.419         -84.064          47.000    34715329.968   139784233.635         -64.954          48.000  
C16  35672672.819   185756954.623         -30.668          48.000    35672658.021   143639011.919         -23.789          48.000  
C25  22396216.375   116622977.888       -2642.942          32.000                                                                  
C32  21006327.002   109385440.645         800.046          50.000                                                                  
C06  35356148.926   184108733.961         147.677          45.000    35356128.809   142364481.998         114.121          46.000  
G25  20364114.267   107014153.526        2431.290          45.000    20364105.382    83387610.325        1894.480          42.000  
G10  19461337.919   102270021.150         892.076          50.000    19461326.764    79690879.262         695.178          45.000  
G28  21900564.546   115088237.803        2503.149          43.000    21900553.197    89679119.741        1950.602          42.000  
C23  20716718.728   107877369.136         115.254          50.000                                                                  
C09  36819195.645   191727192.303         247.041          43.000    36819179.468   148255579.189         190.853          47.000  
C33  26271310.784                2      -2963.870          27.000                                                                  
C37  22727885.624   118350063.454        2611.328          46.000                                                                  
> 2025 10 27 02 55 11.3160000  0 19                     
G12  20709495.060   108829132.293         701.733          45.000    20709483.693    84801875.615         546.668          43.000  
G15  23419817.703                2      -3283.124          33.000    23419815.427    95900304.122       -2558.095          33.000  
G18  23770020.591   124912302.625       -3655.912          33.000    23770017.714    97334235.143       -2849.140          38.000  
G23  19371902.366   101800025.365       -2241.962          47.000    19371890.425    79324619.751       -1747.072          47.000  
G24  21116647.963                       -3423.545          29.000    21116639.247                       -2667.206          29.000  
G32  20821414.166   109417265.645        1471.901          45.000    20821404.167    85260172.110        1146.875          41.000  
C08  34730031.837   180848364.483        -386.798          46.000    34730010.987   139843347.716        -299.078          49.000  
C13  34715343.030   180771877.784         -84.143          47.000    34715330.612   139784236.241         -65.125          48.000  
C16  35672673.024   185756955.850         -30.670          48.000    35672658.254   143639012.865         -23.698          48.000  
C25  22396236.680   116623083.650       -2643.744          32.000                                                                  
C32  21006320.822   109385408.651         799.887          50.000                                                                  
C06  35356147.799   184108728.048         147.783          45.000    35356127.669   142364477.428         114.181          46.000  
G25  20364095.753   107014056.266        2431.396          45.000    20364086.872    83387534.531        1894.701          42.000  
G10  19461331.126   102269985.469         892.003          50.000    19461319.983    79690851.464         694.980          45.000  
G28  21900545.505   115088137.666        2503.354          43.000    21900534.155    89679041.728        1950.366          42.000  
C23  20716717.858   107877364.525         115.266          50.000                                                                  
C09  36819193.765   191727182.418         247.109          43.000    36819177.573   148255571.541         191.068          47.000  
C33  26271333.677                2      -2963.922          26.000                                                                  
C37  22727865.560   118349959.000        2611.322          46.000                                                                  
> 2025 10 27 02 55 11.3560000  0 19                     
G12  20709489.735   108829104.243         701.391          45.000    20709478.343    84801853.752         546.567          43.000  
G15  23419842.729                2      -3283.813          33.000    23419840.411    95900406.460       -2558.252          33.000  
G18  23770048.443   124912448.852       -3655.613          33.000    23770045.535    97334349.091       -2848.807          38.000  
G23  19371919.429   101800115.045       -2242.024          47.000    19371907.501    79324689.629       -1747.035          47.000  
G24  21116674.066                       -3423.516          29.000    21116665.318                       -2667.545          29.000  
G32  20821402.973   109417206.778        1471.720          45.000    20821392.944    85260126.238        1146.800          41.000  
C08  34730034.834   180848379.955        -386.798          46.000    34730013.948   139843359.684        -299.188          49.000  
C13  34715343.658   180771881.145         -84.094          47.000    34715331.275   139784238.840         -65.057          48.000  
C16  35672673.252   185756957.080         -30.722          48.000    35672658.466   143639013.815         -23.753          48.000  
C25  22396256.986   116623189.377       -2643.408          32.000                                                                  
C32  21006314.706   109385376.650         799.934          50.000                                                                  
C06  35356146.662   184108722.139         147.739          45.000    35356126.534   142364472.857         114.233          46.000  
G25  20364077.260   107013959.012        2431.390          45.000    20364068.368    83387458.762        1894.341          42.000  
G10  19461324.318   102269949.790         891.941          50.000    19461313.180    79690823.658         695.036          45.000  
G28  21900526.455   115088037.533        2503.352          43.000    21900515.096    89678963.706        1950.405          42.000  
C23  20716716.946   107877359.921         115.148          50.000                                                                  
C09  36819191.846   191727172.537         247.057          43.000    36819175.702   148255563.900         191.059          47.000  
C33  26271356.344                2      -2964.158          26.000                                                                  
C37  22727845.514   118349854.553        2611.169          46.000                                                                  
> 2025 10 27 02 55 11.3960000  0 19                     
G12  20709484.396   108829076.186         701.339          45.000    20709473.001    84801831.886         546.581          43.000  
G15  23419867.727                2      -3283.402          33.000    23419865.409    95900508.796       -2558.365          33.000  
G18  23770076.240   124912595.126       -3656.356          33.000    23770073.351    97334463.065       -2849.226          38.000  
G23  19371936.505   101800204.734       -2242.190          47.000    19371924.585    79324759.514       -1747.127          47.000  
G24  21116700.099                       -3423.514          29.000    21116691.391                       -2667.593          29.000  
G32  20821391.759   109417147.907        1471.685          45.000    20821381.718    85260080.355        1146.942          41.000  
C08  34730037.784   180848395.438        -387.030          46.000    34730016.956   139843371.651        -299.219          49.000  
C13  34715344.318   180771884.511         -84.143          47.000    34715331.961   139784241.444         -65.125          48.000  
C16  35672673.432   185756958.323         -30.969          48.000    35672658.686   143639014.765         -23.758          48.000  
C25  22396277.302   116623295.108       -2643.123          32.000                                                                  
C32  21006308.535   109385344.658         799.800          50.000                                                                  
C06  35356145.520   184108716.237         147.581          45.000    35356125.380   142364468.294         114.093          46.000  
G25  20364058.741   107013861.755        2431.394          45.000    20364049.839    83387382.983        1894.362          42.000  
G10  19461317.507   102269914.111         891.905          50.000    19461306.406    79690795.856         695.018          45.000  
G28  21900507.412   115087937.410        2503.184          43.000    21900496.064    89678885.695        1950.250          42.000  
C23  20716716.067   107877355.322         115.008          50.000                                                                  
C09  36819189.959   191727162.665         246.830          43.000    36819173.778   148255556.268         190.863          47.000  
C33  26271378.916                2      -2963.779          27.000                                                                  
C37  22727825.474   118349750.102        2611.188          46.000                                                                  
> 2025 10 27 02 55 11.4360000  0 19                     
G12  20709479.047   108829048.127         701.364          45.000    20709467.656    84801810.029         546.447          43.000  
G15  23419892.728                2      -3282.751          33.000    23419890.376    95900611.124       -2558.236          33.000  
G18  23770104.094   124912741.387       -3656.521          33.000    23770101.165    97334577.030       -2849.240          38.000  
G23  19371953.582   101800294.421       -2242.214          47.000    19371941.677    79324829.404       -1747.262          47.000  
G24  21116726.195                       -3423.544          29.000    21116717.448                       -2667.591          29.000  
G32  20821380.552   109417089.041        1471.585          45.000    20821370.507    85260034.489        1146.762          41.000  
C08  34730040.764   180848410.913        -387.006          46.000    34730019.951   139843383.619        -299.231          49.000  
C13  34715344.950   180771887.876         -84.186          47.000    34715332.589   139784244.045         -65.088          48.000  
C16  35672673.675   185756959.558         -30.970          48.000    35672658.923   143639015.725         -23.947          48.000  
C25  22396297.624   116623400.860       -2643.463          32.000                                                                  
C32  21006302.409   109385312.664         799.783          51.000                                                                  
C06  35356144.397   184108710.338         147.426          45.000    35356124.225   142364463.728         114.117          46.000  
G25  20364040.281   107013764.506        2431.261          45.000    20364031.351    83387307.206        1894.325          42.000  
G10  19461310.716   102269878.441         891.758          50.000    19461299.618    79690768.059         694.932          45.000  
G28  21900488.355   115087837.297        2502.905          43.000    21900477.004    89678807.672        1950.420          42.000  
C23  20716715.130   107877350.727         114.850          50.000                                                                  
C09  36819188.053   191727152.786         246.850          43.000    36819171.899   148255548.635         190.802          47.000  
C33  26271401.477                2      -2963.915          27.000                                                                  
C37  22727805.433   118349645.657        2611.084          46.000                                                                  
> 2025 10 27 02 55 11.4760000  0 19                     
G12  20709473.699   108829020.065         701.443          45.000    20709462.306    84801788.159         546.626          43.000  
G15  23419917.696                2      -3282.573          33.000    23419915.398    95900713.451       -2558.209          33.000  
G18  23770131.952   124912887.641       -3656.427          33.000    23770129.011    97334690.998       -2849.240          38.000  
G23  19371970.653   101800384.110       -2242.287          46.000    19371958.730    79324899.281       -1747.058          47.000  
G24  21116752.240                       -3423.479          29.000    21116743.509                       -2667.406          29.000  
G32  20821369.373   109417030.164        1471.797          45.000    20821359.310    85259988.608        1146.837          41.000  
C08  34730043.730   180848426.388        -386.926          46.000    34730022.879   139843395.581        -299.103          49.000  
C13  34715345.593   180771891.244         -84.235          47.000    34715333.242   139784246.646         -65.045          48.000  
C16  35672673.922   185756960.787         -30.841          48.000    35672659.142   143639016.681         -23.975          48.000  
C25  22396317.914   116623506.569       -2642.977          32.000                                                                  
C32  21006296.278   109385280.665         799.869          50.000                                                                  
C06  35356143.286   184108704.435         147.473          45.000    35356123.081   142364459.161         114.103          46.000  
G25  20364021.789   107013667.262        2431.079          45.000    20364012.860    83387231.418        1894.576          42.000  
G10  19461303.908   102269842.761         891.875          50.000    19461292.845    79690740.257         694.976          45.000  
G28  21900469.298   115087737.181        2502.813          43.000    21900457.969    89678729.653        1950.426          42.000  
C23  20716714.266   107877346.128         114.888          50.000                                                                  
C09  36819186.160   191727142.902         247.010          43.000    36819170.020   148255540.986         191.068          47.000  
C33  26271424.017                2      -2963.686          26.000                                                                  
C37  22727785.375   118349541.202        2611.261          46.000                                                                  
> 2025 10 27 02 55 11.5160000  0 19                     
G12  20709468.366   108828991.998         701.597          45.000    20709456.952    84801766.294         546.597          43.000  
G15  23419942.685                2      -3283.456          33.000    23419940.411    95900815.805       -2558.758          33.000  
G18  23770159.793   124913033.893       -3656.368          33.000    23770156.820    97334804.942       -2848.776          38.000  
G23  19371987.723   101800473.787       -2242.065          46.000    19371975.804    79324969.169       -1747.145          47.000  
G24  21116778.280                       -3423.152          29.000    21116769.576                       -2667.163          29.000  
G32  20821358.155   109416971.281        1471.996          45.000    20821348.105    85259942.726        1146.974          41.000  
C08  34730046.698   180848441.864        -386.938          46.000    34730025.855   139843407.545        -299.078          49.000  
C13  34715346.221   180771894.602         -84.058          47.000    34715333.880   139784249.245         -64.996          48.000  
C16  35672674.139   185756962.014         -30.740          48.000    35672659.379   143639017.632         -23.887          48.000  
C25  22396338.222   116623612.320       -2643.503          32.000                                                                  
C32  21006290.156   109385248.665         799.953          50.000                                                                  
C06  35356142.141   184108698.526         147.593          45.000    35356121.916   142364454.586         114.275          46.000  
G25  20364003.295   107013570.016        2431.068          45.000    20363994.378    83387155.648        1894.362          42.000  
G10  19461297.101   102269807.076         892.029          50.000    19461286.069    79690712.457         694.945          45.000  
G28  21900450.236   115087637.052        2503.046          43.000    21900438.885    89678651.633        1950.444          42.000  
C23  20716713.370   107877341.526         114.942          50.000                                                                  
C09  36819184.273   191727133.025         246.958          43.000    36819168.104   148255533.337         191.171          47.000  
C33  26271446.604                2      -2963.829          27.000                                                                  
C37  22727765.329   118349436.750        2611.273          46.000                                                                  
> 2025 10 27 02 55 11.5560000  0 19                     
G12  20709463.022   108828963.941         701.520          45.000    20709451.624    84801744.430         546.550          43.000  
G15  23419967.685                2      -3283.235          33.000    23419965.403    95900918.139       -2558.646          33.000  
G18  23770187.628   124913180.143       -3656.236          33.000    23770184.653    97334918.890       -2848.556          38.000  
G23  19372004.788   101800563.479       -2242.213          46.000    19371992.873    79325039.053       -1747.138          47.000  
G24  21116804.334                       -3422.883          29.000    21116795.622                       -2667.467          29.000  
G32  20821346.942   109416912.406        1471.972          45.000    20821336.927    85259896.861        1146.706          41.000  
C08  34730049.690   180848457.340        -386.945          46.000    34730028.811   139843419.514        -299.188          49.000  
C13  34715346.862   180771897.969         -84.149          47.000    34715334.551   139784251.845         -64.978          48.000  
C16  35672674.378   185756963.237         -30.606          48.000    35672659.611   143639018.581         -23.790          48.000  
C25  22396358.532   116623718.048       -2643.317          32.000                                                                  
C32  21006284.008   109385216.669         799.926          50.000                                                                  
C06  35356141.012   184108692.619         147.651          45.000    35356120.776   142364450.034         113.954          46.000  
G25  20363984.785   107013472.773        2431.027          45.000    20363975.860    83387079.864        1894.481          42.000  
G10  19461290.320   102269771.399         891.955          50.000    19461279.281    79690684.653         694.994          45.000  
G28  21900431.187   115087536.933        2503.002          43.000    21900419.834    89678573.616        1950.401          42.000  
C23  20716712.507   107877336.924         114.987          50.000                                                                  
C09  36819182.366   191727123.136         247.154          43.000    36819166.191   148255525.703         190.956          47.000  
C33  26271469.479                2      -2963.927          27.000                                                                  
C37  22727745.257   118349332.305        2611.163          46.000                                                                  
> 2025 10 27 02 55 11.5960000  0 19                     
G12  20709457.678   108828935.888         701.396          45.000    20709446.280    84801722.566         546.559          43.000  
G15  23419992.680                2      -3283.410          33.000    23419990.375    95901020.438       -2557.910          33.000  
G18  23770215.471   124913326.393       -3656.220          33.000    23770212.481    97335032.864       -2849.097          38.000  
G23  19372021.850   101800653.167       -2242.231          46.000    19372009.936    79325108.936       -1747.120          47.000  
G24  21116830.372                       -3422.887          29.000    21116821.695                       -2667.831          29.000  
G32  20821335.749   109416853.532        1471.925          45.000    20821325.746    85259850.990        1146.698          41.000  
C08  34730052.658   180848472.815        -386.890          46.000    34730031.761   139843431.486        -299.316          49.000  
C13  34715347.513   180771901.333         -84.119          47.000    34715335.196   139784254.449         -65.082          48.000  
C16  35672674.572   185756964.469         -30.715          48.000    35672659.850   143639019.533         -23.806          48.000  
C25  22396378.821   116623823.754       -2642.675          32.000                                                                  
C32  21006277.860   109385184.674         799.893          50.000                                                                  
C06  35356139.871   184108686.714         147.643          45.000    35356119.669   142364445.456         114.218          46.000  
G25  20363966.283   107013375.519        2431.182          45.000    20363957.351    83387004.087        1894.414          42.000  
G10  19461283.545   102269735.725         891.869          50.000    19461272.463    79690656.852         695.007          45.000  
G28  21900412.130   115087436.809        2503.077          43.000    21900400.765    89678495.603        1950.308          42.000  
C23  20716711.618   107877332.324         114.980          50.000                                                                  
C09  36819180.447   191727113.263         246.945          43.000    36819164.303   148255518.072         190.775          47.000  
C33  26271491.484                2      -2964.343          26.000                                                                  
C37  22727725.197   118349227.860        2611.102          46.000                                                                  
> 2025 10 27 02 55 11.6360000  0 19                     
G12  20709452.346   108828907.839         701.216          45.000    20709440.943    84801700.700         546.584          43.000  
G15  23420017.625                2      -3282.787          33.000    23420015.346    95901122.792       -2558.520          33.000  
G18  23770243.301   124913472.645       -3656.283          33.000    23770240.296    97335146.823       -2849.195          38.000  
G23  19372038.907   101800742.851       -2242.176          46.000    19372027.004    79325178.822       -1747.163          47.000  
G24  21116856.388                       -3422.845          29.000    21116847.773                       -2667.657          29.000  
G32  20821324.548   109416794.660        1471.847          45.000    20821314.529    85259805.108        1146.869          41.000  
C08  34730055.664   180848488.283        -386.725          46.000    34730034.745   139843443.454        -299.255          49.000  
C13  34715348.174   180771904.695         -84.082          47.000    34715335.861   139784257.053         -65.131          48.000  
C16  35672674.761   185756965.710         -30.944          48.000    35672660.073   143639020.487         -23.852          48.000  
C25  22396399.116   116623929.475       -2642.639          32.000                                                                  
C32  21006271.714   109385152.677         799.913          50.000                                                                  
C06  35356138.757   184108680.809         147.616          45.000    35356118.528   142364440.886         114.233          46.000  
G25  20363947.762   107013278.266        2431.293          45.000    20363938.867    83386928.316        1894.290          42.000  
G10  19461276.754   102269700.053         891.776          50.000    19461265.665    79690629.050         695.019          45.000  
G28  21900393.079   115087336.680        2503.150          43.000    21900381.725    89678417.592        1950.227          42.000  
C23  20716710.740   107877327.719         115.077          50.000                                                                  
C09  36819178.547   191727103.390         246.820          43.000    36819162.444   148255510.431         190.885          47.000  
C33  26271514.300                2      -2964.006          27.000                                                                  
C37  22727705.150   118349123.415        2611.090          46.000                                                                  
> 2025 10 27 02 55 11.6760000  0 19                     
G12  20709446.996   108828879.785         701.234          45.000    20709435.616    84801678.844         546.470          43.000  
G15  23420042.613                2      -3282.685          33.000    23420040.318    95901225.083       -2557.719          33.000  
G18  23770271.159   124913618.890       -3656.257          33.000    23770268.112    97335260.792       -2849.369          38.000  
G23  19372055.982   101800832.535       -2242.151          46.000    19372044.097    79325248.705       -1747.145          47.000  
G24  21116882.473                       -3422.890          29.000    21116873.809                       -2667.361          29.000  
G32  20821313.335   109416735.793        1471.712          45.000    20821303.317    85259759.222        1147.067          41.000  
C08  34730058.638   180848503.754        -386.725          46.000    34730037.752   139843455.421        -299.231          49.000  
C13  34715348.806   180771908.056         -84.052          47.000    34715336.505   139784259.657         -65.155          48.000  
C16  35672675.017   185756966.943         -30.946          48.000    35672660.314   143639021.436         -23.793          48.000  
C25  22396419.433   116624035.255       -2643.818          32.000                                                                  
C32  21006265.605   109385120.679         799.905          50.000                                                                  
C06  35356137.581   184108674.893         147.798          45.000    35356117.388   142364436.318         114.204          46.000  
G25  20363929.266   107013181.015        2431.289          45.000    20363920.355    83386852.535        1894.421          42.000  
G10  19461269.948   102269664.375         891.845          50.000    19461258.863    79690601.252         694.926          45.000  
G28  21900374.035   115087236.548        2503.242          43.000    21900362.683    89678339.567        1950.471          42.000  
C23  20716709.843   107877323.119         114.997          50.000                                                                  
C09  36819176.635   191727093.513         246.841          43.000    36819160.524   148255502.794         190.905          47.000  
C33  26271537.384                2      -2963.852          27.000                                                                  
C37  22727685.118   118349018.968        2611.115          46.000                                                                  
> 2025 10 27 02 55 11.7160000  0 19                     
G12  20709441.639   108828851.726         701.372          45.000    20709430.281    84801656.992         546.303          43.000  
G15  23420067.630                2      -3284.093          33.000    23420065.312    95901327.409       -2557.956          33.000  
G18  23770299.002   124913765.145       -3656.418          33.000    23770295.907    97335374.754       -2849.290          38.000  
G23  19372073.056   101800922.226       -2242.262          46.000    19372061.161    79325318.590       -1747.132          47.000  
G24  21116908.585                       -3422.796          29.000    21116899.846                       -2667.286          29.000  
G32  20821302.133   109416676.924        1471.663          45.000    20821292.119    85259713.363        1146.669          41.000  
C08  34730061.601   180848519.220        -386.664          46.000    34730040.728   139843467.387        -299.200          49.000  
C13  34715349.445   180771911.421         -84.119          47.000    34715337.149   139784262.258         -65.063          48.000  
C16  35672675.271   185756968.173         -30.852          48.000    35672660.549   143639022.391         -23.873          48.000  
C25  22396439.766   116624141.010       -2643.981          32.000                                                                  
C32  21006259.442   109385088.687         799.816          50.000                                                                  
C06  35356136.454   184108668.988         147.709          45.000    35356116.270   142364431.757         114.047          46.000  
G25  20363910.759   107013083.771        2431.155          45.000    20363901.837    83386776.750        1894.600          42.000  
G10  19461263.133   102269628.699         891.863          50.000    19461252.066    79690573.456         694.884          45.000  
G28  21900354.974   115087136.419        2503.222          43.000    21900343.642    89678261.540        1950.657          42.000  
C23  20716708.924   107877318.524         114.895          50.000                                                                  
C09  36819174.741   191727083.630         246.954          43.000    36819158.593   148255495.155         190.961          47.000  
C33  26271559.987                2      -2963.856          26.000                                                                  
C37  22727665.051   118348914.517        2611.194          46.000                                                                  
> 2025 10 27 02 55 11.7560000  0 19                     
G12  20709436.296   108828823.675         701.321          45.000    20709424.944    84801635.137         546.304          43.000  
G15  23420092.602                2      -3284.367          33.000    23420090.313    95901429.755       -2558.449          33.000  
G18  23770326.850   124913911.391       -3656.236          33.000    23770323.735    97335488.713       -2849.151          38.000  
G23  19372090.126   101801011.924       -2242.459          46.000    19372078.219    79325388.481       -1747.268          47.000  
G24  21116934.631                       -3422.766          29.000    21116925.877                       -2667.244          29.000  
G32  20821290.937   109416618.049        1471.761          45.000    20821280.914    85259667.487        1146.786          41.000  
C08  34730064.566   180848534.701        -386.945          46.000    34730043.723   139843479.351        -299.145          49.000  
C13  34715350.065   180771914.794         -84.283          47.000    34715337.808   139784264.852         -64.911          48.000  
C16  35672675.498   185756969.407         -30.885          48.000    35672660.831   143639023.343         -23.888          48.000  
C25  22396460.072   116624246.739       -2643.579          32.000                                                                  
C32  21006253.287   109385056.697         799.715          50.000                                                                  
C06  35356135.301   184108663.086         147.596          45.000    35356115.143   142364427.191         114.071          46.000  
G25  20363892.246   107012986.540        2430.862          45.000    20363883.332    83386700.988        1894.209          42.000  
G10  19461256.346   102269593.027         891.789          50.000    19461245.292    79690545.668         694.687          45.000  
G28  21900335.925   115087036.315        2502.755          43.000    21900324.599    89678183.518        1950.624          42.000  
C23  20716707.987   107877313.937         114.685          50.000                                                                  
C09  36819172.845   191727073.754         246.916          43.000    36819156.732   148255487.519         190.917          47.000  
C33  26271582.834                2      -2964.235          27.000                                                                  
C37  22727644.982   118348810.071        2611.157          46.000                                                                  
> 2025 10 27 02 55 11.7960000  0 19                     
G12  20709430.949   108828795.623         701.275          45.000    20709419.611    84801613.276         546.437          43.000  
G15  23420117.619                2      -3282.794          33.000    23420115.336    95901532.100       -2558.797          33.000  
G18  23770354.683   124914057.632       -3656.131          33.000    23770351.570    97335602.679       -2849.121          38.000  
G23  19372107.190   101801101.619       -2242.496          46.000    19372095.262    79325458.373       -1747.348          47.000  
G24  21116960.712                       -3423.183          29.000    21116951.937                       -2667.571          29.000  
G32  20821279.725   109416559.169        1471.957          45.000    20821269.699    85259621.616        1146.752          41.000  
C08  34730067.548   180848550.183        -387.109          46.000    34730046.684   139843491.313        -299.097          49.000  
C13  34715350.736   180771918.159         -84.222          47.000    34715338.466   139784267.458         -65.082          48.000  
C16  35672675.733   185756970.636         -30.798          48.000    35672661.082   143639024.300         -23.963          48.000  
C25  22396480.357   116624352.449       -2642.889          32.000                                                                  
C32  21006247.133   109385024.707         799.700          50.000                                                                  
C06  35356134.179   184108657.189         147.457          45.000    35356113.988   142364422.633         113.912          46.000  
G25  20363873.732   107012889.297        2430.902          45.000    20363864.850    83386625.206        1894.381          42.000  
G10  19461249.544   102269557.354         891.771          50.000    19461238.496    79690517.863         694.947          45.000  
G28  21900316.890   115086936.202        2502.677          43.000    21900305.540    89678105.506        1950.418          42.000  
C23  20716707.135   107877309.346         114.671          50.000                                                                  
C09  36819170.932   191727063.879         246.885          43.000    36819154.822   148255479.872         191.092          47.000  
C33  26271605.590                2      -2963.922          26.000                                                                  
C37  22727624.889   118348705.626        2611.121          46.000                                                                  
> 2025 10 27 02 55 11.8360000  0 19                     
G12  20709425.613   108828767.579         701.143          45.000    20709414.262    84801591.415         546.485          43.000  
G15  23420142.573                2      -3282.493          33.000    23420140.325    95901634.454       -2558.908          33.000  
G18  23770382.508   124914203.883       -3656.176          33.000    23770379.404    97335716.633       -2848.887          38.000  
G23  19372124.265   101801191.308       -2242.390          46.000    19372112.341    79325528.269       -1747.452          47.000  
G24  21116986.789                       -3423.615          29.000    21116978.000                       -2667.262          29.000  
G32  20821268.529   109416500.303        1471.752          45.000    20821258.499    85259575.740        1146.858          41.000  
C08  34730070.519   180848565.663        -387.128          46.000    34730049.656   139843503.284        -299.237          49.000  
C13  34715351.398   180771921.521         -84.131          47.000    34715339.096   139784270.066         -65.210          48.000  
C16  35672675.936   185756971.872         -30.886          48.000    35672661.332   143639025.255         -23.947          48.000  
C25  22396500.673   116624458.191       -2643.231          32.000                                                                  
C32  21006240.998   109384992.708         799.868          50.000                                                                  
C06  35356133.068   184108651.286         147.510          45.000    35356112.860   142364418.070         113.953          46.000  
G25  20363855.216   107012792.052        2430.986          45.000    20363846.364    83386549.437        1894.235          42.000  
G10  19461242.742   102269521.687         891.673          50.000    19461231.694    79690490.067         694.884          45.000  
G28  21900297.826   115086836.071        2503.048          43.000    21900286.505    89678027.497        1950.239          42.000  
C23  20716706.265   107877304.750         114.785          50.000                                                                  
C09  36819169.025   191727054.000         246.916          43.000    36819152.903   148255472.232         191.014          47.000  
C33  26271628.599                2      -2963.801          26.000                                                                  
C37  22727604.845   118348601.175        2611.200          46.000                                                                  
> 2025 10 27 02 55 11.8760000  0 19                     
G12  20709420.254   108828739.537         701.056          45.000    20709408.921    84801569.559         546.406          43.000  
G15  23420167.557                2      -3282.939          33.000    23420165.292    95901736.795       -2558.759          33.000  
G18  23770410.346   124914350.145       -3656.456          33.000    23770407.227    97335830.591       -2848.848          38.000  
G23  19372141.349   101801281.003       -2242.402          46.000    19372129.401    79325598.165       -1747.475          46.000  
G24  21117012.889                       -3423.906          29.000    21117004.028                       -2667.313          29.000  
G32  20821257.337   109416441.438        1471.638          45.000    20821247.286    85259529.862        1146.934          41.000  
C08  34730073.493   180848581.142        -387.116          46.000    34730052.631   139843515.255        -299.316          49.000  
C13  34715352.047   180771924.884         -84.106          47.000    34715339.733   139784272.675         -65.271          48.000  
C16  35672676.154   185756973.109         -30.951          48.000    35672661.587   143639026.210         -23.938          48.000  
C25  22396520.991   116624563.937       -2643.620          32.000                                                                  
C32  21006234.854   109384960.717         799.815          50.000                                                                  
C06  35356131.951   184108645.374         147.701          45.000    35356111.751   142364413.496         114.220          46.000  
G25  20363836.707   107012694.812        2430.961          45.000    20363827.861    83386473.653        1894.458          42.000  
G10  19461235.982   102269486.025         891.513          50.000    19461224.896    79690462.277         694.730          45.000  
G28  21900278.766   115086735.951        2503.072          43.000    21900267.475    89677949.483        1950.247          42.000  
C23  20716705.381   107877300.156         114.811          50.000                                                                  
C09  36819167.123   191727044.127         246.802          43.000    36819151.057   148255464.601         190.825          47.000  
C33  26271651.526                2      -2964.148          26.000                                                                  
C37  22727584.786   118348496.731        2611.127          46.000                                                                  
> 2025 10 27 02 55 11.9160000  0 19                     
G12  20709414.914   108828711.494         700.981          45.000    20709403.600    84801547.702         546.400          43.000  
G15  23420192.552                2      -3285.168          33.000    23420190.269    95901839.055       -2557.128          33.000  
G18  23770438.183   124914496.379       -3656.083          33.000    23770435.046    97335944.557       -2849.041          38.000  
G23  19372158.425   101801370.702       -2242.488          46.000    19372146.460    79325668.060       -1747.450          46.000  
G24  21117038.954                       -3423.763          29.000    21117030.086                       -2667.332          29.000  
G32  20821246.141   109416382.572        1471.616          45.000    20821236.097    85259483.987        1146.877          41.000  
C08  34730076.444   180848596.634        -387.311          46.000    34730055.632   139843527.231        -299.420          49.000  
C13  34715352.681   180771928.257         -84.271          47.000    34715340.371   139784275.273         -65.106          48.000  
C16  35672676.382   185756974.350         -31.052          48.000    35672661.865   143639027.160         -23.861          48.000  
C25  22396541.289   116624669.714       -2644.427          32.000                                                                  
C32  21006228.698   109384928.728         799.724          50.000                                                                  
C06  35356130.835   184108639.473         147.620          45.000    35356110.621   142364408.931         114.174          46.000  
G25  20363818.212   107012597.567        2431.033          45.000    20363809.348    83386397.889        1894.225          42.000  
G10  19461229.170   102269450.361         891.508          50.000    19461218.105    79690434.493         694.583          45.000  
G28  21900259.707   115086635.828        2503.108          43.000    21900248.463    89677871.475        1950.180          42.000  
C23  20716704.496   107877295.565         114.772          50.000                                                                  
C09  36819165.234   191727034.249         246.828          43.000    36819149.125   148255456.971         190.721          47.000  
C33  26271674.154                2      -2964.318          26.000                                                                  
C37  22727564.732   118348392.294        2610.956          46.000                                                                  
> 2025 10 27 02 55 11.9560000  0 19                     
G12  20709409.549   108828683.442         701.153          45.000    20709398.299    84801525.855         546.166          42.000  
G15  23420217.507                2      -3282.846          33.000    23420215.254    95901941.416       -2558.181          33.000  
G18  23770466.003   124914642.628       -3656.167          33.000    23770462.874    97336058.526       -2849.201          38.000  
G23  19372175.503   101801460.399       -2242.488          46.000    19372163.468    79325737.950       -1747.333          46.000  
G24  21117064.995                       -3423.577          29.000    21117056.144                       -2667.295          29.000  
G32  20821234.948   109416323.707        1471.600          45.000    20821224.911    85259438.115        1146.807          41.000  
C08  34730079.379   180848612.103        -386.938          46.000    34730058.606   139843539.200        -299.335          49.000  
C13  34715353.331   180771931.628         -84.308          47.000    34715341.008   139784277.876         -65.094          48.000  
C16  35672676.596   185756975.589         -31.047          48.000    35672662.121   143639028.116         -23.887          48.000  
C25  22396561.615   116624775.469       -2644.337          32.000                                                                  
C32  21006222.549   109384896.741         799.650          50.000                                                                  
C06  35356129.709   184108633.571         147.566          45.000    35356109.487   142364404.364         114.185          46.000  
G25  20363799.710   107012500.323        2431.072          45.000    20363790.844    83386322.117        1894.263          42.000  
G10  19461222.345   102269414.698         891.515          50.000    19461211.329    79690406.702         694.670          45.000  
G28  21900240.645   115086535.717        2502.877          43.000    21900229.388    89677793.448        1950.485          42.000  
C23  20716703.610   107877290.974         114.767          50.000                                                                  
C09  36819163.329   191727024.370         246.918          43.000    36819147.255   148255449.328         190.924          47.000  
C33  26271697.006                2      -2964.410          26.000                                                                  
C37  22727544.676   118348287.852        2610.962          46.000                                                                  
> 2025 10 27 02 55 11.9960000  0 19                     
G12  20709404.180   108828655.390         701.220          45.000    20709392.938    84801504.011         546.023          42.000  
G15  23420242.521                2      -3282.644          33.000    23420240.279    95902043.806       -2559.359          33.000  
G18  23770493.804   124914788.873       -3656.182          33.000    23770490.695    97336172.479       -2849.012          38.000  
G23  19372192.548   101801550.090       -2242.371          46.000    19372180.543    79325807.842       -1747.302          46.000  
G24  21117091.037                       -3423.520          29.000    21117082.197                       -2667.270          29.000  
G32  20821223.725   109416264.828        1471.841          45.000    20821213.707    85259392.246        1146.726          41.000  
C08  34730082.354   180848627.574        -386.804          46.000    34730061.581   139843551.164        -299.170          49.000  
C13  34715353.978   180771934.997         -84.283          47.000    34715341.666   139784280.479         -65.063          48.000  
C16  35672676.860   185756976.816         -30.802          48.000    35672662.408   143639029.067         -23.815          48.000  
C25  22396581.908   116624881.203       -2643.705          32.000                                                                  
C32  21006216.424   109384864.746         799.767          50.000                                                                  
C06  35356128.575   184108627.671         147.529          45.000    35356108.346   142364399.793         114.236          46.000  
G25  20363781.200   107012403.086        2430.951          45.000    20363772.329    83386246.336        1894.393          42.000  
G10  19461215.554   102269379.029         891.614          50.000    19461204.517    79690378.903         694.874          45.000  
G28  21900221.596   115086435.603        2502.765          43.000    21900210.351    89677715.438        1950.366          42.000  
C23  20716702.742   107877286.381         114.787          50.000                                                                  
C09  36819161.426   191727014.493         246.904          43.000    36819145.331   148255441.686         190.973          47.000  
C33  26271719.576                2      -2964.560          26.000                                                                  
C37  22727524.616   118348183.407        2611.041          46.000                                                                  
> 2025 10 27 02 55 12.0360000  0 19                     
G12  20709398.870   108828627.341         701.205          45.000    20709387.601    84801482.157         546.165          42.000  
G15  23420267.495                2      -3283.102          33.000    23420265.226    95902146.107       -2558.310          33.000  
G18  23770521.651   124914935.110       -3656.040          33.000    23770518.529    97336286.428       -2848.874          38.000  
G23  19372209.622   101801639.791       -2242.476          46.000    19372197.615    79325877.733       -1747.278          46.000  
G24  21117117.079                       -3423.425          29.000    21117108.257                       -2667.535          29.000  
G32  20821212.507   109416205.955        1471.841          45.000    20821202.492    85259346.374        1146.754          41.000  
C08  34730085.313   180848643.048        -386.810          46.000    34730064.540   139843563.142        -299.347          48.000  
C13  34715354.640   180771938.365         -84.247          47.000    34715342.347   139784283.085         -65.137          48.000  
C16  35672677.087   185756978.042         -30.703          48.000    35672662.659   143639030.025         -23.928          48.000  
C25  22396602.193   116624986.933       -2643.312          32.000                                                                  
C32  21006210.271   109384832.759         799.696          50.000                                                                  
C06  35356127.454   184108621.770         147.502          45.000    35356107.162   142364395.234         114.077          46.000  
G25  20363762.705   107012305.843        2430.970          45.000    20363753.837    83386170.558        1894.451          42.000  
G10  19461208.754   102269343.359         891.718          50.000    19461197.749    79690351.111         694.843          45.000  
G28  21900202.538   115086335.493        2502.693          43.000    21900191.289    89677637.425        1950.322          42.000  
C23  20716701.887   107877281.796         114.649          50.000                                                                  
C09  36819159.510   191727004.630         246.614          43.000    36819143.459   148255434.061         190.708          47.000  
C33  26271742.088                2      -2963.114          26.000                                                                  
C37  22727504.541   118348078.968        2610.992          46.000                                                                  
> 2025 10 27 02 55 12.0760000  0 19                     
G12  20709393.518   108828599.304         701.006          45.000    20709382.280    84801460.300         546.316          43.000  
G15  23420292.489                2      -3283.213          33.000    23420290.191    95902248.414       -2557.824          33.000  
G18  23770549.492   124915081.374       -3656.409          33.000    23770546.371    97336400.384       -2848.897          38.000  
G23  19372226.672   101801729.497       -2242.617          46.000    19372214.697    79325947.620       -1747.223          46.000  
G24  21117143.126                       -3423.243          29.000    21117134.287                       -2667.220          29.000  
G32  20821201.323   109416147.091        1471.630          45.000    20821191.298    85259300.513        1146.589          41.000  
C08  34730088.299   180848658.542        -387.207          46.000    34730067.501   139843575.114        -299.359          48.000  
C13  34715355.310   180771941.732         -84.204          47.000    34715343.017   139784285.693         -65.192          48.000  
C16  35672677.304   185756979.278         -30.821          48.000    35672662.949   143639030.988         -24.069          48.000  
C25  22396622.495   116625092.659       -2643.042          32.000                                                                  
C32  21006204.139   109384800.773         799.633          50.000                                                                  
C06  35356126.321   184108615.873         147.430          45.000    35356106.015   142364390.677         113.948          46.000  
G25  20363744.210   107012208.614        2430.728          45.000    20363735.328    83386094.797        1894.164          42.000  
G10  19461201.999   102269307.699         891.539          50.000    19461190.991    79690323.325         694.694          45.000  
G28  21900183.474   115086235.382        2502.675          43.000    21900172.237    89677559.412        1950.316          42.000  
C23  20716700.992   107877277.213         114.528          50.000                                                                  
C09  36819157.601   191726994.756         246.667          43.000    36819141.581   148255426.436         190.559          47.000  
C33  26271764.751                2      -2962.459          26.000                                                                  
C37  22727484.476   118347974.524        2611.029          46.000                                                                  
> 2025 10 27 02 55 12.1160000  0 19                     
G12  20709388.192   108828571.273         700.784          45.000    20709376.952    84801438.439         546.427          43.000  
G15  23420317.460                2      -3283.583          33.000    23420315.180    95902350.730       -2557.700          33.000  
G18  23770577.340   124915227.651       -3656.759          33.000    23770574.177    97336514.347       -2849.006          38.000  
G23  19372243.730   101801819.195       -2242.536          46.000    19372231.780    79326017.515       -1747.322          46.000  
G24  21117169.186                       -3422.917          29.000    21117160.337                       -2667.938          29.000  
G32  20821190.124   109416088.222        1471.646          45.000    20821180.091    85259254.634        1146.872          41.000  
C08  34730091.264   180848674.037        -387.402          46.000    34730070.484   139843587.084        -299.292          48.000  
C13  34715355.951   180771945.106         -84.338          47.000    34715343.669   139784288.294         -65.100          48.000  
C16  35672677.537   185756980.518         -30.964          48.000    35672663.210   143639031.942         -23.951          48.000  
C25  22396642.812   116625198.383       -2642.903          32.000                                                                  
C32  21006197.990   109384768.788         799.609          50.000                                                                  
C06  35356125.203   184108609.968         147.499          45.000    35356104.858   142364386.112         114.012          46.000  
G25  20363725.684   107012111.370        2430.924          45.000    20363716.822    83386019.017        1894.342          42.000  
G10  19461195.236   102269272.044         891.354          50.000    19461184.196    79690295.542         694.553          45.000  
G28  21900164.410   115086135.255        2503.038          43.000    21900153.191    89677481.406        1950.167          42.000  
C23  20716700.101   107877272.631         114.469          50.000                                                                  
C09  36819155.717   191726984.878         246.833          43.000    36819139.658   148255418.796         190.782          47.000  
C33  26271787.509                2      -2963.158          26.000                                                                  
C37  22727464.414   118347870.076        2611.133          46.000                                                                  
> 2025 10 27 02 55 12.1560000  0 19                     
G12  20709382.869   108828543.236         700.784          45.000    20709371.615    84801416.586         546.359          43.000  
G15  23420342.446                2      -3283.502          33.000    23420340.210    95902453.090       -2558.481          33.000  
G18  23770605.165   124915373.896       -3656.365          33.000    23770602.004    97336628.313       -2849.134          38.000  
G23  19372260.790   101801908.885       -2242.339          46.000    19372248.858    79326087.421       -1747.611          46.000  
G24  21117195.245                       -3422.897          29.000    21117186.411    86471331.475       -2667.972          29.000  
G32  20821178.914   109416029.345        1471.811          45.000    20821168.880    85259208.765        1146.768          41.000  
C08  34730094.202   180848689.515        -387.177          46.000    34730073.473   139843599.051        -299.207          48.000  
C13  34715356.592   180771948.474         -84.302          47.000    34715344.338   139784290.901         -65.143          48.000  
C16  35672677.796   185756981.752         -30.928          48.000    35672663.465   143639032.895         -23.847          48.000  
C25  22396663.146   116625304.162       -2643.747          32.000                                                                  
C32  21006191.870   109384736.795         799.712          50.000                                                                  
C06  35356124.076   184108604.058         147.656          45.000    35356103.738   142364381.548         114.060          46.000  
G25  20363707.166   107012014.129        2430.974          45.000    20363698.328    83385943.253        1894.176          42.000  
G10  19461188.451   102269236.379         891.460          50.000    19461177.431    79690267.749         694.702          45.000  
G28  21900145.390   115086035.143        2502.905          43.000    21900134.130    89677403.393        1950.211          42.000  
C23  20716699.220   107877268.043         114.584          50.000                                                                  
C09  36819153.838   191726974.998         246.977          43.000    36819137.770   148255411.147         191.109          47.000  
C33  26271810.176                2      -2964.755          26.000                                                                  
C37  22727444.355   118347765.637        2611.023          46.000                                                                  
> 2025 10 27 02 55 12.1960000  0 19                     
G12  20709377.536   108828515.198         700.855          45.000    20709366.290    84801394.750         545.983          43.000  
G15  23420367.420                2      -3282.808          33.000    23420365.236    95902555.443       -2558.760          33.000  
G18  23770633.015   124915520.142       -3656.229          33.000    23770629.826    97336742.268       -2849.021          38.000  
G23  19372277.878   101801998.590       -2242.537          46.000    19372265.934    79326157.325       -1747.678          46.000  
G24  21117221.287                       -3422.925          29.000    21117212.483                       -2667.920          29.000  
G32  20821167.709   109415970.476        1471.763          45.000    20821157.690    85259162.887        1146.837          41.000  
C08  34730097.166   180848704.991        -386.981          46.000    34730076.445   139843611.022        -299.237          48.000  
C13  34715357.235   180771951.842         -84.277          47.000    34715344.962   139784293.503         -65.106          48.000  
C16  35672678.074   185756982.988         -30.927          48.000    35672663.730   143639033.844         -23.740          48.000  
C25  22396683.432   116625409.916       -2643.931          32.000                                                                  
C32  21006185.743   109384704.806         799.711          50.000                                                                  
C06  35356122.932   184108598.151         147.692          45.000    35356102.574   142364376.983         114.092          46.000  
G25  20363688.672   107011916.892        2430.919          45.000    20363679.817    83385867.495        1894.012          42.000  
G10  19461181.651   102269200.719         891.460          50.000    19461170.652    79690239.965         694.591          45.000  
G28  21900126.359   115085935.029        2502.836          43.000    21900115.099    89677325.385        1950.168          42.000  
C23  20716698.337   107877263.461         114.539          50.000                                                                  
C09  36819151.944   191726965.121         246.974          43.000    36819135.832   148255403.509         191.036          47.000  
C33  26271832.954                2      -2965.366          26.000                                                                  
C37  22727424.301   118347661.206        2610.791          46.000                                                                  
> 2025 10 27 02 55 12.2360000  0 19                     
G12  20709372.193   108828487.146         701.147          45.000    20709360.985    84801372.909         545.942          43.000  
G15  23420392.417                2      -3282.373          33.000    23420390.216                       -2557.984          33.000  
G18  23770660.838   124915666.374       -3655.844          33.000    23770657.660    97336856.260       -2849.575          38.000  
G23  19372294.946   101802088.305       -2242.820          46.000    19372283.011    79326227.222       -1747.560          46.000  
G24  21117247.336   110971881.004       -3422.914          29.000    21117238.528                       -2667.863          29.000  
G32  20821156.484   109415911.604        1471.775          45.000    20821146.493    85259117.011        1146.861          41.000  
C08  34730100.120   180848720.467        -386.914          46.000    34730079.415   139843622.984        -299.115          48.000  
C13  34715357.888   180771955.210         -84.247          47.000    34715345.614   139784296.107         -65.100          48.000  
C16  35672678.344   185756984.218         -30.848          48.000    35672664.008   143639034.794         -23.711          48.000  
C25  22396703.757   116625515.621       -2643.018          32.000                                                                  
C32  21006179.585   109384672.816         799.710          50.000                                                                  
C06  35356121.779   184108592.246         147.670          45.000    35356101.430   142364372.419         114.105          46.000  
G25  20363670.149   107011819.652        2430.946          45.000    20363661.294    83385791.723        1894.164          42.000  
G10  19461174.874   102269165.054         891.565          50.000    19461163.867    79690212.173         694.702          45.000  
G28  21900107.286   115085834.917        2502.786          43.000    21900096.039    89677247.375        1950.206          42.000  
C23  20716697.455   107877258.868         114.726          50.000                                                                  
C09  36819150.037   191726955.251         246.835          43.000    36819133.904   148255395.881         190.802          47.000  
C33  26271855.686                3      -2965.812          26.000                                                                  
C37  22727404.238   118347556.760        2610.974          46.000                                                                  
> 2025 10 27 02 55 12.2760000  0 19                     
G12  20709366.851   108828459.106         701.089          45.000    20709355.654    84801351.060         546.064          43.000  
G15  23420417.389                2      -3283.005          33.000    23420415.196    95902760.071       -2558.211          33.000  
G18  23770688.673   124915812.576       -3655.229          33.000    23770685.488    97336970.198       -2848.878          38.000  
G23  19372311.988   101802178.004       -2242.659          46.000    19372300.082    79326297.115       -1747.368          46.000  
G24  21117273.397   110972017.922       -3422.909          29.000    21117264.598                       -2667.421          29.000  
G32  20821145.297   109415852.741        1471.592          45.000    20821135.279    85259071.120        1147.152          41.000  
C08  34730103.094   180848735.942        -386.877          46.000    34730082.348   139843634.956        -299.255          48.000  
C13  34715358.556   180771958.573         -84.125          47.000    34715346.287   139784298.716         -65.216          48.000  
C16  35672678.604   185756985.458         -30.967          48.000    35672664.277   143639035.753         -23.878          48.000  
C25  22396724.055   116625621.357       -2643.112          32.000                                                                  
C32  21006173.440   109384640.830         799.639          50.000                                                                  
C06  35356120.631   184108586.348         147.517          45.000    35356100.295   142364367.845         114.281          46.000  
G25  20363651.643   107011722.412        2430.979          45.000    20363642.775    83385715.954        1894.180          42.000  
G10  19461168.079   102269129.392         891.546          50.000    19461157.091    79690184.387         694.615          45.000  
G28  21900088.224   115085734.798        2502.906          43.000    21900076.977    89677169.356        1950.393          42.000  
C23  20716696.559   107877254.280         114.729          50.000                                                                  
C09  36819148.152   191726945.369         246.974          43.000    36819132.028   148255388.241         190.904          47.000  
C33  26271878.394                3      -2964.998          25.000                                                                  
C37  22727384.188   118347452.320        2610.980          46.000                                                                  
> 2025 10 27 02 55 12.3160000  0 19                     
G12  20709361.537   108828431.077         700.808          45.000    20709350.299    84801329.215         546.117          43.000  
G15  23420442.376                2      -3284.484          33.000    23420440.170    95902862.413       -2558.488          33.000  
G18  23770716.497   124915958.855       -3656.355          33.000    23770713.313    97337084.146       -2848.645          38.000  
G23  19372329.030   101802267.708       -2242.683          46.000    19372317.166    79326367.009       -1747.325          46.000  
G24  21117299.457   110972154.876       -3423.332          29.000    21117290.668                       -2667.430          29.000  
G32  20821134.112   109415793.879        1471.507          45.000    20821124.099    85259025.261        1146.738          41.000  
C08  34730106.086   180848751.425        -387.042          46.000    34730085.312   139843646.926        -299.261          48.000  
C13  34715359.176   180771961.945         -84.259          47.000    34715346.907   139784301.327         -65.289          48.000  
C16  35672678.884   185756986.695         -30.991          48.000    35672664.496   143639036.720         -24.118          48.000  
C25  22396744.343   116625727.141       -2644.261          32.000                                                                  
C32  21006167.291   109384608.847         799.564          50.000                                                                  
C06  35356119.477   184108580.458         147.318          45.000    35356099.148   142364363.277         114.247          46.000  
G25  20363633.131   107011625.179        2430.833          45.000    20363624.279    83385640.191        1894.102          42.000  
G10  19461161.290   102269093.738         891.380          50.000    19461150.292    79690156.602         694.566          45.000  
G28  21900069.168   115085634.687        2502.806          43.000    21900057.918    89677091.347        1950.280          42.000  
C23  20716695.628   107877249.698         114.611          50.000                                                                  
C09  36819146.229   191726935.497         246.866          43.000    36819130.114   148255380.602         190.923          47.000  
C33  26271901.064                3      -2962.520          25.000                                                                  
C37  22727364.126   118347347.883        2610.919          46.000                                                                  
> 2025 10 27 02 55 12.3560000  0 19                     
G12  20709356.195   108828403.056         700.589          45.000    20709344.976    84801307.360         546.282          43.000  
G15  23420467.369                2      -3283.684          33.000    23420465.148    95902964.754       -2558.576          33.000  
G18  23770744.308   124916105.108       -3656.462          33.000    23770741.129    97337198.125       -2849.188          38.000  
G23  19372346.086   101802357.419       -2242.813          46.000    19372334.239    79326436.916       -1747.573          46.000  
G24  21117325.527                       -3423.563          29.000    21117316.738                       -2667.750          29.000  
G32  20821122.918   109415735.015        1471.504          45.000    20821112.904    85258979.395        1146.621          41.000  
C08  34730109.045   180848766.920        -387.354          46.000    34730088.300   139843658.901        -299.420          48.000  
C13  34715359.849   180771965.324         -84.460          47.000    34715347.529   139784303.942         -65.393          48.000  
C16  35672679.099   185756987.940         -31.138          48.000    35672664.752   143639037.675         -24.020          48.000  
C25  22396764.681   116625832.918       -2644.546          32.000                                                                  
C32  21006161.173   109384576.866         799.496          50.000                                                                  
C06  35356118.327   184108574.562         147.312          45.000    35356098.048   142364358.718         114.061          46.000  
G25  20363614.633   107011527.957        2430.594          45.000    20363605.780    83385564.424        1894.202          42.000  
G10  19461154.520   102269058.085         891.294          50.000    19461143.519    79690128.819         694.542          45.000  
G28  21900050.140   115085534.583        2502.651          43.000    21900038.874    89677013.347        1950.062          42.000  
C23  20716694.726   107877245.124         114.386          50.000                                                                  
C09  36819144.292   191726925.637         246.571          43.000    36819128.215   148255372.971         190.803          47.000  
C33  26271923.438                3      -2964.102          25.000                                                                  
C37  22727344.058   118347243.450        2610.816          46.000                                                                  
> 2025 10 27 02 55 12.3960000  0 19                     
G12  20709350.857   108828375.026         700.636          45.000    20709339.656    84801285.513         546.248          43.000  
G15  23420492.338                2      -3282.854          33.000    23420490.156    95903067.072       -2558.184          33.000  
G18  23770772.159   124916251.393       -3657.030          33.000    23770768.958    97337312.078       -2849.028          38.000  
G23  19372363.162   101802447.135       -2242.929          47.000    19372351.315    79326506.825       -1747.720          46.000  
G24  21117351.594   110972428.787       -3423.911          29.000    21117342.842                       -2668.155          29.000  
G32  20821111.717   109415676.151        1471.498          45.000    20821101.681    85258933.538        1146.393          41.000  
C08  34730112.055   180848782.402        -387.244          46.000    34730091.318   139843670.880        -299.530          48.000  
C13  34715360.487   180771968.697         -84.424          47.000    34715348.146   139784306.549         -65.283          48.000  
C16  35672679.366   185756989.182         -31.126          48.000    35672665.008   143639038.642         -24.133          48.000  
C25  22396784.987   116625938.659       -2643.982          32.000                                                                  
C32  21006155.032   109384544.882         799.525          50.000                                                                  
C06  35356117.211   184108568.660         147.456          45.000    35356096.946   142364354.167         113.794          46.000  
G25  20363596.120   107011430.729        2430.612          45.000    20363587.251    83385488.661        1894.118          42.000  
G10  19461147.716   102269022.435         891.196          50.000    19461136.747    79690101.033         694.555          45.000  
G28  21900031.113   115085434.471        2502.708          43.000    21900019.838    89676935.339        1950.114          42.000  
C23  20716693.840   107877240.549         114.288          50.000                                                                  
C09  36819142.401   191726915.768         246.593          43.000    36819126.327   148255365.347         190.577          47.000  
C33  26271946.584                3      -2965.467          25.000                                                                  
C37  22727324.040   118347139.003        2611.035          46.000                                                                  
> 2025 10 27 02 55 12.4360000  0 19                     
G12  20709345.507   108828346.978         701.002          45.000    20709334.303    84801263.669         546.137          43.000  
G15  23420517.314                2      -3282.691          33.000    23420515.169    95903169.390       -2557.906          33.000  
G18  23770799.978   124916397.603       -3655.859          33.000    23770796.792    97337426.048       -2849.174          38.000  
G23  19372380.221   101802536.842       -2242.780          47.000    19372368.389    79326576.732       -1747.756          46.000  
G24  21117377.641   110972565.728       -3423.881          29.000    21117368.879                       -2666.964          29.000  
G32  20821100.536   109415617.283        1471.584          45.000    20821090.477    85258887.674        1146.481          41.000  
C08  34730115.009   180848797.879        -387.048          46.000    34730094.326   139843682.853        -299.438          48.000  
C13  34715361.138   180771972.065         -84.283          47.000    34715348.763   139784309.149         -65.070          48.000  
C16  35672679.645   185756990.419         -31.012          48.000    35672665.247   143639039.588         -23.852          48.000  
C25  22396805.269   116626044.426       -2644.167          32.000                                                                  
C32  21006148.927   109384512.897         799.571          50.000                                                                  
C06  35356116.093   184108562.757         147.546          45.000    35356095.818   142364349.605         113.862          46.000  
G25  20363577.614   107011333.498        2430.697          45.000    20363568.763    83385412.886        1894.310          42.000  
G10  19461140.930   102268986.779         891.295          50.000    19461129.939    79690073.250         694.536          45.000  
G28  21900012.046   115085334.359        2502.758          43.000    21900000.753    89676857.323        1950.263          42.000  
C23  20716692.964   107877235.974         114.289          50.000                                                                  
C09  36819140.532   191726905.893         246.759          43.000    36819124.426   148255357.717         190.638          47.000  
C33  26271969.239                3      -2963.346          25.000                                                                  
C37  22727303.972   118347034.571        2610.876          46.000                                                                  
> 2025 10 27 02 55 12.4760000  0 19                     
G12  20709340.160   108828318.931         701.183          45.000    20709328.987    84801241.825         546.099          43.000  
G15  23420542.269                2      -3281.023          33.000    23420540.195                       -2556.936          33.000  
G18  23770827.798   124916543.864       -3656.157          33.000    23770824.637    97337540.002       -2849.045          38.000  
G23  19372397.282   101802626.544       -2242.651          47.000    19372385.452    79326646.638       -1747.706          46.000  
G24  21117403.673   110972702.660       -3423.733          29.000    21117394.937                       -2667.422          29.000  
G32  20821089.302   109415558.408        1471.758          45.000    20821079.274    85258841.805        1146.661          41.000  
C08  34730117.984   180848813.363        -387.085          46.000    34730097.324   139843694.824        -299.353          48.000  
C13  34715361.776   180771975.436         -84.283          47.000    34715349.418   139784311.754         -65.088          48.000  
C16  35672679.911   185756991.653         -30.891          48.000    35672665.502   143639040.536         -23.725          48.000  
C25  22396825.588   116626150.163       -2643.643          32.000                                                                  
C32  21006142.819   109384480.907         799.686          50.000                                                                  
C06  35356114.970   184108556.847         147.679          45.000    35356094.683   142364345.052         113.761          46.000  
G25  20363559.114   107011236.264        2430.760          45.000    20363550.263    83385337.119        1894.231          42.000  
G10  19461134.147   102268951.120         891.394          50.000    19461123.134    79690045.477         694.352          45.000  
G28  21899992.986   115085234.245        2502.808          43.000    21899981.717    89676779.317        1950.124          42.000  
C23  20716692.100   107877231.386         114.538          50.000                                                                  
C09  36819138.641   191726896.012         246.972          43.000    36819122.524   148255350.078         190.840          47.000  
C33  26271992.008                3      -2962.905          25.000                                                                  
C37  22727283.923   118346930.132        2610.938          46.000                                                                  
> 2025 10 27 02 55 12.5160000  0 19                     
G12  20709334.820   108828290.897         700.993          45.000    20709323.656    84801219.983         546.030          43.000  
G15  23420567.268                2      -3282.325          33.000    23420565.206                       -2559.725          29.000  
G18  23770855.583   124916690.084       -3655.727          33.000    23770852.472    97337653.959       -2849.022          38.000  
G23  19372414.352   101802716.246       -2242.583          47.000    19372402.507    79326716.540       -1747.613          46.000  
G24  21117429.751   110972839.586       -3423.498          29.000    21117420.996                       -2666.977          29.000  
G32  20821078.085   109415499.540        1471.729          45.000    20821068.059    85258795.927        1146.855          41.000  
C08  34730120.959   180848828.840        -386.975          46.000    34730100.279   139843706.793        -299.243          48.000  
C13  34715362.404   180771978.808         -84.332          47.000    34715350.053   139784314.355         -65.045          48.000  
C16  35672680.179   185756992.885         -30.816          48.000    35672665.736   143639041.495         -23.842          48.000  
C25  22396845.879   116626255.896       -2643.324          33.000                                                                  
C32  21006136.641   109384448.925         799.606          50.000                                                                  
C06  35356113.848   184108550.948         147.574          45.000    35356093.568   142364340.486         113.972          46.000  
G25  20363540.632   107011139.039        2430.667          45.000    20363531.758    83385261.368        1893.875          42.000  
G10  19461127.370   102268915.465         891.381          50.000    19461116.351    79690017.694         694.457          45.000  
G28  21899973.945   115085134.138        2502.720          43.000    21899962.677    89676701.301        1950.281          42.000  
C23  20716691.157   107877226.804         114.553          50.000                                                                  
C09  36819136.743   191726886.134         246.943          43.000    36819120.615   148255342.443         190.832          47.000  
C33  26272014.754                3      -2964.387          25.000                                                                  
C37  22727263.878   118346825.697        2610.846          46.000                                                                  
> 2025 10 27 02 55 12.5560000  0 19                     
G12  20709329.494   108828262.875         700.649          45.000    20709318.322    84801198.147         545.890          43.000  
G15  23420592.272                2      -3282.638          29.000    23420590.270                       -2560.479          29.000  
G18  23770883.422   124916836.356       -3656.413          33.000    23770880.332    97337767.900       -2848.698          38.000  
G23  19372431.447   101802805.965       -2242.843          47.000    19372419.597    79326786.445       -1747.607          46.000  
G24  21117455.784   110972976.507       -3423.292          29.000    21117447.047                       -2667.919          29.000  
G32  20821066.915   109415440.674        1471.710          45.000    20821056.865    85258750.050        1146.954          41.000  
C08  34730123.906   180848844.323        -387.048          46.000    34730103.218   139843718.762        -299.243          48.000  
C13  34715363.035   180771982.185         -84.448          47.000    34715350.725   139784316.963         -65.149          48.000  
C16  35672680.428   185756994.121         -30.874          48.000    35672666.010   143639042.455         -23.938          48.000  
C25  22396866.223   116626361.663       -2643.943          33.000                                                                  
C32  21006130.452   109384416.944         799.543          50.000                                                                  
C06  35356112.721   184108545.049         147.467          45.000    35356092.430   142364335.920         114.094          46.000  
G25  20363522.144   107011041.813        2430.596          45.000    20363513.237    83385185.595        1894.128          42.000  
G10  19461120.613   102268879.811         891.320          50.000    19461109.552    79689989.913         694.469          45.000  
G28  21899954.878   115085034.026        2502.758          43.000    21899943.624    89676623.312        1949.864          42.000  
C23  20716690.253   107877222.225         114.513          50.000                                                                  
C09  36819134.849   191726876.261         246.873          43.000    36819118.729   148255334.803         190.957          47.000  
C33  26272037.627                3      -2962.936          25.000                                                                  
C37  22727243.814   118346721.258        2610.901          46.000                                                                  
> 2025 10 27 02 55 12.5960000  0 19                     
G12  20709324.189   108828234.870         700.144          45.000    20709313.001    84801176.313         545.811          43.000  
G15  23420617.267                2      -3284.869          28.000    23420615.242                       -2560.044          29.000  
G18  23770911.286   124916982.606       -3656.351          33.000    23770908.169    97337881.877       -2849.219          38.000  
G23  19372448.526   101802895.680       -2242.953          47.000    19372436.683    79326856.349       -1747.595          46.000  
G24  21117481.868   110973113.433       -3423.193          29.000    21117473.132                       -2668.453          29.000  
G32  20821055.697   109415381.806        1471.696          45.000    20821045.662    85258704.182        1146.824          41.000  
C08  34730126.898   180848859.803        -387.036          46.000    34730106.229   139843730.735        -299.316          49.000  
C13  34715363.692   180771985.555         -84.338          47.000    34715351.352   139784319.574         -65.283          48.000  
C16  35672680.672   185756995.361         -30.980          48.000    35672666.277   143639043.416         -24.007          48.000  
C25  22396886.540   116626467.409       -2643.850          33.000                                                                  
C32  21006124.300   109384384.959         799.570          50.000                                                                  
C06  35356111.601   184108539.155         147.338          45.000    35356091.295   142364331.356         114.115          46.000  
G25  20363503.630   107010944.584        2430.638          45.000    20363494.720    83385109.836        1894.030          42.000  
G10  19461113.836   102268844.160         891.258          50.000    19461102.788    79689962.133         694.463          45.000  
G28  21899935.818   115084933.906        2502.945          43.000    21899924.575    89676545.305        1949.953          42.000  
C23  20716689.372   107877217.652         114.371          50.000                                                                  
C09  36819132.959   191726866.393         246.709          43.000    36819116.822   148255327.171         190.854          47.000  
C33  26272060.052                3      -2964.606          25.000                                                                  
C37  22727223.750   118346616.826        2610.797          46.000                                                                  
> 2025 10 27 02 55 12.6360000  0 19                     
G12  20709318.861   108828206.852         700.174          45.000    20709307.681    84801154.482         545.718          42.000  
G15  23420642.322                2      -3287.670          28.000    23420640.247                       -2560.223          29.000  
G18  23770939.085   124917128.853       -3656.204          33.000    23770935.988    97337995.847       -2849.367          38.000  
G23  19372465.611   101802985.394       -2242.940          47.000    19372453.770    79326926.242       -1747.386          46.000  
G24  21117507.927   110973250.382       -3423.396          29.000    21117499.200                       -2667.564          30.000  
G32  20821044.515   109415322.944        1471.579          45.000    20821034.469    85258658.313        1146.746          41.000  
C08  34730129.895   180848875.282        -387.006          46.000    34730109.224   139843742.703        -299.286          49.000  
C13  34715364.308   180771988.925         -84.296          47.000    34715352.001   139784322.183         -65.295          48.000  
C16  35672680.918   185756996.603         -31.068          48.000    35672666.502   143639044.374         -24.013          48.000  
C25  22396906.833   116626573.186       -2644.361          33.000                                                                  
C32  21006118.176   109384352.977         799.544          50.000                                                                  
C06  35356110.503   184108533.258         147.358          45.000    35356090.179   142364326.797         114.019          46.000  
G25  20363485.122   107010847.347        2430.789          45.000    20363476.243    83385034.081        1893.892          42.000  
G10  19461107.084   102268808.514         891.141          50.000    19461095.994    79689934.351         694.506          45.000  
G28  21899916.769   115084833.800        2502.775          43.000    21899905.505    89676467.294        1950.128          42.000  
C23  20716688.518   107877213.076         114.339          50.000                                                                  
C09  36819131.076   191726856.525         246.642          43.000    36819114.896   148255319.536         190.855          47.000  
C33  26272083.053                3      -2964.042          25.000                                                                  
C37  22727203.677   118346512.401        2610.614          46.000                                                                  
> 2025 10 27 02 55 12.6760000  0 19                     
G12  20709313.510   108828178.833         700.279          45.000    20709302.334    84801132.634         545.981          42.000  
G15  23420667.397                2      -3289.846          28.000    23420665.285                       -2559.758          29.000  
G18  23770966.908   124917275.106       -3656.297          33.000    23770963.826    97338109.791       -2848.967          38.000  
G23  19372482.677   101803075.110       -2242.958          47.000    19372470.859    79326996.148       -1747.584          46.000  
G24  21117534.016   110973387.321       -3423.479          29.000    21117525.261                       -2667.291          30.000  
G32  20821033.315   109415264.078        1471.608          45.000    20821023.268    85258612.435        1146.892          41.000  
C08  34730132.857   180848890.771        -387.170          46.000    34730112.222   139843754.676        -299.347          49.000  
C13  34715364.933   180771992.298         -84.351          47.000    34715352.622   139784324.794         -65.302          48.000  
C16  35672681.151   185756997.846         -31.109          48.000    35672666.746   143639045.328         -23.920          48.000  
C25  22396927.146   116626678.952       -2644.421          33.000                                                                  
C32  21006112.045   109384320.996         799.513          50.000                                                                  
C06  35356109.394   184108527.361         147.368          45.000    35356089.047   142364322.229         114.139          46.000  
G25  20363466.633   107010750.123        2430.669          45.000    20363457.771    83384958.343        1893.545          42.000  
G10  19461100.293   102268772.869         891.074          50.000    19461089.211    79689906.574         694.426          45.000  
G28  21899897.727   115084733.698        2502.608          43.000    21899886.448    89676389.278        1950.301          42.000  
C23  20716687.646   107877208.502         114.311          50.000                                                                  
C09  36819129.173   191726846.659         246.614          43.000    36819112.989   148255311.907         190.709          47.000  
C33  26272105.769                3      -2964.522          25.000                                                                  
C37  22727183.652   118346407.966        2610.712          46.000                                                                  
> 2025 10 27 02 55 12.7160000  0 19                     
G12  20709308.167   108828150.793         700.722          45.000    20709297.014    84801110.791         546.084          42.000  
G15  23420692.483                3      -3290.259          28.000    23420690.291                       -2559.286          29.000  
G18  23770994.760   124917421.377       -3656.581          33.000    23770991.679    97338223.738       -2848.749          38.000  
G23  19372499.723   101803164.828       -2243.001          47.000    19372487.934    79327066.060       -1747.781          46.000  
G24  21117560.058   110973524.259       -3423.661          29.000    21117551.347                       -2668.486          30.000  
G32  20821022.106   109415205.215        1471.557          45.000    20821012.063    85258566.568        1146.787          41.000  
C08  34730135.806   180848906.263        -387.335          46.000    34730115.192   139843766.648        -299.341          49.000  
C13  34715365.537   180771995.679         -84.528          47.000    34715353.264   139784327.405         -65.338          48.000  
C16  35672681.440   185756999.085         -31.053          48.000    35672667.007   143639046.285         -23.914          48.000  
C25  22396947.476   116626784.714       -2644.308          33.000                                                                  
C32  21006105.934   109384289.015         799.495          50.000                                                                  
C06  35356108.280   184108521.461         147.435          45.000    35356087.871   142364317.675         113.947          46.000  
G25  20363448.145   107010652.892        2430.701          45.000    20363439.275    83384882.581        1893.801          42.000  
G10  19461093.521   102268737.226         891.032          50.000    19461082.455    79689878.801         694.315          45.000  
G28  21899878.697   115084633.593        2502.553          43.000    21899867.398    89676311.277        1950.107          42.000  
C23  20716686.769   107877203.932         114.216          50.000                                                                  
C09  36819127.305   191726836.788         246.664          43.000    36819111.106   148255304.286         190.536          47.000  
C33  26272128.713                3      -2964.470          25.000                                                                  
C37  22727163.586   118346303.521        2611.011          46.000                                                                  
> 2025 10 27 02 55 12.7560000  0 19                     
G12  20709302.795   108828122.757         700.937          45.000    20709291.684    84801088.956         545.991          42.000  
G15  23420717.346                3      -3285.761          28.000    23420715.292                       -2558.807          29.000  
G18  23771022.569   124917567.632       -3656.501          33.000    23771019.479    97338337.684       -2848.667          38.000  
G23  19372516.772   101803254.535       -2242.816          47.000    19372505.016    79327135.976       -1747.934          46.000  
G24  21117586.105   110973661.210       -3424.012          29.000    21117577.427                       -2668.453          30.000  
G32  20821010.903   109415146.349        1471.597          45.000    20821000.864    85258520.705        1146.646          41.000  
C08  34730138.734   180848921.746        -387.189          46.000    34730118.130   139843778.625        -299.445          49.000  
C13  34715366.206   180771999.051         -84.418          47.000    34715353.945   139784330.012         -65.253          48.000  
C16  35672681.694   185757000.317         -30.891          48.000    35672667.245   143639047.237         -23.810          48.000  
C25  22396967.792   116626890.459       -2643.876          33.000                                                                  
C32  21006099.794   109384257.033         799.514          50.000                                                                  
C06  35356107.187   184108515.559         147.520          45.000    35356086.742   142364313.110         114.008          46.000  
G25  20363429.658   107010555.665        2430.642          45.000    20363420.748    83384806.814        1894.064          42.000  
G10  19461086.726   102268701.573         891.199          50.000    19461075.675    79689851.024         694.353          45.000  
G28  21899859.665   115084533.484        2502.661          43.000    21899848.371    89676233.267        1950.176          42.000  
C23  20716685.890   107877199.356         114.317          50.000                                                                  
C09  36819125.428   191726826.908         246.866          43.000    36819109.232   148255296.646         190.797          47.000  
C33  26272151.146                3      -2963.810          25.000                                                                  
C37  22727143.535   118346199.080        2611.060          46.000                                                                  
> 2025 10 27 02 55 12.7960000  0 19                     
G12  20709297.470   108828094.731         700.804          45.000    20709286.358    84801067.106         546.169          42.000  
G15  23420743.157                3      -3282.105          28.000    23420740.289                       -2558.190          29.000  
G18  23771050.400   124917713.831       -3655.386          33.000    23771047.324    97338451.651       -2848.980          38.000  
G23  19372533.821   101803344.245       -2242.755          47.000    19372522.074    79327205.894       -1748.007          46.000  
G24  21117612.189   110973798.160       -3423.978          29.000    21117603.463                       -2668.087          30.000  
G32  20820999.687   109415087.483        1471.617          45.000    20820989.656    85258474.834        1146.667          41.000  
C08  34730141.714   180848937.227        -387.073          46.000    34730121.080   139843790.596        -299.353          49.000  
C13  34715366.867   180772002.422         -84.326          47.000    34715354.593   139784332.616         -65.161          48.000  
C16  35672681.954   185757001.547         -30.790          48.000    35672667.502   143639048.195         -23.885          48.000  
C25  22396988.092   116626996.194       -2643.489          32.000                                                                  
C32  21006093.684   109384225.043         799.649          50.000                                                                  
C06  35356106.058   184108509.659         147.529          45.000    35356085.614   142364308.544         114.106          46.000  
G25  20363411.189   107010458.443        2430.559          45.000    20363402.228    83384731.035        1894.398          42.000  
G10  19461079.937   102268665.917         891.365          50.000    19461068.896    79689823.236         694.575          45.000  
G28  21899840.629   115084433.386        2502.473          43.000    21899829.321    89676155.258        1950.201          42.000  
C23  20716685.046   107877194.783         114.337          50.000                                                                  
C09  36819123.541   191726817.025         247.040          43.000    36819107.324   148255288.999         191.078          47.000  
C33  26272174.019                3      -2964.124          25.000                                                                  
C37  22727123.448   118346094.646        2610.938          46.000                                                                  
> 2025 10 27 02 55 12.8360000  0 19                     
G12  20709292.119   108828066.708         700.667          45.000    20709281.045    84801045.275         545.906          42.000  
G15  23420767.225                3      -3282.081          28.000    23420765.285                       -2558.100          29.000  
G18  23771078.210   124917860.048       -3655.080          33.000    23771075.147    97338565.628       -2849.413          38.000  
G23  19372550.880   101803433.960       -2242.842          47.000    19372539.161    79327275.799       -1747.784          46.000  
G24  21117638.247   110973935.075       -3423.285          30.000    21117629.508                       -2666.701          30.000  
G32  20820988.487   109415028.614        1471.714          45.000    20820978.467    85258428.962        1146.752          41.000  
C08  34730144.701   180848952.712        -387.079          46.000    34730124.059   139843802.572        -299.420          49.000  
C13  34715367.539   180772005.790         -84.229          47.000    34715355.244   139784335.226         -65.210          48.000  
C16  35672682.186   185757002.790         -30.958          48.000    35672667.702   143639049.153         -23.971          48.000  
C25  22397008.440   116627101.938       -2643.604          32.000                                                                  
C32  21006087.505   109384193.062         799.576          50.000                                                                  
C06  35356104.922   184108503.760         147.495          45.000    35356084.485   142364303.990         113.940          46.000  
G25  20363392.698   107010361.232        2430.314          45.000    20363383.739    83384655.262        1894.415          42.000  
G10  19461073.169   102268630.268         891.271          50.000    19461062.127    79689795.456         694.544          45.000  
G28  21899821.578   115084333.287        2502.375          43.000    21899810.268    89676077.245        1950.256          42.000  
C23  20716684.196   107877190.211         114.304          50.000                                                                  
C09  36819121.658   191726807.160         246.740          43.000    36819105.430   148255281.362         191.031          47.000  
C33  26272196.926                3      -2963.921          26.000                                                                  
C37  22727103.399   118345990.215        2610.773          46.000                                                                  
> 2025 10 27 02 55 12.8760000  0 19                     
G12  20709286.801   108828038.691         700.452          45.000    20709275.718    84801023.441         545.790          42.000  
G15  23420791.915                3      -3283.730          28.000    23420790.308                       -2558.776          30.000  
G18  23771106.029   124918006.308       -3655.840          33.000    23771102.976    97338679.598       -2849.412          38.000  
G23  19372567.939   101803523.682       -2243.032          47.000    19372556.220    79327345.709       -1747.772          46.000  
G24  21117664.253                       -3421.987          30.000    21117655.562                       -2666.855          30.000  
G32  20820977.291   109414969.752        1471.609          45.000    20820967.280    85258383.087        1146.808          41.000  
C08  34730147.691   180848968.195        -387.030          46.000    34730127.054   139843814.550        -299.469          49.000  
C13  34715368.222   180772009.164         -84.338          47.000    34715355.890   139784337.831         -65.161          48.000  
C16  35672682.420   185757004.035         -31.106          48.000    35672667.967   143639050.117         -24.086          48.000  
C25  22397028.749   116627207.705       -2643.998          32.000                                                                  
C32  21006081.324   109384161.087         799.403          50.000                                                                  
C06  35356103.770   184108497.864         147.416          45.000    35356083.333   142364299.432         113.910          46.000  
G25  20363374.174   107010264.002        2430.541          45.000    20363365.221    83384579.507        1894.022          42.000  
G10  19461066.400   102268594.627         891.062          50.000    19461055.332    79689767.687         694.315          45.000  
G28  21899802.515   115084233.182        2502.508          43.000    21899791.225    89675999.244        1950.113          42.000  
C23  20716683.344   107877185.644         114.179          50.000                                                                  
C09  36819119.761   191726797.301         246.485          43.000    36819103.520   148255273.735         190.777          47.000  
C33  26272220.178                2      -2963.922          26.000                                                                  
C37  22727083.285   118345885.798        2610.413          46.000                                                                  
> 2025 10 27 02 55 12.9160000  0 19                     
G12  20709281.483   108828010.675         700.349          45.000    20709270.398    84801001.610         545.706          42.000  
G15  23420816.698                3      -3282.300          29.000    23420815.290                       -2558.788          30.000  
G18  23771133.856   124918152.561       -3656.268          33.000    23771130.819    97338793.550       -2849.096          38.000  
G23  19372585.032   101803613.405       -2243.143          47.000    19372573.293    79327415.619       -1747.786          46.000  
G24  21117690.304                       -3422.809          29.000    21117681.634                       -2667.857          30.000  
G32  20820966.113   109414910.899        1471.355          45.000    20820956.083    85258337.225        1146.614          41.000  
C08  34730150.679   180848983.681        -387.085          46.000    34730130.058   139843826.527        -299.457          49.000  
C13  34715368.870   180772012.541         -84.424          47.000    34715356.575   139784340.441         -65.192          48.000  
C16  35672682.668   185757005.281         -31.172          48.000    35672668.227   143639051.079         -24.116          48.000  
C25  22397049.048   116627313.419       -2643.127          32.000                                                                  
C32  21006075.207   109384129.110         799.367          50.000                                                                  
C06  35356102.599   184108491.974         147.281          45.000    35356082.215   142364294.877         113.806          46.000  
G25  20363355.653   107010166.782        2430.499          45.000    20363346.761    83384503.769        1893.519          42.000  
G10  19461059.647   102268558.997         890.742          50.000    19461048.570    79689739.924         694.082          45.000  
G28  21899783.435   115084133.076        2502.601          43.000    21899772.180    89675921.248        1949.927          42.000  
C23  20716682.462   107877181.079         114.092          50.000                                                                  
C09  36819117.875   191726787.427         246.646          43.000    36819101.629   148255266.108         190.628          47.000  
C33  26272242.768                2      -2964.185          26.000                                                                  
C37  22727063.251   118345781.378        2610.376          46.000                                                                  
> 2025 10 27 02 55 12.9560000  0 19                     
G12  20709276.130   108827982.648         700.531          45.000    20709265.059    84800979.780         545.645          42.000  
G15  23420841.866                2      -3282.300          29.000    23420840.253                       -2557.986          30.000  
G18  23771161.677   124918298.863       -3657.352          33.000    23771158.643    97338907.486       -2848.601          38.000  
G23  19372602.124   101803703.133       -2243.259          47.000    19372590.382    79327485.534       -1747.853          46.000  
G24  21117716.385                       -3425.202          30.000    21117707.689                       -2668.201          30.000  
G32  20820954.923   109414852.036        1471.433          45.000    20820944.875    85258291.359        1146.610          41.000  
C08  34730153.638   180848999.181        -387.433          46.000    34730133.065   139843838.495        -299.310          49.000  
C13  34715369.547   180772015.917         -84.442          47.000    34715357.248   139784343.053         -65.277          48.000  
C16  35672682.939   185757006.523         -31.135          48.000    35672668.468   143639052.048         -24.249          48.000  
C25  22397069.380   116627419.211       -2644.370          32.000                                                                  
C32  21006069.052   109384097.136         799.307          50.000                                                                  
C06  35356101.448   184108486.076         147.360          45.000    35356081.093   142364290.318         113.887          46.000  
G25  20363337.131   107010069.561        2430.507          45.000    20363328.276    83384428.025        1893.387          42.000  
G10  19461052.857   102268523.362         890.725          50.000    19461041.780    79689712.157         694.071          45.000  
G28  21899764.404   115084032.967        2502.719          43.000    21899753.132    89675843.251        1949.861          42.000  
C23  20716681.597   107877176.520         113.968          50.000                                                                  
C09  36819115.940   191726777.564         246.552          43.000    36819099.730   148255258.486         190.505          47.000  
C33  26272265.767                2      -2964.028          26.000                                                                  
C37  22727043.210   118345676.944        2610.626          46.000                                                                  
> 2025 10 27 02 55 12.9960000  0 19                     
G12  20709270.798   108827954.634         700.380          45.000    20709259.738    84800957.947         545.728          42.000  
G15  23420866.958                2      -3283.566          29.000    23420865.248                       -2558.527          30.000  
G18  23771189.516   124918445.106       -3656.820          33.000    23771186.487    97339021.443       -2848.756          38.000  
G23  19372619.192   101803792.857       -2243.221          47.000    19372607.454    79327555.452       -1747.964          46.000  
G24  21117742.460                       -3424.596          30.000    21117733.715                       -2666.865          30.000  
G32  20820943.701   109414793.171        1471.525          45.000    20820933.656    85258245.491        1146.659          41.000  
C08  34730156.598   180849014.666        -387.323          46.000    34730136.024   139843850.472        -299.390          49.000  
C13  34715370.188   180772019.287         -84.314          47.000    34715357.926   139784345.669         -65.381          48.000  
C16  35672683.223   185757007.761         -31.050          48.000    35672668.720   143639053.001         -24.008          48.000  
C25  22397089.668   116627524.984       -2644.701          32.000                                                                  
C32  21006062.913   109384065.166         799.226          50.000                                                                  
C06  35356100.315   184108480.181         147.380          45.000    35356079.987   142364285.760         113.914          46.000  
G25  20363318.622   107009972.335        2430.579          45.000    20363309.787    83384352.267        1893.624          42.000  
G10  19461046.068   102268487.720         890.886          50.000    19461035.011    79689684.382         694.226          45.000  
G28  21899745.346   115083932.860        2502.711          43.000    21899734.084    89675765.258        1949.775          42.000  
C23  20716680.748   107877171.952         114.042          50.000                                                                  
C09  36819114.037   191726767.694         246.622          43.000    36819097.848   148255250.852         190.685          47.000  
C33  26272288.523                2      -2963.809          26.000                                                                  
C37  22727023.156   118345572.511        2610.779          46.000                                                                  
> 2025 10 27 02 55 13.0360000  0 19                     
G12  20709265.481   108827926.616         700.402          44.000    20709254.383    84800936.103         545.948          42.000  
G15  23420891.768                2      -3283.391          29.000    23420890.256                       -2558.458          30.000  
G18  23771217.354   124918591.359       -3656.605          33.000    23771214.306    97339135.402       -2848.882          38.000  
G23  19372636.240   101803882.580       -2243.171          47.000    19372624.534    79327625.372       -1748.037          46.000  
G24  21117768.503                       -3423.087          30.000    21117759.771                       -2668.470          29.000  
G32  20820932.499   109414734.302        1471.681          45.000    20820922.454    85258199.620        1146.689          41.000  
C08  34730159.583   180849030.153        -387.256          46.000    34730138.992   139843862.456        -299.573          48.000  
C13  34715370.829   180772022.666         -84.442          47.000    34715358.567   139784348.278         -65.302          48.000  
C16  35672683.473   185757009.003         -31.057          48.000    35672668.974   143639053.961         -24.005          48.000  
C25  22397109.957   116627630.755       -2644.697          32.000                                                                  
C32  21006056.786   109384033.187         799.357          50.000                                                                  
C06  35356099.165   184108474.285         147.344          45.000    35356078.836   142364281.198         113.998          46.000  
G25  20363300.107   107009875.118        2430.449          45.000    20363291.282    83384276.509        1893.777          42.000  
G10  19461039.288   102268452.080         890.942          50.000    19461028.231    79689656.613         694.182          45.000  
G28  21899726.309   115083832.759        2502.554          43.000    21899715.059    89675687.261        1949.821          42.000  
C23  20716679.915   107877167.385         114.108          50.000                                                                  
C09  36819112.157   191726757.811         246.943          43.000    36819095.949   148255243.220         190.780          47.000  
C33  26272311.482                2      -2963.676          26.000                                                                  
C37  22727003.084   118345468.077        2610.822          46.000                                                                  
> 2025 10 27 02 55 13.0760000  0 19                     
G12  20709260.138   108827898.595         700.475          44.000    20709249.065    84800914.272         545.799          42.000  
G15  23420915.954                2      -3286.194          29.000    23420915.254                       -2558.534          31.000  
G18  23771245.203   124918737.575       -3655.729          33.000    23771242.163    97339249.371       -2849.166          38.000  
G23  19372653.317   101803972.305       -2243.165          47.000    19372641.604    79327695.280       -1747.814          46.000  
G24  21117794.586                       -3423.569          30.000    21117785.847                       -2668.262          29.000  
G32  20820921.302   109414675.432        1471.739          45.000    20820911.248    85258153.770        1146.346          41.000  
C08  34730162.578   180849045.640        -387.244          46.000    34730141.952   139843874.435        -299.561          48.000  
C13  34715371.505   180772026.033         -84.290          47.000    34715359.203   139784350.884         -65.179          48.000  
C16  35672683.704   185757010.246         -31.063          48.000    35672669.238   143639054.919         -23.974          48.000  
C25  22397130.246   116627736.504       -2644.078          32.000                                                                  
C32  21006050.648   109384001.215         799.319          50.000                                                                  
C06  35356098.013   184108468.388         147.365          45.000    35356077.736   142364276.635         114.054          46.000  
G25  20363281.622   107009777.902        2430.353          45.000    20363272.766    83384200.745        1893.973          42.000  
G10  19461032.471   102268416.435         891.071          50.000    19461021.434    79689628.842         694.232          45.000  
G28  21899707.264   115083732.653        2502.592          43.000    21899696.002    89675609.256        1950.039          42.000  
C23  20716679.000   107877162.822         114.056          50.000                                                                  
C09  36819110.260   191726747.944         246.795          43.000    36819094.046   148255235.586         190.854          47.000  
C33  26272334.293                3      -2962.990          26.000                                                                  
C37  22726983.041   118345363.642        2610.864          46.000                                                                  
> 2025 10 27 02 55 13.1160000  0 19                     
G12  20709254.831   108827870.572         700.574          45.000    20709243.743    84800892.449         545.601          42.000  
G15  23420940.875                2      -3285.563          29.000    23420940.235                       -2558.406          31.000  
G18  23771273.012   124918883.796       -3655.379          33.000    23771270.012    97339363.323       -2848.936          38.000  
G23  19372670.390   101804062.035       -2243.245          47.000    19372658.693    79327765.198       -1747.895          46.000  
G24  21117820.637                       -3422.967          30.000    21117811.931                       -2667.986          30.000  
G32  20820910.112   109414616.564        1471.722          45.000    20820900.056    85258107.908        1146.405          41.000  
C08  34730165.549   180849061.125        -387.164          46.000    34730144.933   139843886.407        -299.390          48.000  
C13  34715372.137   180772029.409         -84.351          47.000    34715359.857   139784353.490         -65.143          48.000  
C16  35672683.982   185757011.488         -31.063          48.000    35672669.461   143639055.877         -23.943          48.000  
C25  22397150.544   116627842.256       -2643.789          32.000                                                                  
C32  21006044.532   109383969.238         799.364          50.000                                                                  
C06  35356096.879   184108462.485         147.488          45.000    35356076.618   142364272.069         114.131          46.000  
G25  20363263.120   107009680.685        2430.338          45.000    20363254.253    83384124.983        1894.010          42.000  
G10  19461025.698   102268380.795         891.034          50.000    19461014.634    79689601.067         694.318          45.000  
G28  21899688.217   115083632.557        2502.469          43.000    21899676.931    89675531.249        1950.206          42.000  
C23  20716678.135   107877158.262         113.999          50.000                                                                  
C09  36819108.375   191726738.075         246.738          43.000    36819092.149   148255227.946         190.958          47.000  
C33  26272356.521                3      -2963.499          26.000                                                                  
C37  22726962.996   118345259.217        2610.663          46.000                                                                  
> 2025 10 27 02 55 13.1560000  0 19                     
G12  20709249.503   108827842.556         700.458          45.000    20709238.420    84800870.614         545.729          42.000  
G15  23420965.703                2      -3284.750          29.000    23420965.228                       -2558.063          31.000  
G18  23771300.821   124919030.050       -3655.937          33.000    23771297.830    97339477.269       -2848.786          38.000  
G23  19372687.477   101804151.759       -2243.208          47.000    19372675.768    79327835.111       -1747.858          46.000  
G24  21117846.681                       -3424.446          30.000    21117837.990                       -2668.147          30.000  
G32  20820898.930   109414557.713        1471.412          45.000    20820888.835    85258062.045        1146.488          41.000  
C08  34730168.547   180849076.614        -387.195          46.000    34730147.910   139843898.379        -299.310          48.000  
C13  34715372.764   180772032.786         -84.430          47.000    34715360.480   139784356.102         -65.271          48.000  
C16  35672684.243   185757012.725         -30.978          48.000    35672669.716   143639056.834         -23.945          48.000  
C25  22397170.818   116627947.968       -2642.984          32.000                                                                  
C32  21006038.452   109383937.258         799.473          50.000                                                                  
C06  35356095.757   184108456.586         147.479          45.000    35356075.485   142364267.513         113.947          46.000  
G25  20363244.598   107009583.459        2430.505          45.000    20363235.751    83384049.231        1893.862          42.000  
G10  19461018.933   102268345.151         891.089          50.000    19461007.844    79689573.288         694.428          45.000  
G28  21899669.155   115083532.455        2502.476          43.000    21899657.872    89675453.237        1950.341          42.000  
C23  20716677.297   107877153.694         114.090          50.000                                                                  
C09  36819106.487   191726728.208         246.708          43.000    36819090.228   148255220.310         190.937          47.000  
C33  26272379.419                3      -2965.517          26.000                                                                  
C37  22726942.913   118345154.792        2610.565          46.000                                                                  
> 2025 10 27 02 55 13.1960000  0 19                     
G12  20709244.189   108827814.542         700.356          45.000    20709233.099    84800848.788         545.646          42.000  
G15  23420990.993                3      -3282.010          29.000    23420990.222                       -2557.904          30.000  
G18  23771328.653   124919176.304       -3656.245          33.000    23771325.672    97339591.202       -2848.490          38.000  
G23  19372704.538   101804241.479       -2243.078          46.000    19372692.831    79327905.027       -1747.914          46.000  
G24  21117872.767                       -3424.303          30.000    21117864.039                       -2666.977          30.000  
G32  20820887.711   109414498.856        1471.341          45.000    20820877.635    85258016.165        1146.808          41.000  
C08  34730171.516   180849092.102        -387.207          46.000    34730150.889   139843910.358        -299.402          48.000  
C13  34715373.431   180772036.163         -84.473          47.000    34715361.113   139784358.716         -65.387          48.000  
C16  35672684.481   185757013.964         -30.983          48.000    35672669.965   143639057.794         -23.985          48.000  
C25  22397191.124   116628053.712       -2643.228          32.000                                                                  
C32  21006032.313   109383905.277         799.534          50.000                                                                  
C06  35356094.649   184108450.692         147.386          45.000    35356074.360   142364262.951         113.970          46.000  
G25  20363226.111   107009486.232        2430.621          45.000    20363217.265    83383973.484        1893.693          42.000  
G10  19461012.158   102268309.509         891.058          50.000    19461001.075    79689545.514         694.385          45.000  
G28  21899650.073   115083432.345        2502.644          43.000    21899638.815    89675375.232        1950.232          42.000  
C23  20716676.433   107877149.126         114.161          50.000                                                                  
C09  36819104.606   191726718.343         246.658          43.000    36819088.348   148255212.680         190.772          47.000  
C33  26272402.034                3      -2963.717          26.000                                                                  
C37  22726922.872   118345050.364        2610.596          46.000                                                                  
> 2025 10 27 02 55 13.2360000  0 19                     
G12  20709238.847   108827786.528         700.300          45.000    20709227.778    84800826.965         545.559          42.000  
G15  23421015.843                3      -3281.962          28.000    23421015.229                       -2556.699          30.000  
G18  23771356.472   124919322.538       -3656.060          33.000    23771353.496    97339705.192       -2849.371          38.000  
G23  19372721.610   101804331.206       -2243.146          46.000    19372709.886    79327974.939       -1747.839          46.000  
G24  21117898.819                       -3423.844          30.000    21117890.064                       -2667.192          30.000  
G32  20820876.496   109414439.995        1471.410          45.000    20820866.429    85257970.300        1146.704          41.000  
C08  34730174.477   180849107.587        -387.146          46.000    34730153.871   139843922.327        -299.268          48.000  
C13  34715374.122   180772039.533         -84.338          47.000    34715361.761   139784361.323         -65.277          48.000  
C16  35672684.689   185757015.199         -30.918          48.000    35672670.173   143639058.747         -23.888          48.000  
C25  22397211.440   116628159.481       -2643.938          32.000                                                                  
C32  21006026.137   109383873.296         799.551          50.000                                                                  
C06  35356093.545   184108444.793         147.421          45.000    35356073.253   142364258.383         114.130          46.000  
G25  20363207.620   107009389.012        2430.538          45.000    20363198.767    83383897.716        1893.947          42.000  
G10  19461005.399   102268273.872         890.934          50.000    19460994.295    79689517.745         694.274          45.000  
G28  21899631.041   115083332.240        2502.656          43.000    21899619.775    89675297.235        1950.008          42.000  
C23  20716675.558   107877144.558         114.178          50.000                                                                  
C09  36819102.712   191726708.466         246.842          43.000    36819086.463   148255205.049         190.723          47.000  
C33  26272424.669                3      -2964.348          25.000                                                                  
C37  22726902.841   118344945.927        2610.791          46.000                                                                  
> 2025 10 27 02 55 13.2760000  0 19                     
G12  20709233.513   108827758.519         700.215          45.000    20709222.454    84800805.127         545.834          42.000  
G15  23421040.770                3      -3283.840          29.000    23421040.197                       -2555.790          30.000  
G18  23771384.326   124919468.772       -3655.826          33.000    23771381.336    97339819.155       -2849.371          38.000  
G23  19372738.709   101804420.933       -2243.190          46.000    19372726.961    79328044.856       -1747.926          46.000  
G24  21117924.892                       -3423.513          30.000    21117916.134                       -2667.688          29.000  
G32  20820865.277   109414381.118        1471.760          45.000    20820855.222    85257924.424        1146.811          41.000  
C08  34730177.440   180849123.065        -387.000          46.000    34730156.821   139843934.297        -299.243          48.000  
C13  34715374.783   180772042.907         -84.338          47.000    34715362.402   139784363.928         -65.198          48.000  
C16  35672684.903   185757016.440         -30.958          48.000    35672670.400   143639059.707         -23.982          48.000  
C25  22397231.775   116628265.314       -2645.458          32.000                                                                  
C32  21006019.983   109383841.316         799.537          50.000                                                                  
C06  35356092.444   184108438.887         147.565          45.000    35356072.119   142364253.818         114.146          46.000  
G25  20363189.125   107009291.792        2430.498          45.000    20363180.270    83383821.958        1893.959          42.000  
G10  19460998.634   102268238.236         890.861          50.000    19460987.534    79689489.979         694.132          45.000  
G28  21899611.972   115083232.123        2502.879          43.000    21899600.724    89675219.237        1949.884          42.000  
C23  20716674.633   107877139.997         114.066          50.000                                                                  
C09  36819100.817   191726698.587         246.946          43.000    36819084.570   148255197.418         190.725          47.000  
C33  26272447.489                3      -2964.604          25.000                                                                  
C37  22726882.783   118344841.496        2610.791          46.000                                                                  
> 2025 10 27 02 55 13.3160000  0 19                     
G12  20709228.191   108827730.514         700.122          46.000    20709217.135    84800783.308         545.630          42.000  
G15  23421066.023                3      -3284.568          29.000    23421065.216                       -2557.438          30.000  
G18  23771412.149   124919614.998       -3655.661          33.000    23771409.165    97339933.120       -2849.336          38.000  
G23  19372755.796   101804510.655       -2243.140          46.000    19372744.023    79328114.771       -1747.920          46.000  
G24  21117950.943                       -3422.784          30.000    21117942.219                       -2667.454          30.000  
G32  20820854.071   109414322.238        1471.952          45.000    20820844.000    85257878.549        1146.885          41.000  
C08  34730180.418   180849138.539        -386.902          46.000    34730159.775   139843946.270        -299.286          48.000  
C13  34715375.412   180772046.283         -84.430          47.000    34715363.046   139784366.534         -65.161          48.000  
C16  35672685.135   185757017.676         -30.918          48.000    35672670.603   143639060.666         -24.020          48.000  
C25  22397252.066   116628371.060       -2644.484          32.000                                                                  
C32  21006013.847   109383809.335         799.522          50.000                                                                  
C06  35356091.316   184108432.983         147.584          45.000    35356070.983   142364249.266         113.912          46.000  
G25  20363170.626   107009194.584        2430.243          45.000    20363161.777    83383746.214        1893.684          42.000  
G10  19460991.844   102268202.598         890.868          50.000    19460980.784    79689462.214         694.059          45.000  
G28  21899592.930   115083132.022        2502.646          43.000    21899581.656    89675141.238        1949.893          42.000  
C23  20716673.754   107877135.433         114.043          50.000                                                                  
C09  36819098.917   191726688.720         246.807          43.000    36819082.665   148255189.780         190.813          47.000  
C33  26272470.251                3      -2964.680          25.000                                                                  
C37  22726862.714   118344737.066        2610.748          46.000                                                                  
> 2025 10 27 02 55 13.3560000  0 19                     
G12  20709222.878   108827702.506         700.092          46.000    20709211.817    84800761.488         545.502          42.000  
G15  23421090.739                3      -3284.736          29.000    23421090.231                       -2558.060          30.000  
G18  23771439.951   124919761.257       -3656.184          33.000    23771436.984    97340047.057       -2848.776          38.000  
G23  19372772.883   101804600.395       -2243.418          46.000    19372761.098    79328184.695       -1748.117          46.000  
G24  21117977.000                       -3422.572          30.000    21117968.261                       -2667.449          30.000  
G32  20820842.877   109414263.376        1471.698          45.000    20820832.800    85257832.680        1146.765          41.000  
C08  34730183.395   180849154.030        -387.164          46.000    34730162.757   139843958.250        -299.463          48.000  
C13  34715376.059   180772049.657         -84.424          47.000    34715363.696   139784369.148         -65.320          48.000  
C16  35672685.350   185757018.919         -31.040          48.000    35672670.808   143639061.633         -24.170          48.000  
C25  22397272.358   116628476.811       -2643.916          32.000                                                                  
C32  21006007.649   109383777.365         799.304          50.000                                                                  
C06  35356090.203   184108427.095         147.285          45.000    35356069.868   142364244.712         113.762          46.000  
G25  20363152.152   107009097.378        2430.084          45.000    20363143.291    83383670.465        1893.602          42.000  
G10  19460985.055   102268166.966         890.775          50.000    19460974.002    79689434.446         694.121          45.000  
G28  21899573.892   115083031.927        2502.404          43.000    21899562.612    89675063.229        1950.068          42.000  
C23  20716672.840   107877130.880         113.837          50.000                                                                  
C09  36819097.034   191726678.853         246.719          43.000    36819080.770   148255182.158         190.593          47.000  
C33  26272493.116                3      -2964.919          25.000                                                                  
C37  22726842.660   118344632.644        2610.583          46.000                                                                  
> 2025 10 27 02 55 13.3960000  0 19                     
G12  20709217.542   108827674.523         699.676          46.000    20709206.495    84800739.665         545.499          42.000  
G15  23421115.385                3      -3283.309          29.000    23421115.225                       -2558.088          30.000  
G18  23771467.786   124919907.500       -3656.205          33.000    23771464.789    97340160.987       -2848.332          38.000  
G23  19372789.964   101804690.127       -2243.398          46.000    19372778.179    79328254.617       -1748.147          46.000  
G24  21118003.074                       -3423.911          30.000    21117994.315                       -2668.723          30.000  
G32  20820831.686   109414204.515        1471.537          45.000    20820821.593    85257786.812        1146.668          41.000  
C08  34730186.375   180849169.524        -387.372          46.000    34730165.751   139843970.231        -299.530          48.000  
C13  34715376.710   180772053.037         -84.503          47.000    34715364.342   139784371.761         -65.375          48.000  
C16  35672685.583   185757020.159         -31.064          48.000    35672671.031   143639062.598         -24.223          48.000  
C25  22397292.669   116628582.568       -2643.757          32.000                                                                  
C32  21006001.496   109383745.398         799.142          50.000                                                                  
C06  35356089.085   184108421.207         147.147          45.000    35356068.734   142364240.166         113.585          46.000  
G25  20363133.642   107009000.161        2430.212          45.000    20363124.809    83383594.728        1893.387          42.000  
G10  19460978.284   102268131.337         890.671          50.000    19460967.202    79689406.674         694.214          45.000  
G28  21899554.848   115082931.841        2502.158          43.000    21899543.567    89674985.228        1950.042          42.000  
C23  20716671.944   107877126.333         113.655          50.000                                                                  
C09  36819095.131   191726668.990         246.595          43.000    36819078.856   148255174.532         190.589          47.000  
C33  26272515.889                3      -2967.175          25.000                                                                  
C37  22726822.629   118344528.212        2610.712          46.000                                                                  
> 2025 10 27 02 55 13.4360000  0 19                     
G12  20709212.202   108827646.514         699.952          46.000    20709201.185    84800717.835         545.677          43.000  
G15  23421140.393                3      -3283.759          33.000    23421140.236                       -2558.510          30.000  
G18  23771495.637   124920053.751       -3656.286          33.000    23771492.608    97340274.933       -2848.389          38.000  
G23  19372807.031   101804779.853       -2243.243          46.000    19372795.267    79328324.536       -1748.053          46.000  
G24  21118029.150                       -3423.842          30.000    21118020.379                       -2668.557          30.000  
G32  20820820.465   109414145.655        1471.443          45.000    20820810.376    85257740.940        1146.662          41.000  
C08  34730189.347   180849185.018        -387.421          46.000    34730168.765   139843982.211        -299.542          48.000  
C13  34715377.374   180772056.416         -84.528          47.000    34715364.981   139784374.368         -65.277          48.000  
C16  35672685.816   185757021.408         -31.192          48.000    35672671.255   143639063.551         -24.011          48.000  
C25  22397312.982   116628688.313       -2643.575          32.000                                                                  
C32  21005995.383   109383713.425         799.211          50.000                                                                  
C06  35356087.954   184108415.316         147.164          45.000    35356067.604   142364235.597         113.945          46.000  
G25  20363115.126   107008902.943        2430.354          45.000    20363106.309    83383518.967        1893.713          42.000  
G10  19460971.500   102268095.708         890.641          50.000    19460960.432    79689378.903         694.263          45.000  
G28  21899535.807   115082831.740        2502.335          43.000    21899524.500    89674907.223        1950.111          42.000  
C23  20716671.060   107877121.774         113.780          50.000                                                                  
C09  36819093.233   191726659.119         246.684          43.000    36819076.977   148255166.894         190.791          47.000  
C33  26272538.441                3      -2963.798          25.000                                                                  
C37  22726802.547   118344423.788        2610.602          46.000                                                                  
> 2025 10 27 02 55 13.4760000  0 19                     
G12  20709206.847   108827618.510         700.031          46.000    20709195.854    84800696.019         545.492          43.000  
G15  23421165.807                2      -3283.250          33.000    23421165.258                       -2558.683          30.000  
G18  23771523.487   124920200.028       -3656.772          33.000    23771520.456    97340388.885       -2848.630          38.000  
G23  19372824.104   101804869.584       -2243.262          46.000    19372812.316    79328394.453       -1747.986          46.000  
G24  21118055.181                       -3423.159          30.000    21118046.447                       -2667.547          30.000  
G32  20820809.252   109414086.802        1471.308          45.000    20820799.176    85257695.086        1146.408          41.000  
C08  34730192.322   180849200.512        -387.439          46.000    34730171.741   139843994.183        -299.402          48.000  
C13  34715378.041   180772059.801         -84.637          47.000    34715365.630   139784376.979         -65.277          48.000  
C16  35672686.055   185757022.653         -31.199          48.000    35672671.460   143639064.510         -23.993          48.000  
C25  22397333.282   116628794.074       -2643.880          32.000                                                                  
C32  21005989.247   109383681.451         799.258          50.000                                                                  
C06  35356086.818   184108409.428         147.129          45.000    35356066.456   142364231.035         114.027          45.000  
G25  20363096.613   107008805.735        2430.231          45.000    20363087.813    83383443.217        1893.738          42.000  
G10  19460964.707   102268060.086         890.543          50.000    19460953.684    79689351.150         693.936          45.000  
G28  21899516.732   115082731.639        2502.422          43.000    21899505.457    89674829.233        1949.849          42.000  
C23  20716670.200   107877117.216         113.871          50.000                                                                  
C09  36819091.308   191726649.251         246.677          43.000    36819075.069   148255159.260         190.840          47.000  
C33  26272561.189                3      -2961.968          25.000                                                                  
C37  22726782.492   118344319.358        2610.657          46.000                                                                  
> 2025 10 27 02 55 13.5160000  0 19                     
G12  20709201.505   108827590.508         700.056          46.000    20709190.520    84800674.208         545.302          43.000  
G15  23421190.867                2      -3283.582          33.000    23421190.273                       -2559.111          30.000  
G18  23771551.335   124920346.237       -3655.784          33.000    23771548.307    97340502.865       -2849.269          38.000  
G23  19372841.187   101804959.319       -2243.410          46.000    19372829.411    79328464.380       -1748.140          46.000  
G24  21118081.240                       -3423.593          30.000    21118072.511                       -2667.136          30.000  
G32  20820798.071   109414027.943        1471.367          45.000    20820787.965    85257649.224        1146.449          41.000  
C08  34730195.298   180849215.998        -387.280          46.000    34730174.683   139844006.160        -299.426          48.000  
C13  34715378.715   180772063.182         -84.601          47.000    34715366.277   139784379.591         -65.308          48.000  
C16  35672686.263   185757023.897         -31.142          48.000    35672671.657   143639065.473         -24.046          48.000  
C25  22397353.615   116628899.866       -2644.631          32.000                                                                  
C32  21005983.128   109383649.478         799.297          50.000                                                                  
C06  35356085.688   184108403.526         147.389          45.000    35356065.274   142364226.468         114.147          45.000  
G25  20363078.111   107008708.525        2430.194          45.000    20363069.317    83383367.469        1893.695          42.000  
G10  19460957.913   102268024.459         890.587          50.000    19460946.930    79689323.393         693.838          45.000  
G28  21899497.643   115082631.534        2502.571          43.000    21899486.405    89674751.253        1949.540          42.000  
C23  20716669.312   107877112.663         113.819          50.000                                                                  
C09  36819089.411   191726639.387         246.557          43.000    36819073.180   148255151.621         190.926          47.000  
C33  26272583.717                3      -2964.903          25.000                                                                  
C37  22726762.441   118344214.935        2610.565          46.000                                                                  
> 2025 10 27 02 55 13.5560000  0 19                     
G12  20709196.172   108827562.500         700.171          45.000    20709185.186    84800652.390         545.327          43.000  
G15  23421215.930                2      -3283.125          33.000    23421215.257                       -2558.856          30.000  
G18  23771579.141   124920492.461       -3655.563          33.000    23771576.135    97340616.826       -2849.235          38.000  
G23  19372858.271   101805049.052       -2243.447          46.000    19372846.486    79328534.303       -1748.127          46.000  
G24  21118107.314                       -3423.088          30.000    21118098.558                       -2667.925          30.000  
G32  20820786.836   109413969.081        1471.492          45.000    20820776.775    85257603.356        1146.610          41.000  
C08  34730198.259   180849231.485        -387.189          46.000    34730177.645   139844018.140        -299.512          48.000  
C13  34715379.374   180772066.554         -84.412          47.000    34715366.913   139784382.205         -65.338          48.000  
C16  35672686.523   185757025.134         -31.014          48.000    35672671.861   143639066.431         -24.021          47.000  
C25  22397373.941   116629005.622       -2644.183          32.000                                                                  
C32  21005977.017   109383617.500         799.405          50.000                                                                  
C06  35356084.538   184108397.624         147.537          45.000    35356064.130   142364221.905         114.098          45.000  
G25  20363059.597   107008611.307        2430.299          45.000    20363050.803    83383291.719        1893.723          42.000  
G10  19460951.115   102267988.823         890.803          50.000    19460940.139    79689295.640         693.778          45.000  
G28  21899478.604   115082531.431        2502.614          43.000    21899467.378    89674673.252        1949.804          42.000  
C23  20716668.464   107877108.102         113.942          50.000                                                                  
C09  36819087.535   191726629.520         246.558          43.000    36819071.289   148255143.996         190.705          46.000  
C33  26272606.209                3      -2965.552          25.000                                                                  
C37  22726742.378   118344110.519        2610.413          46.000                                                                  
> 2025 10 27 02 55 13.5960000  0 19                     
G12  20709190.830   108827534.501         700.009          45.000    20709179.844    84800630.570         545.455          43.000  
G15  23421240.803                2      -3283.032          33.000    23421240.242                       -2558.183          31.000  
G18  23771606.955   124920638.713       -3656.050          33.000    23771603.972    97340730.788       -2849.153          38.000  
G23  19372875.346   101805138.787       -2243.459          46.000    19372863.550    79328604.229       -1748.152          46.000  
G24  21118133.367                       -3423.988          30.000    21118124.593                       -2667.387          30.000  
G32  20820775.625   109413910.208        1471.749          45.000    20820765.546    85257557.489        1146.678          41.000  
C08  34730201.242   180849246.971        -387.152          46.000    34730180.630   139844030.112        -299.390          48.000  
C13  34715380.007   180772069.930         -84.387          47.000    34715367.561   139784384.813         -65.265          48.000  
C16  35672686.753   185757026.371         -30.940          48.000    35672672.066   143639067.392         -24.075          47.000  
C25  22397394.227   116629111.410       -2644.640          32.000                                                                  
C32  21005970.835   109383585.522         799.448          50.000                                                                  
C06  35356083.380   184108391.724         147.563          45.000    35356062.984   142364217.347         113.962          45.000  
G25  20363041.120   107008514.099        2430.194          45.000    20363032.296    83383215.972        1893.713          42.000  
G10  19460944.301   102267953.185         890.944          50.000    19460933.366    79689267.863         694.210          45.000  
G28  21899459.562   115082431.336        2502.432          43.000    21899448.319    89674595.254        1949.884          42.000  
C23  20716667.613   107877103.541         114.004          50.000                                                                  
C09  36819085.627   191726619.651         246.647          43.000    36819069.389   148255136.370         190.644          46.000  
C33  26272629.159                3      -2963.040          25.000                                                                  
C37  22726722.357   118344006.095        2610.517          46.000                                                                  
> 2025 10 27 02 55 13.6360000  0 19                     
G12  20709185.494   108827506.488         700.193          45.000    20709174.534    84800608.746         545.543          43.000  
G15  23421265.737                2      -3282.736          33.000    23421265.244                       -2558.198          31.000  
G18  23771634.792   124920784.960       -3656.222          33.000    23771631.789    97340844.725       -2848.634          38.000  
G23  19372892.417   101805228.512       -2243.243          46.000    19372880.627    79328674.147       -1748.047          46.000  
G24  21118159.416                       -3424.277          30.000    21118150.627                       -2666.959          29.000  
G32  20820764.401   109413851.336        1471.834          45.000    20820754.369    85257511.609        1146.940          41.000  
C08  34730204.234   180849262.454        -387.097          46.000    34730183.610   139844042.087        -299.402          48.000  
C13  34715380.659   180772073.302         -84.326          47.000    34715368.221   139784387.428         -65.356          48.000  
C16  35672687.008   185757027.609         -30.916          48.000    35672672.312   143639068.349         -24.001          47.000  
C25  22397414.541   116629217.194       -2644.824          32.000                                                                  
C32  21005964.692   109383553.545         799.425          50.000                                                                  
C06  35356082.220   184108385.824         147.566          45.000    35356061.840   142364212.796         113.804          45.000  
G25  20363022.617   107008416.890        2430.162          45.000    20363013.820    83383140.223        1893.711          42.000  
G10  19460937.529   102267917.555         890.820          50.000    19460926.601    79689240.095         694.264          45.000  
G28  21899440.517   115082331.248        2502.221          43.000    21899429.269    89674517.257        1949.883          42.000  
C23  20716666.713   107877098.987         113.898          50.000                                                                  
C09  36819083.758   191726609.768         246.930          43.000    36819067.505   148255128.746         190.596          46.000  
C33  26272652.041                3      -2963.837          25.000                                                                  
C37  22726702.334   118343901.662        2610.724          46.000                                                                  
> 2025 10 27 02 55 13.6760000  0 19                     
G12  20709180.172   108827478.481         700.190          45.000    20709169.224    84800586.921         545.589          43.000  
G15  23421290.829                2      -3283.538          33.000    23421290.243                       -2558.391          31.000  
G18  23771662.626   124920931.176       -3655.726          33.000    23771659.624    97340958.668       -2848.503          38.000  
G23  19372909.493   101805318.246       -2243.299          46.000    19372897.708    79328744.068       -1748.029          46.000  
G24  21118185.490                       -3423.874          30.000    21118176.721                       -2668.308          29.000  
G32  20820753.198   109413792.473        1471.704          45.000    20820743.157    85257465.742        1146.796          41.000  
C08  34730207.178   180849277.946        -387.256          46.000    34730186.582   139844054.064        -299.426          48.000  
C13  34715381.289   180772076.677         -84.381          47.000    34715368.874   139784390.038         -65.314          48.000  
C16  35672687.222   185757028.855         -31.109          48.000    35672672.529   143639069.312         -24.046          47.000  
C25  22397434.830   116629322.911       -2643.441          32.000                                                                  
C32  21005958.505   109383521.581         799.201          50.000                                                                  
C06  35356081.053   184108379.937         147.318          45.000    35356060.726   142364208.246         113.713          45.000  
G25  20363004.128   107008319.680        2430.200          45.000    20362995.322    83383064.464        1893.916          42.000  
G10  19460930.789   102267881.934         890.592          50.000    19460919.828    79689212.334         694.109          45.000  
G28  21899421.480   115082231.161        2502.118          43.000    21899410.224    89674439.258        1949.920          42.000  
C23  20716665.817   107877094.431         113.880          50.000                                                                  
C09  36819081.859   191726599.906         246.688          43.000    36819065.620   148255121.113         190.723          46.000  
C33  26272674.660                3      -2961.995          25.000                                                                  
C37  22726682.263   118343797.231        2610.797          46.000                                                                  
> 2025 10 27 02 55 13.7160000  0 19                     
G12  20709174.840   108827450.481         700.053          45.000    20709163.885    84800565.104         545.477          43.000  
G15  23421315.809                2      -3283.040          33.000    23421315.222                       -2558.658          31.000  
G18  23771690.470   124921077.447       -3656.601          33.000    23771687.448    97341072.620       -2848.641          38.000  
G23  19372926.590   101805407.979       -2243.330          46.000    19372914.782    79328813.985       -1747.973          46.000  
G24  21118211.556                       -3422.829          30.000    21118202.766                       -2667.929          29.000  
G32  20820742.024   109413733.611        1471.607          45.000    20820731.958    85257419.869        1146.823          41.000  
C08  34730210.126   180849293.438        -387.323          46.000    34730189.559   139844066.044        -299.493          48.000  
C13  34715381.929   180772080.051         -84.375          47.000    34715369.510   139784392.644         -65.204          48.000  
C16  35672687.440   185757030.094         -31.034          48.000    35672672.720   143639070.274         -24.065          47.000  
C25  22397455.140   116629428.657       -2643.234          32.000                                                                  
C32  21005952.361   109383489.609         799.218          50.000                                                                  
C06  35356079.931   184108374.041         147.330          45.000    35356059.595   142364203.683         113.911          45.000  
G25  20362985.629   107008222.468        2430.240          45.000    20362976.838    83382988.706        1893.975          42.000  
G10  19460924.013   102267846.309         890.549          50.000    19460913.047    79689184.581         693.888          45.000  
G28  21899402.431   115082131.061        2502.357          43.000    21899391.181    89674361.265        1949.826          42.000  
C23  20716664.932   107877089.881         113.779          50.000                                                                  
C09  36819080.002   191726590.044         246.531          43.000    36819063.713   148255113.469         190.979          46.000  
C33  26272697.544                3      -2963.697          25.000                                                                  
C37  22726662.191   118343692.808        2610.614          46.000                                                                  
> 2025 10 27 02 55 13.7560000  0 19                     
G12  20709169.529   108827422.483         699.939          45.000    20709158.563    84800543.297         545.227          43.000  
G15  23421340.565                2      -3283.560          33.000    23421340.226    95906546.582       -2558.682          31.000  
G18  23771718.348   124921223.712       -3656.701          33.000    23771715.288    97341186.578       -2848.817          38.000  
G23  19372943.662   101805497.715       -2243.397          46.000    19372931.894    79328883.915       -1748.177          46.000  
G24  21118237.595                       -3423.036          30.000    21118228.836                       -2667.948          29.000  
G32  20820730.815   109413674.747        1471.597          45.000    20820720.752    85257373.998        1146.760          41.000  
C08  34730213.092   180849308.928        -387.317          46.000    34730192.487   139844078.020        -299.420          48.000  
C13  34715382.577   180772083.430         -84.485          47.000    34715370.200   139784395.259         -65.314          48.000  
C16  35672687.665   185757031.341         -31.144          48.000    35672672.955   143639071.227         -23.949          47.000  
C25  22397475.460   116629534.468       -2644.557          32.000                                                                  
C32  21005946.231   109383457.636         799.265          50.000                                                                  
C06  35356078.815   184108368.150         147.252          45.000    35356058.461   142364199.128         113.898          45.000  
G25  20362967.115   107008125.253        2430.354          45.000    20362958.348    83382912.963        1893.755          42.000  
G10  19460917.215   102267810.682         890.606          50.000    19460906.268    79689156.818         693.981          45.000  
G28  21899383.365   115082030.949        2502.679          43.000    21899372.118    89674283.254        1950.132          42.000  
C23  20716664.071   107877085.327         113.794          50.000                                                                  
C09  36819078.107   191726580.161         246.841          43.000    36819061.802   148255105.838         190.875          47.000  
C33  26272720.277                3      -2963.699          25.000                                                                  
C37  22726642.137   118343588.394        2610.400          46.000                                                                  
> 2025 10 27 02 55 13.7960000  0 19                     
G12  20709164.187   108827394.484         699.930          45.000    20709153.238    84800521.474         545.394          43.000  
G15  23421365.733                2      -3283.157          33.000    23421365.226    95906648.904       -2558.200          32.000  
G18  23771746.164   124921369.916       -3655.691          33.000    23771743.102    97341300.519       -2848.600          38.000  
G23  19372960.735   101805587.454       -2243.496          46.000    19372948.965    79328953.840       -1748.202          46.000  
G24  21118263.647                       -3423.077          30.000    21118254.897                       -2668.412          29.000  
G32  20820719.600   109413615.884        1471.559          45.000    20820709.552    85257328.136        1146.572          41.000  
C08  34730216.056   180849324.412        -387.177          46.000    34730195.412   139844089.992        -299.341          48.000  
C13  34715383.235   180772086.802         -84.381          47.000    34715370.832   139784397.866         -65.247          48.000  
C16  35672687.906   185757032.582         -31.083          48.000    35672673.172   143639072.185         -23.952          47.000  
C25  22397495.754   116629640.200       -2643.716          32.000                                                                  
C32  21005940.137   109383425.659         799.380          50.000                                                                  
C06  35356077.710   184108362.242         147.546          45.000    35356057.324   142364194.562         114.067          45.000  
G25  20362948.608   107008028.029        2430.526          45.000    20362939.865    83382837.230        1893.412          42.000  
G10  19460910.442   102267775.047         890.772          50.000    19460899.465    79689129.046         694.209          45.000  
G28  21899364.298   115081930.841        2502.757          43.000    21899353.094    89674205.253        1950.074          42.000  
C23  20716663.236   107877080.768         113.898          50.000                                                                  
C09  36819076.198   191726570.296         246.688          43.000    36819059.869   148255098.208         190.787          47.000  
C33  26272743.246                3      -2962.248          25.000                                                                  
C37  22726622.081   118343483.968        2610.517          46.000                                                                  
> 2025 10 27 02 55 13.8360000  0 19                     
G12  20709158.863   108827366.474         700.133          45.000    20709147.891    84800499.643         545.625          43.000  
G15  23421390.860                2      -3282.339          33.000    23421390.198    95906751.242       -2558.207          32.000  
G18  23771774.022   124921516.151       -3655.727          33.000    23771770.925    97341414.469       -2848.683          38.000  
G23  19372977.825   101805677.187       -2243.421          46.000    19372966.022    79329023.762       -1748.115          46.000  
G24  21118289.676                       -3423.440          30.000    21118280.924                       -2667.434          29.000  
G32  20820708.399   109413557.021        1471.568          45.000    20820698.333    85257282.272        1146.532          41.000  
C08  34730219.037   180849339.894        -387.085          46.000    34730198.379   139844101.962        -299.237          48.000  
C13  34715383.869   180772090.180         -84.442          47.000    34715371.468   139784400.475         -65.234          48.000  
C16  35672688.139   185757033.815         -30.913          48.000    35672673.403   143639073.145         -24.007          47.000  
C25  22397516.064   116629745.960       -2643.921          32.000                                                                  
C32  21005934.017   109383393.684         799.385          50.000                                                                  
C06  35356076.563   184108356.353         147.357          45.000    35356056.203   142364189.996         114.147          45.000  
G25  20362930.127   107007930.831        2430.150          45.000    20362921.369    83382761.475        1893.613          42.000  
G10  19460903.638   102267739.418         890.759          50.000    19460892.692    79689101.283         694.128          45.000  
G28  21899345.264   115081830.745        2502.531          43.000    21899334.035    89674127.251        1950.080          42.000  
C23  20716662.346   107877076.214         113.850          50.000                                                                  
C09  36819074.291   191726560.424         246.751          43.000    36819057.958   148255090.579         190.686          47.000  
C33  26272765.694                3      -2963.501          25.000                                                                  
C37  22726602.048   118343379.546        2610.541          46.000                                                                  
> 2025 10 27 02 55 13.8760000  0 19                     
G12  20709153.535   108827338.473         700.017          45.000    20709142.582    84800477.828         545.446          43.000  
G15  23421415.755                2      -3283.526          33.000    23421415.153    95906853.576       -2558.271          32.000  
G18  23771801.849   124921662.397       -3656.050          33.000    23771798.765    97341528.423       -2848.779          38.000  
G23  19372994.924   101805766.932       -2243.606          46.000    19372983.094    79329093.687       -1748.146          46.000  
G24  21118315.762                       -3423.656          30.000    21118306.988                       -2666.853          29.000  
G32  20820697.210   109413498.159        1471.520          45.000    20820687.142    85257236.398        1146.759          41.000  
C08  34730222.005   180849355.378        -387.085          46.000    34730201.336   139844113.940        -299.371          48.000  
C13  34715384.510   180772093.559         -84.503          47.000    34715372.101   139784403.085         -65.228          48.000  
C16  35672688.342   185757035.049         -30.873          48.000    35672673.644   143639074.109         -24.103          47.000  
C25  22397536.383   116629851.718       -2643.940          32.000                                                                  
C32  21005927.848   109383361.711         799.338          50.000                                                                  
C06  35356075.461   184108350.448         147.522          45.000    35356055.064   142364185.440         113.981          45.000  
G25  20362911.628   107007833.631        2429.985          45.000    20362902.867    83382685.731        1893.618          42.000  
G10  19460896.862   102267703.791         890.667          50.000    19460885.903    79689073.528         693.894          45.000  
G28  21899326.251   115081730.649        2502.394          43.000    21899314.973    89674049.257        1949.949          42.000  
C23  20716661.487   107877071.659         113.837          50.000                                                                  
C09  36819072.380   191726550.561         246.607          43.000    36819056.060   148255082.940         190.851          47.000  
C33  26272788.300                3      -2969.551          25.000                                                                  
C37  22726582.000   118343275.128        2610.455          46.000                                                                  
> 2025 10 27 02 55 13.9160000  0 19                     
G12  20709148.223   108827310.481         699.777          45.000    20709137.241    84800456.015         545.324          43.000  
G15  23421440.859                2      -3283.006          33.000    23421440.123    95906955.913       -2558.472          32.000  
G18  23771829.691   124921808.627       -3655.865          33.000    23771826.599    97341642.368       -2848.713          38.000  
G23  19373012.024   101805856.675       -2243.617          46.000    19373000.187    79329163.609       -1748.115          46.000  
G24  21118341.830                       -3424.220          30.000    21118333.060                       -2667.256          29.000  
G32  20820685.998   109413439.289        1471.644          45.000    20820675.939    85257190.516        1146.961          41.000  
C08  34730224.991   180849370.871        -387.262          46.000    34730204.328   139844125.919        -299.487          48.000  
C13  34715385.182   180772096.929         -84.369          47.000    34715372.752   139784405.695         -65.216          48.000  
C16  35672688.557   185757036.287         -30.916          48.000    35672673.867   143639075.065         -24.016          47.000  
C25  22397556.701   116629957.525       -2644.920          32.000                                                                  
C32  21005921.675   109383329.743         799.237          50.000                                                                  
C06  35356074.338   184108344.543         147.610          45.000    35356053.915   142364180.875         114.055          45.000  
G25  20362893.135   107007736.429        2429.990          45.000    20362884.348    83382609.978        1893.735          42.000  
G10  19460890.107   102267668.166         890.611          50.000    19460879.116    79689045.771         693.833          45.000  
G28  21899307.211   115081630.570        2502.054          43.000    21899295.930    89673971.252        1950.081          42.000  
C23  20716660.595   107877067.113         113.688          50.000                                                                  
C09  36819070.485   191726540.691         246.684          43.000    36819054.168   148255075.311         190.769          47.000  
C33  26272811.360                3      -2975.521          24.000                                                                  
C37  22726561.958   118343170.701        2610.559          46.000                                                                  
> 2025 10 27 02 55 13.9560000  0 19                     
G12  20709142.897   108827282.490         699.680          45.000    20709131.893    84800434.197         545.381          43.000  
G15  23421466.367                2      -3283.809          33.000    23421465.097    95907058.289       -2559.221          32.000  
G18  23771857.551   124921954.897       -3656.589          33.000    23771854.434    97341756.325       -2848.870          38.000  
G23  19373029.096   101805946.413       -2243.512          46.000    19373017.259    79329233.533       -1748.096          46.000  
G24  21118367.876                       -3423.408          30.000    21118359.096                       -2666.841          29.000  
G32  20820674.799   109413380.416        1471.757          45.000    20820664.735    85257144.645        1146.884          41.000  
C08  34730227.973   180849386.355        -387.195          46.000    34730207.310   139844137.901        -299.548          48.000  
C13  34715385.845   180772100.301         -84.308          47.000    34715373.400   139784408.299         -65.137          48.000  
C16  35672688.747   185757037.531         -31.054          48.000    35672674.102   143639076.022         -23.943          47.000  
C25  22397577.006   116630063.296       -2644.725          32.000                                                                  
C32  21005915.534   109383297.771         799.251          50.000                                                                  
C06  35356073.192   184108338.652         147.408          45.000    35356052.800   142364176.312         114.039          45.000  
G25  20362874.640   107007639.217        2430.179          45.000    20362865.851    83382534.211        1894.075          42.000  
G10  19460883.326   102267632.547         890.476          50.000    19460872.326    79689018.014         693.846          45.000  
G28  21899288.155   115081530.475        2502.207          43.000    21899276.899    89673893.259        1949.924          42.000  
C23  20716659.704   107877062.566         113.615          50.000                                                                  
C09  36819068.593   191726530.809         246.955          43.000    36819052.264   148255067.677         190.814          47.000  
C33  26272834.177                3      -2975.968          24.000                                                                  
C37  22726541.920   118343066.266        2610.822          46.000                                                                  
> 2025 10 27 02 55 13.9960000  0 19                     
G12  20709137.549   108827254.493         699.736          45.000    20709126.569    84800412.381         545.355          43.000  
G15  23421491.298                2      -3283.962          33.000    23421490.088    95907160.599       -2558.358          32.000  
G18  23771885.410   124922101.100       -3655.646          33.000    23771882.289    97341870.274       -2848.835          38.000  
G23  19373046.165   101806036.154       -2243.537          46.000    19373034.342    79329303.457       -1748.102          46.000  
G24  21118393.905                       -3423.237          30.000    21118385.160                       -2667.433          29.000  
G32  20820663.589   109413321.545        1471.792          45.000    20820653.529    85257098.761        1147.071          41.000  
C08  34730230.931   180849401.845        -387.280          46.000    34730210.247   139844149.875        -299.469          48.000  
C13  34715386.462   180772103.678         -84.399          47.000    34715374.046   139784410.914         -65.277          48.000  
C16  35672688.985   185757038.767         -30.992          48.000    35672674.370   143639076.979         -23.932          47.000  
C25  22397597.319   116630169.045       -2644.095          32.000                                                                  
C32  21005909.443   109383265.797         799.323          50.000                                                                  
C06  35356072.080   184108332.757         147.344          45.000    35356051.667   142364171.754         113.954          45.000  
G25  20362856.136   107007542.009        2430.176          45.000    20362847.334    83382458.453        1894.083          42.000  
G10  19460876.561   102267596.922         890.501          50.000    19460865.545    79688990.252         693.945          45.000  
G28  21899269.125   115081430.380        2502.301          43.000    21899257.836    89673815.261        1949.919          42.000  
C23  20716658.831   107877058.016         113.659          50.000                                                                  
C09  36819066.700   191726520.934         246.919          43.000    36819050.379   148255060.045         190.788          47.000  
C33  26272857.497                3      -2982.908          24.000                                                                  
C37  22726521.872   118342961.832        2610.895          46.000                                                                  
> 2025 10 27 02 55 14.0360000  0 19                     
G12  20709132.241   108827226.490         699.935          44.000    20709121.253    84800390.571         545.239          43.000  
G15  23421516.114                2      -3283.808          33.000    23421515.065    95907262.929       -2558.201          32.000  
G18  23771913.257   124922247.339       -3655.807          33.000    23771910.112    97341984.222       -2848.782          38.000  
G23  19373063.241   101806125.894       -2243.537          46.000    19373051.417    79329373.380       -1748.115          46.000  
G24  21118419.964                       -3422.891          30.000    21118411.233                       -2666.873          29.000  
G32  20820652.387   109413262.683        1471.602          45.000    20820642.331    85257052.904        1146.629          41.000  
C08  34730233.902   180849417.339        -387.390          46.000    34730213.198   139844161.847        -299.359          48.000  
C13  34715387.126   180772107.058         -84.503          47.000    34715374.733   139784413.533         -65.454          48.000  
C16  35672689.188   185757040.006         -30.985          48.000    35672674.604   143639077.937         -23.968          47.000  
C25  22397617.607   116630274.802       -2643.930          32.000                                                                  
C32  21005903.339   109383233.819         799.411          50.000                                                                  
C06  35356070.972   184108326.857         147.434          45.000    35356050.527   142364167.197         113.918          45.000  
G25  20362837.650   107007444.798        2430.232          45.000    20362828.853    83382382.716        1893.641          42.000  
G10  19460869.771   102267561.297         890.544          50.000    19460858.779    79688962.496         693.908          45.000  
G28  21899250.054   115081330.269        2502.656          43.000    21899238.786    89673737.265        1949.876          42.000  
C23  20716657.998   107877053.468         113.666          50.000                                                                  
C09  36819064.800   191726511.064         246.792          43.000    36819048.479   148255052.412         190.794          47.000  
C33  26272880.392                3      -2984.277          24.000                                                                  
C37  22726501.799   118342857.406        2610.754          46.000                                                                  
> 2025 10 27 02 55 14.0760000  0 19                     
G12  20709126.927   108827198.486         700.050          44.000    20709115.935    84800368.770         544.975          43.000  
G15  23421540.652                2      -3283.226          33.000    23421540.055    95907365.252       -2558.111          32.000  
G18  23771941.082   124922393.594       -3656.210          33.000    23771937.953    97342098.171       -2848.659          38.000  
G23  19373080.324   101806215.642       -2243.654          46.000    19373068.482    79329443.311       -1748.263          46.000  
G24  21118446.029                       -3423.750          30.000    21118437.302                       -2668.186          29.000  
G32  20820641.194   109413203.841        1471.180          45.000    20820631.150    85257007.058        1146.156          41.000  
C08  34730236.917   180849432.824        -387.286          46.000    34730216.155   139844173.822        -299.390          48.000  
C13  34715387.774   180772110.442         -84.619          47.000    34715375.384   139784416.150         -65.509          48.000  
C16  35672689.400   185757041.252         -31.107          48.000    35672674.829   143639078.901         -24.064          47.000  
C25  22397637.966   116630380.545       -2643.593          32.000                                                                  
C32  21005897.154   109383201.851         799.268          50.000                                                                  
C06  35356069.850   184108320.956         147.500          45.000    35356049.363   142364162.640         113.909          45.000  
G25  20362819.156   107007347.593        2430.165          45.000    20362810.377    83382306.980        1893.407          42.000  
G10  19460863.002   102267525.676         890.483          50.000    19460851.991    79688934.737         693.927          45.000  
G28  21899231.004   115081230.176        2502.522          43.000    21899219.744    89673659.268        1949.914          42.000  
C23  20716657.119   107877048.922         113.615          50.000                                                                  
C09  36819062.902   191726501.206         246.497          43.000    36819046.555   148255044.787         190.649          47.000  
C33  26272903.642                3      -2984.277          24.000                                                                  
C37  22726481.721   118342752.987        2610.535          46.000                                                                  
> 2025 10 27 02 55 14.1160000  0 19                     
G12  20709121.583   108827170.498         699.845          44.000    20709110.590    84800346.957         545.093          43.000  
G15  23421565.777                2      -3282.714          33.000    23421565.038    95907467.615       -2558.834          32.000  
G18  23771968.886   124922539.816       -3655.842          33.000    23771965.757    97342212.115       -2848.602          38.000  
G23  19373097.412   101806305.389       -2243.728          46.000    19373085.565    79329513.247       -1748.391          46.000  
G24  21118472.074                       -3423.826          30.000    21118463.377                       -2668.795          29.000  
G32  20820629.999   109413144.974        1471.445          45.000    20820619.946    85256961.192        1146.352          41.000  
C08  34730239.891   180849448.323        -387.457          46.000    34730219.132   139844185.797        -299.396          48.000  
C13  34715388.428   180772113.808         -84.296          47.000    34715376.040   139784418.759         -65.363          48.000  
C16  35672689.670   185757042.489         -31.028          48.000    35672675.054   143639079.859         -24.030          47.000  
C25  22397658.258   116630486.331       -2644.210          32.000                                                                  
C32  21005890.988   109383169.884         799.174          50.000                                                                  
C06  35356068.704   184108315.056         147.511          45.000    35356048.219   142364158.076         114.009          45.000  
G25  20362800.653   107007250.390        2430.094          45.000    20362791.876    83382231.231        1893.551          42.000  
G10  19460856.250   102267490.061         890.366          50.000    19460845.204    79688906.980         693.902          45.000  
G28  21899211.955   115081130.072        2502.596          43.000    21899200.664    89673581.269        1949.926          42.000  
C23  20716656.245   107877044.367         113.772          50.000                                                                  
C09  36819061.006   191726491.338         246.577          43.000    36819044.662   148255037.157         190.689          47.000  
C33  26272926.573                3      -2984.277          24.000                                                                  
C37  22726461.655   118342648.562        2610.547          46.000                                                                  
> 2025 10 27 02 55 14.1560000  0 19                     
G12  20709116.269   108827142.512         699.653          44.000    20709105.254    84800325.127         545.515          43.000  
G15  23421590.259                2      -3282.671          33.000    23421590.043    95907569.950       -2558.668          32.000  
G18  23771996.715   124922686.068       -3656.142          33.000    23771993.594    97342326.061       -2848.632          38.000  
G23  19373114.479   101806395.123       -2243.487          46.000    19373102.655    79329583.172       -1748.292          46.000  
G24  21118498.147                       -3423.645          30.000    21118489.462                       -2668.205          29.000  
G32  20820618.807   109413086.095        1471.834          45.000    20820608.754    85256915.315        1146.727          41.000  
C08  34730242.887   180849463.799        -387.128          46.000    34730222.126   139844197.777        -299.481          48.000  
C13  34715389.089   180772117.180         -84.277          47.000    34715376.703   139784421.370         -65.314          48.000  
C16  35672689.912   185757043.725         -30.956          48.000    35672675.277   143639080.810         -23.867          47.000  
C25  22397678.567   116630592.109       -2644.487          32.000                                                                  
C32  21005884.844   109383137.911         799.239          50.000                                                                  
C06  35356067.565   184108309.154         147.527          45.000    35356047.070   142364153.509         114.154          46.000  
G25  20362782.154   107007153.182        2430.164          45.000    20362773.383    83382155.480        1893.672          42.000  
G10  19460849.443   102267454.443         890.379          50.000    19460838.437    79688879.228         693.816          45.000  
G28  21899192.904   115081029.975        2502.482          43.000    21899181.603    89673503.259        1950.175          42.000  
C23  20716655.372   107877039.811         113.867          50.000                                                                  
C09  36819059.116   191726481.461         246.799          43.000    36819042.771   148255029.514         190.947          47.000  
C33  26272949.970                3      -2965.271          24.000                                                                  
C37  22726441.606   118342544.140        2610.517          46.000                                                                  
> 2025 10 27 02 55 14.1960000  0 19                     
G12  20709110.954   108827114.528         699.514          44.000    20709099.926    84800303.296         545.761          43.000  
G15  23421615.371   123081417.9493      -3282.897          32.000    23421615.051    95907672.298       -2558.731          33.000  
G18  23772024.555   124922832.283       -3655.541          33.000    23772021.427    97342440.005       -2848.580          38.000  
G23  19373131.559   101806484.861       -2243.444          47.000    19373119.735    79329653.096       -1748.188          46.000  
G24  21118524.224                       -3423.425          30.000    21118515.490                       -2668.001          29.000  
G32  20820607.596   109413027.208        1472.161          45.000    20820597.554    85256869.452        1146.690          41.000  
C08  34730245.871   180849479.286        -387.164          46.000    34730225.116   139844209.749        -299.377          48.000  
C13  34715389.724   180772120.560         -84.436          47.000    34715377.356   139784423.979         -65.247          48.000  
C16  35672690.109   185757044.966         -30.991          48.000    35672675.515   143639081.776         -24.086          47.000  
C25  22397698.872   116630697.841       -2643.604          32.000                                                                  
C32  21005878.694   109383105.944         799.169          50.000                                                                  
C06  35356066.381   184108303.263         147.321          45.000    35356045.932   142364148.951         114.041          46.000  
G25  20362763.645   107007055.964        2430.358          45.000    20362754.876    83382079.734        1893.657          42.000  
G10  19460842.660   102267418.824         890.417          50.000    19460831.692    79688851.475         693.810          45.000  
G28  21899173.865   115080929.892        2502.115          43.000    21899162.560    89673425.265        1949.948          42.000  
C23  20716654.479   107877035.259         113.816          51.000                                                                  
C09  36819057.209   191726471.581         247.011          43.000    36819040.865   148255021.878         190.963          47.000  
C33  26272972.763                3      -2965.271          24.000                                                                  
C37  22726421.563   118342439.710        2610.645          46.000                                                                  
> 2025 10 27 02 55 14.2360000  0 19                     
G12  20709105.616   108827086.540         699.560          44.000    20709094.617    84800281.493         545.318          43.000  
G15  23421640.289                2      -3284.728          32.000    23421640.051    95907774.660       -2559.075          33.000  
G18  23772052.416   124922978.523       -3655.742          33.000    23772049.263    97342553.958       -2848.724          38.000  
G23  19373148.661   101806574.602       -2243.500          47.000    19373136.807    79329723.023       -1748.213          46.000  
G24  21118550.338                       -3423.207          30.000    21118541.528                       -2667.980          29.000  
G32  20820596.397   109412968.341        1471.901          45.000    20820586.349    85256823.568        1146.990          41.000  
C08  34730248.819   180849494.772        -387.177          46.000    34730228.132   139844221.728        -299.487          48.000  
C13  34715390.362   180772123.946         -84.656          47.000    34715377.986   139784426.586         -65.204          48.000  
C16  35672690.319   185757046.215         -31.187          48.000    35672675.732   143639082.738         -24.130          47.000  
C25  22397719.157   116630803.593       -2643.650          32.000                                                                  
C32  21005872.546   109383073.976         799.145          50.000                                                                  
C06  35356065.245   184108297.376         147.148          45.000    35356044.818   142364144.388         114.054          46.000  
G25  20362745.133   107006958.762        2430.155          45.000    20362736.380    83382003.996        1893.497          42.000  
G10  19460835.880   102267383.207         890.392          50.000    19460824.928    79688823.726         693.749          45.000  
G28  21899154.821   115080829.806        2502.018          43.000    21899143.527    89673347.278        1949.732          42.000  
C23  20716653.569   107877030.719         113.577          51.000                                                                  
C09  36819055.326   191726461.710         246.907          43.000    36819038.964   148255014.248         190.817          47.000  
C33  26272995.529                3      -2965.271          24.000                                                                  
C37  22726401.491   118342335.297        2610.388          46.000                                                                  
> 2025 10 27 02 55 14.2760000  0 19                     
G12  20709100.293   108827058.559         699.446          44.000    20709089.276    84800259.688         545.107          43.000  
G15  23421665.589                2      -3283.281          32.000    23421665.063    95907876.976       -2558.324          33.000  
G18  23772080.240   124923124.761       -3655.917          33.000    23772077.093    97342667.920       -2849.036          38.000  
G23  19373165.733   101806664.340       -2243.476          47.000    19373153.883    79329792.954       -1748.299          46.000  
G24  21118576.402   110978864.903       -3423.764          30.000    21118567.571                       -2667.897          29.000  
G32  20820585.226   109412909.502        1471.253          45.000    20820575.137    85256777.708        1146.717          41.000  
C08  34730251.808   180849510.260        -387.189          46.000    34730231.102   139844233.711        -299.597          48.000  
C13  34715391.026   180772127.322         -84.564          47.000    34715378.618   139784429.197         -65.259          48.000  
C16  35672690.568   185757047.461         -31.207          48.000    35672675.968   143639083.707         -24.241          47.000  
C25  22397739.482   116630909.408       -2644.784          32.000                                                                  
C32  21005866.401   109383042.010         799.114          50.000                                                                  
C06  35356064.109   184108291.487         147.152          45.000    35356043.683   142364139.838         113.837          46.000  
G25  20362726.650   107006861.553        2430.184          45.000    20362717.869    83381928.243        1893.665          42.000  
G10  19460829.086   102267347.589         890.423          50.000    19460818.120    79688795.972         693.792          45.000  
G28  21899135.775   115080729.716        2502.089          43.000    21899124.500    89673269.290        1949.659          42.000  
C23  20716652.674   107877026.177         113.505          51.000                                                                  
C09  36819053.419   191726451.854         246.568          43.000    36819037.071   148255006.614         190.798          47.000  
C33  26273018.394                3      -2955.156          24.000                                                                  
C37  22726381.417   118342230.889        2610.168          45.000                                                                  
> 2025 10 27 02 55 14.3160000  0 19                     
G12  20709094.974   108827030.574         699.524          44.000    20709083.957    84800237.884         544.991          43.000  
G15  23421690.283                2      -3283.792          32.000    23421690.036    95907979.279       -2557.648          33.000  
G18  23772108.045   124923270.984       -3655.819          32.000    23772104.908    97342781.869       -2848.883          38.000  
G23  19373182.822   101806754.076       -2243.420          47.000    19373170.957    79329862.906       -1748.711          46.000  
G24  21118602.458   110979001.878       -3424.287          30.000    21118593.621                       -2667.929          29.000  
G32  20820574.025   109412850.655        1471.101          45.000    20820563.922    85256731.842        1146.634          41.000  
C08  34730254.802   180849525.753        -387.299          46.000    34730234.093   139844245.694        -299.640          48.000  
C13  34715391.689   180772130.701         -84.534          47.000    34715379.276   139784431.809         -65.289          48.000  
C16  35672690.811   185757048.702         -31.118          48.000    35672676.196   143639084.659         -23.974          47.000  
C25  22397759.810   116631015.231       -2645.582          32.000                                                                  
C32  21005860.281   109383010.030         799.365          50.000                                                                  
C06  35356062.976   184108285.587         147.374          45.000    35356042.545   142364135.285         113.762          46.000  
G25  20362708.146   107006764.358        2429.974          45.000    20362699.386    83381852.501        1893.600          42.000  
G10  19460822.306   102267311.971         890.448          50.000    19460811.347    79688768.215         693.854          45.000  
G28  21899116.748   115080629.616        2502.371          43.000    21899105.451    89673191.299        1949.679          42.000  
C23  20716651.815   107877021.634         113.490          51.000                                                                  
C09  36819051.520   191726441.994         246.451          43.000    36819035.187   148254998.992         190.592          47.000  
C33  26273041.277                3      -2955.156          24.000                                                                  
C37  22726361.375   118342126.483        2610.077          45.000                                                                  
> 2025 10 27 02 55 14.3560000  0 19                     
G12  20709089.644   108827002.583         699.687          44.000    20709078.626    84800216.067         545.233          43.000  
G15  23421715.297                2      -3283.135          32.000    23421715.051    95908081.621       -2558.063          33.000  
G18  23772135.883   124923417.227       -3656.141          32.000    23772132.713    97342895.795       -2848.399          38.000  
G23  19373199.920   101806843.828       -2243.685          47.000    19373188.041    79329932.842       -1748.561          46.000  
G24  21118628.491   110979138.853       -3424.555          30.000    21118619.693                       -2667.696          29.000  
G32  20820562.832   109412791.793        1471.319          45.000    20820552.724    85256685.981        1146.492          41.000  
C08  34730257.775   180849541.249        -387.390          46.000    34730237.118   139844257.672        -299.542          48.000  
C13  34715392.340   180772134.079         -84.503          47.000    34715379.934   139784434.418         -65.259          48.000  
C16  35672691.060   185757049.938         -30.962          48.000    35672676.403   143639085.612         -23.848          47.000  
C25  22397780.083   116631121.011       -2645.084          32.000                                                                  
C32  21005854.163   109382978.053         799.425          50.000                                                                  
C06  35356061.811   184108279.693         147.343          45.000    35356041.415   142364130.728         113.829          46.000  
G25  20362689.614   107006667.151        2430.073          45.000    20362680.898    83381776.768        1893.408          42.000  
G10  19460815.534   102267276.355         890.392          50.000    19460804.577    79688740.455         693.952          45.000  
G28  21899097.700   115080529.515        2502.493          43.000    21899086.413    89673113.301        1949.861          42.000  
C23  20716650.972   107877017.089         113.538          50.000                                                                  
C09  36819049.623   191726432.121         246.623          43.000    36819033.290   148254991.364         190.594          47.000  
C33  26273064.121                3      -2955.156          23.000                                                                  
C37  22726341.304   118342022.057        2610.406          45.000                                                                  
