     3.04           OBSERVATION DATA    M: Mixed            RINEX VERSION / TYPE
RTKCONV 2.4.3 b34                       20251027 033038 UTC PGM / RUN BY / DATE 
format: u-blox UBX                                          COMMENT             
log: D:\GPdata\10_27\fingure_288_rev_10_27_2.ubx            COMMENT             
                                                            MARKER NAME         
                                                            MARKER NUMBER       
                                                            MARKER TYPE         
                                                            OBSERVER / AGENCY   
                                                            REC # / TYPE / VERS 
                                                            ANT # / TYPE        
        0.0000        0.0000        0.0000                  APPROX POSITION XYZ 
        0.0000        0.0000        0.0000                  ANTENNA: DELTA H/E/N
G    8 C1C L1C D1C S1C C2L L2L D2L S2L                      SYS / # / OBS TYPES 
C    8 C2I L2I D2I S2I C7I L7I D7I S7I                      SYS / # / OBS TYPES 
  2025    10    27    02    51   50.6760000     GPS         TIME OF FIRST OBS   
  2025    10    27    02    52   11.7560000     GPS         TIME OF LAST OBS    
G L1C                                                       SYS / PHASE SHIFT   
G L2L  0.00000                                              SYS / PHASE SHIFT   
C L2I                                                       SYS / PHASE SHIFT   
C L7I                                                       SYS / PHASE SHIFT   
  0                                                         GLONASS SLOT / FRQ #
 C1C    0.000 C1P    0.000 C2C    0.000 C2P    0.000        GLONASS COD/PHS/BIS 
                                                            END OF HEADER       
> 2025 10 27 02 51 50.6760000  0 19                     
G12  20738763.681   108982939.1181        831.842          46.000    20738751.652    84921724.2651        648.117          43.000  
G15  23294856.779   122415289.4601      -3261.918          33.000    23294853.857    95388521.4671      -2541.571          33.000  
G18  23630015.585   124176550.2961      -3676.002          34.000    23630011.851    96760909.6961      -2864.566          37.000  
G23  19288514.818   101361823.7821      -2125.148          47.000    19288503.248    78983164.4361      -1655.921          47.000  
G24  20986691.457                       -3383.530          28.000    20986683.025    85936907.7321      -2636.128          32.000  
G32  20878040.300   109714842.7111       1494.877          45.000    20878030.201    85492030.6201       1164.719          41.000  
C08  34715789.951   180774223.9761       -351.923          46.000    34715773.023   139786017.7451       -272.015          49.000  
C13  34712676.273   180758010.5361        -53.748          47.000    34712667.381   139773513.3571        -41.565          48.000  
C16  35671924.187   185753072.5501         -7.175          47.000    35671915.054   143636018.5831         -5.552          48.000  
C25  22295700.036   116099571.5391      -2573.836          35.000                                                                  
C32  21038190.153   109551379.5901        854.666          50.000                                                                  
C06  35362288.932   184140718.5641        171.913          44.000    35362273.336   142389220.2491        133.064          47.000  
G25  20458638.426   107510884.1951       2520.896          42.000    20458630.348    83774673.0101       1964.169          43.000  
G10  19497574.672   102460442.7821       1006.561          50.000    19497563.099    79839262.1931        784.241          44.000  
G28  21997269.723   115596446.9041       2563.770          39.000    21997259.516    90075134.6991       1998.007          43.000  
C23  20723247.030   107911384.3451        224.566          50.000                                                                  
C09  36829151.954   191779064.6021        270.614          40.000    36829140.611   148295684.8001        209.417          47.000  
C33  26157597.055                       -2937.050          30.000                                                                  
C37  22829557.659   118879514.4121       2667.393          44.000                                                                  
> 2025 10 27 02 51 50.7160000  0 19                     
G12  20738757.361   108982905.850         831.744          46.000    20738745.315    84921698.335         648.186          43.000  
G15  23294881.600   122415419.927       -3261.757          33.000    23294878.679    95388623.114       -2541.310          33.000  
G18  23630043.573   124176697.358       -3676.351          34.000    23630039.840    96761024.295       -2864.898          37.000  
G23  19288530.979   101361908.788       -2125.209          47.000    19288519.409    78983230.672       -1655.909          47.000  
G24  20986717.235                       -3383.314          28.000    20986708.781    85937013.169       -2636.002          32.000  
G32  20878028.922   109714782.917        1494.851          45.000    20878018.822    85491984.020        1164.855          41.000  
C08  34715792.698   180774238.035        -351.611          46.000    34715775.740   139786028.626        -272.064          49.000  
C13  34712676.691   180758012.683         -53.748          47.000    34712667.774   139773515.014         -41.492          48.000  
C16  35671924.246   185753072.831          -7.104          47.000    35671915.131   143636018.805          -5.586          48.000  
C25  22295719.794   116099674.502       -2574.083          35.000                                                                  
C32  21038183.603   109551345.399         854.756          50.000                                                                  
C06  35362287.614   184140711.685         171.923          44.000    35362272.004   142389214.926         133.055          47.000  
G25  20458619.226   107510783.360        2520.858          42.000    20458611.164    83774594.432        1964.312          43.000  
G10  19497567.040   102460402.523        1006.464          50.000    19497555.417    79839230.814         784.381          44.000  
G28  21997250.215   115596344.355        2563.679          39.000    21997239.991    90075054.785        1997.950          43.000  
C23  20723245.280   107911375.361         224.581          50.000                                                                  
C09  36829149.867   191779053.763         270.880          40.000    36829138.529   148295676.426         209.360          47.000  
C33  26157619.671                       -2938.378          30.000                                                                  
C37  22829537.197   118879407.707        2667.490          44.000                                                                  
> 2025 10 27 02 51 50.7560000  0 19                     
G12  20738751.029   108982872.582         831.667          46.000    20738739.007    84921672.412         648.068          43.000  
G15  23294906.409   122415550.410       -3262.113          33.000    23294903.544    95388724.793       -2541.749          33.000  
G18  23630071.555   124176844.404       -3676.292          34.000    23630067.819    96761138.855       -2864.437          37.000  
G23  19288547.141   101361993.791       -2125.147          47.000    19288535.591    78983296.908       -1655.921          47.000  
G24  20986742.929                       -3383.168          28.000    20986734.546    85937118.633       -2636.460          32.000  
G32  20878017.540   109714723.124        1494.813          45.000    20878007.443    85491937.418        1164.963          41.000  
C08  34715795.408   180774252.106        -351.685          46.000    34715778.480   139786039.503        -272.009          49.000  
C13  34712677.115   180758014.834         -53.796          47.000    34712668.168   139773516.676         -41.559          48.000  
C16  35671924.311   185753073.120          -7.191          47.000    35671915.201   143636019.021          -5.488          48.000  
C25  22295739.560   116099777.452       -2573.921          35.000                                                                  
C32  21038177.029   109551311.209         854.741          50.000                                                                  
C06  35362286.321   184140704.796         172.098          44.000    35362270.677   142389209.609         132.963          47.000  
G25  20458600.041   107510682.524        2520.834          42.000    20458591.982    83774515.859        1964.295          43.000  
G10  19497559.364   102460362.261        1006.488          50.000    19497547.763    79839199.442         784.302          44.000  
G28  21997230.680   115596241.797        2563.792          39.000    21997220.474    90074974.879        1997.744          43.000  
C23  20723243.579   107911366.377         224.575          50.000                                                                  
C09  36829147.789   191779042.939         270.727          40.000    36829136.471   148295668.051         209.329          47.000  
C33  26157642.267                       -2938.160          30.000                                                                  
C37  22829516.704   118879301.006        2667.477          44.000                                                                  
> 2025 10 27 02 51 50.7960000  0 19                     
G12  20738744.714   108982839.316         831.618          46.000    20738732.669    84921646.499         647.803          43.000  
G15  23294931.232   122415680.868       -3261.788          33.000    23294928.361    95388826.482       -2542.158          33.000  
G18  23630099.558   124176991.431       -3675.831          34.000    23630095.798    96761253.419       -2864.185          37.000  
G23  19288563.321   101362078.799       -2125.209          47.000    19288551.792    78983363.150       -1656.063          47.000  
G24  20986768.688                       -3382.572          28.000    20986760.331    85937224.111       -2636.865          32.000  
G32  20878006.158   109714663.332        1494.775          45.000    20877996.057    85491890.820        1165.009          41.000  
C08  34715798.104   180774266.171        -351.654          46.000    34715781.183   139786050.384        -272.028          49.000  
C13  34712677.532   180758016.981         -53.741          47.000    34712668.566   139773518.332         -41.498          48.000  
C16  35671924.353   185753073.409          -7.255          47.000    35671915.305   143636019.238          -5.457          48.000  
C25  22295759.340   116099880.416       -2574.025          35.000                                                                  
C32  21038170.455   109551277.023         854.697          50.000                                                                  
C06  35362284.999   184140697.919         171.976          44.000    35362269.365   142389204.297         132.842          47.000  
G25  20458580.837   107510581.676        2521.051          42.000    20458572.796    83774437.276        1964.457          43.000  
G10  19497551.688   102460321.997        1006.549          50.000    19497540.115    79839168.069         784.265          44.000  
G28  21997211.164   115596139.241        2563.830          39.000    21997200.962    90074894.966        1997.726          43.000  
C23  20723241.887   107911357.392         224.594          50.000                                                                  
C09  36829145.686   191779032.104         270.794          40.000    36829134.377   148295659.675         209.342          47.000  
C33  26157664.870                       -2938.064          30.000                                                                  
C37  22829496.218   118879194.298        2667.611          44.000                                                                  
> 2025 10 27 02 51 50.8360000  0 19                     
G12  20738738.381   108982806.047         831.653          46.000    20738726.341    84921620.570         648.031          43.000  
G15  23294956.049   122415811.360       -3262.198          33.000    23294953.190    95388928.135       -2541.650          33.000  
G18  23630127.533   124177138.464       -3675.757          34.000    23630123.770    96761367.999       -2864.414          37.000  
G23  19288579.490   101362163.801       -2125.153          47.000    19288567.957    78983429.388       -1656.038          47.000  
G24  20986794.430                       -3382.859          28.000    20986786.091    85937329.535       -2636.139          32.000  
G32  20877994.751   109714603.530        1494.944          45.000    20877984.681    85491844.242        1164.609          41.000  
C08  34715800.783   180774280.248        -351.855          46.000    34715783.890   139786061.262        -272.028          49.000  
C13  34712677.916   180758019.122         -53.613          47.000    34712669.014   139773519.992         -41.516          48.000  
C16  35671924.438   185753073.691          -7.140          47.000    35671915.400   143636019.464          -5.587          48.000  
C25  22295779.096   116099983.353       -2573.599          35.000                                                                  
C32  21038163.903   109551242.829         854.773          50.000                                                                  
C06  35362283.680   184140691.039         171.979          44.000    35362268.006   142389198.977         132.911          47.000  
G25  20458561.651   107510480.848        2520.840          42.000    20458553.614    83774358.701        1964.395          43.000  
G10  19497544.008   102460281.733        1006.573          50.000    19497532.453    79839136.699         784.216          44.000  
G28  21997191.603   115596036.672        2564.103          39.000    21997181.422    90074815.042        1997.938          43.000  
C23  20723240.157   107911348.410         224.568          50.000                                                                  
C09  36829143.598   191779021.268         270.830          40.000    36829132.290   148295651.298         209.374          47.000  
C33  26157687.460                       -2938.887          30.000                                                                  
C37  22829475.719   118879087.608        2667.356          44.000                                                                  
> 2025 10 27 02 51 50.8760000  0 19                     
G12  20738732.051   108982772.775         831.719          46.000    20738719.994    84921594.648         648.005          43.000  
G15  23294980.883   122415941.860       -3262.564          33.000    23294977.997    95389029.798       -2541.587          33.000  
G18  23630155.534   124177285.500       -3675.785          34.000    23630151.749    96761482.561       -2864.282          37.000  
G23  19288595.662   101362248.805       -2125.154          47.000    19288584.132    78983495.629       -1656.043          47.000  
G24  20986820.178                       -3382.886          28.000    20986811.808    85937434.938       -2635.265          32.000  
G32  20877983.356   109714543.732        1494.947          45.000    20877973.290    85491797.664        1164.369          41.000  
C08  34715803.471   180774294.319        -351.855          46.000    34715786.601   139786072.146        -272.107          49.000  
C13  34712678.306   180758021.266         -53.601          47.000    34712669.423   139773521.648         -41.486          48.000  
C16  35671924.496   185753073.974          -7.084          47.000    35671915.478   143636019.684          -5.560          48.000  
C25  22295798.864   116100086.323       -2574.007          35.000                                                                  
C32  21038157.312   109551208.641         854.720          50.000                                                                  
C06  35362282.354   184140684.159         171.981          44.000    35362266.690   142389193.660         132.877          47.000  
G25  20458542.474   107510380.018        2520.709          42.000    20458534.453    83774280.137        1964.175          43.000  
G10  19497536.360   102460241.468        1006.580          50.000    19497524.783    79839105.323         784.290          44.000  
G28  21997172.085   115595934.124        2563.884          39.000    21997161.903    90074735.127        1997.925          43.000  
C23  20723238.447   107911339.430         224.465          50.000                                                                  
C09  36829141.496   191779010.437         270.702          40.000    36829130.224   148295642.924         209.362          47.000  
C33  26157710.049                       -2938.825          30.000                                                                  
C37  22829455.240   118878980.894        2667.662          44.000                                                                  
> 2025 10 27 02 51 50.9160000  0 19                     
G12  20738725.709   108982739.512         831.622          46.000    20738713.686    84921568.731         647.935          43.000  
G15  23295005.721   122416072.345       -3262.301          33.000    23295002.858    95389131.457       -2541.566          33.000  
G18  23630183.498   124177432.542       -3675.954          34.000    23630179.723    96761597.144       -2864.508          37.000  
G23  19288611.849   101362333.815       -2125.258          47.000    19288600.304    78983561.864       -1655.951          47.000  
G24  20986845.924                       -3383.253          28.000    20986837.579                       -2635.909          32.000  
G32  20877971.975   109714483.945        1494.772          45.000    20877961.893    85491751.061        1164.720          41.000  
C08  34715806.178   180774308.388        -351.794          46.000    34715789.267   139786083.029        -272.113          49.000  
C13  34712678.718   180758023.419         -53.766          47.000    34712669.839   139773523.308         -41.510          48.000  
C16  35671924.533   185753074.259          -7.092          47.000    35671915.545   143636019.908          -5.618          48.000  
C25  22295818.628   116100189.294       -2574.291          35.000                                                                  
C32  21038150.702   109551174.458         854.586          50.000                                                                  
C06  35362281.027   184140677.274         172.079          44.000    35362265.354   142389188.338         132.957          47.000  
G25  20458523.266   107510279.185        2520.708          42.000    20458515.267    83774201.572        1964.060          43.000  
G10  19497528.723   102460201.211        1006.457          50.000    19497517.106    79839073.960         784.143          44.000  
G28  21997152.575   115595831.582        2563.610          39.000    21997142.406    90074655.224        1997.657          43.000  
C23  20723236.722   107911330.451         224.429          50.000                                                                  
C09  36829139.403   191778999.615         270.502          40.000    36829128.170   148295634.552         209.312          47.000  
C33  26157732.588                       -2938.157          30.000                                                                  
C37  22829434.746   118878874.190        2667.651          44.000                                                                  
> 2025 10 27 02 51 50.9560000  0 19                     
G12  20738719.417   108982706.253         831.467          46.000    20738707.367    84921542.808         647.994          43.000  
G15  23295030.537   122416202.754       -3261.012          33.000    23295027.680    95389233.131       -2541.920          33.000  
G18  23630211.468   124177579.582       -3676.038          34.000    23630207.697    96761711.732       -2864.676          37.000  
G23  19288628.022   101362418.823       -2125.264          47.000    19288616.500    78983628.108       -1656.062          47.000  
G24  20986871.687                       -3383.358          28.000    20986863.356                       -2637.038          32.000  
G32  20877960.625   109714424.145        1494.904          45.000    20877950.533    85491704.452        1165.081          41.000  
C08  34715808.872   180774322.451        -351.672          46.000    34715791.971   139786093.906        -271.979          49.000  
C13  34712679.138   180758025.563         -53.687          47.000    34712670.260   139773524.970         -41.565          48.000  
C16  35671924.582   185753074.543          -7.108          47.000    35671915.615   143636020.129          -5.584          48.000  
C25  22295838.417   116100292.262       -2574.375          35.000                                                                  
C32  21038144.117   109551140.274         854.537          50.000                                                                  
C06  35362279.721   184140670.397         172.000          44.000    35362264.023   142389183.014         133.063          47.000  
G25  20458504.073   107510178.345        2520.820          42.000    20458496.072    83774122.992        1964.309          43.000  
G10  19497521.069   102460160.958        1006.317          50.000    19497509.440    79839042.587         784.247          44.000  
G28  21997133.048   115595729.011        2564.042          39.000    21997122.896    90074575.309        1997.752          43.000  
C23  20723235.004   107911321.466         224.514          50.000                                                                  
C09  36829137.300   191778988.777         270.745          40.000    36829126.089   148295626.175         209.375          47.000  
C33  26157755.194                       -2938.721          30.000                                                                  
C37  22829414.251   118878767.497        2667.427          44.000                                                                  
> 2025 10 27 02 51 50.9960000  0 19                     
G12  20738713.059   108982672.985         831.555          46.000    20738701.072    84921516.892         647.910          43.000  
G15  23295055.352                       -3261.418          33.000    23295052.474    95389334.812       -2542.225          33.000  
G18  23630239.454   124177726.652       -3676.587          34.000    23630235.687    96761826.303       -2864.551          37.000  
G23  19288644.189   101362503.840       -2125.442          47.000    19288632.674    78983694.352       -1656.130          47.000  
G24  20986897.414                       -3383.267          28.000    20986889.122                       -2636.586          32.000  
G32  20877949.245   109714364.351        1494.843          45.000    20877939.166    85491657.862        1164.924          41.000  
C08  34715811.577   180774336.531        -351.923          46.000    34715794.670   139786104.788        -272.028          49.000  
C13  34712679.547   180758027.711         -53.711          47.000    34712670.696   139773526.637         -41.693          48.000  
C16  35671924.644   185753074.836          -7.289          47.000    35671915.671   143636020.352          -5.596          48.000  
C25  22295858.191   116100395.222       -2574.245          35.000                                                                  
C32  21038137.601   109551106.089         854.552          50.000                                                                  
C06  35362278.440   184140663.522         171.865          44.000    35362262.694   142389177.697         132.959          47.000  
G25  20458484.890   107510077.514        2520.776          42.000    20458476.877    83774044.411        1964.469          43.000  
G10  19497513.397   102460120.698        1006.372          50.000    19497501.813    79839011.217         784.241          44.000  
G28  21997113.524   115595626.462        2563.866          39.000    21997103.412    90074495.404        1997.678          43.000  
C23  20723233.228   107911312.494         224.346          50.000                                                                  
C09  36829135.216   191778977.951         270.650          40.000    36829124.016   148295617.802         209.356          47.000  
C33  26157777.797                       -2938.715          30.000                                                                  
C37  22829393.773   118878660.803        2667.327          44.000                                                                  
> 2025 10 27 02 51 51.0360000  0 19                     
G12  20738706.752   108982639.731         831.382          46.000    20738694.762    84921490.979         647.823          43.000  
G15  23295080.181                       -3261.431          33.000    23295077.311    95389436.494       -2542.297          33.000  
G18  23630267.457   124177873.690       -3676.349          34.000    23630263.665    96761940.871       -2864.345          37.000  
G23  19288660.364   101362588.861       -2125.590          47.000    19288648.844    78983760.598       -1656.191          47.000  
G24  20986923.151                       -3383.217          28.000    20986914.873                       -2636.476          32.000  
G32  20877937.881   109714304.566        1494.656          45.000    20877927.795    85491611.280        1164.597          41.000  
C08  34715814.287   180774350.613        -352.075          46.000    34715797.392   139786115.673        -272.107          49.000  
C13  34712679.941   180758029.864         -53.796          47.000    34712671.122   139773528.300         -41.663          48.000  
C16  35671924.731   185753075.128          -7.352          47.000    35671915.741   143636020.571          -5.530          48.000  
C25  22295877.972   116100498.191       -2574.313          35.000                                                                  
C32  21038131.029   109551071.911         854.432          50.000                                                                  
C06  35362277.130   184140656.661         171.610          44.000    35362261.380   142389172.382         132.896          47.000  
G25  20458465.686   107509976.682        2520.799          42.000    20458457.699    83773965.851        1964.141          43.000  
G10  19497505.731   102460080.446        1006.281          50.000    19497494.147    79838979.848         784.180          44.000  
G28  21997094.029   115595523.922        2563.498          39.000    21997083.886    90074415.499        1997.586          43.000  
C23  20723231.492   107911303.523         224.248          50.000                                                                  
C09  36829133.133   191778967.134         270.476          40.000    36829121.942   148295609.436         209.192          47.000  
C33  26157800.373                       -2937.987          30.000                                                                  
C37  22829373.274   118878554.107        2667.311          44.000                                                                  
> 2025 10 27 02 51 51.0760000  0 19                     
G12  20738700.428   108982606.476         831.294          46.000    20738688.435    84921465.064         647.827          43.000  
G15  23295105.003                       -3262.275          33.000    23295102.148    95389538.144       -2541.691          33.000  
G18  23630295.454   124178020.722       -3676.066          34.000    23630291.651    96762055.443       -2864.309          37.000  
G23  19288676.549   101362673.874       -2125.459          47.000    19288665.035    78983826.845       -1656.215          47.000  
G24  20986948.901                       -3383.192          28.000    20986940.611                       -2635.971          32.000  
G32  20877926.491   109714244.785        1494.514          45.000    20877916.406    85491564.706        1164.345          41.000  
C08  34715816.982   180774364.689        -352.014          46.000    34715800.053   139786126.558        -272.137          49.000  
C13  34712680.376   180758032.015         -53.839          47.000    34712671.535   139773529.965         -41.675          48.000  
C16  35671924.773   185753075.423          -7.398          47.000    35671915.806   143636020.805          -5.766          48.000  
C25  22295897.722   116100601.140       -2574.054          35.000                                                                  
C32  21038124.466   109551037.732         854.410          50.000                                                                  
C06  35362275.827   184140649.791         171.641          44.000    35362260.095   142389167.073         132.769          47.000  
G25  20458446.500   107509875.864        2520.552          42.000    20458438.512    83773887.285        1964.054          43.000  
G10  19497498.082   102460040.198        1006.152          50.000    19497486.514    79838948.482         784.125          44.000  
G28  21997074.509   115595421.376        2563.463          39.000    21997064.343    90074335.590        1997.649          43.000  
C23  20723229.754   107911294.554         224.181          50.000                                                                  
C09  36829131.066   191778956.298         270.774          40.000    36829119.829   148295601.062         209.237          47.000  
C33  26157822.957                       -2938.683          30.000                                                                  
C37  22829352.776   118878447.415        2667.271          44.000                                                                  
> 2025 10 27 02 51 51.1160000  0 19                     
G12  20738694.105   108982573.218         831.359          46.000    20738682.103    84921439.150         647.808          43.000  
G15  23295129.845   122416724.671       -3262.451          33.000    23295126.978    95389639.807       -2541.759          33.000  
G18  23630323.432   124178167.804       -3676.795          34.000    23630319.650    96762170.057       -2865.069          37.000  
G23  19288692.719   101362758.892       -2125.483          47.000    19288681.210    78983893.097       -1656.326          47.000  
G24  20986974.654                       -3383.098          28.000    20986966.398                       -2636.476          32.000  
G32  20877915.098   109714184.996        1494.564          45.000    20877904.992    85491518.109        1164.633          41.000  
C08  34715819.672   180774378.765        -351.965          46.000    34715802.737   139786137.446        -272.217          49.000  
C13  34712680.780   180758034.169         -53.912          47.000    34712671.951   139773531.628         -41.632          48.000  
C16  35671924.830   185753075.718          -7.441          47.000    35671915.864   143636021.027          -5.662          48.000  
C25  22295917.493   116100704.074       -2573.580          35.000                                                                  
C32  21038117.931   109551003.551         854.452          50.000                                                                  
C06  35362274.525   184140642.919         171.705          44.000    35362258.800   142389161.761         132.731          47.000  
G25  20458427.316   107509775.032        2520.696          42.000    20458419.307    83773808.727        1963.877          43.000  
G10  19497490.394   102459999.943        1006.262          50.000    19497478.857    79838917.115         784.131          44.000  
G28  21997054.968   115595318.817        2563.707          39.000    21997044.830    90074255.682        1997.693          43.000  
C23  20723228.021   107911285.582         224.217          50.000                                                                  
C09  36829128.965   191778945.474         270.652          40.000    36829117.757   148295592.691         209.244          47.000  
C33  26157845.564                       -2938.104          30.000                                                                  
C37  22829332.273   118878340.719        2667.307          44.000                                                                  
> 2025 10 27 02 51 51.1560000  0 19                     
G12  20738687.788   108982539.972         831.140          46.000    20738675.756    84921413.241         647.685          43.000  
G15  23295154.687   122416855.179       -3262.725          33.000    23295151.819    95389741.516       -2542.466          33.000  
G18  23630351.411   124178314.838       -3676.385          34.000    23630347.653    96762284.635       -2864.779          37.000  
G23  19288708.898   101362843.910       -2125.471          47.000    19288697.395    78983959.344       -1656.288          47.000  
G24  20987000.399                       -3383.105          28.000    20986992.127                       -2635.500          32.000  
G32  20877903.710   109714125.207        1494.630          45.000    20877893.605    85491471.520        1164.637          41.000  
C08  34715822.375   180774392.838        -351.855          46.000    34715805.443   139786148.332        -272.198          49.000  
C13  34712681.184   180758036.328         -54.010          47.000    34712672.386   139773533.298         -41.760          48.000  
C16  35671924.889   185753076.012          -7.432          47.000    35671915.915   143636021.260          -5.799          48.000  
C25  22295937.253   116100807.048       -2574.094          35.000                                                                  
C32  21038111.378   109550969.369         854.503          50.000                                                                  
C06  35362273.203   184140636.047         171.771          44.000    35362257.520   142389156.447         132.754          47.000  
G25  20458408.132   107509674.205        2520.668          42.000    20458400.112    83773730.159        1964.030          43.000  
G10  19497482.716   102459959.691        1006.268          50.000    19497471.219    79838885.758         783.966          44.000  
G28  21997035.456   115595216.253        2564.031          39.000    21997025.299    90074175.767        1997.817          43.000  
C23  20723226.279   107911276.612         224.185          50.000                                                                  
C09  36829126.889   191778934.654         270.546          40.000    36829115.671   148295584.320         209.251          47.000  
C33  26157868.113                       -2937.138          30.000                                                                  
C37  22829311.786   118878234.031        2667.210          44.000                                                                  
> 2025 10 27 02 51 51.1960000  0 19                     
G12  20738681.460   108982506.722         831.160          46.000    20738669.437    84921387.326         647.789          43.000  
G15  23295179.513   122416985.677       -3262.689          33.000    23295176.632    95389843.192       -2542.296          33.000  
G18  23630379.389   124178461.865       -3675.962          34.000    23630375.627    96762399.206       -2864.489          37.000  
G23  19288725.089   101362928.935       -2125.625          47.000    19288713.567    78984025.598       -1656.368          47.000  
G24  20987026.180                       -3383.482          28.000    20987017.898                       -2636.504          32.000  
G32  20877892.336   109714065.418        1494.668          45.000    20877882.215    85491424.926        1164.746          41.000  
C08  34715825.076   180774406.914        -351.862          46.000    34715808.159   139786159.217        -272.180          49.000  
C13  34712681.605   180758038.487         -54.022          47.000    34712672.807   139773534.968         -41.821          48.000  
C16  35671924.957   185753076.307          -7.450          47.000    35671916.007   143636021.487          -5.763          48.000  
C25  22295957.028   116100910.042       -2574.709          35.000                                                                  
C32  21038104.796   109550935.195         854.387          50.000                                                                  
C06  35362271.893   184140629.173         171.793          44.000    35362256.212   142389151.133         132.794          47.000  
G25  20458388.918   107509573.372        2520.800          42.000    20458380.896    83773651.584        1964.220          43.000  
G10  19497475.055   102459919.446        1006.128          50.000    19497463.561    79838854.404         783.820          44.000  
G28  21997015.961   115595113.724        2563.570          39.000    21997005.796    90074095.874        1997.436          43.000  
C23  20723224.558   107911267.646         224.109          50.000                                                                  
C09  36829124.820   191778923.825         270.622          40.000    36829113.608   148295575.953         209.195          47.000  
C33  26157890.631                       -2937.206          30.000                                                                  
C37  22829291.319   118878127.345        2667.121          44.000                                                                  
> 2025 10 27 02 51 51.2360000  0 19                     
G12  20738675.121   108982473.475         831.111          46.000    20738663.112    84921361.411         647.833          43.000  
G15  23295204.344   122417116.167       -3262.396          33.000    23295201.502    95389944.835       -2541.415          33.000  
G18  23630407.370   124178608.893       -3675.778          34.000    23630403.608    96762513.788       -2864.513          37.000  
G23  19288741.268   101363013.955       -2125.581          47.000    19288729.759    78984091.846       -1656.281          47.000  
G24  20987051.913                       -3383.598          28.000    20987043.647                       -2636.510          32.000  
G32  20877880.951   109714005.631        1494.663          45.000    20877870.812    85491378.339        1164.740          41.000  
C08  34715827.794   180774421.002        -352.100          46.000    34715810.880   139786170.103        -272.192          49.000  
C13  34712682.041   180758040.638         -53.870          47.000    34712673.248   139773536.634         -41.742          48.000  
C16  35671925.013   185753076.599          -7.376          47.000    35671916.100   143636021.711          -5.669          48.000  
C25  22295976.798   116101012.985       -2574.028          35.000                                                                  
C32  21038098.275   109550901.015         854.440          50.000                                                                  
C06  35362270.569   184140622.305         171.720          44.000    35362254.908   142389145.817         132.849          47.000  
G25  20458369.733   107509472.559        2520.476          42.000    20458361.731    83773573.020        1964.137          43.000  
G10  19497467.393   102459879.199        1006.128          50.000    19497455.871    79838823.036         783.997          44.000  
G28  21996996.447   115595011.192        2563.328          39.000    21996986.288    90074015.976        1997.382          43.000  
C23  20723222.823   107911258.677         224.146          50.000                                                                  
C09  36829122.751   191778912.995         270.684          40.000    36829111.513   148295567.582         209.221          47.000  
C33  26157913.166                       -2937.885          30.000                                                                  
C37  22829270.822   118878020.657        2667.104          44.000                                                                  
> 2025 10 27 02 51 51.2760000  0 19                     
G12  20738668.762   108982440.203         831.566          46.000    20738656.788    84921335.502         647.734          43.000  
G15  23295229.171   122417246.613       -3261.625          33.000    23295226.359    95390046.490       -2541.291          33.000  
G18  23630435.379   124178755.933       -3675.863          34.000    23630431.610    96762628.381       -2864.729          37.000  
G23  19288757.451   101363098.968       -2125.439          47.000    19288745.929    78984158.092       -1656.183          47.000  
G24  20987077.666                       -3383.231          28.000    20987069.394                       -2635.669          32.000  
G32  20877869.560   109713945.839        1494.746          45.000    20877859.429    85491331.755        1164.643          41.000  
C08  34715830.494   180774435.073        -351.898          46.000    34715813.578   139786180.992        -272.235          49.000  
C13  34712682.468   180758042.786         -53.735          47.000    34712673.645   139773538.290         -41.498          48.000  
C16  35671925.069   185753076.878          -7.074          47.000    35671916.180   143636021.933          -5.587          48.000  
C25  22295996.570   116101115.930       -2573.746          35.000                                                                  
C32  21038091.738   109550866.830         854.575          50.000                                                                  
C06  35362269.257   184140615.426         171.924          44.000    35362253.582   142389140.497         132.981          47.000  
G25  20458350.539   107509371.738        2520.478          42.000    20458342.551    83773494.455        1964.098          43.000  
G10  19497459.702   102459838.948        1006.177          50.000    19497448.216    79838791.672         784.052          44.000  
G28  21996976.929   115594908.647        2563.411          39.000    21996966.781    90073936.060        1997.695          43.000  
C23  20723221.146   107911249.701         224.316          50.000                                                                  
C09  36829120.683   191778902.170         270.608          40.000    36829109.451   148295559.210         209.311          47.000  
C33  26157935.718                       -2938.309          30.000                                                                  
C37  22829250.338   118877913.953        2667.400          44.000                                                                  
> 2025 10 27 02 51 51.3160000  0 19                     
G12  20738662.447   108982406.946         831.519          46.000    20738650.470    84921309.601         647.555          43.000  
G15  23295254.015   122417377.114       -3262.303          33.000    23295251.176    95390148.131       -2540.975          33.000  
G18  23630463.363   124178902.991       -3676.261          34.000    23630459.597    96762742.938       -2864.210          37.000  
G23  19288773.624   101363183.993       -2125.606          47.000    19288762.111    78984224.339       -1656.171          47.000  
G24  20987103.437                       -3383.395          28.000    20987095.167                       -2636.619          32.000  
G32  20877858.188   109713886.048        1494.763          45.000    20877848.068    85491285.176        1164.496          41.000  
C08  34715833.221   180774449.154        -351.996          46.000    34715816.330   139786191.876        -272.150          49.000  
C13  34712682.862   180758044.941         -53.815          47.000    34712674.053   139773539.952         -41.504          48.000  
C16  35671925.147   185753077.168          -7.141          47.000    35671916.229   143636022.162          -5.688          48.000  
C25  22296016.361   116101218.926       -2574.499          35.000                                                                  
C32  21038085.144   109550832.647         854.586          50.000                                                                  
C06  35362267.925   184140608.542         172.112          44.000    35362252.286   142389135.189         132.811          47.000  
G25  20458331.363   107509270.912        2520.588          42.000    20458323.375    83773415.900        1963.904          43.000  
G10  19497452.041   102459798.702        1006.158          50.000    19497440.553    79838760.306         784.113          44.000  
G28  21996957.409   115594806.093        2563.718          39.000    21996947.261    90073856.156        1997.625          43.000  
C23  20723219.409   107911240.732         224.273          50.000                                                                  
C09  36829118.616   191778891.344         270.641          40.000    36829107.382   148295550.840         209.283          47.000  
C33  26157958.317                       -2939.113          30.000                                                                  
C37  22829229.834   118877807.256        2667.461          44.000                                                                  
> 2025 10 27 02 51 51.3560000  0 19                     
G12  20738656.139   108982373.698         831.322          46.000    20738644.160    84921283.689         647.690          43.000  
G15  23295278.872                       -3261.844          33.000    23295276.028    95390249.849       -2542.151          33.000  
G18  23630491.336   124179050.035       -3676.193          34.000    23630487.579    96762857.505       -2864.090          37.000  
G23  19288789.792   101363269.017       -2125.674          47.000    19288778.296    78984290.590       -1656.270          47.000  
G24  20987129.171                       -3383.149          28.000    20987120.944                       -2637.006          32.000  
G32  20877846.809   109713826.262        1494.678          45.000    20877836.687    85491238.589        1164.570          41.000  
C08  34715835.939   180774463.229        -351.959          46.000    34715819.041   139786202.760        -272.137          49.000  
C13  34712683.279   180758047.097         -53.918          47.000    34712674.471   139773541.622         -41.669          48.000  
C16  35671925.204   185753077.460          -7.229          47.000    35671916.312   143636022.391          -5.719          48.000  
C25  22296036.113   116101321.904       -2574.614          35.000                                                                  
C32  21038078.594   109550798.473         854.417          50.000                                                                  
C06  35362266.579   184140601.656         172.219          44.000    35362250.951   142389129.872         132.852          47.000  
G25  20458312.160   107509170.075        2520.841          42.000    20458304.183    83773337.341        1963.884          43.000  
G10  19497444.372   102459758.455        1006.128          50.000    19497432.877    79838728.945         784.052          44.000  
G28  21996937.894   115594703.537        2563.840          39.000    21996927.749    90073776.246        1997.692          43.000  
C23  20723217.712   107911231.766         224.195          50.000                                                                  
C09  36829116.548   191778880.530         270.474          40.000    36829105.290   148295542.471         209.258          47.000  
C33  26157980.883                       -2938.231          30.000                                                                  
C37  22829209.311   118877700.563        2667.410          44.000                                                                  
> 2025 10 27 02 51 51.3960000  0 19                     
G12  20738649.840   108982340.457         831.086          46.000    20738637.831    84921257.770         647.870          43.000  
G15  23295303.707   122417638.051       -3261.962          33.000    23295300.883    95390351.530       -2542.084          33.000  
G18  23630519.317   124179197.065       -3675.904          34.000    23630515.566    96762972.085       -2864.370          37.000  
G23  19288805.968   101363354.045       -2125.735          47.000    19288794.500    78984356.850       -1656.473          47.000  
G24  20987154.902                       -3383.132          28.000    20987146.709                       -2636.183          32.000  
G32  20877835.419   109713766.474        1494.673          45.000    20877825.316    85491191.986        1164.899          41.000  
C08  34715838.636   180774477.305        -351.953          46.000    34715821.747   139786213.649        -272.217          49.000  
C13  34712683.683   180758049.257         -54.016          47.000    34712674.883   139773543.296         -41.858          48.000  
C16  35671925.251   185753077.760          -7.432          47.000    35671916.366   143636022.614          -5.633          48.000  
C25  22296055.879   116101424.848       -2573.966          35.000                                                                  
C32  21038072.037   109550764.301         854.278          50.000                                                                  
C06  35362265.232   184140594.796         171.748          44.000    35362249.609   142389124.554         132.910          47.000  
G25  20458292.972   107509069.259        2520.613          42.000    20458284.997    83773258.781        1963.899          43.000  
G10  19497436.713   102459718.209        1006.091          50.000    19497425.227    79838697.584         783.984          44.000  
G28  21996918.386   115594600.996        2563.639          39.000    21996908.248    90073696.337        1997.724          43.000  
C23  20723215.938   107911222.807         223.996          50.000                                                                  
C09  36829114.478   191778869.705         270.504          40.000    36829103.196   148295534.101         209.265          47.000  
C33  26158003.455                       -2938.513          30.000                                                                  
C37  22829188.813   118877593.871        2667.384          44.000                                                                  
> 2025 10 27 02 51 51.4360000  0 19                     
G12  20738643.520   108982307.214         831.008          46.000    20738631.507    84921231.862         647.701          43.000  
G15  23295328.507   122417768.530       -3261.952          33.000    23295325.739    95390453.247       -2542.706          33.000  
G18  23630547.286   124179344.109       -3675.959          34.000    23630543.559    96763086.679       -2864.725          37.000  
G23  19288822.157   101363439.077       -2125.845          47.000    19288810.693    78984423.106       -1656.490          47.000  
G24  20987180.632                       -3382.939          28.000    20987172.474                       -2635.647          32.000  
G32  20877824.032   109713706.682        1494.711          45.000    20877813.931    85491145.401        1164.737          41.000  
C08  34715841.317   180774491.391        -352.106          46.000    34715824.424   139786224.536        -272.229          49.000  
C13  34712684.088   180758051.413         -53.973          47.000    34712675.302   139773544.972         -41.943          48.000  
C16  35671925.287   185753078.053          -7.412          47.000    35671916.441   143636022.837          -5.588          48.000  
C25  22296075.663   116101527.813       -2573.998          35.000                                                                  
C32  21038065.506   109550730.127         854.263          50.000                                                                  
C06  35362263.901   184140587.938         171.423          44.000    35362248.292   142389119.244         132.783          47.000  
G25  20458273.780   107508968.449        2520.324          42.000    20458265.817    83773180.222        1963.894          43.000  
G10  19497429.062   102459677.966        1006.030          50.000    19497417.567    79838666.229         783.875          44.000  
G28  21996898.878   115594498.462        2563.365          39.000    21996888.726    90073616.437        1997.561          43.000  
C23  20723214.216   107911213.850         223.879          50.000                                                                  
C09  36829112.408   191778858.890         270.360          40.000    36829101.106   148295525.727         209.289          47.000  
C33  26158026.042                       -2938.710          30.000                                                                  
C37  22829168.305   118877487.186        2667.181          44.000                                                                  
> 2025 10 27 02 51 51.4760000  0 19                     
G12  20738637.174   108982273.969         831.011          46.000    20738625.189    84921205.968         647.387          43.000  
G15  23295353.351   122417898.998       -3261.710          33.000    23295350.557    95390554.884       -2541.650          33.000  
G18  23630575.278   124179491.167       -3676.287          34.000    23630571.556    96763201.263       -2864.762          37.000  
G23  19288838.319   101363524.104       -2125.764          47.000    19288826.860    78984489.357       -1656.379          47.000  
G24  20987206.390                       -3383.450          28.000    20987198.253                       -2636.819          32.000  
G32  20877812.649   109713646.899        1494.600          45.000    20877802.585    85491098.810        1164.771          41.000  
C08  34715844.023   180774505.469        -352.057          46.000    34715827.100   139786235.419        -272.137          49.000  
C13  34712684.491   180758053.564         -53.845          47.000    34712675.749   139773546.633         -41.687          48.000  
C16  35671925.369   185753078.344          -7.346          47.000    35671916.501   143636023.061          -5.590          48.000  
C25  22296095.423   116101630.786       -2574.252          35.000                                                                  
C32  21038058.974   109550695.949         854.362          50.000                                                                  
C06  35362262.602   184140581.075         171.412          44.000    35362246.963   142389113.931         132.787          47.000  
G25  20458254.592   107508867.628        2520.351          42.000    20458246.617    83773101.648        1964.161          43.000  
G10  19497421.413   102459637.726        1005.969          50.000    19497409.905    79838634.869         783.911          44.000  
G28  21996879.362   115594395.926        2563.337          39.000    21996869.194    90073536.535        1997.499          43.000  
C23  20723212.509   107911204.888         223.949          50.000                                                                  
C09  36829110.294   191778848.061         270.557          40.000    36829099.069   148295517.356         209.263          47.000  
C33  26158048.592                       -2938.437          30.000                                                                  
C37  22829147.827   118877380.501        2667.110          44.000                                                                  
> 2025 10 27 02 51 51.5160000  0 19                     
G12  20738630.843   108982240.712         831.240          46.000    20738618.834    84921180.055         647.609          43.000  
G15  23295378.176   122418029.449       -3261.351          33.000    23295375.398    95390656.556       -2541.727          33.000  
G18  23630603.251   124179638.200       -3675.945          34.000    23630599.519    96763315.831       -2864.366          37.000  
G23  19288854.503   101363609.123       -2125.573          47.000    19288843.041    78984555.610       -1656.379          47.000  
G24  20987232.133                       -3383.689          28.000    20987224.033                       -2636.318          32.000  
G32  20877801.268   109713587.109        1494.662          45.000    20877791.198    85491052.227        1164.641          41.000  
C08  34715846.730   180774519.540        -351.892          46.000    34715829.843   139786246.304        -272.137          49.000  
C13  34712684.891   180758055.717         -53.815          47.000    34712676.193   139773548.290         -41.449          48.000  
C16  35671925.439   185753078.638          -7.365          47.000    35671916.592   143636023.289          -5.684          48.000  
C25  22296115.195   116101733.761       -2574.430          35.000                                                                  
C32  21038052.411   109550661.768         854.471          50.000                                                                  
C06  35362261.312   184140574.199         171.666          44.000    35362245.604   142389108.614         132.874          47.000  
G25  20458235.394   107508766.801        2520.546          42.000    20458227.446    83773023.083        1964.150          43.000  
G10  19497413.741   102459597.484        1005.975          50.000    19497402.240    79838603.508         783.966          44.000  
G28  21996859.851   115594293.371        2563.713          39.000    21996849.663    90073456.632        1997.482          43.000  
C23  20723210.798   107911195.912         224.222          50.000                                                                  
C09  36829108.237   191778837.223         270.884          40.000    36829096.970   148295508.988         209.207          47.000  
C33  26158071.183                       -2938.143          30.000                                                                  
C37  22829127.345   118877273.810        2667.202          44.000                                                                  
> 2025 10 27 02 51 51.5560000  0 19                     
G12  20738624.557   108982207.467         831.174          46.000    20738612.498    84921154.137         647.807          43.000  
G15  23295402.991   122418159.956       -3262.207          33.000    23295400.250    95390758.201       -2541.359          33.000  
G18  23630631.213   124179785.227       -3675.646          34.000    23630627.486    96763430.410       -2864.385          37.000  
G23  19288870.670   101363694.142       -2125.506          47.000    19288859.206    78984621.867       -1656.447          47.000  
G24  20987257.914                       -3383.711          28.000    20987249.782                       -2636.425          32.000  
G32  20877789.880   109713527.324        1494.617          45.000    20877779.809    85491005.630        1164.804          41.000  
C08  34715849.428   180774533.614        -351.837          46.000    34715832.570   139786257.193        -272.211          49.000  
C13  34712685.299   180758057.869         -53.815          47.000    34712676.630   139773549.953         -41.486          48.000  
C16  35671925.523   185753078.924          -7.236          47.000    35671916.664   143636023.514          -5.697          48.000  
C25  22296134.990   116101836.720       -2574.195          35.000                                                                  
C32  21038045.841   109550627.582         854.588          50.000                                                                  
C06  35362260.009   184140567.316         171.940          44.000    35362244.281   142389103.299         132.865          47.000  
G25  20458216.199   107508665.987        2520.408          42.000    20458208.256    83772944.517        1964.155          43.000  
G10  19497406.073   102459557.236        1006.116          50.000    19497394.580    79838572.148         783.997          44.000  
G28  21996840.341   115594190.817        2563.853          39.000    21996830.125    90073376.722        1997.639          43.000  
C23  20723209.044   107911186.946         224.216          50.000                                                                  
C09  36829106.140   191778826.395         270.829          40.000    36829094.905   148295500.619         209.208          47.000  
C33  26158093.762                       -2937.974          30.000                                                                  
C37  22829106.846   118877167.120        2667.191          44.000                                                                  
> 2025 10 27 02 51 51.5960000  0 19                     
G12  20738618.228   108982174.222         831.135          46.000    20738606.189    84921128.227         647.771          43.000  
G15  23295427.843   122418290.432       -3262.211          33.000    23295425.083                       -2541.687          33.000  
G18  23630659.178   124179932.276       -3675.962          34.000    23630655.484    96763544.985       -2864.398          37.000  
G23  19288886.846   101363779.172       -2125.667          47.000    19288875.370    78984688.118       -1656.367          47.000  
G24  20987283.623                       -3383.406          28.000    20987275.549                       -2636.891          32.000  
G32  20877778.499   109713467.534        1494.716          45.000    20877768.449    85490959.042        1164.724          41.000  
C08  34715852.131   180774547.697        -352.002          46.000    34715835.289   139786268.077        -272.168          49.000  
C13  34712685.720   180758060.020         -53.821          47.000    34712677.066   139773551.616         -41.541          48.000  
C16  35671925.569   185753079.213          -7.203          47.000    35671916.734   143636023.740          -5.695          48.000  
C25  22296154.758   116101939.688       -2574.213          35.000                                                                  
C32  21038039.260   109550593.404         854.483          50.000                                                                  
C06  35362258.704   184140560.434         172.058          44.000    35362242.960   142389097.983         132.877          47.000  
G25  20458196.992   107508565.164        2520.472          42.000    20458189.091    83772865.970        1963.821          43.000  
G10  19497398.413   102459516.993        1006.085          50.000    19497386.921    79838540.797         783.783          44.000  
G28  21996820.831   115594088.277        2563.646          39.000    21996810.609    90073296.814        1997.725          43.000  
C23  20723207.302   107911177.980         224.155          50.000                                                                  
C09  36829104.088   191778815.559         270.844          40.000    36829092.839   148295492.249         209.227          47.000  
C33  26158116.322                       -2937.913          30.000                                                                  
C37  22829086.361   118877060.430        2667.185          44.000                                                                  
> 2025 10 27 02 51 51.6360000  0 19                     
G12  20738611.896   108982140.975         831.122          46.000    20738599.872    84921102.332         647.480          43.000  
G15  23295452.682   122418420.917       -3262.283          33.000    23295449.939    95390961.560       -2542.130          33.000  
G18  23630687.152   124180079.318       -3676.053          34.000    23630683.468    96763659.557       -2864.273          37.000  
G23  19288903.035   101363864.199       -2125.678          47.000    19288891.537    78984754.370       -1656.336          47.000  
G24  20987309.372                       -3383.551          28.000    20987301.276                       -2636.503          32.000  
G32  20877767.123   109713407.736        1494.909          45.000    20877757.083    85490912.456        1164.660          41.000  
C08  34715854.799   180774561.774        -351.971          46.000    34715837.976   139786278.962        -272.125          49.000  
C13  34712686.120   180758062.176         -53.912          47.000    34712677.475   139773553.286         -41.711          48.000  
C16  35671925.627   185753079.503          -7.220          47.000    35671916.799   143636023.972          -5.805          48.000  
C25  22296174.518   116102042.655       -2574.307          35.000                                                                  
C32  21038032.664   109550559.231         854.356          50.000                                                                  
C06  35362257.388   184140553.559         171.990          44.000    35362241.647   142389092.672         132.784          47.000  
G25  20458177.798   107508464.335        2520.609          42.000    20458169.892    83772787.402        1964.016          43.000  
G10  19497390.765   102459476.751        1006.042          50.000    19497379.240    79838509.441         783.801          44.000  
G28  21996801.316   115593985.727        2563.696          39.000    21996791.110    90073216.913        1997.619          43.000  
C23  20723205.543   107911169.021         224.019          50.000                                                                  
C09  36829102.027   191778804.741         270.561          40.000    36829090.730   148295483.877         209.265          47.000  
C33  26158138.882                       -2937.842          30.000                                                                  
C37  22829065.881   118876953.727        2667.409          44.000                                                                  
> 2025 10 27 02 51 51.6760000  0 19                     
G12  20738605.597   108982107.724         831.199          46.000    20738593.550    84921076.439         647.292          43.000  
G15  23295477.488   122418551.412       -3262.556          33.000    23295474.762    95391063.239       -2542.208          33.000  
G18  23630715.117   124180226.359       -3676.036          34.000    23630711.447    96763774.111       -2863.989          37.000  
G23  19288919.196   101363949.216       -2125.543          47.000    19288907.698    78984820.620       -1656.293          47.000  
G24  20987335.088                       -3383.184          28.000    20987327.005                       -2636.443          32.000  
G32  20877755.735   109713347.941        1494.935          45.000    20877745.692    85490865.862        1164.778          41.000  
C08  34715857.515   180774575.845        -351.862          46.000    34715840.682   139786289.846        -272.101          49.000  
C13  34712686.551   180758064.328         -53.857          47.000    34712677.918   139773554.952         -41.711          48.000  
C16  35671925.699   185753079.797          -7.321          47.000    35671916.860   143636024.188          -5.568          48.000  
C25  22296194.286   116102145.597       -2573.869          35.000                                                                  
C32  21038026.099   109550525.058         854.301          50.000                                                                  
C06  35362256.043   184140546.695         171.702          44.000    35362240.335   142389087.353         132.880          47.000  
G25  20458158.615   107508363.506        2520.661          42.000    20458150.693    83772708.829        1964.219          43.000  
G10  19497383.087   102459436.504        1006.110          50.000    19497371.572    79838478.072         784.070          44.000  
G28  21996781.802   115593883.179        2563.721          39.000    21996771.593    90073137.014        1997.507          43.000  
C23  20723203.837   107911160.059         223.990          50.000                                                                  
C09  36829099.959   191778793.913         270.614          40.000    36829088.647   148295475.500         209.370          47.000  
C33  26158161.434                       -2938.225          30.000                                                                  
C37  22829045.364   118876847.038        2667.290          44.000                                                                  
> 2025 10 27 02 51 51.7160000  0 19                     
G12  20738599.301   108982074.480         831.100          46.000    20738587.233    84921050.523         647.636          43.000  
G15  23295502.302   122418681.896       -3262.391          33.000    23295499.609    95391164.885       -2541.605          33.000  
G18  23630743.066   124180373.399       -3676.030          34.000    23630739.426    96763888.696       -2864.473          37.000  
G23  19288935.375   101364034.248       -2125.747          47.000    19288923.860    78984886.865       -1656.151          47.000  
G24  20987360.823                       -3383.588          28.000    20987352.759                       -2636.248          32.000  
G32  20877744.350   109713288.148        1494.900          45.000    20877734.314    85490819.271        1164.776          41.000  
C08  34715860.212   180774589.923        -351.941          46.000    34715843.380   139786300.727        -272.028          49.000  
C13  34712686.974   180758066.477         -53.778          47.000    34712678.344   139773556.614         -41.638          48.000  
C16  35671925.761   185753080.080          -7.133          47.000    35671916.925   143636024.404          -5.454          48.000  
C25  22296214.092   116102248.582       -2574.338          35.000                                                                  
C32  21038019.584   109550490.875         854.443          50.000                                                                  
C06  35362254.742   184140539.819         171.781          44.000    35362239.032   142389082.035         132.924          47.000  
G25  20458139.443   107508262.682        2520.612          42.000    20458131.506    83772630.268        1964.102          43.000  
G10  19497375.416   102459396.261        1006.085          50.000    19497363.913    79838446.718         783.929          44.000  
G28  21996762.288   115593780.651        2563.334          39.000    21996752.082    90073057.104        1997.663          43.000  
C23  20723202.145   107911151.095         224.017          50.000                                                                  
C09  36829097.909   191778783.088         270.589          40.000    36829086.546   148295467.127         209.343          47.000  
C33  26158183.977                       -2938.473          30.000                                                                  
C37  22829024.886   118876740.349        2667.246          44.000                                                                  
> 2025 10 27 02 51 51.7560000  0 19                     
G12  20738592.980   108982041.234         831.076          46.000    20738580.896    84921024.607         647.854          43.000  
G15  23295527.121   122418812.359       -3261.871          33.000    23295524.450    95391266.562       -2541.755          33.000  
G18  23630771.050   124180520.440       -3676.063          34.000    23630767.431    96764003.285       -2864.758          37.000  
G23  19288951.545   101364119.278       -2125.820          47.000    19288940.065    78984953.127       -1656.442          47.000  
G24  20987386.607                       -3383.487          28.000    20987378.491                       -2635.343          32.000  
G32  20877732.977   109713228.358        1494.834          45.000    20877722.929    85490772.673        1164.878          42.000  
C08  34715862.915   180774604.000        -351.971          46.000    34715846.093   139786311.607        -272.009          49.000  
C13  34712687.395   180758068.630         -53.815          47.000    34712678.754   139773558.278         -41.620          48.000  
C16  35671925.809   185753080.376          -7.288          47.000    35671916.989   143636024.632          -5.604          48.000  
C25  22296233.856   116102351.557       -2574.473          35.000                                                                  
C32  21038013.034   109550456.695         854.481          50.000                                                                  
C06  35362253.420   184140532.942         171.869          44.000    35362237.705   142389076.718         132.949          47.000  
G25  20458120.259   107508161.873        2520.293          42.000    20458112.321    83772551.703        1964.116          43.000  
G10  19497367.769   102459356.025        1005.908          50.000    19497356.255    79838415.365         783.820          44.000  
G28  21996742.774   115593678.114        2563.344          39.000    21996732.578    90072977.196        1997.719          43.000  
C23  20723200.448   107911142.136         223.974          50.000                                                                  
C09  36829095.836   191778772.261         270.570          40.000    36829084.475   148295458.757         209.242          47.000  
C33  26158206.516                       -2938.796          30.000                                                                  
C37  22829004.380   118876633.657        2667.240          44.000                                                                  
> 2025 10 27 02 51 51.7960000  0 19                     
G12  20738586.644   108982007.987         831.077          46.000    20738574.576    84920998.704         647.692          43.000  
G15  23295551.938   122418942.770       -3260.639          33.000    23295549.306    95391368.241       -2541.907          33.000  
G18  23630799.024   124180667.495       -3676.301          34.000    23630795.414    96764117.876       -2864.867          37.000  
G23  19288967.727   101364204.308       -2125.820          47.000    19288956.241    78985019.387       -1656.564          47.000  
G24  20987412.379                       -3383.404          28.000    20987404.275                       -2636.179          32.000  
G32  20877721.607   109713168.573        1494.679          45.000    20877711.572    85490726.083        1164.817          42.000  
C08  34715865.619   180774618.075        -351.941          46.000    34715848.798   139786322.497        -272.205          49.000  
C13  34712687.786   180758070.782         -53.851          47.000    34712679.137   139773559.943         -41.638          48.000  
C16  35671925.852   185753080.669          -7.359          47.000    35671917.044   143636024.856          -5.642          48.000  
C25  22296253.635   116102454.543       -2574.668          35.000                                                                  
C32  21038006.460   109550422.522         854.350          50.000                                                                  
C06  35362252.110   184140526.061         171.973          44.000    35362236.395   142389071.404         132.888          47.000  
G25  20458101.090   107508061.050        2520.379          42.000    20458093.120    83772473.147        1963.952          43.000  
G10  19497360.101   102459315.790        1005.841          50.000    19497348.618    79838384.012         783.777          44.000  
G28  21996723.269   115593575.550        2563.868          39.000    21996713.060    90072897.290        1997.706          43.000  
C23  20723198.765   107911133.174         223.994          50.000                                                                  
C09  36829093.754   191778761.438         270.547          40.000    36829082.386   148295450.393         209.105          47.000  
C33  26158229.075                       -2938.662          30.000                                                                  
C37  22828983.930   118876526.964        2667.290          44.000                                                                  
> 2025 10 27 02 51 51.8360000  0 19                     
G12  20738580.323   108981974.755         830.874          46.000    20738568.272    84920972.807         647.510          43.000  
G15  23295576.778   122419073.290       -3261.995          33.000    23295574.127    95391469.908       -2541.771          33.000  
G18  23630827.000   124180814.512       -3675.673          34.000    23630823.381    96764232.433       -2864.274          37.000  
G23  19288983.915   101364289.339       -2125.825          47.000    19288972.426    78985085.649       -1656.625          47.000  
G24  20987438.137                       -3383.172          28.000    20987430.051                       -2637.525          32.000  
G32  20877710.253   109713108.792        1494.507          45.000    20877700.191    85490679.502        1164.618          41.000  
C08  34715868.308   180774632.156        -352.051          46.000    34715851.540   139786333.384        -272.217          49.000  
C13  34712688.178   180758072.939         -53.937          47.000    34712679.549   139773561.609         -41.675          48.000  
C16  35671925.912   185753080.962          -7.369          47.000    35671917.094   143636025.089          -5.803          48.000  
C25  22296273.408   116102557.511       -2574.520          35.000                                                                  
C32  21037999.901   109550388.344         854.351          50.000                                                                  
C06  35362250.764   184140519.194         171.798          44.000    35362235.063   142389066.091         132.849          47.000  
G25  20458081.893   107507960.247        2520.108          42.000    20458073.956    83772394.606        1963.618          43.000  
G10  19497352.455   102459275.550        1005.896          50.000    19497340.985    79838352.659         783.746          44.000  
G28  21996703.741   115593473.011        2563.641          39.000    21996693.553    90072817.392        1997.512          43.000  
C23  20723197.042   107911124.213         223.981          50.000                                                                  
C09  36829091.688   191778750.611         270.630          40.000    36829080.303   148295442.024         209.114          47.000  
C33  26158251.687                       -2938.669          30.000                                                                  
C37  22828963.463   118876420.278        2667.154          44.000                                                                  
> 2025 10 27 02 51 51.8760000  0 19                     
G12  20738573.980   108981941.517         830.860          46.000    20738561.941    84920946.911         647.344          43.000  
G15  23295601.579   122419203.781       -3262.366          33.000    23295598.962    95391571.550       -2541.232          33.000  
G18  23630854.959   124180961.549       -3675.714          34.000    23630851.345    96764347.003       -2864.242          37.000  
G23  19289000.085   101364374.368       -2125.801          47.000    19288988.587    78985151.907       -1656.532          47.000  
G24  20987463.910                       -3383.325          28.000    20987455.817                       -2636.846          32.000  
G32  20877698.881   109713049.001        1494.609          45.000    20877688.807    85490632.916        1164.595          41.000  
C08  34715871.019   180774646.237        -352.069          46.000    34715854.277   139786344.270        -272.229          49.000  
C13  34712688.602   180758075.094         -53.961          47.000    34712679.989   139773563.273         -41.644          48.000  
C16  35671925.940   185753081.251          -7.303          47.000    35671917.183   143636025.313          -5.733          48.000  
C25  22296293.195   116102660.470       -2574.112          35.000                                                                  
C32  21037993.332   109550354.169         854.340          50.000                                                                  
C06  35362249.444   184140512.318         171.819          44.000    35362233.733   142389060.772         132.924          47.000  
G25  20458062.710   107507859.421        2520.377          42.000    20458054.787    83772316.041        1963.862          43.000  
G10  19497344.794   102459235.317        1005.804          50.000    19497333.325    79838321.308         783.734          44.000  
G28  21996684.217   115593370.466        2563.583          39.000    21996674.014    90072737.493        1997.413          43.000  
C23  20723195.319   107911115.255         223.931          50.000                                                                  
C09  36829089.598   191778739.785         270.616          40.000    36829078.215   148295433.652         209.215          47.000  
C33  26158274.247                       -2938.587          30.000                                                                  
C37  22828942.980   118876313.584        2667.250          44.000                                                                  
> 2025 10 27 02 51 51.9160000  0 19                     
G12  20738567.652   108981908.273         831.012          46.000    20738555.617    84920921.018         647.220          43.000  
G15  23295626.430   122419334.259       -3262.104          33.000    23295623.825    95391673.238       -2541.824          33.000  
G18  23630882.929   124181108.591       -3675.914          34.000    23630879.327    96764461.564       -2864.080          37.000  
G23  19289016.280   101364459.409       -2125.985          47.000    19289004.741    78985218.169       -1656.569          47.000  
G24  20987489.644                       -3383.809          28.000    20987481.557                       -2636.630          32.000  
G32  20877687.513   109712989.212        1494.669          45.000    20877677.434    85490586.328        1164.652          41.000  
C08  34715873.712   180774660.315        -352.045          46.000    34715856.974   139786355.157        -272.217          49.000  
C13  34712689.039   180758077.252         -54.004          47.000    34712680.415   139773564.946         -41.797          48.000  
C16  35671925.969   185753081.546          -7.375          47.000    35671917.240   143636025.544          -5.782          48.000  
C25  22296312.959   116102763.438       -2574.026          35.000                                                                  
C32  21037986.799   109550319.998         854.258          50.000                                                                  
C06  35362248.136   184140505.442         171.848          44.000    35362232.399   142389055.457         132.910          47.000  
G25  20458043.512   107507758.605        2520.403          42.000    20458035.588    83772237.481        1963.955          43.000  
G10  19497337.145   102459195.085        1005.750          50.000    19497325.648    79838289.954         783.777          44.000  
G28  21996664.704   115593267.914        2563.721          39.000    21996654.511    90072657.600        1997.240          43.000  
C23  20723193.576   107911106.300         223.848          50.000                                                                  
C09  36829087.538   191778728.960         270.629          40.000    36829076.131   148295425.279         209.290          47.000  
C33  26158296.807                       -2938.154          30.000                                                                  
C37  22828922.490   118876206.908        2666.993          44.000                                                                  
> 2025 10 27 02 51 51.9560000  0 19                     
G12  20738561.345   108981875.044         830.805          46.000    20738549.292    84920895.115         647.375          43.000  
G15  23295651.245   122419464.753       -3262.407          33.000    23295648.620    95391774.918       -2542.145          33.000  
G18  23630910.923   124181255.629       -3675.882          34.000    23630907.310    96764576.144       -2864.355          37.000  
G23  19289032.454   101364544.448       -2126.058          47.000    19289020.932    78985284.432       -1656.599          47.000  
G24  20987515.395                       -3383.763          28.000    20987507.311                       -2636.150          32.000  
G32  20877676.132   109712929.424        1494.689          45.000    20877666.066    85490539.732        1164.867          41.000  
C08  34715876.369   180774674.396        -352.057          46.000    34715859.634   139786366.049        -272.314          49.000  
C13  34712689.494   180758079.404         -53.882          47.000    34712680.804   139773566.615         -41.815          48.000  
C16  35671926.027   185753081.844          -7.444          47.000    35671917.316   143636025.765          -5.638          48.000  
C25  22296332.750   116102866.400       -2573.910          35.000                                                                  
C32  21037980.231   109550285.826         854.227          50.000                                                                  
C06  35362246.808   184140498.586         171.525          44.000    35362231.073   142389050.149         132.756          47.000  
G25  20458024.337   107507657.794        2520.297          42.000    20458016.403    83772158.919        1963.990          43.000  
G10  19497329.451   102459154.848        1005.835          50.000    19497317.971    79838258.604         783.752          44.000  
G28  21996645.188   115593165.402        2563.049          39.000    21996634.989    90072577.697        1997.354          43.000  
C23  20723191.865   107911097.347         223.793          50.000                                                                  
C09  36829085.452   191778718.141         270.497          40.000    36829074.036   148295416.907         209.309          47.000  
C33  26158319.421                       -2937.664          30.000                                                                  
C37  22828902.012   118876100.222        2666.998          44.000                                                                  
> 2025 10 27 02 51 51.9960000  0 19                     
G12  20738555.002   108981841.812         830.764          46.000    20738542.980    84920869.215         647.455          43.000  
G15  23295676.074   122419595.243       -3262.395          33.000    23295673.454    95391876.623       -2542.689          33.000  
G18  23630938.894   124181402.684       -3676.237          34.000    23630935.287    96764690.740       -2864.753          37.000  
G23  19289048.631   101364629.486       -2126.058          47.000    19289037.104    78985350.693       -1656.593          47.000  
G24  20987541.148                       -3383.566          28.000    20987533.096                       -2637.135          32.000  
G32  20877664.742   109712869.633        1494.759          45.000    20877654.703    85490493.149        1164.666          42.000  
C08  34715879.053   180774688.478        -352.081          46.000    34715862.296   139786376.934        -272.223          49.000  
C13  34712689.903   180758081.564         -53.979          47.000    34712681.212   139773568.285         -41.827          48.000  
C16  35671926.087   185753082.138          -7.443          47.000    35671917.347   143636025.992          -5.674          48.000  
C25  22296352.529   116102969.375       -2574.214          35.000                                                                  
C32  21037973.675   109550251.651         854.287          50.000                                                                  
C06  35362245.496   184140491.714         171.648          44.000    35362229.750   142389044.840         132.694          47.000  
G25  20458005.140   107507556.982        2520.289          42.000    20457997.204    83772080.370        1963.834          43.000  
G10  19497321.801   102459114.619        1005.719          50.000    19497310.305    79838227.247         783.868          44.000  
G28  21996625.683   115593062.867        2563.128          39.000    21996615.469    90072497.791        1997.548          43.000  
C23  20723190.129   107911088.395         223.745          50.000                                                                  
C09  36829083.352   191778707.325         270.360          40.000    36829071.935   148295408.540         209.201          47.000  
C33  26158341.988                       -2937.983          30.000                                                                  
C37  22828881.528   118875993.546        2666.883          44.000                                                                  
> 2025 10 27 02 51 52.0360000  0 19                     
G12  20738548.661   108981808.579         830.760          46.000    20738536.669    84920843.316         647.487          43.000  
G15  23295700.885   122419725.678       -3261.409          33.000    23295698.314    95391978.308       -2542.452          33.000  
G18  23630966.877   124181549.720       -3676.030          34.000    23630963.267    96764805.324       -2864.740          37.000  
G23  19289064.777   101364714.521       -2125.953          47.000    19289053.291    78985416.947       -1656.457          47.000  
G24  20987566.891                       -3383.446          28.000    20987558.887                       -2636.885          32.000  
G32  20877653.379   109712809.843        1494.785          45.000    20877643.329    85490446.568        1164.554          41.000  
C08  34715881.777   180774702.553        -351.941          46.000    34715864.979   139786387.823        -272.217          49.000  
C13  34712690.327   180758083.718         -53.906          47.000    34712681.623   139773569.947         -41.656          48.000  
C16  35671926.113   185753082.434          -7.447          47.000    35671917.406   143636026.220          -5.693          48.000  
C25  22296372.307   116103072.365       -2574.670          35.000                                                                  
C32  21037967.136   109550217.481         854.230          50.000                                                                  
C06  35362244.184   184140484.843         171.722          44.000    35362228.425   142389039.528         132.695          47.000  
G25  20457985.965   107507456.163        2520.408          42.000    20457978.021    83772001.815        1963.809          43.000  
G10  19497314.147   102459074.384        1005.792          50.000    19497302.660    79838195.895         783.850          44.000  
G28  21996606.158   115592960.317        2563.516          39.000    21996595.956    90072417.888        1997.571          43.000  
C23  20723188.462   107911079.444         223.715          50.000                                                                  
C09  36829081.282   191778696.496         270.583          40.000    36829069.844   148295400.172         209.183          47.000  
C33  26158364.611                       -2938.397          30.000                                                                  
C37  22828861.024   118875886.853        2667.138          44.000                                                                  
> 2025 10 27 02 51 52.0760000  0 19                     
G12  20738542.324   108981775.348         830.728          46.000    20738530.335    84920817.421         647.436          43.000  
G15  23295725.727   122419856.185       -3262.156          33.000    23295723.126    95392079.972       -2541.959          33.000  
G18  23630994.843   124181696.756       -3675.963          34.000    23630991.244    96764919.888       -2864.272          37.000  
G23  19289080.951   101364799.554       -2125.879          47.000    19289069.484    78985483.216       -1656.630          47.000  
G24  20987592.644                       -3382.679          28.000    20987584.637                       -2635.980          32.000  
G32  20877642.008   109712750.058        1494.699          45.000    20877631.976    85490399.993        1164.436          41.000  
C08  34715884.506   180774716.630        -351.904          46.000    34715867.710   139786398.709        -272.174          49.000  
C13  34712690.731   180758085.876         -53.943          47.000    34712682.049   139773571.611         -41.608          48.000  
C16  35671926.179   185753082.728          -7.372          47.000    35671917.444   143636026.445          -5.658          48.000  
C25  22296392.083   116103175.338       -2574.476          35.000                                                                  
C32  21037960.589   109550183.311         854.231          50.000                                                                  
C06  35362242.873   184140477.969         171.805          44.000    35362227.085   142389034.215         132.759          47.000  
G25  20457966.794   107507355.355        2520.338          42.000    20457958.848    83771923.263        1963.743          43.000  
G10  19497306.500   102459034.153        1005.750          50.000    19497295.023    79838164.549         783.710          44.000  
G28  21996586.640   115592857.764        2563.725          39.000    21996576.452    90072337.996        1997.359          43.000  
C23  20723186.772   107911070.487         223.820          50.000                                                                  
C09  36829079.185   191778685.676         270.608          40.000    36829067.747   148295391.798         209.316          47.000  
C33  26158387.164                       -2937.719          30.000                                                                  
C37  22828840.545   118875780.160        2667.264          44.000                                                                  
> 2025 10 27 02 51 52.1160000  0 19                     
G12  20738536.001   108981742.111         830.820          46.000    20738524.002    84920791.529         647.310          43.000  
G15  23295750.574   122419986.678       -3262.302          33.000    23295747.932    95392181.643       -2541.896          33.000  
G18  23631022.820   124181843.800       -3676.041          34.000    23631019.212    96765034.457       -2864.173          37.000  
G23  19289097.153   101364884.598       -2126.052          47.000    19289085.683    78985549.486       -1656.765          47.000  
G24  20987618.362                       -3383.088          28.000    20987610.387                       -2636.421          32.000  
G32  20877630.633   109712690.284        1494.407          45.000    20877620.607    85490353.404        1164.607          42.000  
C08  34715887.214   180774730.719        -352.148          46.000    34715870.416   139786409.601        -272.272          49.000  
C13  34712691.136   180758088.044         -54.156          47.000    34712682.474   139773573.281         -41.705          48.000  
C16  35671926.216   185753083.022          -7.356          47.000    35671917.517   143636026.674          -5.704          48.000  
C25  22296411.831   116103278.335       -2574.821          35.000                                                                  
C32  21037954.005   109550149.140         854.232          50.000                                                                  
C06  35362241.541   184140471.108         171.617          44.000    35362225.735   142389028.902         132.814          47.000  
G25  20457947.614   107507254.545        2520.271          42.000    20457939.671    83771844.718        1963.556          43.000  
G10  19497298.840   102458993.921        1005.750          50.000    19497287.373    79838133.207         783.539          44.000  
G28  21996567.114   115592755.226        2563.522          39.000    21996556.950    90072258.094        1997.441          43.000  
C23  20723185.055   107911061.536         223.794          50.000                                                                  
C09  36829077.141   191778674.855         270.575          40.000    36829065.677   148295383.435         209.145          47.000  
C33  26158409.764                       -2937.969          30.000                                                                  
C37  22828820.076   118875673.468        2667.297          44.000                                                                  
> 2025 10 27 02 51 52.1560000  0 19                     
G12  20738529.677   108981708.875         830.872          46.000    20738517.678    84920765.636         647.247          43.000  
G15  23295775.393   122420117.147       -3261.816          33.000    23295772.766    95392283.296       -2541.458          33.000  
G18  23631050.762   124181990.823       -3675.716          34.000    23631047.185    96765149.042       -2864.456          37.000  
G23  19289113.343   101364969.643       -2126.162          47.000    19289101.876    78985615.753       -1656.727          47.000  
G24  20987644.133                       -3383.165          28.000    20987636.133                       -2635.982          32.000  
G32  20877619.250   109712630.506        1494.362          45.000    20877609.233    85490306.820        1164.613          41.000  
C08  34715889.930   180774744.802        -352.155          46.000    34715873.128   139786420.490        -272.272          49.000  
C13  34712691.552   180758090.198         -53.998          47.000    34712682.893   139773574.951         -41.760          48.000  
C16  35671926.289   185753083.318          -7.395          47.000    35671917.580   143636026.905          -5.769          48.000  
C25  22296431.628   116103381.313       -2574.641          35.000                                                                  
C32  21037947.485   109550114.969         854.239          50.000                                                                  
C06  35362240.230   184140464.232         171.779          44.000    35362224.430   142389023.589         132.805          47.000  
G25  20457928.427   107507153.737        2520.193          42.000    20457920.494    83771766.160        1963.747          43.000  
G10  19497291.189   102458953.694        1005.670          50.000    19497279.705    79838101.857         783.624          44.000  
G28  21996547.607   115592652.697        2563.287          39.000    21996537.425    90072178.192        1997.510          43.000  
C23  20723183.300   107911052.591         223.639          50.000                                                                  
C09  36829075.035   191778664.033         270.614          40.000    36829063.612   148295375.067         209.158          47.000  
C33  26158432.326                       -2938.591          30.000                                                                  
C37  22828799.588   118875566.786        2667.155          44.000                                                                  
> 2025 10 27 02 51 52.1960000  0 19                     
G12  20738523.341   108981675.646         830.740          46.000    20738511.370    84920739.746         647.214          43.000  
G15  23295800.184   122420247.632       -3261.882          33.000    23295797.607    95392384.953       -2541.306          33.000  
G18  23631078.751   124182137.886       -3676.235          34.000    23631075.197    96765263.617       -2864.427          37.000  
G23  19289129.518   101365054.684       -2126.137          47.000    19289118.048    78985682.017       -1656.659          47.000  
G24  20987669.882                       -3383.447          28.000    20987661.878                       -2636.439          32.000  
G32  20877607.878   109712570.715        1494.601          45.000    20877597.836    85490260.220        1164.908          41.000  
C08  34715892.614   180774758.888        -352.216          46.000    34715875.814   139786431.374        -272.174          49.000  
C13  34712692.016   180758092.354         -53.937          47.000    34712683.297   139773576.619         -41.736          48.000  
C16  35671926.355   185753083.609          -7.330          47.000    35671917.641   143636027.137          -5.799          48.000  
C25  22296451.380   116103484.286       -2574.419          35.000                                                                  
C32  21037940.945   109550080.796         854.277          50.000                                                                  
C06  35362238.915   184140457.357         171.869          44.000    35362223.134   142389018.276         132.853          47.000  
G25  20457909.247   107507052.927        2520.203          42.000    20457901.295    83771687.597        1963.968          43.000  
G10  19497283.515   102458913.464        1005.695          50.000    19497272.027    79838070.510         783.630          44.000  
G28  21996528.081   115592550.170        2563.140          39.000    21996517.901    90072098.295        1997.434          43.000  
C23  20723181.620   107911043.640         223.693          50.000                                                                  
C09  36829072.963   191778653.198         270.864          40.000    36829061.540   148295366.694         209.266          47.000  
C33  26158454.894                       -2939.434          30.000                                                                  
C37  22828779.112   118875460.112        2666.956          44.000                                                                  
> 2025 10 27 02 51 52.2360000  0 19                     
G12  20738516.996   108981642.416         830.718          46.000    20738505.055    84920713.841         647.468          43.000  
G15  23295824.999   122420378.096       -3261.537          33.000    23295822.419    95392486.602       -2541.122          33.000  
G18  23631106.723   124182284.877       -3675.306          34.000    23631103.181    96765378.181       -2864.254          37.000  
G23  19289145.685   101365139.721       -2126.032          47.000    19289134.204    78985748.273       -1656.487          47.000  
G24  20987695.649                       -3383.988          28.000    20987687.653    85941020.431       -2636.375          32.000  
G32  20877596.479   109712510.920        1494.805          45.000    20877586.464    85490213.632        1164.771          42.000  
C08  34715895.330   180774772.961        -351.978          46.000    34715878.513   139786442.259        -272.131          49.000  
C13  34712692.454   180758094.502         -53.778          47.000    34712683.714   139773578.279         -41.583          48.000  
C16  35671926.397   185753083.905          -7.377          47.000    35671917.702   143636027.360          -5.647          48.000  
C25  22296471.151   116103587.247       -2574.056          35.000                                                                  
C32  21037934.376   109550046.620         854.360          50.000                                                                  
C06  35362237.615   184140450.483         171.837          44.000    35362221.835   142389012.965         132.811          47.000  
G25  20457890.080   107506952.113        2520.282          42.000    20457882.118    83771609.042        1963.903          43.000  
G10  19497275.864   102458873.234        1005.731          50.000    19497264.349    79838039.164         783.606          44.000  
G28  21996508.575   115592447.635        2563.249          39.000    21996498.403    90072018.392        1997.535          43.000  
C23  20723179.901   107911034.688         223.733          50.000                                                                  
C09  36829070.876   191778642.375         270.683          40.000    36829059.478   148295358.326         209.221          47.000  
C33  26158477.493                       -2937.946          30.000                                                                  
C37  22828758.645   118875353.433        2666.934          44.000                                                                  
> 2025 10 27 02 51 52.2760000  0 19                     
G12  20738510.685   108981609.187         830.707          46.000    20738498.739    84920687.948         647.434          43.000  
G15  23295849.804   122420508.583       -3261.930          33.000    23295847.250    95392588.311       -2542.190          33.000  
G18  23631134.704   124182431.932       -3675.896          34.000    23631131.146    96765492.743       -2864.095          37.000  
G23  19289161.849   101365224.760       -2126.008          47.000    19289150.382    78985814.538       -1656.568          47.000  
G24  20987721.426                       -3383.700          28.000    20987713.392    85941125.888       -2636.412          32.000  
G32  20877585.110   109712451.123        1494.900          45.000    20877575.083    85490167.049        1164.613          41.000  
C08  34715898.021   180774787.037        -351.910          46.000    34715881.183   139786453.148        -272.198          49.000  
C13  34712692.860   180758096.660         -53.864          47.000    34712684.115   139773579.944         -41.608          48.000  
C16  35671926.454   185753084.191          -7.228          47.000    35671917.783   143636027.581          -5.560          48.000  
C25  22296490.909   116103690.222       -2574.218          35.000                                                                  
C32  21037927.790   109550012.444         854.390          50.000                                                                  
C06  35362236.299   184140443.614         171.736          44.000    35362220.528   142389007.644         132.939          47.000  
G25  20457870.880   107506851.294        2520.424          42.000    20457862.946    83771530.487        1963.861          43.000  
G10  19497268.204   102458833.006        1005.682          50.000    19497256.668    79838007.819         783.594          44.000  
G28  21996489.072   115592345.102        2563.331          39.000    21996478.859    90071938.491        1997.515          43.000  
C23  20723178.196   107911025.735         223.771          50.000                                                                  
C09  36829068.814   191778631.568         270.294          40.000    36829057.384   148295349.956         209.214          47.000  
C33  26158500.063                       -2938.458          30.000                                                                  
C37  22828738.170   118875246.746        2667.067          44.000                                                                  
> 2025 10 27 02 51 52.3160000  0 19                     
G12  20738504.335   108981575.948         830.863          46.000    20738492.410    84920662.058         647.329          43.000  
G15  23295874.667   122420639.085       -3262.420          33.000    23295872.111    95392689.982       -2542.057          33.000  
G18  23631162.671   124182578.977       -3676.060          34.000    23631159.135    96765607.302       -2863.997          37.000  
G23  19289178.037   101365309.796       -2125.934          47.000    19289166.580    78985880.810       -1656.759          47.000  
G24  20987747.183                       -3383.672          28.000    20987739.143    85941231.357       -2636.633          32.000  
G32  20877573.736   109712391.341        1494.668          45.000    20877563.725    85490120.458        1164.716          41.000  
C08  34715900.728   180774801.124        -352.094          46.000    34715883.907   139786464.038        -272.247          49.000  
C13  34712693.263   180758098.811         -53.809          47.000    34712684.502   139773581.611         -41.650          48.000  
C16  35671926.514   185753084.485          -7.317          47.000    35671917.818   143636027.812          -5.682          48.000  
C25  22296510.686   116103793.198       -2574.466          35.000                                                                  
C32  21037921.214   109549978.282         854.159          50.000                                                                  
C06  35362234.982   184140436.742         171.731          44.000    35362219.202   142389002.324         132.982          47.000  
G25  20457851.701   107506750.492        2520.171          42.000    20457843.778    83771451.935        1963.770          43.000  
G10  19497260.552   102458792.776        1005.719          50.000    19497249.018    79837976.474         783.606          44.000  
G28  21996469.555   115592242.561        2563.511          39.000    21996459.348    90071858.601        1997.291          43.000  
C23  20723176.464   107911016.785         223.764          50.000                                                                  
C09  36829066.744   191778620.734         270.619          40.000    36829055.312   148295341.590         209.139          47.000  
C33  26158522.621                       -2937.774          30.000                                                                  
C37  22828717.659   118875140.054        2667.215          44.000                                                                  
> 2025 10 27 02 51 52.3560000  0 19                     
G12  20738498.003   108981542.726         830.647          46.000    20738486.089    84920636.174         647.134          43.000  
G15  23295899.504   122420769.575       -3262.402          33.000    23295896.955    95392791.652       -2542.001          33.000  
G18  23631190.672   124182726.035       -3676.428          34.000    23631187.145    96765721.913       -2864.918          37.000  
G23  19289194.226   101365394.847       -2126.199          47.000    19289182.787    78985947.086       -1656.918          47.000  
G24  20987772.938                       -3383.540          28.000    20987764.887    85941336.828       -2636.755          32.000  
G32  20877562.370   109712331.558        1494.549          45.000    20877552.337    85490073.865        1164.771          41.000  
C08  34715903.461   180774815.209        -352.161          46.000    34715886.608   139786474.929        -272.290          49.000  
C13  34712693.705   180758100.972         -53.998          47.000    34712684.905   139773583.288         -41.882          48.000  
C16  35671926.563   185753084.786          -7.522          47.000    35671917.884   143636028.041          -5.739          48.000  
C25  22296530.470   116103896.175       -2574.421          35.000                                                                  
C32  21037914.644   109549944.114         854.136          50.000                                                                  
C06  35362233.683   184140429.879         171.554          44.000    35362217.900   142388997.022         132.704          47.000  
G25  20457832.518   107506649.683        2520.178          42.000    20457824.601    83771373.383        1963.747          43.000  
G10  19497252.931   102458752.556        1005.548          50.000    19497241.369    79837945.127         783.612          44.000  
G28  21996450.040   115592140.029        2563.410          39.000    21996439.835    90071778.706        1997.299          43.000  
C23  20723174.757   107911007.839         223.641          50.000                                                                  
C09  36829064.629   191778609.912         270.554          40.000    36829053.255   148295333.227         209.045          47.000  
C33  26158545.224                       -2938.497          30.000                                                                  
C37  22828697.172   118875033.370        2667.120          44.000                                                                  
> 2025 10 27 02 51 52.3960000  0 19                     
G12  20738491.704   108981509.516         830.308          46.000    20738479.736    84920610.285         647.125          43.000  
G15  23295924.345   122420900.059       -3262.355          33.000    23295921.771    95392893.347       -2542.344          33.000  
G18  23631218.676   124182873.082       -3676.376          34.000    23631215.121    96765836.482       -2864.639          37.000  
G23  19289210.399   101365479.901       -2126.371          47.000    19289198.959    78986013.354       -1656.831          47.000  
G24  20987798.677                       -3383.483          28.000    20987790.653    85941442.313       -2637.043          32.000  
G32  20877550.974   109712271.780        1494.430          45.000    20877540.960    85490027.284        1164.568          41.000  
C08  34715906.168   180774829.298        -352.277          46.000    34715889.337   139786485.821        -272.321          49.000  
C13  34712694.110   180758103.135         -54.126          47.000    34712685.314   139773584.958         -41.846          48.000  
C16  35671926.642   185753085.085          -7.541          47.000    35671917.957   143636028.273          -5.782          48.000  
C25  22296550.234   116103999.164       -2574.705          35.000                                                                  
C32  21037908.071   109549909.944         854.210          50.000                                                                  
C06  35362232.406   184140423.018         171.490          44.000    35362216.592   142388991.712         132.676          47.000  
G25  20457813.348   107506548.889        2519.939          42.000    20457805.442    83771294.840        1963.601          43.000  
G10  19497245.297   102458712.338        1005.414          50.000    19497233.734    79837913.782         783.582          44.000  
G28  21996430.506   115592037.478        2563.689          39.000    21996420.306    90071698.807        1997.368          43.000  
C23  20723173.004   107910998.897         223.533          50.000                                                                  
C09  36829062.519   191778599.096         270.391          40.000    36829051.176   148295324.852         209.261          47.000  
C33  26158567.787                       -2938.356          30.000                                                                  
C37  22828676.696   118874926.690        2667.021          44.000                                                                  
> 2025 10 27 02 51 52.4360000  0 19                     
G12  20738485.378   108981476.293         830.394          45.000    20738473.434    84920584.392         647.193          43.000  
G15  23295949.182   122421030.521       -3261.971          33.000    23295946.610    95392995.029       -2542.378          33.000  
G18  23631246.668   124183020.104       -3675.929          34.000    23631243.109    96765951.062       -2864.718          37.000  
G23  19289226.577   101365564.945       -2126.259          47.000    19289215.146    78986079.626       -1656.843          47.000  
G24  20987824.429                       -3383.684          28.000    20987816.397    85941547.733       -2636.019          32.000  
G32  20877539.592   109712211.989        1494.596          45.000    20877529.588    85489980.705        1164.499          41.000  
C08  34715908.894   180774843.372        -352.002          46.000    34715892.060   139786496.710        -272.296          49.000  
C13  34712694.533   180758105.293         -54.053          47.000    34712685.716   139773586.623         -41.730          48.000  
C16  35671926.710   185753085.379          -7.464          47.000    35671918.003   143636028.504          -5.833          48.000  
C25  22296570.032   116104102.152       -2574.827          35.000                                                                  
C32  21037901.499   109549875.775         854.210          50.000                                                                  
C06  35362231.064   184140416.140         171.759          44.000    35362215.264   142388986.403         132.645          47.000  
G25  20457794.158   107506448.078        2520.086          42.000    20457786.251    83771216.286        1963.723          43.000  
G10  19497237.623   102458672.116        1005.450          50.000    19497226.098    79837882.438         783.569          44.000  
G28  21996410.988   115591934.948        2563.515          39.000    21996400.814    90071618.908        1997.417          43.000  
C23  20723171.307   107910989.956         223.440          50.000                                                                  
C09  36829060.424   191778588.276         270.431          40.000    36829049.115   148295316.484         209.241          47.000  
C33  26158590.425                       -2938.888          30.000                                                                  
C37  22828656.178   118874820.015        2666.886          44.000                                                                  
> 2025 10 27 02 51 52.4760000  0 19                     
G12  20738479.063   108981443.058         830.656          45.000    20738467.114    84920558.502         647.227          43.000  
G15  23295974.002   122421160.983       -3261.608          33.000    23295971.412    95393096.672       -2541.440          33.000  
G18  23631274.668   124183167.123       -3675.571          34.000    23631271.080    96766065.648       -2864.818          37.000  
G23  19289242.769   101365649.988       -2126.147          47.000    19289231.323    78986145.897       -1656.837          47.000  
G24  20987850.117                       -3383.588          28.000    20987842.132    85941653.181       -2635.841          32.000  
G32  20877528.238   109712152.202        1494.641          45.000    20877518.185    85489934.111        1164.701          41.000  
C08  34715911.585   180774857.453        -352.002          46.000    34715894.744   139786507.599        -272.266          49.000  
C13  34712694.954   180758107.458         -54.144          47.000    34712686.125   139773588.290         -41.699          48.000  
C16  35671926.777   185753085.667          -7.315          47.000    35671918.040   143636028.732          -5.771          48.000  
C25  22296589.820   116104205.122       -2574.412          35.000                                                                  
C32  21037894.932   109549841.609         854.145          50.000                                                                  
C06  35362229.717   184140409.268         171.793          44.000    35362213.930   142388981.095         132.637          47.000  
G25  20457774.951   107506347.270        2520.154          42.000    20457767.079    83771137.739        1963.685          43.000  
G10  19497229.934   102458631.893        1005.499          50.000    19497218.451    79837851.100         783.453          44.000  
G28  21996391.465   115591832.413        2563.420          39.000    21996381.302    90071539.016        1997.305          43.000  
C23  20723169.579   107910981.015         223.446          50.000                                                                  
C09  36829058.341   191778577.448         270.634          40.000    36829047.022   148295308.119         209.146          47.000  
C33  26158612.977                       -2938.953          30.000                                                                  
C37  22828635.691   118874713.336        2666.857          44.000                                                                  
> 2025 10 27 02 51 52.5160000  0 19                     
G12  20738472.754   108981409.834         830.627          45.000    20738460.798    84920532.608         647.278          43.000  
G15  23295998.827   122421291.448       -3261.437          33.000    23295996.227    95393198.340       -2541.519          33.000  
G18  23631302.676   124183314.159       -3675.635          34.000    23631299.072    96766180.202       -2864.263          37.000  
G23  19289258.973   101365735.031       -2126.086          47.000    19289247.499    78986212.162       -1656.670          47.000  
G24  20987875.858                       -3383.834          28.000    20987867.893    85941758.643       -2636.162          32.000  
G32  20877516.840   109712092.411        1494.744          45.000    20877506.803    85489887.521        1164.757          41.000  
C08  34715914.270   180774871.530        -351.953          46.000    34715897.442   139786518.484        -272.168          49.000  
C13  34712695.347   180758109.608         -53.876          47.000    34712686.543   139773589.957         -41.681          48.000  
C16  35671926.843   185753085.965          -7.402          47.000    35671918.107   143636028.957          -5.673          48.000  
C25  22296609.586   116104308.070       -2573.778          35.000                                                                  
C32  21037888.395   109549807.436         854.241          50.000                                                                  
C06  35362228.384   184140402.389         171.935          44.000    35362212.593   142388975.782         132.745          47.000  
G25  20457755.766   107506246.455        2520.371          42.000    20457747.912    83771059.192        1963.668          43.000  
G10  19497222.274   102458591.665        1005.634          50.000    19497210.795    79837819.764         783.350          44.000  
G28  21996371.959   115591729.888        2563.184          39.000    21996361.778    90071459.127        1997.200          43.000  
C23  20723167.887   107910972.065         223.636          50.000                                                                  
C09  36829056.261   191778566.626         270.620          40.000    36829044.944   148295299.746         209.246          47.000  
C33  26158635.549                       -2938.751          30.000                                                                  
C37  22828615.221   118874606.655        2666.938          44.000                                                                  
> 2025 10 27 02 51 52.5560000  0 19                     
G12  20738466.414   108981376.616         830.503          46.000    20738454.465    84920506.720         647.218          43.000  
G15  23296023.644   122421421.970       -3262.445          33.000    23296021.050    95393299.991       -2541.243          33.000  
G18  23631330.641   124183461.202       -3675.914          34.000    23631327.028    96766294.752       -2863.867          37.000  
G23  19289275.156   101365820.076       -2126.080          47.000    19289263.666    78986278.419       -1656.480          47.000  
G24  20987901.602                       -3383.625          28.000    20987893.633    85941864.090       -2636.073          32.000  
G32  20877505.460   109712032.620        1494.785          45.000    20877495.434    85489840.934        1164.715          41.000  
C08  34715916.939   180774885.613        -352.069          46.000    34715900.149   139786529.372        -272.180          49.000  
C13  34712695.817   180758111.754         -53.674          47.000    34712686.947   139773591.624         -41.675          48.000  
C16  35671926.906   185753086.252          -7.266          47.000    35671918.129   143636029.179          -5.558          48.000  
C25  22296629.333   116104411.070       -2574.452          35.000                                                                  
C32  21037881.826   109549773.263         854.330          50.000                                                                  
C06  35362227.049   184140395.519         171.838          44.000    35362211.229   142388970.454         133.052          47.000  
G25  20457736.594   107506145.653        2520.187          42.000    20457728.737    83770980.644        1963.688          43.000  
G10  19497214.589   102458551.433        1005.780          50.000    19497203.156    79837788.413         783.582          44.000  
G28  21996352.451   115591627.347        2563.385          39.000    21996342.252    90071379.225        1997.382          43.000  
C23  20723166.216   107910963.113         223.768          50.000                                                                  
C09  36829054.190   191778555.796         270.719          40.000    36829042.884   148295291.373         209.296          47.000  
C33  26158658.123                       -2938.206          30.000                                                                  
C37  22828594.733   118874499.965        2667.151          44.000                                                                  
> 2025 10 27 02 51 52.5960000  0 19                     
G12  20738460.087   108981343.386         830.626          46.000    20738448.136    84920480.833         647.140          43.000  
G15  23296048.464   122421552.442       -3262.007          33.000    23296045.872    95393401.690       -2541.951          33.000  
G18  23631358.588   124183608.223       -3675.734          34.000    23631355.019    96766409.333       -2864.289          37.000  
G23  19289291.338   101365905.119       -2126.068          47.000    19289279.838    78986344.685       -1656.555          47.000  
G24  20987927.351                       -3383.538          28.000    20987919.375    85941969.555       -2636.485          32.000  
G32  20877494.071   109711972.829        1494.781          45.000    20877484.042    85489794.346        1164.680          41.000  
C08  34715919.662   180774899.692        -352.039          46.000    34715902.866   139786540.260        -272.174          49.000  
C13  34712696.189   180758113.913         -53.857          47.000    34712687.367   139773593.288         -41.650          48.000  
C16  35671926.980   185753086.542          -7.243          47.000    35671918.218   143636029.402          -5.550          48.000  
C25  22296649.141   116104514.050       -2574.507          35.000                                                                  
C32  21037875.274   109549739.085         854.410          50.000                                                                  
C06  35362225.690   184140388.654         171.720          44.000    35362209.884   142388965.138         132.982          47.000  
G25  20457717.432   107506044.851        2520.112          42.000    20457709.539    83770902.082        1963.956          43.000  
G10  19497206.955   102458511.208        1005.695          50.000    19497195.515    79837757.073         783.545          44.000  
G28  21996332.936   115591524.794        2563.740          39.000    21996322.736    90071299.316        1997.642          43.000  
C23  20723164.527   107910954.164         223.765          50.000                                                                  
C09  36829052.141   191778544.976         270.604          40.000    36829040.824   148295283.004         209.245          47.000  
C33  26158680.686                       -2938.096          30.000                                                                  
C37  22828574.234   118874393.281        2667.144          44.000                                                                  
> 2025 10 27 02 51 52.6360000  0 19                     
G12  20738453.768   108981310.159         830.637          45.000    20738441.803    84920454.947         647.111          43.000  
G15  23296073.284   122421682.946       -3262.286          33.000    23296070.702    95393503.364       -2541.921          33.000  
G18  23631386.544   124183755.246       -3675.672          34.000    23631382.987    96766523.900       -2864.274          37.000  
G23  19289307.518   101365990.162       -2126.062          47.000    19289296.024    78986410.960       -1656.777          47.000  
G24  20987953.110                       -3383.625          28.000    20987945.130    85942075.031       -2636.870          32.000  
G32  20877482.668   109711913.036        1494.805          45.000    20877472.672    85489747.761        1164.664          41.000  
C08  34715922.372   180774913.772        -352.026          46.000    34715905.609   139786551.148        -272.211          49.000  
C13  34712696.585   180758116.065         -53.827          47.000    34712687.754   139773594.952         -41.608          48.000  
C16  35671927.036   185753086.834          -7.263          47.000    35671918.282   143636029.623          -5.513          48.000  
C25  22296668.894   116104617.035       -2574.531          35.000                                                                  
C32  21037868.671   109549704.913         854.343          50.000                                                                  
C06  35362224.371   184140381.771         171.925          44.000    35362208.555   142388959.827         132.826          47.000  
G25  20457698.251   107505944.042        2520.190          42.000    20457690.348    83770823.531        1963.879          43.000  
G10  19497199.321   102458470.988        1005.536          50.000    19497187.845    79837725.728         783.606          44.000  
G28  21996313.439   115591422.257        2563.613          39.000    21996303.238    90071219.411        1997.684          43.000  
C23  20723162.814   107910945.220         223.665          50.000                                                                  
C09  36829050.065   191778534.159         270.473          40.000    36829038.773   148295274.634         209.239          47.000  
C33  26158703.244                       -2938.101          30.000                                                                  
C37  22828553.749   118874286.587        2667.308          44.000                                                                  
> 2025 10 27 02 51 52.6760000  0 19                     
G12  20738447.441   108981276.933         830.630          46.000    20738435.505    84920429.050         647.294          43.000  
G15  23296098.095   122421813.399       -3261.650          33.000    23296095.532    95393605.042       -2541.981          33.000  
G18  23631414.555   124183902.291       -3676.077          34.000    23631410.966    96766638.450       -2863.939          36.000  
G23  19289323.703   101366075.211       -2126.185          47.000    19289312.235    78986477.237       -1656.937          47.000  
G24  20987978.837                       -3383.268          28.000    20987970.851    85942180.471       -2636.367          32.000  
G32  20877471.296   109711853.249        1494.701          45.000    20877461.305    85489701.174        1164.650          41.000  
C08  34715925.089   180774927.850        -351.959          46.000    34715908.336   139786562.033        -272.162          49.000  
C13  34712696.962   180758118.221         -53.906          47.000    34712688.165   139773596.617         -41.620          48.000  
C16  35671927.100   185753087.127          -7.316          47.000    35671918.335   143636029.854          -5.673          48.000  
C25  22296688.677   116104720.019       -2574.561          35.000                                                                  
C32  21037862.113   109549670.745         854.221          50.000                                                                  
C06  35362223.060   184140374.902         171.815          44.000    35362207.248   142388954.510         132.847          47.000  
G25  20457679.059   107505843.233        2520.237          42.000    20457671.167    83770744.980        1963.831          43.000  
G10  19497191.700   102458430.766        1005.518          50.000    19497180.194    79837694.378         783.698          44.000  
G28  21996293.926   115591319.722        2563.450          39.000    21996283.732    90071139.514        1997.501          43.000  
C23  20723161.072   107910936.276         223.595          50.000                                                                  
C09  36829047.987   191778523.323         270.789          40.000    36829036.705   148295266.262         209.265          47.000  
C33  26158725.846                       -2938.024          30.000                                                                  
C37  22828533.258   118874179.899        2667.287          44.000                                                                  
> 2025 10 27 02 51 52.7160000  0 19                     
G12  20738441.099   108981243.715         830.495          46.000    20738429.177    84920403.166         647.188          43.000  
G15  23296122.897   122421943.846       -3261.228          33.000    23296120.386    95393706.713       -2541.858          33.000  
G18  23631442.572   124184049.339       -3676.300          34.000    23631438.948    96766753.023       -2864.097          37.000  
G23  19289339.882   101366160.258       -2126.210          47.000    19289328.395    78986543.505       -1656.849          47.000  
G24  20988004.572                       -3382.710          28.000    20987996.637    85942285.964       -2636.993          32.000  
G32  20877459.910   109711793.469        1494.528          45.000    20877449.919    85489654.582        1164.761          41.000  
C08  34715927.821   180774941.925        -351.880          46.000    34715911.061   139786572.915        -272.089          49.000  
C13  34712697.362   180758120.373         -53.845          47.000    34712688.559   139773598.286         -41.724          48.000  
C16  35671927.162   185753087.416          -7.264          47.000    35671918.394   143636030.080          -5.710          48.000  
C25  22296708.454   116104822.990       -2574.451          35.000                                                                  
C32  21037855.570   109549636.576         854.192          50.000                                                                  
C06  35362221.747   184140368.026         171.813          44.000    35362205.938   142388949.196         132.830          47.000  
G25  20457659.880   107505742.420        2520.341          42.000    20457651.991    83770666.435        1963.644          43.000  
G10  19497184.025   102458390.539        1005.591          50.000    19497172.548    79837663.028         783.722          44.000  
G28  21996274.409   115591217.189        2563.319          39.000    21996264.236    90071059.616        1997.433          43.000  
C23  20723159.331   107910927.334         223.525          50.000                                                                  
C09  36829045.940   191778512.497         270.749          40.000    36829034.644   148295257.885         209.371          47.000  
C33  26158748.445                       -2938.410          30.000                                                                  
C37  22828512.791   118874073.212        2667.237          44.000                                                                  
> 2025 10 27 02 51 52.7560000  0 19                     
G12  20738434.807   108981210.489         830.570          46.000    20738422.851    84920377.268         647.357          43.000  
G15  23296147.736   122422074.338       -3261.877          33.000    23296145.202    95393808.393       -2542.094          33.000  
G18  23631470.556   124184196.371       -3675.994          34.000    23631466.922    96766867.589       -2864.147          37.000  
G23  19289356.046   101366245.307       -2126.234          47.000    19289344.572    78986609.767       -1656.671          47.000  
G24  20988030.321                       -3383.093          28.000    20988022.391                       -2636.706          32.000  
G32  20877448.531   109711733.679        1494.623          45.000    20877438.525    85489607.991        1164.771          41.000  
C08  34715930.506   180774955.999        -351.825          46.000    34715913.710   139786583.802        -272.150          49.000  
C13  34712697.771   180758122.528         -53.888          47.000    34712688.961   139773599.952         -41.699          48.000  
C16  35671927.212   185753087.700          -7.125          47.000    35671918.451   143636030.303          -5.642          48.000  
C25  22296728.207   116104925.941       -2573.896          35.000                                                                  
C32  21037849.063   109549602.401         854.297          50.000                                                                  
C06  35362220.450   184140361.148         171.899          44.000    35362204.638   142388943.882         132.791          47.000  
G25  20457640.703   107505641.609        2520.393          42.000    20457632.790    83770587.884        1963.653          43.000  
G10  19497176.357   102458350.313        1005.634          50.000    19497164.922    79837631.691         783.478          44.000  
G28  21996254.904   115591114.667        2563.117          39.000    21996244.716    90070979.712        1997.490          43.000  
C23  20723157.664   107910918.386         223.612          50.000                                                                  
C09  36829043.866   191778501.660         270.891          40.000    36829032.566   148295249.514         209.306          47.000  
C33  26158771.013                       -2938.530          30.000                                                                  
C37  22828492.301   118873966.534        2667.049          44.000                                                                  
> 2025 10 27 02 51 52.7960000  0 19                     
G12  20738428.499   108981177.263         830.588          46.000    20738416.523    84920351.379         647.289          43.000  
G15  23296172.554   122422204.815       -3261.885          33.000    23296170.054    95393910.085       -2542.292          33.000  
G18  23631498.503   124184343.375       -3675.337          34.000    23631494.894    96766982.158       -2864.156          37.000  
G23  19289372.237   101366330.352       -2126.178          47.000    19289360.762    78986676.040       -1656.758          47.000  
G24  20988056.093                       -3383.220          28.000    20988048.121    85942496.861       -2636.072          32.000  
G32  20877437.169   109711673.871        1494.999          45.000    20877427.145    85489561.386        1165.048          41.000  
C08  34715933.204   180774970.077        -351.917          46.000    34715916.363   139786594.687        -272.150          49.000  
C13  34712698.175   180758124.679         -53.845          47.000    34712689.359   139773601.613         -41.589          48.000  
C16  35671927.276   185753087.982          -7.040          47.000    35671918.481   143636030.521          -5.498          48.000  
C25  22296747.997   116105028.925       -2574.268          35.000                                                                  
C32  21037842.503   109549568.224         854.405          50.000                                                                  
C06  35362219.148   184140354.270         171.930          44.000    35362203.347   142388938.560         132.937          47.000  
G25  20457621.497   107505540.795        2520.447          42.000    20457613.594    83770509.326        1963.784          43.000  
G10  19497168.687   102458310.081        1005.743          50.000    19497157.279    79837600.354         783.411          44.000  
G28  21996235.408   115591012.141        2563.056          39.000    21996225.203    90070899.816        1997.409          43.000  
C23  20723155.907   107910909.437         223.669          50.000                                                                  
C09  36829041.789   191778490.834         270.789          40.000    36829030.479   148295241.138         209.369          47.000  
C33  26158793.572                       -2938.193          30.000                                                                  
C37  22828471.802   118873859.854        2666.962          44.000                                                                  
> 2025 10 27 02 51 52.8360000  0 19                     
G12  20738422.202   108981144.041         830.584          46.000    20738410.206    84920325.500         647.092          43.000  
G15  23296197.381   122422335.295       -3262.018          33.000    23296194.891    95394011.724       -2541.537          33.000  
G18  23631526.461   124184490.385       -3675.084          34.000    23631522.880    96767096.729       -2864.240          36.000  
G23  19289388.431   101366415.403       -2126.259          47.000    19289376.965    78986742.313       -1656.844          47.000  
G24  20988081.857                       -3383.359          28.000    20988073.857    85942602.301       -2635.942          32.000  
G32  20877425.793   109711614.073        1495.009          45.000    20877415.771    85489514.795        1164.924          41.000  
C08  34715935.894   180774984.156        -351.959          46.000    34715919.050   139786605.574        -272.198          49.000  
C13  34712698.603   180758126.831         -53.809          47.000    34712689.788   139773603.278         -41.632          48.000  
C16  35671927.323   185753088.277          -7.262          47.000    35671918.548   143636030.747          -5.610          48.000  
C25  22296767.775   116105131.899       -2574.317          35.000                                                                  
C32  21037835.961   109549534.048         854.421          50.000                                                                  
C06  35362217.834   184140347.395         171.903          44.000    35362202.036   142388933.247         132.861          47.000  
G25  20457602.330   107505439.995        2520.167          42.000    20457594.403    83770430.770        1963.843          43.000  
G10  19497161.042   102458269.864        1005.518          50.000    19497149.623    79837569.017         783.362          44.000  
G28  21996215.891   115590909.569        2563.891          39.000    21996205.715    90070819.925        1997.248          43.000  
C23  20723154.181   107910900.490         223.660          50.000                                                                  
C09  36829039.702   191778479.998         270.857          40.000    36829028.417   148295232.765         209.351          47.000  
C33  26158816.135                       -2938.234          30.000                                                                  
C37  22828451.356   118873753.169        2667.025          44.000                                                                  
> 2025 10 27 02 51 52.8760000  0 19                     
G12  20738415.891   108981110.820         830.539          46.000    20738403.892    84920299.616         647.054          43.000  
G15  23296222.190   122422465.749       -3261.646          33.000    23296219.718    95394113.379       -2541.327          33.000  
G18  23631554.456   124184637.429       -3675.616          34.000    23631550.838    96767211.292       -2864.114          36.000  
G23  19289404.603   101366500.446       -2126.154          47.000    19289393.153    78986808.585       -1656.825          47.000  
G24  20988107.609                       -3383.628          28.000    20988099.603    85942707.745       -2635.949          32.000  
G32  20877414.425   109711554.285        1494.824          45.000    20877404.401    85489468.209        1164.695          41.000  
C08  34715938.605   180774998.238        -352.057          46.000    34715921.755   139786616.464        -272.253          49.000  
C13  34712699.039   180758128.980         -53.754          47.000    34712690.191   139773604.943         -41.669          48.000  
C16  35671927.403   185753088.568          -7.304          47.000    35671918.614   143636030.970          -5.622          48.000  
C25  22296787.554   116105234.874       -2574.366          35.000                                                                  
C32  21037829.375   109549499.875         854.362          50.000                                                                  
C06  35362216.538   184140340.518         171.923          44.000    35362200.718   142388927.927         132.939          47.000  
G25  20457583.158   107505339.186        2520.178          42.000    20457575.213    83770352.216        1963.820          43.000  
G10  19497153.419   102458229.647        1005.396          50.000    19497141.974    79837537.668         783.618          44.000  
G28  21996196.365   115590807.026        2563.748          39.000    21996186.217    90070740.028        1997.318          43.000  
C23  20723152.446   107910891.549         223.544          50.000                                                                  
C09  36829037.638   191778469.173         270.693          39.000    36829026.337   148295224.399         209.186          47.000  
C33  26158838.701                       -2937.505          30.000                                                                  
C37  22828430.919   118873646.481        2667.128          44.000                                                                  
> 2025 10 27 02 51 52.9160000  0 19                     
G12  20738409.553   108981077.597         830.551          46.000    20738397.570    84920273.729         647.061          43.000  
G15  23296247.026   122422596.254       -3262.202          33.000    23296244.518    95394215.010       -2540.854          33.000  
G18  23631582.442   124184784.440       -3675.421          34.000    23631578.796    96767325.860       -2864.203          36.000  
G23  19289420.812   101366585.504       -2126.394          47.000    19289409.317    78986874.862       -1656.936          47.000  
G24  20988133.329                       -3383.682          28.000    20988125.361                       -2636.260          32.000  
G32  20877403.063   109711494.505        1494.532          45.000    20877393.008    85489421.630        1164.460          41.000  
C08  34715941.327   180775012.324        -352.209          46.000    34715924.485   139786627.353        -272.266          49.000  
C13  34712699.448   180758131.139         -53.931          47.000    34712690.615   139773606.617         -41.852          48.000  
C16  35671927.438   185753088.869          -7.510          47.000    35671918.655   143636031.200          -5.752          48.000  
C25  22296807.348   116105337.884       -2574.988          35.000                                                                  
C32  21037822.775   109549465.712         854.132          50.000                                                                  
C06  35362215.220   184140333.654         171.670          44.000    35362199.411   142388922.616         132.806          47.000  
G25  20457563.983   107505238.387        2520.038          42.000    20457556.035    83770273.682        1963.456          43.000  
G10  19497145.759   102458189.432        1005.310          50.000    19497134.312    79837506.327         783.576          44.000  
G28  21996176.858   115590704.512        2563.074          39.000    21996166.699    90070660.134        1997.325          43.000  
C23  20723150.690   107910882.612         223.417          50.000                                                                  
C09  36829035.572   191778458.363         270.368          40.000    36829024.274   148295216.032         209.151          47.000  
C33  26158861.242   136215988.994       -2937.885          30.000                                                                  
C37  22828410.441   118873539.798        2667.084          44.000                                                                  
> 2025 10 27 02 51 52.9560000  0 19                     
G12  20738403.228   108981044.385         830.357          46.000    20738391.278    84920247.847         647.039          43.000  
G15  23296271.838   122422726.749       -3262.448          33.000    23296269.336    95394316.706       -2541.740          33.000  
G18  23631610.425   124184931.501       -3676.131          34.000    23631606.763    96767440.441       -2864.436          36.000  
G23  19289437.014   101366670.562       -2126.492          47.000    19289425.497    78986941.138       -1656.966          47.000  
G24  20988159.096                       -3383.316          28.000    20988151.135                       -2637.276          32.000  
G32  20877391.680   109711434.722        1494.442          45.000    20877381.642    85489375.055        1164.340          42.000  
C08  34715944.041   180775026.407        -352.191          46.000    34715927.185   139786638.240        -272.235          49.000  
C13  34712699.844   180758133.303         -54.077          47.000    34712691.046   139773608.284         -41.791          48.000  
C16  35671927.500   185753089.161          -7.438          47.000    35671918.686   143636031.435          -5.945          48.000  
C25  22296827.128   116105440.888       -2575.170          35.000                                                                  
C32  21037816.193   109549431.547         854.072          50.000                                                                  
C06  35362213.878   184140326.790         171.539          44.000    35362198.076   142388917.298         132.848          47.000  
G25  20457544.804   107505137.587        2519.976          42.000    20457536.848    83770195.127        1963.652          43.000  
G10  19497138.077   102458149.216        1005.328          50.000    19497126.646    79837474.984         783.606          44.000  
G28  21996157.348   115590601.994        2562.766          39.000    21996147.206    90070580.237        1997.356          43.000  
C23  20723148.975   107910873.681         223.253          50.000                                                                  
C09  36829033.474   191778447.535         270.510          40.000    36829022.179   148295207.667         209.088          47.000  
C33  26158883.820                       -2939.436          30.000                                                                  
C37  22828389.935   118873433.113        2667.090          44.000                                                                  
> 2025 10 27 02 51 52.9960000  0 19                     
G12  20738396.924   108981011.185         830.046          46.000    20738384.950    84920221.965         647.022          43.000  
G15  23296296.678   122422857.248       -3262.506          33.000    23296294.176    95394418.413       -2542.471          33.000  
G18  23631638.410   124185078.575       -3676.796          34.000    23631634.737    96767555.011       -2864.370          36.000  
G23  19289453.183   101366755.615       -2126.436          47.000    19289441.692    78987007.417       -1657.033          47.000  
G24  20988184.877                       -3383.398          28.000    20988176.913                       -2636.965          32.000  
G32  20877380.288   109711374.941        1494.404          45.000    20877370.249    85489328.458        1164.664          42.000  
C08  34715946.745   180775040.492        -352.197          46.000    34715929.892   139786649.127        -272.186          49.000  
C13  34712700.244   180758135.466         -54.120          47.000    34712691.456   139773609.954         -41.779          48.000  
C16  35671927.594   185753089.459          -7.475          47.000    35671918.739   143636031.664          -5.852          48.000  
C25  22296846.911   116105543.846       -2574.342          35.000                                                                  
C32  21037809.601   109549397.389         853.940          50.000                                                                  
C06  35362212.560   184140319.925         171.487          44.000    35362196.744   142388911.993         132.672          47.000  
G25  20457525.619   107505036.791        2519.890          42.000    20457517.671    83770116.587        1963.502          43.000  
G10  19497130.394   102458108.997        1005.402          50.000    19497119.006    79837443.647         783.417          44.000  
G28  21996137.844   115590499.470        2562.833          39.000    21996127.692    90070500.339        1997.418          43.000  
C23  20723147.273   107910864.749         223.215          50.000                                                                  
C09  36829031.374   191778436.723         270.323          40.000    36829020.096   148295199.300         209.090          47.000  
C33  26158906.392                       -2939.131          30.000                                                                  
C37  22828369.449   118873326.441        2666.900          44.000                                                                  
> 2025 10 27 02 51 53.0360000  0 19                     
G12  20738390.582   108980977.971         830.131          46.000    20738378.640    84920196.081         647.068          43.000  
G15  23296321.488   122422987.698       -3261.725          33.000    23296319.030    95394520.106       -2542.527          33.000  
G18  23631666.408   124185225.579       -3675.768          34.000    23631662.699    96767669.580       -2864.346          36.000  
G23  19289469.360   101366840.667       -2126.386          47.000    19289457.864    78987073.700       -1657.082          47.000  
G24  20988210.631                       -3383.443          28.000    20988202.632                       -2636.458          32.000  
G32  20877368.902   109711315.152        1494.564          45.000    20877358.852    85489281.868        1164.731          42.000  
C08  34715949.433   180775054.569        -352.014          46.000    34715932.598   139786660.025        -272.394          49.000  
C13  34712700.643   180758137.627         -54.108          47.000    34712691.849   139773611.625         -41.803          48.000  
C16  35671927.652   185753089.753          -7.427          47.000    35671918.799   143636031.884          -5.647          48.000  
C25  22296866.692   116105646.820       -2574.240          35.000                                                                  
C32  21037803.046   109549363.221         854.041          50.000                                                                  
C06  35362211.255   184140313.041         171.876          44.000    35362195.432   142388906.676         132.797          47.000  
G25  20457506.441   107504935.992        2519.873          42.000    20457498.490    83770038.039        1963.579          43.000  
G10  19497122.757   102458068.783        1005.353          50.000    19497111.353    79837412.315         783.282          44.000  
G28  21996118.308   115590396.930        2563.240          39.000    21996108.181    90070420.447        1997.299          43.000  
C23  20723145.607   107910855.811         223.317          50.000                                                                  
C09  36829029.276   191778425.896         270.494          40.000    36829018.057   148295190.926         209.241          47.000  
C33  26158928.961                       -2938.995          30.000                                                                  
C37  22828348.978   118873219.760        2666.905          44.000                                                                  
> 2025 10 27 02 51 53.0760000  0 19                     
G12  20738384.279   108980944.754         830.277          46.000    20738372.325    84920170.215         646.752          43.000  
G15  23296346.336   122423118.196       -3262.142          33.000    23296343.891    95394621.785       -2542.228          33.000  
G18  23631694.377   124185372.595       -3675.388          34.000    23631690.705    96767784.153       -2864.307          36.000  
G23  19289485.564   101366925.735       -2126.645          47.000    19289474.043    78987139.978       -1657.013          47.000  
G24  20988236.332                       -3383.481          28.000    20988228.356                       -2636.270          32.000  
G32  20877357.523   109711255.356        1494.755          45.000    20877347.464    85489235.284        1164.658          42.000  
C08  34715952.124   180775068.654        -352.075          46.000    34715935.279   139786670.921        -272.455          49.000  
C13  34712701.074   180758139.789         -54.089          47.000    34712692.267   139773613.294         -41.754          48.000  
C16  35671927.741   185753090.055          -7.552          47.000    35671918.887   143636032.109          -5.625          48.000  
C25  22296886.477   116105749.809       -2574.519          35.000                                                                  
C32  21037796.474   109549329.060         854.003          50.000                                                                  
C06  35362209.930   184140306.176         171.704          44.000    35362194.095   142388901.371         132.659          47.000  
G25  20457487.257   107504835.196        2519.836          42.000    20457479.312    83769959.504        1963.419          43.000  
G10  19497115.105   102458028.577        1005.157          50.000    19497103.692    79837380.997         782.953          44.000  
G28  21996098.789   115590294.388        2563.463          39.000    21996088.696    90070340.564        1997.101          43.000  
C23  20723143.913   107910846.879         223.292          50.000                                                                  
C09  36829027.179   191778415.087         270.319          39.000    36829015.985   148295182.564         209.096          47.000  
C33  26158951.510                       -2938.323          30.000                                                                  
C37  22828328.486   118873113.088        2666.817          44.000                                                                  
> 2025 10 27 02 51 53.1160000  0 19                     
G12  20738377.966   108980911.550         830.100          46.000    20738365.998    84920144.340         646.743          43.000  
G15  23296371.174   122423248.662       -3261.890          33.000    23296368.730    95394723.437       -2541.555          33.000  
G18  23631722.362   124185519.618       -3675.434          34.000    23631718.711    96767898.740       -2864.491          36.000  
G23  19289501.757   101367010.795       -2126.620          47.000    19289490.236    78987206.262       -1657.106          47.000  
G24  20988262.072                       -3383.877          28.000    20988254.106                       -2636.109          32.000  
G32  20877346.178   109711195.585        1494.402          45.000    20877336.101    85489188.698        1164.646          42.000  
C08  34715954.800   180775082.743        -352.203          46.000    34715937.946   139786681.815        -272.437          49.000  
C13  34712701.484   180758141.951         -54.071          47.000    34712692.643   139773614.971         -41.901          48.000  
C16  35671927.826   185753090.354          -7.562          47.000    35671918.943   143636032.341          -5.759          48.000  
C25  22296906.277   116105852.811       -2574.832          35.000                                                                  
C32  21037789.926   109549294.897         854.010          50.000                                                                  
C06  35362208.588   184140299.307         171.698          44.000    35362192.757   142388896.068         132.549          47.000  
G25  20457468.081   107504734.401        2519.869          42.000    20457460.129    83769880.963        1963.450          43.000  
G10  19497107.470   102457988.376        1004.980          50.000    19497096.067    79837349.664         783.136          44.000  
G28  21996079.273   115590191.857        2563.348          39.000    21996069.185    90070260.673        1997.133          43.000  
C23  20723142.187   107910837.946         223.272          50.000                                                                  
C09  36829025.096   191778404.260         270.522          39.000    36829013.922   148295174.197         209.115          47.000  
C33  26158974.077                       -2938.508          30.000                                                                  
C37  22828308.005   118873006.415        2666.747          44.000                                                                  
> 2025 10 27 02 51 53.1560000  0 19                     
G12  20738371.654   108980878.344         830.085          46.000    20738359.649    84920118.467         646.743          43.000  
G15  23296395.997   122423379.158       -3262.251          33.000    23296393.557    95394825.105       -2541.566          33.000  
G18  23631750.358   124185666.627       -3675.193          34.000    23631746.712    96768013.307       -2864.286          36.000  
G23  19289517.968   101367095.864       -2126.773          47.000    19289506.426    78987272.544       -1657.125          47.000  
G24  20988287.832                       -3384.282          28.000    20988279.852                       -2636.714          32.000  
G32  20877334.819   109711135.805        1494.396          45.000    20877324.746    85489142.109        1164.671          42.000  
C08  34715957.513   180775096.837        -352.344          46.000    34715940.648   139786692.709        -272.418          49.000  
C13  34712701.869   180758144.114         -54.108          47.000    34712693.055   139773616.642         -41.852          48.000  
C16  35671927.918   185753090.652          -7.513          47.000    35671918.974   143636032.577          -5.894          48.000  
C25  22296926.031   116105955.834       -2575.428          35.000                                                                  
C32  21037783.390   109549260.733         854.030          50.000                                                                  
C06  35362207.262   184140292.445         171.588          44.000    35362191.446   142388890.755         132.672          47.000  
G25  20457448.898   107504633.604        2519.953          42.000    20457440.943    83769802.431        1963.287          43.000  
G10  19497099.804   102457948.173        1004.974          50.000    19497088.424    79837318.336         783.148          44.000  
G28  21996059.780   115590089.341        2562.948          39.000    21996049.690    90070180.784        1997.166          43.000  
C23  20723140.478   107910829.019         223.183          50.000                                                                  
C09  36829022.999   191778393.431         270.690          40.000    36829011.853   148295165.832         209.091          47.000  
C33  26158996.669   136216694.294       -2938.959          30.000                                                                  
C37  22828287.482   118872899.754        2666.533          44.000                                                                  
> 2025 10 27 02 51 53.1960000  0 19                     
G12  20738365.333   108980845.141         830.037          46.000    20738353.326    84920092.594         646.724          43.000  
G15  23296420.828   122423509.640       -3262.168          33.000    23296418.384    95394926.768       -2541.541          33.000  
G18  23631778.354   124185813.689       -3676.051          34.000    23631774.690    96768127.862       -2864.001          36.000  
G23  19289534.151   101367180.923       -2126.618          47.000    19289522.616    78987338.826       -1657.087          47.000  
G24  20988313.622                       -3383.755          28.000    20988305.594                       -2636.070          32.000  
G32  20877323.439   109711076.016        1494.582          45.000    20877313.372    85489095.525        1164.599          42.000  
C08  34715960.228   180775110.929        -352.393          46.000    34715943.363   139786703.600        -272.327          49.000  
C13  34712702.303   180758146.276         -54.095          47.000    34712693.462   139773618.317         -41.895          48.000  
C16  35671928.012   185753090.944          -7.396          47.000    35671919.019   143636032.807          -5.829          48.000  
C25  22296945.806   116106058.811       -2574.691          35.000                                                                  
C32  21037776.847   109549226.567         854.094          50.000                                                                  
C06  35362205.911   184140285.587         171.461          44.000    35362190.159   142388885.443         132.738          47.000  
G25  20457429.735   107504532.819        2519.755          42.000    20457421.771    83769723.885        1963.490          43.000  
G10  19497092.135   102457907.962        1005.145          50.000    19497080.766    79837287.002         783.264          44.000  
G28  21996040.272   115589986.822        2562.922          39.000    21996030.181    90070100.888        1997.328          43.000  
C23  20723138.774   107910820.091         223.141          50.000                                                                  
C09  36829020.950   191778382.616         270.499          40.000    36829009.783   148295157.471         209.030          47.000  
C33  26159019.267                       -2937.697          30.000                                                                  
C37  22828267.023   118872793.074        2666.735          44.000                                                                  
> 2025 10 27 02 51 53.2360000  0 19                     
G12  20738359.001   108980811.935         830.065          46.000    20738346.991    84920066.724         646.687          43.000  
G15  23296445.663   122423640.124       -3262.096          33.000    23296443.200    95395028.430       -2541.571          33.000  
G18  23631806.334   124185960.728       -3676.085          34.000    23631802.681    96768242.432       -2864.101          36.000  
G23  19289550.330   101367265.981       -2126.526          47.000    19289538.782    78987405.103       -1656.988          47.000  
G24  20988339.364                       -3383.672          28.000    20988331.359    85943656.900       -2636.400          32.000  
G32  20877312.052   109711016.237        1494.507          45.000    20877301.977    85489048.946        1164.504          42.000  
C08  34715962.967   180775125.014        -352.240          46.000    34715946.077   139786714.492        -272.290          49.000  
C13  34712702.723   180758148.433         -53.967          47.000    34712693.905   139773619.986         -41.779          48.000  
C16  35671928.086   185753091.247          -7.530          47.000    35671919.037   143636033.031          -5.712          48.000  
C25  22296965.558   116106161.783       -2574.323          35.000                                                                  
C32  21037770.294   109549192.407         854.037          50.000                                                                  
C06  35362204.593   184140278.715         171.628          44.000    35362188.823   142388880.123         132.922          47.000  
G25  20457410.558   107504432.032        2519.672          42.000    20457402.569    83769645.335        1963.670          43.000  
G10  19497084.465   102457867.752        1005.219          50.000    19497073.134    79837255.675         783.191          44.000  
G28  21996020.770   115589884.284        2563.234          39.000    21996010.659    90070020.999        1997.252          43.000  
C23  20723137.069   107910811.162         223.163          50.000                                                                  
C09  36829018.870   191778371.794         270.505          40.000    36829007.671   148295149.106         209.081          47.000  
C33  26159041.821                       -2937.689          30.000                                                                  
C37  22828246.545   118872686.383        2667.106          44.000                                                                  
> 2025 10 27 02 51 53.2760000  0 19                     
G12  20738352.675   108980778.729         830.093          46.000    20738340.683    84920040.846         646.804          43.000  
G15  23296470.495   122423770.626       -3262.391          33.000    23296468.063    95395130.138       -2542.317          33.000  
G18  23631834.319   124186107.759       -3675.934          34.000    23631830.671    96768357.013       -2864.453          36.000  
G23  19289566.509   101367351.043       -2126.538          47.000    19289554.968    78987471.385       -1657.001          47.000  
G24  20988365.107                       -3384.043          28.000    20988357.138    85943762.387       -2637.034          32.000  
G32  20877300.685   109710956.443        1494.734          45.000    20877290.606    85489002.353        1164.655          42.000  
C08  34715965.678   180775139.087        -351.935          46.000    34715948.765   139786725.379        -272.198          49.000  
C13  34712703.126   180758150.591         -53.937          47.000    34712694.349   139773621.658         -41.785          48.000  
C16  35671928.192   185753091.542          -7.490          47.000    35671919.092   143636033.255          -5.629          48.000  
C25  22296985.327   116106264.763       -2574.350          35.000                                                                  
C32  21037763.742   109549158.242         854.076          50.000                                                                  
C06  35362203.262   184140271.839         171.777          44.000    35362187.538   142388874.820         132.732          47.000  
G25  20457391.349   107504331.224        2520.008          42.000    20457383.368    83769566.787        1963.688          43.000  
G10  19497076.818   102457827.535        1005.383          50.000    19497065.479    79837224.335         783.411          44.000  
G28  21996001.258   115589781.751        2563.358          39.000    21995991.148    90069941.106        1997.271          43.000  
C23  20723135.376   107910802.224         223.344          50.000                                                                  
C09  36829016.790   191778360.976         270.443          39.000    36829005.559   148295140.732         209.256          47.000  
C33  26159064.433                       -2939.233          30.000                                                                  
C37  22828226.038   118872579.699        2667.177          44.000                                                                  
> 2025 10 27 02 51 53.3160000  0 19                     
G12  20738346.357   108980745.523         830.118          46.000    20738334.378    84920014.973         646.777          43.000  
G15  23296495.314   122423901.124       -3262.590          33.000    23296492.906    95395231.836       -2542.568          33.000  
G18  23631862.292   124186254.787       -3675.908          34.000    23631858.680    96768471.590       -2864.487          36.000  
G23  19289582.704   101367436.104       -2126.532          47.000    19289571.142    78987537.664       -1656.989          47.000  
G24  20988390.862                       -3383.897          28.000    20988382.898    85943867.893       -2637.763          32.000  
G32  20877289.339   109710896.655        1494.716          45.000    20877279.245    85488955.774        1164.468          41.000  
C08  34715968.364   180775153.175        -352.094          46.000    34715951.448   139786736.272        -272.253          49.000  
C13  34712703.557   180758152.748         -53.912          47.000    34712694.764   139773623.327         -41.754          48.000  
C16  35671928.275   185753091.840          -7.469          47.000    35671919.158   143636033.483          -5.678          48.000  
C25  22297005.123   116106367.753       -2574.530          35.000                                                                  
C32  21037757.182   109549124.079         854.075          50.000                                                                  
C06  35362201.932   184140264.962         171.884          44.000    35362186.225   142388869.506         132.778          47.000  
G25  20457372.170   107504230.440        2519.739          42.000    20457364.182    83769488.253        1963.407          43.000  
G10  19497069.192   102457787.326        1005.280          50.000    19497057.846    79837193.003         783.356          44.000  
G28  21995981.754   115589679.234        2563.070          39.000    21995971.651    90069861.221        1997.121          43.000  
C23  20723133.652   107910793.294         223.309          50.000                                                                  
C09  36829014.708   191778350.151         270.557          40.000    36829003.461   148295132.361         209.292          47.000  
C33  26159087.024                       -2938.392          30.000                                                                  
C37  22828205.534   118872473.034        2666.835          44.000                                                                  
> 2025 10 27 02 51 53.3560000  0 19                     
G12  20738340.042   108980712.311         830.206          46.000    20738328.047    84919989.104         646.741          43.000  
G15  23296520.117   122424031.579       -3261.951          33.000    23296517.747    95395333.480       -2541.652          33.000  
G18  23631890.255   124186401.798       -3675.517          34.000    23631886.678    96768586.165       -2864.449          36.000  
G23  19289598.911   101367521.173       -2126.674          47.000    19289587.350    78987603.953       -1657.162          47.000  
G24  20988416.603                       -3383.438          28.000    20988408.642    85943973.355       -2637.210          32.000  
G32  20877277.971   109710836.871        1494.623          45.000    20877267.885    85488909.192        1164.446          41.000  
C08  34715971.046   180775167.266        -352.246          46.000    34715954.124   139786747.169        -272.400          49.000  
C13  34712703.939   180758154.913         -54.077          47.000    34712695.201   139773625.000         -41.797          48.000  
C16  35671928.363   185753092.136          -7.435          47.000    35671919.187   143636033.718          -5.821          48.000  
C25  22297024.914   116106470.750       -2574.838          35.000                                                                  
C32  21037750.586   109549089.921         853.960          50.000                                                                  
C06  35362200.643   184140258.096         171.698          44.000    35362184.941   142388864.196         132.731          47.000  
G25  20457352.983   107504129.638        2519.911          42.000    20457345.011    83769409.720        1963.264          43.000  
G10  19497061.549   102457747.129        1005.005          50.000    19497050.204    79837161.678         783.167          44.000  
G28  21995962.232   115589576.705        2563.127          39.000    21995952.155    90069781.332        1997.172          43.000  
C23  20723131.932   107910784.367         223.212          50.000                                                                  
C09  36829012.625   191778339.329         270.575          40.000    36829001.357   148295123.993         209.234          47.000  
C33  26159109.599                       -2938.866          30.000                                                                  
C37  22828185.038   118872366.369        2666.634          44.000                                                                  
> 2025 10 27 02 51 53.3960000  0 19                     
G12  20738333.725   108980679.116         829.972          46.000    20738321.731    84919963.226         646.852          43.000  
G15  23296544.930   122424162.085       -3262.661          33.000    23296542.594    95395435.149       -2541.545          33.000  
G18  23631918.255   124186548.833       -3675.642          34.000    23631914.657    96768700.728       -2864.241          36.000  
G23  19289615.096   101367606.240       -2126.723          47.000    19289603.533    78987670.237       -1657.173          47.000  
G24  20988442.333                       -3383.339          28.000    20988434.393                       -2636.375          32.000  
G32  20877266.596   109710777.098        1494.399          45.000    20877256.507    85488862.609        1164.510          41.000  
C08  34715973.718   180775181.362        -352.386          46.000    34715956.805   139786758.059        -272.351          49.000  
C13  34712704.317   180758157.078         -54.144          47.000    34712695.641   139773626.670         -41.772          48.000  
C16  35671928.448   185753092.429          -7.358          47.000    35671919.246   143636033.947          -5.793          48.000  
C25  22297044.676   116106573.764       -2575.343          35.000                                                                  
C32  21037744.020   109549055.764         853.891          50.000                                                                  
C06  35362199.318   184140251.234         171.550          44.000    35362183.652   142388858.887         132.678          47.000  
G25  20457333.821   107504028.856        2519.677          42.000    20457325.838    83769331.178        1963.375          43.000  
G10  19497053.891   102457706.927        1004.974          50.000    19497042.556    79837130.352         783.105          44.000  
G28  21995942.720   115589474.198        2562.798          39.000    21995932.659    90069701.443        1997.191          43.000  
C23  20723130.235   107910775.442         223.124          50.000                                                                  
C09  36829010.560   191778328.514         270.437          40.000    36828999.284   148295115.624         209.228          47.000  
C33  26159132.181                       -2939.218          30.000                                                                  
C37  22828164.549   118872259.695        2666.716          44.000                                                                  
> 2025 10 27 02 51 53.4360000  0 19                     
G12  20738327.417   108980645.911         830.029          46.000    20738315.419    84919937.352         646.871          43.000  
G15  23296569.748   122424292.559       -3262.296          33.000    23296567.400    95395536.818       -2541.586          33.000  
G18  23631946.229   124186695.879       -3676.013          34.000    23631942.654    96768815.299       -2864.336          36.000  
G23  19289631.264   101367691.307       -2126.704          47.000    19289619.718    78987736.522       -1657.154          47.000  
G24  20988468.066                       -3383.090          28.000    20988460.127                       -2636.122          32.000  
G32  20877255.211   109710717.312        1494.492          45.000    20877245.132    85488816.024        1164.582          41.000  
C08  34715976.428   180775195.445        -352.197          46.000    34715959.514   139786768.952        -272.351          49.000  
C13  34712704.701   180758159.245         -54.218          47.000    34712696.036   139773628.339         -41.748          48.000  
C16  35671928.514   185753092.725          -7.360          47.000    35671919.307   143636034.176          -5.759          48.000  
C25  22297064.440   116106676.732       -2574.681          35.000                                                                  
C32  21037737.486   109549021.596         854.086          50.000                                                                  
C06  35362198.027   184140244.375         171.460          44.000    35362182.367   142388853.579         132.649          47.000  
G25  20457314.631   107503928.058        2519.837          42.000    20457306.628    83769252.633        1963.508          43.000  
G10  19497046.219   102457666.718        1005.127          50.000    19497034.907    79837099.016         783.234          44.000  
G28  21995923.198   115589371.663        2563.180          39.000    21995913.138    90069621.545        1997.385          43.000  
C23  20723128.548   107910766.513         223.184          50.000                                                                  
C09  36829008.465   191778317.678         270.758          40.000    36828997.202   148295107.255         209.183          47.000  
C33  26159154.747                       -2938.987          30.000                                                                  
C37  22828144.073   118872153.023        2666.735          44.000                                                                  
> 2025 10 27 02 51 53.4760000  0 19                     
G12  20738321.112   108980612.713         829.946          46.000    20738309.092    84919911.483         646.758          43.000  
G15  23296594.582   122424423.044       -3262.356          33.000    23296592.225    95395638.488       -2541.750          33.000  
G18  23631974.214   124186842.918       -3676.063          34.000    23631970.621    96768929.854       -2864.067          36.000  
G23  19289647.428   101367776.371       -2126.661          47.000    19289635.886    78987802.802       -1657.068          47.000  
G24  20988493.808                       -3383.232          28.000    20988485.910                       -2637.099          32.000  
G32  20877243.811   109710657.521        1494.643          45.000    20877233.749    85488769.435        1164.691          41.000  
C08  34715979.172   180775209.527        -352.063          46.000    34715962.261   139786779.839        -272.247          49.000  
C13  34712705.112   180758161.406         -54.138          47.000    34712696.435   139773630.010         -41.766          48.000  
C16  35671928.592   185753093.028          -7.539          47.000    35671919.358   143636034.405          -5.739          48.000  
C25  22297084.223   116106779.717       -2574.645          35.000                                                                  
C32  21037730.919   109548987.430         854.141          50.000                                                                  
C06  35362196.710   184140237.501         171.647          44.000    35362181.064   142388848.265         132.743          47.000  
G25  20457295.448   107503827.261        2519.957          42.000    20457287.428    83769174.094        1963.485          43.000  
G10  19497038.561   102457626.512        1005.133          50.000    19497027.261    79837067.694         783.069          44.000  
G28  21995903.697   115589269.140        2563.155          39.000    21995893.605    90069541.644        1997.545          43.000  
C23  20723126.860   107910757.582         223.236          50.000                                                                  
C09  36829006.364   191778306.849         270.760          40.000    36828995.124   148295098.892         209.076          47.000  
C33  26159177.314                       -2938.384          30.000                                                                  
C37  22828123.599   118872046.336        2667.006          44.000                                                                  
> 2025 10 27 02 51 53.5160000  0 19                     
G12  20738314.792   108980579.510         830.007          46.000    20738302.755    84919885.608         646.798          43.000  
G15  23296619.414   122424553.501       -3261.632          33.000    23296617.040    95395740.172       -2541.960          33.000  
G18  23632002.196   124186989.954       -3675.997          34.000    23631998.595    96769044.425       -2864.183          36.000  
G23  19289663.611   101367861.440       -2126.741          47.000    19289652.106    78987869.091       -1657.204          47.000  
G24  20988519.521                       -3383.720          28.000    20988511.675                       -2636.932          32.000  
G32  20877232.460   109710597.741        1494.530          45.000    20877222.353    85488722.845        1164.752          41.000  
C08  34715981.869   180775223.615        -352.148          46.000    34715964.977   139786790.740        -272.473          49.000  
C13  34712705.523   180758163.566         -54.077          47.000    34712696.859   139773631.678         -41.724          48.000  
C16  35671928.666   185753093.319          -7.385          47.000    35671919.405   143636034.638          -5.805          48.000  
C25  22297103.986   116106882.714       -2574.880          35.000                                                                  
C32  21037724.343   109548953.272         853.984          50.000                                                                  
C06  35362195.412   184140230.623         171.836          44.000    35362179.754   142388842.946         132.858          47.000  
G25  20457276.280   107503726.464        2519.950          42.000    20457268.259    83769095.552        1963.532          43.000  
G10  19497030.942   102457586.311        1005.035          50.000    19497019.602    79837036.369         783.038          43.000  
G28  21995884.160   115589166.596        2563.515          39.000    21995874.090    90069461.755        1997.331          43.000  
C23  20723125.152   107910748.660         223.085          50.000                                                                  
C09  36829004.291   191778296.036         270.470          40.000    36828993.050   148295090.522         209.172          47.000  
C33  26159199.875                       -2937.020          30.000                                                                  
C37  22828103.076   118871939.667        2666.839          44.000                                                                  
> 2025 10 27 02 51 53.5560000  0 19                     
G12  20738308.476   108980546.306         830.094          46.000    20738296.429    84919859.731         646.875          43.000  
G15  23296644.225                       -3262.966          33.000    23296641.852    95395841.822       -2541.658          33.000  
G18  23632030.179   124187136.988       -3675.966          34.000    23632026.595    96769158.989       -2864.150          36.000  
G23  19289679.787   101367946.507       -2126.747          47.000    19289668.285    78987935.378       -1657.234          47.000  
G24  20988545.312                       -3383.271          28.000    20988537.409                       -2635.365          32.000  
G32  20877221.081   109710537.955        1494.584          45.000    20877210.964    85488676.250        1164.843          41.000  
C08  34715984.585   180775237.695        -352.069          46.000    34715967.686   139786801.633        -272.418          49.000  
C13  34712705.945   180758165.718         -53.845          47.000    34712697.276   139773633.344         -41.663          48.000  
C16  35671928.758   185753093.609          -7.309          47.000    35671919.467   143636034.860          -5.661          48.000  
C25  22297123.764   116106985.696       -2574.688          35.000                                                                  
C32  21037717.765   109548919.113         853.948          50.000                                                                  
C06  35362194.069   184140223.762         171.660          44.000    35362178.457   142388837.633         132.856          47.000  
G25  20457257.103   107503625.671        2519.869          42.000    20457249.089    83769017.019        1963.367          43.000  
G10  19497023.297   102457546.108        1005.023          50.000    19497011.949    79837005.047         782.965          43.000  
G28  21995864.646   115589064.074        2563.288          39.000    21995854.575    90069381.867        1997.213          43.000  
C23  20723123.408   107910739.737         223.051          50.000                                                                  
C09  36829002.227   191778285.210         270.554          40.000    36828990.930   148295082.159         209.097          47.000  
C33  26159222.439                       -2938.451          30.000                                                                  
C37  22828082.584   118871832.989        2666.856          44.000                                                                  
> 2025 10 27 02 51 53.5960000  0 19                     
G12  20738302.147   108980513.099         830.163          46.000    20738290.092    84919833.868         646.661          43.000  
G15  23296669.085                       -3261.532          33.000    23296666.698    95395943.539       -2542.532          32.000  
G18  23632058.161   124187283.999       -3675.544          34.000    23632054.556    96769273.545       -2863.891          36.000  
G23  19289695.962   101368031.568       -2126.605          47.000    19289684.470    78988001.660       -1657.117          47.000  
G24  20988571.078                       -3383.638          28.000    20988563.135                       -2636.400          32.000  
G32  20877209.670   109710478.162        1494.744          45.000    20877199.617    85488629.656        1164.865          41.000  
C08  34715987.264   180775251.778        -352.063          46.000    34715970.354   139786812.518        -272.192          49.000  
C13  34712706.363   180758167.879         -53.937          47.000    34712697.668   139773635.012         -41.687          48.000  
C16  35671928.811   185753093.904          -7.338          47.000    35671919.536   143636035.086          -5.672          48.000  
C25  22297143.523   116107088.689       -2574.756          35.000                                                                  
C32  21037711.231   109548884.946         854.078          50.000                                                                  
C06  35362192.736   184140216.889         171.760          44.000    35362177.155   142388832.319         132.867          47.000  
G25  20457237.915   107503524.870        2519.981          42.000    20457229.887    83768938.464        1963.682          43.000  
G10  19497015.642   102457505.901        1005.121          50.000    19497004.294    79836973.713         783.179          43.000  
G28  21995845.131   115588961.555        2562.980          39.000    21995835.056    90069301.989        1996.965          43.000  
C23  20723121.711   107910730.811         223.105          50.000                                                                  
C09  36829000.142   191778274.387         270.497          40.000    36828988.821   148295073.782         209.292          47.000  
C33  26159245.038                       -2937.886          30.000                                                                  
C37  22828062.090   118871726.311        2666.913          44.000                                                                  
> 2025 10 27 02 51 53.6360000  0 19                     
G12  20738295.825   108980479.896         830.101          46.000    20738283.768    84919807.995         646.736          43.000  
G15  23296693.894                       -3262.018          33.000    23296691.521    95396045.207       -2542.303          32.000  
G18  23632086.141   124187431.004       -3675.179          34.000    23632082.506    96769388.108       -2864.015          36.000  
G23  19289712.142   101368116.634       -2126.649          47.000    19289700.622    78988067.942       -1657.062          47.000  
G24  20988596.817                       -3383.580          28.000    20988588.880                       -2636.462          32.000  
G32  20877198.302   109710418.366        1494.842          45.000    20877188.238    85488583.064        1164.817          41.000  
C08  34715989.946   180775265.862        -352.100          46.000    34715973.043   139786823.402        -272.113          49.000  
C13  34712706.772   180758170.033         -53.888          47.000    34712698.059   139773636.683         -41.766          48.000  
C16  35671928.896   185753094.194          -7.294          47.000    35671919.593   143636035.309          -5.635          48.000  
C25  22297163.297   116107191.681       -2574.830          35.000                                                                  
C32  21037704.703   109548850.779         854.140          50.000                                                                  
C06  35362191.415   184140210.014         171.821          44.000    35362175.846   142388827.009         132.753          46.000  
G25  20457218.743   107503424.080        2519.843          42.000    20457210.722    83768859.931        1963.476          43.000  
G10  19497008.001   102457465.695        1005.133          50.000    19496996.654    79836942.369         783.490          43.000  
G28  21995825.605   115588859.032        2562.946          39.000    21995815.537    90069222.093        1997.166          43.000  
C23  20723120.020   107910721.879         223.207          50.000                                                                  
C09  36828998.106   191778263.568         270.421          40.000    36828986.737   148295065.407         209.385          47.000  
C33  26159267.630                       -2939.596          30.000                                                                  
C37  22828041.606   118871619.636        2666.886          44.000                                                                  
> 2025 10 27 02 51 53.6760000  0 19                     
G12  20738289.526   108980446.698         829.983          46.000    20738277.460    84919782.122         646.815          43.000  
G15  23296718.727                       -3262.252          33.000    23296716.361    95396146.839       -2541.379          32.000  
G18  23632114.128   124187578.049       -3675.799          34.000    23632110.492    96769502.681       -2864.341          36.000  
G23  19289728.326   101368201.706       -2126.784          47.000    19289716.814    78988134.229       -1657.154          47.000  
G24  20988622.573                       -3383.931          28.000    20988614.614                       -2636.671          32.000  
G32  20877186.912   109710358.576        1494.786          45.000    20877176.875    85488536.482        1164.605          41.000  
C08  34715992.623   180775279.954        -352.289          46.000    34715975.729   139786834.298        -272.296          49.000  
C13  34712707.174   180758172.197         -54.071          47.000    34712698.481   139773638.353         -41.797          48.000  
C16  35671928.986   185753094.489          -7.375          47.000    35671919.620   143636035.534          -5.630          48.000  
C25  22297183.083   116107294.694       -2575.293          35.000                                                                  
C32  21037698.126   109548816.616         854.073          50.000                                                                  
C06  35362190.086   184140203.147         171.729          44.000    35362174.511   142388821.696         132.748          46.000  
G25  20457199.569   107503323.294        2519.688          42.000    20457191.531    83768781.392        1963.452          43.000  
G10  19497000.357   102457425.494        1005.035          50.000    19496989.000    79836911.050         783.160          43.000  
G28  21995806.100   115588756.503        2563.148          39.000    21995796.033    90069142.212        1997.029          43.000  
C23  20723118.309   107910712.955         223.134          50.000                                                                  
C09  36828996.034   191778252.745         270.460          40.000    36828984.643   148295057.031         209.394          47.000  
C33  26159290.195                       -2939.042          30.000                                                                  
C37  22828021.091   118871512.967        2666.789          44.000                                                                  
> 2025 10 27 02 51 53.7160000  0 19                     
G12  20738283.215   108980413.510         829.707          46.000    20738271.113    84919756.256         646.656          43.000  
G15  23296743.518                       -3261.411          33.000    23296741.199    95396248.532       -2541.927          32.000  
G18  23632142.105   124187725.079       -3675.766          34.000    23632138.454    96769617.262       -2864.518          36.000  
G23  19289744.543   101368286.783       -2126.938          47.000    19289733.010    78988200.522       -1657.302          47.000  
G24  20988648.338                       -3384.072          28.000    20988640.389                       -2637.371          32.000  
G32  20877175.542   109710298.802        1494.415          45.000    20877165.490    85488489.925        1164.080          41.000  
C08  34715995.313   180775294.050        -352.417          46.000    34715978.462   139786845.202        -272.565          49.000  
C13  34712707.604   180758174.369         -54.309          47.000    34712698.902   139773640.036         -42.029          48.000  
C16  35671929.048   185753094.795          -7.581          47.000    35671919.650   143636035.774          -5.932          48.000  
C25  22297202.864   116107397.687       -2575.100          35.000                                                                  
C32  21037691.521   109548782.468         853.780          50.000                                                                  
C06  35362188.734   184140196.283         171.595          44.000    35362173.198   142388816.388         132.705          46.000  
G25  20457180.388   107503222.519        2519.432          42.000    20457172.369    83768702.874        1963.097          43.000  
G10  19496992.755   102457385.301        1004.816          50.000    19496981.363    79836879.735         782.904          43.000  
G28  21995786.605   115588653.981        2563.078          39.000    21995776.526    90069062.323        1997.098          43.000  
C23  20723116.568   107910704.042         222.897          50.000                                                                  
C09  36828993.960   191778241.932         270.279          40.000    36828982.592   148295048.670         209.136          47.000  
C33  26159312.775                       -2938.557          30.000                                                                  
C37  22828000.584   118871406.301        2666.657          44.000                                                                  
> 2025 10 27 02 51 53.7560000  0 19                     
G12  20738276.909   108980380.326         829.548          46.000    20738264.805    84919730.402         646.375          43.000  
G15  23296768.361                       -3262.223          33.000    23296766.061    95396350.219       -2542.108          32.000  
G18  23632170.055   124187872.130       -3676.146          34.000    23632166.415    96769731.833       -2864.492          36.000  
G23  19289760.720   101368371.861       -2127.030          47.000    19289749.214    78988266.822       -1657.530          47.000  
G24  20988674.105                       -3384.257          28.000    20988666.174                       -2637.047          32.000  
G32  20877164.156   109710239.028        1494.296          45.000    20877154.112    85488443.343        1164.254          41.000  
C08  34715998.039   180775308.144        -352.411          46.000    34715981.190   139786856.097        -272.510          49.000  
C13  34712708.003   180758176.543         -54.437          47.000    34712699.335   139773641.710         -41.968          48.000  
C16  35671929.127   185753095.097          -7.633          47.000    35671919.715   143636036.019          -6.166          48.000  
C25  22297222.618   116107500.687       -2575.068          35.000                                                                  
C32  21037684.999   109548748.319         853.657          50.000                                                                  
C06  35362187.431   184140189.420         171.543          44.000    35362171.877   142388811.083         132.615          46.000  
G25  20457161.229   107503121.728        2519.634          42.000    20457153.190    83768624.333        1963.307          43.000  
G10  19496985.139   102457345.110        1004.681          50.000    19496973.706    79836848.421         782.751          43.000  
G28  21995767.105   115588551.469        2562.848          39.000    21995757.018    90068982.420        1997.454          43.000  
C23  20723114.840   107910695.128         222.779          50.000                                                                  
C09  36828991.888   191778231.114         270.345          40.000    36828980.485   148295040.315         208.880          47.000  
C33  26159335.322                       -2938.583          30.000                                                                  
C37  22827980.092   118871299.635        2666.615          44.000                                                                  
> 2025 10 27 02 51 53.7960000  0 19                     
G12  20738270.577   108980347.127         829.782          46.000    20738258.492    84919704.530         646.548          43.000  
G15  23296793.223                       -3261.733          33.000    23296790.919    95396451.907       -2542.200          32.000  
G18  23632198.033   124188019.126       -3675.319          34.000    23632194.409    96769846.398       -2864.267          36.000  
G23  19289776.896   101368456.936       -2126.985          47.000    19289765.401    78988333.114       -1657.467          47.000  
G24  20988699.866                       -3384.171          28.000    20988691.926                       -2636.445          32.000  
G32  20877152.771   109710179.246        1494.414          45.000    20877142.740    85488396.758        1164.454          41.000  
C08  34716000.767   180775322.234        -352.313          46.000    34715983.897   139786866.990        -272.424          49.000  
C13  34712708.439   180758178.702         -54.163          47.000    34712699.753   139773643.385         -41.949          48.000  
C16  35671929.257   185753095.391          -7.485          47.000    35671919.749   143636036.251          -6.004          48.000  
C25  22297242.370   116107603.698       -2575.247          35.000                                                                  
C32  21037678.449   109548714.160         853.816          50.000                                                                  
C06  35362186.120   184140182.565         171.405          44.000    35362170.527   142388805.774         132.638          46.000  
G25  20457142.056   107503020.952        2519.469          42.000    20457134.017    83768545.804        1963.237          43.000  
G10  19496977.475   102457304.915        1004.785          50.000    19496966.060    79836817.100         782.892          43.000  
G28  21995747.597   115588448.947        2562.943          39.000    21995737.479    90068902.535        1997.258          43.000  
C23  20723113.122   107910686.214         222.752          50.000                                                                  
C09  36828989.794   191778220.300         270.393          40.000    36828978.379   148295031.956         208.866          47.000  
C33  26159357.903                       -2938.634          30.000                                                                  
C37  22827959.594   118871192.968        2666.587          44.000                                                                  
> 2025 10 27 02 51 53.8360000  0 19                     
G12  20738264.244   108980313.929         829.899          46.000    20738252.191    84919678.672         646.420          43.000  
G15  23296818.012                       -3261.200          33.000    23296815.781    95396553.584       -2542.104          32.000  
G18  23632226.012   124188166.170       -3675.730          34.000    23632222.408    96769960.958       -2864.110          36.000  
G23  19289793.054   101368542.008       -2126.886          47.000    19289781.569    78988399.396       -1657.207          47.000  
G24  20988725.629                       -3383.476          28.000    20988717.694                       -2636.873          32.000  
G32  20877141.394   109710119.462        1494.499          45.000    20877131.379    85488350.162        1164.734          41.000  
C08  34716003.485   180775336.315        -352.081          46.000    34715986.628   139786877.882        -272.321          49.000  
C13  34712708.853   180758180.856         -53.943          47.000    34712700.124   139773645.055         -41.821          48.000  
C16  35671929.350   185753095.687          -7.469          47.000    35671919.790   143636036.468          -5.616          48.000  
C25  22297262.139   116107706.670       -2574.624          35.000                                                                  
C32  21037671.897   109548679.995         854.008          50.000                                                                  
C06  35362184.814   184140175.693         171.641          44.000    35362169.204   142388800.462         132.706          46.000  
G25  20457122.859   107502920.158        2519.675          42.000    20457114.837    83768467.265        1963.376          43.000  
G10  19496969.814   102457264.713        1004.956          50.000    19496958.406    79836785.772         783.099          43.000  
G28  21995728.080   115588346.414        2563.161          39.000    21995718.000    90068822.653        1997.084          43.000  
C23  20723111.433   107910677.295         222.873          50.000                                                                  
C09  36828987.696   191778209.473         270.593          40.000    36828976.302   148295023.585         209.102          47.000  
C33  26159380.474                       -2938.215          30.000                                                                  
C37  22827939.118   118871086.294        2666.708          44.000                                                                  
> 2025 10 27 02 51 53.8760000  0 19                     
G12  20738257.918   108980280.732         829.921          46.000    20738245.887    84919652.807         646.495          43.000  
G15  23296842.864                       -3261.658          33.000    23296840.611    95396655.264       -2542.014          32.000  
G18  23632254.028   124188313.200       -3675.693          34.000    23632250.383    96770075.532       -2864.216          36.000  
G23  19289809.254   101368627.082       -2126.881          47.000    19289797.756    78988465.688       -1657.251          47.000  
G24  20988751.357                       -3383.586          28.000    20988743.454                       -2636.399          32.000  
G32  20877130.002   109710059.671        1494.665          45.000    20877119.996    85488303.566        1164.902          41.000  
C08  34716006.176   180775350.400        -352.087          46.000    34715989.319   139786888.772        -272.253          49.000  
C13  34712709.283   180758183.012         -53.845          47.000    34712700.528   139773646.721         -41.699          47.000  
C16  35671929.424   185753095.985          -7.455          47.000    35671919.839   143636036.686          -5.422          48.000  
C25  22297281.939   116107809.654       -2574.546          35.000                                                                  
C32  21037665.321   109548645.837         853.993          50.000                                                                  
C06  35362183.508   184140168.818         171.821          44.000    35362167.869   142388795.152         132.737          46.000  
G25  20457103.678   107502819.373        2519.681          42.000    20457095.655    83768388.724        1963.531          43.000  
G10  19496962.168   102457224.512        1005.005          50.000    19496950.745    79836754.450         783.063          43.000  
G28  21995708.583   115588243.900        2562.935          39.000    21995698.500    90068742.770        1996.998          43.000  
C23  20723109.737   107910668.367         223.079          50.000                                                                  
C09  36828985.632   191778198.639         270.777          40.000    36828974.220   148295015.213         209.232          47.000  
C33  26159403.042                       -2938.988          30.000                                                                  
C37  22827918.640   118870979.617        2666.867          44.000                                                                  
> 2025 10 27 02 51 53.9160000  0 19                     
G12  20738251.621   108980247.538         829.902          46.000    20738239.567    84919626.936         646.651          43.000  
G15  23296867.702                       -3262.362          33.000    23296865.465    95396756.949       -2542.198          32.000  
G18  23632281.983   124188460.206       -3675.304          34.000    23632278.352    96770190.086       -2863.926          36.000  
G23  19289825.457   101368712.154       -2126.831          47.000    19289813.972    78988531.990       -1657.486          47.000  
G24  20988777.131                       -3383.210          28.000    20988769.206                       -2636.122          32.000  
G32  20877118.619   109709999.880        1494.738          45.000    20877108.650    85488256.984        1164.679          41.000  
C08  34716008.866   180775364.490        -352.203          46.000    34715992.005   139786899.665        -272.290          48.000  
C13  34712709.712   180758185.172         -53.888          47.000    34712700.938   139773648.390         -41.687          47.000  
C16  35671929.516   185753096.280          -7.416          47.000    35671919.888   143636036.912          -5.525          48.000  
C25  22297301.724   116107912.644       -2574.552          35.000                                                                  
C32  21037658.746   109548611.674         854.050          50.000                                                                  
C06  35362182.187   184140161.945         171.860          44.000    35362166.545   142388789.840         132.791          46.000  
G25  20457084.499   107502718.578        2519.878          42.000    20457076.478    83768310.191        1963.413          43.000  
G10  19496954.529   102457184.319        1004.889          50.000    19496943.102    79836723.132         782.947          43.000  
G28  21995689.046   115588141.360        2563.303          39.000    21995678.978    90068662.879        1997.111          43.000  
C23  20723107.993   107910659.444         223.101          50.000                                                                  
C09  36828983.565   191778187.829         270.415          40.000    36828972.146   148295006.839         209.349          47.000  
C33  26159425.614                       -2938.107          30.000                                                                  
C37  22827898.178   118870872.944        2666.869          44.000                                                                  
> 2025 10 27 02 51 53.9560000  0 19                     
G12  20738245.317   108980214.352         829.699          46.000    20738233.258    84919601.057         646.889          41.000  
G15  23296892.527                       -3262.483          33.000    23296890.303    95396858.598       -2541.680          32.000  
G18  23632309.931   124188607.229       -3675.422          34.000    23632306.330    96770304.643       -2863.900          36.000  
G23  19289841.633   101368797.230       -2126.899          47.000    19289830.172    78988598.281       -1657.411          47.000  
G24  20988802.884                       -3383.140          28.000    20988794.957                       -2635.925          32.000  
G32  20877107.250   109709940.095        1494.678          45.000    20877097.289    85488210.405        1164.534          41.000  
C08  34716011.553   180775378.572        -352.118          46.000    34715994.696   139786910.562        -272.388          48.000  
C13  34712710.133   180758187.335         -54.004          47.000    34712701.339   139773650.060         -41.736          47.000  
C16  35671929.631   185753096.578          -7.430          47.000    35671919.921   143636037.150          -5.842          48.000  
C25  22297321.491   116108015.639       -2574.781          35.000                                                                  
C32  21037652.178   109548577.515         854.008          50.000                                                                  
C06  35362180.889   184140155.083         171.670          44.000    35362165.241   142388784.526         132.814          46.000  
G25  20457065.316   107502617.789        2519.767          42.000    20457057.321    83768231.652        1963.445          43.000  
G10  19496946.876   102457144.123        1004.858          50.000    19496935.447    79836691.807         783.014          43.000  
G28  21995669.519   115588038.823        2563.413          39.000    21995659.479    90068582.994        1997.067          43.000  
C23  20723106.253   107910650.524         223.059          50.000                                                                  
C09  36828981.492   191778177.010         270.405          40.000    36828970.057   148294998.472         209.297          47.000  
C33  26159448.193                       -2938.098          30.000                                                                  
C37  22827877.661   118870766.274        2666.806          44.000                                                                  
> 2025 10 27 02 51 53.9960000  0 19                     
G12  20738239.001   108980181.160         829.716          46.000    20738226.960    84919575.195         646.680          41.000  
G15  23296917.356                       -3262.512          33.000    23296915.142                       -2541.646          32.000  
G18  23632337.901   124188754.255       -3675.555          34.000    23632334.307    96770419.226       -2864.398          36.000  
G23  19289857.812   101368882.302       -2126.856          47.000    19289846.353    78988664.576       -1657.423          47.000  
G24  20988828.615                       -3383.565          28.000    20988820.743                       -2636.634          32.000  
G32  20877095.869   109709880.311        1494.618          45.000    20877085.905    85488163.819        1164.590          41.000  
C08  34716014.269   180775392.662        -352.216          46.000    34715997.398   139786921.456        -272.388          48.000  
C13  34712710.541   180758189.497         -54.083          47.000    34712701.764   139773651.734         -41.821          47.000  
C16  35671929.709   185753096.880          -7.522          47.000    35671920.003   143636037.386          -5.967          48.000  
C25  22297341.272   116108118.650       -2575.213          35.000                                                                  
C32  21037645.601   109548543.358         853.931          50.000                                                                  
C06  35362179.594   184140148.207         171.769          44.000    35362163.935   142388779.207         132.902          46.000  
G25  20457046.137   107502517.012        2519.526          42.000    20457038.134    83768153.113        1963.450          43.000  
G10  19496939.249   102457103.927        1004.846          50.000    19496927.795    79836660.486         782.983          43.000  
G28  21995650.000   115587936.303        2563.125          39.000    21995639.968    90068503.107        1997.124          43.000  
C23  20723104.504   107910641.608         222.949          50.000                                                                  
C09  36828979.427   191778166.195         270.357          40.000    36828967.953   148294990.100         209.295          47.000  
C33  26159470.779                       -2938.136          29.000                                                                  
C37  22827857.193   118870659.600        2666.818          44.000                                                                  
> 2025 10 27 02 51 54.0360000  0 19                     
G12  20738232.687   108980147.970         829.705          46.000    20738220.624    84919549.339         646.462          41.000  
G15  23296942.175                       -3261.442          33.000    23296939.973                       -2541.714          32.000  
G18  23632365.858   124188901.226       -3674.691          34.000    23632362.275    96770533.781       -2864.113          36.000  
G23  19289873.998   101368967.378       -2126.905          47.000    19289862.520    78988730.866       -1657.287          47.000  
G24  20988854.424                       -3383.578          28.000    20988846.511                       -2636.663          32.000  
G32  20877084.492   109709820.531        1494.482          45.000    20877074.527    85488117.234        1164.542          41.000  
C08  34716016.998   180775406.741        -352.051          46.000    34716000.137   139786932.352        -272.443          48.000  
C13  34712710.972   180758191.662         -54.150          47.000    34712702.148   139773653.409         -41.895          47.000  
C16  35671929.828   185753097.170          -7.363          47.000    35671920.088   143636037.622          -5.992          48.000  
C25  22297361.045   116108221.646       -2575.131          35.000                                                                  
C32  21037639.032   109548509.202         853.888          50.000                                                                  
C06  35362178.252   184140141.338         171.765          44.000    35362162.641   142388773.906         132.649          46.000  
G25  20457026.966   107502416.245        2519.219          42.000    20457018.951    83768074.578        1963.350          43.000  
G10  19496931.611   102457063.736        1004.736          50.000    19496920.138    79836629.167         782.904          43.000  
G28  21995630.478   115587833.789        2562.826          39.000    21995620.458    90068423.218        1997.174          43.000  
C23  20723102.779   107910632.694         222.868          50.000                                                                  
C09  36828977.364   191778155.372         270.471          40.000    36828965.864   148294981.735         209.144          47.000  
C33  26159493.331                       -2938.189          29.000                                                                  
C37  22827836.719   118870552.937        2666.619          44.000                                                                  
> 2025 10 27 02 51 54.0760000  0 19                     
G12  20738226.393   108980114.790         829.513          46.000    20738214.317    84919523.481         646.376          42.000  
G15  23296966.997                       -3261.819          33.000    23296964.831                       -2541.987          32.000  
G18  23632393.819   124189048.279       -3675.699          34.000    23632390.266    96770648.366       -2864.485          36.000  
G23  19289890.215   101369052.466       -2127.164          47.000    19289878.704    78988797.161       -1657.355          47.000  
G24  20988880.194                       -3383.615          28.000    20988872.292                       -2637.242          32.000  
G32  20877073.124   109709760.749        1494.466          45.000    20877063.135    85488070.655        1164.460          41.000  
C08  34716019.675   180775420.841        -352.380          46.000    34716002.853   139786943.248        -272.430          48.000  
C13  34712711.377   180758193.831         -54.236          47.000    34712702.582   139773655.080         -41.852          47.000  
C16  35671929.894   185753097.471          -7.478          47.000    35671920.138   143636037.852          -5.868          48.000  
C25  22297380.811   116108324.629       -2574.829          35.000                                                                  
C32  21037632.414   109548475.050         853.787          50.000                                                                  
C06  35362176.930   184140134.480         171.511          44.000    35362161.334   142388768.606         132.463          46.000  
G25  20457007.796   107502315.480        2519.098          42.000    20456999.772    83767996.053        1963.144          43.000  
G10  19496923.961   102457023.546        1004.694          50.000    19496912.479    79836597.849         782.886          43.000  
G28  21995610.972   115587731.280        2562.604          39.000    21995600.911    90068343.334        1997.117          43.000  
C23  20723101.044   107910623.783         222.780          50.000                                                                  
C09  36828975.312   191778144.559         270.344          40.000    36828963.793   148294973.376         208.944          47.000  
C33  26159515.918                       -2937.825          29.000                                                                  
C37  22827816.236   118870446.263        2666.724          44.000                                                                  
> 2025 10 27 02 51 54.1160000  0 19                     
G12  20738220.072   108980081.615         829.364          46.000    20738208.012    84919497.633         646.154          42.000  
G15  23296991.842                       -3263.240          33.000    23296989.641    95397265.325       -2542.673          32.000  
G18  23632421.787   124189195.320       -3676.017          33.000    23632418.261    96770762.934       -2864.330          36.000  
G23  19289906.419   101369137.557       -2127.354          47.000    19289894.876    78988863.452       -1657.337          47.000  
G24  20988905.955                       -3383.953          28.000    20988898.032                       -2636.088          32.000  
G32  20877061.751   109709700.977        1494.306          45.000    20877051.772    85488024.074        1164.444          41.000  
C08  34716022.392   180775434.938        -352.496          46.000    34716005.569   139786954.144        -272.424          48.000  
C13  34712711.825   180758195.998         -54.248          47.000    34712702.979   139773656.762         -42.023          47.000  
C16  35671929.958   185753097.771          -7.529          47.000    35671920.163   143636038.076          -5.692          48.000  
C25  22297400.577   116108427.621       -2574.761          35.000                                                                  
C32  21037625.832   109548440.902         853.688          50.000                                                                  
C06  35362175.610   184140127.618         171.479          44.000    35362160.007   142388763.293         132.635          46.000  
G25  20456988.612   107502214.685        2519.547          42.000    20456980.602    83767917.525        1963.114          43.000  
G10  19496916.294   102456983.362        1004.578          50.000    19496904.843    79836566.535         782.837          43.000  
G28  21995591.467   115587628.753        2562.793          39.000    21995581.420    90068263.448        1997.143          43.000  
C23  20723099.336   107910614.870         222.757          50.000                                                                  
C09  36828973.214   191778133.735         270.515          40.000    36828961.748   148294965.017         208.898          47.000  
C33  26159538.460                       -2939.000          29.000                                                                  
C37  22827795.746   118870339.606        2666.512          44.000                                                                  
> 2025 10 27 02 51 54.1560000  0 19                     
G12  20738213.741   108980048.427         829.552          46.000    20738201.680    84919471.774         646.279          42.000  
G15  23297016.689                       -3262.914          33.000    23297014.474    95397366.975       -2541.870          32.000  
G18  23632449.765   124189342.345       -3675.998          33.000    23632446.243    96770877.515       -2864.416          36.000  
G23  19289922.605   101369222.641       -2127.254          47.000    19289911.074    78988929.752       -1657.467          47.000  
G24  20988931.719                       -3384.083          28.000    20988923.787                       -2637.214          32.000  
G32  20877050.388   109709641.208        1494.196          45.000    20877040.382    85487977.490        1164.509          41.000  
C08  34716025.103   180775449.030        -352.435          46.000    34716008.272   139786965.041        -272.430          48.000  
C13  34712712.257   180758198.164         -54.211          47.000    34712703.379   139773658.441         -42.035          47.000  
C16  35671930.050   185753098.072          -7.567          47.000    35671920.220   143636038.306          -5.711          48.000  
C25  22297420.349   116108530.644       -2575.310          35.000                                                                  
C32  21037619.321   109548406.750         853.724          50.000                                                                  
C06  35362174.298   184140120.763         171.332          44.000    35362158.684   142388757.976         132.821          46.000  
G25  20456969.417   107502113.893        2519.778          42.000    20456961.425    83767839.003        1963.049          43.000  
G10  19496908.657   102456943.178        1004.535          50.000    19496897.210    79836535.222         782.806          43.000  
G28  21995571.958   115587526.241        2562.720          38.000    21995561.926    90068183.559        1997.142          43.000  
C23  20723097.598   107910605.964         222.636          50.000                                                                  
C09  36828971.156   191778122.935         270.189          40.000    36828959.694   148294956.649         209.082          47.000  
C33  26159561.065                       -2938.756          29.000                                                                  
C37  22827775.257   118870232.958        2666.186          44.000                                                                  
> 2025 10 27 02 51 54.1960000  0 19                     
G12  20738207.425   108980015.238         829.675          46.000    20738195.357    84919445.914         646.384          42.000  
G15  23297041.558                       -3263.309          33.000    23297039.274    95397468.665       -2542.115          32.000  
G18  23632477.742   124189489.397       -3676.346          33.000    23632474.202    96770992.059       -2863.834          36.000  
G23  19289938.789   101369307.726       -2127.173          47.000    19289927.289    78988996.065       -1657.768          47.000  
G24  20988957.474                       -3383.905          28.000    20988949.533                       -2636.657          32.000  
G32  20877039.006   109709581.424        1494.429          45.000    20877028.998    85487930.905        1164.533          41.000  
C08  34716027.812   180775463.120        -352.362          46.000    34716010.965   139786975.937        -272.430          48.000  
C13  34712712.668   180758200.336         -54.291          47.000    34712703.776   139773660.117         -41.968          47.000  
C16  35671930.102   185753098.377          -7.651          47.000    35671920.272   143636038.546          -5.929          48.000  
C25  22297440.130   116108633.652       -2575.295          35.000                                                                  
C32  21037612.781   109548372.596         853.776          50.000                                                                  
C06  35362172.967   184140113.897         171.493          44.000    35362157.370   142388752.675         132.607          46.000  
G25  20456950.243   107502013.114        2519.625          42.000    20456942.240    83767760.473        1963.135          43.000  
G10  19496901.017   102456902.998        1004.449          51.000    19496889.554    79836503.913         782.709          43.000  
G28  21995552.461   115587423.753        2562.261          38.000    21995542.429    90068103.680        1997.000          43.000  
C23  20723095.885   107910597.061         222.517          50.000                                                                  
C09  36828969.082   191778112.116         270.355          40.000    36828957.595   148294948.288         209.044          47.000  
C33  26159583.666                       -2938.927          29.000                                                                  
C37  22827754.778   118870126.291        2666.435          44.000                                                                  
> 2025 10 27 02 51 54.2360000  0 19                     
G12  20738201.122   108979982.056         829.613          46.000    20738189.032    84919420.065         646.282          43.000  
G15  23297066.386                       -3261.909          33.000    23297064.121    95397570.372       -2542.529          32.000  
G18  23632505.726   124189636.464       -3676.802          33.000    23632502.174    96771106.609       -2863.687          36.000  
G23  19289954.963   101369392.804       -2127.019          47.000    19289943.492    78989062.373       -1657.816          47.000  
G24  20988983.236                       -3384.174          28.000    20988975.259                       -2636.391          32.000  
G32  20877027.616   109709521.625        1494.820          45.000    20877017.618    85487884.314        1164.683          41.000  
C08  34716030.505   180775477.213        -352.356          46.000    34716013.684   139786986.836        -272.455          48.000  
C13  34712713.092   180758202.509         -54.364          47.000    34712704.181   139773661.795         -41.974          47.000  
C16  35671930.143   185753098.681          -7.666          47.000    35671920.347   143636038.780          -5.947          48.000  
C25  22297459.926   116108736.674       -2575.553          35.000                                                                  
C32  21037606.211   109548338.443         853.801          50.000                                                                  
C06  35362171.648   184140107.031         171.577          44.000    35362156.021   142388747.373         132.507          46.000  
G25  20456931.068   107501912.329        2519.628          42.000    20456923.054    83767681.940        1963.233          43.000  
G10  19496893.355   102456862.816        1004.462          51.000    19496881.897    79836472.593         782.898          43.000  
G28  21995532.937   115587321.224        2562.807          38.000    21995522.922    90068023.801        1996.919          43.000  
C23  20723094.187   107910588.152         222.607          50.000                                                                  
C09  36828966.994   191778101.302         270.349          40.000    36828955.514   148294939.920         209.132          47.000  
C33  26159606.208                       -2938.809          29.000                                                                  
C37  22827734.318   118870019.608        2666.868          44.000                                                                  
> 2025 10 27 02 51 54.2760000  0 19                     
G12  20738194.831   108979948.878         829.490          46.000    20738182.717    84919394.212         646.320          43.000  
G15  23297091.197                       -3261.371          33.000    23297088.966    95397672.012       -2541.478          32.000  
G18  23632533.719   124189783.457       -3675.506          33.000    23632530.165    96771221.196       -2864.313          36.000  
G23  19289971.156   101369477.895       -2127.180          47.000    19289959.683    78989128.674       -1657.667          47.000  
G24  20989009.012                       -3384.240          28.000    20989001.032                       -2636.431          32.000  
G32  20877016.247   109709461.841        1494.747          45.000    20877006.242    85487837.735        1164.592          41.000  
C08  34716033.204   180775491.303        -352.307          46.000    34716016.381   139786997.740        -272.601          49.000  
C13  34712713.542   180758204.664         -54.053          47.000    34712704.591   139773663.468         -41.882          47.000  
C16  35671930.239   185753098.982          -7.596          47.000    35671920.423   143636039.013          -5.917          48.000  
C25  22297479.722   116108839.651       -2574.781          35.000                                                                  
C32  21037599.625   109548304.293         853.776          50.000                                                                  
C06  35362170.316   184140100.166         171.615          44.000    35362154.677   142388742.075         132.422          46.000  
G25  20456911.886   107501811.553        2519.451          42.000    20456903.914    83767603.416        1963.155          43.000  
G10  19496885.705   102456822.622        1004.755          51.000    19496874.253    79836441.280         782.819          43.000  
G28  21995513.438   115587218.708        2562.924          38.000    21995503.421    90067943.924        1996.884          43.000  
C23  20723092.491   107910579.240         222.725          50.000                                                                  
C09  36828964.928   191778090.473         270.611          40.000    36828953.416   148294931.562         208.999          47.000  
C33  26159628.799                       -2938.615          29.000                                                                  
C37  22827713.832   118869912.932        2666.968          44.000                                                                  
> 2025 10 27 02 51 54.3160000  0 19                     
G12  20738188.503   108979915.699         829.426          46.000    20738176.402    84919368.349         646.532          43.000  
G15  23297116.038                       -3262.489          33.000    23297113.816    95397773.684       -2541.598          33.000  
G18  23632561.663   124189930.445       -3674.704          33.000    23632558.164    96771335.790       -2864.795          36.000  
G23  19289987.334   101369562.977       -2127.112          47.000    19289975.882    78989194.960       -1657.285          47.000  
G24  20989034.755                       -3383.886          28.000    20989026.782                       -2636.674          32.000  
G32  20877004.880   109709402.058        1494.658          45.000    20876994.868    85487791.149        1164.603          41.000  
C08  34716035.920   180775505.393        -352.271          46.000    34716019.070   139787008.632        -272.406          49.000  
C13  34712713.942   180758206.830         -54.114          47.000    34712704.981   139773665.139         -41.766          47.000  
C16  35671930.312   185753099.280          -7.499          47.000    35671920.480   143636039.237          -5.719          48.000  
C25  22297499.518   116108942.647       -2574.740          35.000                                                                  
C32  21037593.090   109548270.139         853.821          50.000                                                                  
C06  35362168.985   184140093.300         171.638          44.000    35362153.339   142388736.765         132.584          46.000  
G25  20456892.702   107501710.785        2519.263          42.000    20456884.728    83767524.893        1963.091          43.000  
G10  19496878.015   102456782.426        1004.913          51.000    19496866.602    79836409.969         782.751          43.000  
G28  21995493.942   115587116.185        2563.053          38.000    21995483.869    90067864.032        1997.140          43.000  
C23  20723090.790   107910570.329         222.762          50.000                                                                  
C09  36828962.839   191778079.639         270.834          40.000    36828951.330   148294923.200         209.025          47.000  
C33  26159651.337                       -2938.547          29.000                                                                  
C37  22827693.340   118869806.272        2666.675          44.000                                                                  
> 2025 10 27 02 51 54.3560000  0 19                     
G12  20738182.175   108979882.509         829.624          46.000    20738170.070    84919342.486         646.576          43.000  
G15  23297140.862                       -3262.493          33.000    23297138.644    95397875.357       -2541.709          33.000  
G18  23632589.671   124190077.499       -3675.584          33.000    23632586.150    96771450.337       -2864.150          36.000  
G23  19290003.525   101369648.066       -2127.192          47.000    19289992.064    78989261.254       -1657.286          47.000  
G24  20989060.542                       -3383.471          28.000    20989052.542                       -2636.735          32.000  
G32  20876993.511   109709342.279        1494.502          45.000    20876983.470    85487744.564        1164.581          41.000  
C08  34716038.659   180775519.485        -352.277          46.000    34716021.791   139787019.524        -272.321          49.000  
C13  34712714.329   180758208.991         -54.053          47.000    34712705.379   139773666.807         -41.675          47.000  
C16  35671930.416   185753099.571          -7.337          47.000    35671920.554   143636039.467          -5.730          48.000  
C25  22297519.293   116109045.634       -2574.638          35.000                                                                  
C32  21037586.508   109548235.984         853.872          50.000                                                                  
C06  35362167.667   184140086.434         171.648          44.000    35362152.005   142388731.447         132.863          46.000  
G25  20456873.542   107501609.996        2519.542          42.000    20456865.569    83767446.360        1963.195          43.000  
G10  19496870.393   102456742.231        1004.926          51.000    19496858.971    79836378.660         782.678          43.000  
G28  21995474.434   115587013.670        2562.964          38.000    21995464.348    90067784.141        1997.238          43.000  
C23  20723089.075   107910561.418         222.772          50.000                                                                  
C09  36828960.788   191778068.828         270.446          40.000    36828949.250   148294914.825         209.257          47.000  
C33  26159673.948                       -2938.459          29.000                                                                  
C37  22827672.887   118869699.610        2666.573          44.000                                                                  
> 2025 10 27 02 51 54.3960000  0 19                     
G12  20738175.858   108979849.327         829.596          46.000    20738163.774    84919316.639         646.281          43.000  
G15  23297165.711                       -3261.438          33.000    23297163.495    95397977.048       -2542.112          33.000  
G18  23632617.651   124190224.532       -3675.766          33.000    23632614.123    96771564.885       -2863.819          36.000  
G23  19290019.711   101369733.153       -2127.173          47.000    19290008.266    78989327.554       -1657.429          47.000  
G24  20989086.254                       -3383.380          28.000    20989078.297                       -2636.610          32.000  
G32  20876982.141   109709282.496        1494.499          45.000    20876972.097    85487697.990        1164.362          41.000  
C08  34716041.359   180775533.570        -352.155          46.000    34716024.499   139787030.413        -272.235          49.000  
C13  34712714.720   180758211.159         -54.199          47.000    34712705.784   139773668.478         -41.711          47.000  
C16  35671930.489   185753099.860          -7.220          47.000    35671920.596   143636039.695          -5.733          48.000  
C25  22297539.070   116109148.657       -2575.273          35.000                                                                  
C32  21037579.967   109548201.823         853.999          50.000                                                                  
C06  35362166.356   184140079.573         171.563          44.000    35362150.674   142388726.133         132.913          46.000  
G25  20456854.351   107501509.215        2519.539          42.000    20456846.379    83767367.841        1963.031          43.000  
G10  19496862.746   102456702.041        1004.810          51.000    19496851.339    79836347.342         782.825          43.000  
G28  21995454.941   115586911.155        2562.857          38.000    21995444.831    90067704.251        1997.273          43.000  
C23  20723087.373   107910552.509         222.744          50.000                                                                  
C09  36828958.732   191778058.022         270.185          40.000    36828947.157   148294906.458         209.216          47.000  
C33  26159696.529                       -2938.435          29.000                                                                  
C37  22827652.412   118869592.942        2666.575          44.000                                                                  
> 2025 10 27 02 51 54.4360000  0 19                     
G12  20738169.545   108979816.144         829.554          46.000    20738157.450    84919290.787         646.261          43.000  
G15  23297190.531                       -3261.523          33.000    23297188.333    95398078.702       -2541.675          33.000  
G18  23632645.621   124190371.538       -3675.419          33.000    23632642.093    96771679.423       -2863.477          36.000  
G23  19290035.888   101369818.238       -2127.167          47.000    19290024.488    78989393.857       -1657.596          47.000  
G24  20989111.992   110298538.472       -3383.258          28.000    20989104.065                       -2636.543          32.000  
G32  20876970.763   109709222.718        1494.450          45.000    20876960.723    85487651.407        1164.460          41.000  
C08  34716044.021   180775547.657        -352.155          46.000    34716027.193   139787041.304        -272.260          49.000  
C13  34712715.154   180758213.324         -54.205          47.000    34712706.190   139773670.146         -41.711          47.000  
C16  35671930.576   185753100.163          -7.422          47.000    35671920.624   143636039.927          -5.779          48.000  
C25  22297558.868   116109251.627       -2574.587          35.000                                                                  
C32  21037573.408   109548167.670         853.905          50.000                                                                  
C06  35362165.030   184140072.703         171.655          44.000    35362149.377   142388720.817         132.930          46.000  
G25  20456835.176   107501408.438        2519.493          42.000    20456827.206    83767289.300        1963.341          43.000  
G10  19496855.120   102456661.860        1004.565          51.000    19496843.691    79836316.029         782.849          43.000  
G28  21995435.444   115586808.641        2562.802          38.000    21995425.305    90067624.368        1997.091          43.000  
C23  20723085.661   107910543.600         222.712          50.000                                                                  
C09  36828956.654   191778047.197         270.396          40.000    36828945.053   148294898.088         209.228          47.000  
C33  26159719.120                       -2938.386          29.000                                                                  
C37  22827631.937   118869486.265        2666.806          44.000                                                                  
> 2025 10 27 02 51 54.4760000  0 19                     
G12  20738163.219   108979782.981         829.180          46.000    20738151.131    84919264.946         646.058          43.000  
G15  23297215.371                       -3262.628          33.000    23297213.171    95398180.405       -2542.229          33.000  
G18  23632673.593   124190518.550       -3675.279          33.000    23632670.078    96771794.010       -2864.251          36.000  
G23  19290052.090   101369903.325       -2127.204          47.000    19290040.676    78989460.167       -1657.774          47.000  
G24  20989137.719   110298673.816       -3383.330          28.000    20989129.848                       -2637.485          31.000  
G32  20876959.370   109709162.935        1494.503          45.000    20876949.337    85487604.814        1164.686          41.000  
C08  34716046.739   180775561.753        -352.313          46.000    34716029.906   139787052.202        -272.418          49.000  
C13  34712715.529   180758215.494         -54.285          47.000    34712706.588   139773671.818         -41.760          47.000  
C16  35671930.630   185753100.462          -7.507          47.000    35671920.658   143636040.167          -5.962          48.000  
C25  22297578.646   116109354.631       -2574.866          35.000                                                                  
C32  21037566.795   109548133.518         853.828          50.000                                                                  
C06  35362163.728   184140065.841         171.573          44.000    35362148.081   142388715.510         132.767          46.000  
G25  20456816.018   107501307.657        2519.533          42.000    20456808.041    83767210.762        1963.432          43.000  
G10  19496847.501   102456621.687        1004.297          51.000    19496836.022    79836284.720         782.703          43.000  
G28  21995415.931   115586706.141        2562.516          38.000    21995405.819    90067544.486        1997.030          43.000  
C23  20723083.915   107910534.696         222.603          50.000                                                                  
C09  36828954.566   191778036.381         270.389          40.000    36828942.986   148294889.728         209.072          47.000  
C33  26159741.677                       -2938.623          29.000                                                                  
C37  22827611.443   118869379.596        2666.754          44.000                                                                  
> 2025 10 27 02 51 54.5160000  0 19                     
G12  20738156.888   108979749.809         829.163          46.000    20738144.816    84919239.104         645.994          43.000  
G15  23297240.206                       -3263.126          33.000    23297237.996    95398282.076       -2542.089          33.000  
G18  23632701.571   124190665.573       -3675.414          33.000    23632698.062    96771908.596       -2864.666          36.000  
G23  19290068.292   101369988.416       -2127.266          47.000    19290056.871    78989526.474       -1657.785          47.000  
G24  20989163.474                       -3384.011          28.000    20989155.611                       -2637.754          32.000  
G32  20876947.992   109709103.158        1494.419          45.000    20876937.979    85487558.232        1164.571          41.000  
C08  34716049.403   180775575.859        -352.631          46.000    34716032.585   139787063.106        -272.595          49.000  
C13  34712715.957   180758217.661         -54.236          47.000    34712706.997   139773673.497         -41.943          47.000  
C16  35671930.707   185753100.770          -7.679          47.000    35671920.688   143636040.396          -5.843          48.000  
C25  22297598.423   116109457.651       -2575.391          35.000                                                                  
C32  21037560.221   109548099.376         853.612          50.000                                                                  
C06  35362162.422   184140058.976         171.597          44.000    35362146.778   142388710.207         132.592          46.000  
G25  20456796.815   107501206.879        2519.473          42.000    20456788.866    83767132.237        1963.214          43.000  
G10  19496839.846   102456581.510        1004.266          51.000    19496828.373    79836253.410         782.690          43.000  
G28  21995396.414   115586603.625        2562.699          38.000    21995386.314    90067464.607        1996.918          43.000  
C23  20723082.175   107910525.797         222.465          50.000                                                                  
C09  36828952.482   191778025.564         270.396          40.000    36828940.892   148294881.374         208.865          47.000  
C33  26159764.254                       -2938.559          29.000                                                                  
C37  22827590.956   118869272.943        2666.419          44.000                                                                  
> 2025 10 27 02 51 54.5560000  0 19                     
G12  20738150.574   108979716.638         829.177          46.000    20738138.510    84919213.252         646.147          43.000  
G15  23297265.052                       -3263.201          33.000    23297262.811    95398383.748       -2541.975          32.000  
G18  23632729.549   124190812.642       -3676.348          33.000    23632726.026    96772023.164       -2864.512          36.000  
G23  19290084.506   101370073.519       -2127.555          47.000    19290073.066    78989592.777       -1657.685          47.000  
G24  20989189.238                       -3384.505          28.000    20989181.348                       -2636.975          31.000  
G32  20876936.626   109709043.383        1494.364          45.000    20876926.615    85487511.651        1164.533          41.000  
C08  34716052.123   180775589.954        -352.533          46.000    34716035.318   139787074.010        -272.656          49.000  
C13  34712716.371   180758219.834         -54.333          47.000    34712707.416   139773675.181         -42.102          47.000  
C16  35671930.749   185753101.083          -7.883          47.000    35671920.698   143636040.634          -5.949          48.000  
C25  22297618.213   116109560.673       -2575.579          35.000                                                                  
C32  21037553.685   109548065.230         853.552          50.000                                                                  
C06  35362161.114   184140052.116         171.510          44.000    35362145.452   142388704.906         132.472          46.000  
G25  20456777.639   107501106.115        2519.241          42.000    20456769.687    83767053.732        1962.742          43.000  
G10  19496832.202   102456541.326        1004.419          51.000    19496820.736    79836222.108         782.544          43.000  
G28  21995376.893   115586501.100        2562.954          38.000    21995366.826    90067384.730        1996.884          43.000  
C23  20723080.455   107910516.900         222.366          50.000                                                                  
C09  36828950.374   191778014.741         270.457          40.000    36828938.796   148294873.018         208.805          47.000  
C33  26159786.853                       -2938.578          29.000                                                                  
C37  22827570.456   118869166.291        2666.280          44.000                                                                  
> 2025 10 27 02 51 54.5960000  0 19                     
G12  20738144.261   108979683.462         829.310          46.000    20738132.188    84919187.405         646.152          43.000  
G15  23297289.896                       -3262.250          33.000    23297287.663    95398485.441       -2542.300          32.000  
G18  23632757.499   124190959.663       -3675.992          33.000    23632754.002    96772137.735       -2864.426          36.000  
G23  19290100.700   101370158.613       -2127.492          47.000    19290089.250    78989659.084       -1657.685          47.000  
G24  20989215.004                       -3384.631          28.000    20989207.090                       -2636.477          31.000  
G32  20876925.242   109708983.606        1494.365          45.000    20876915.249    85487465.071        1164.468          41.000  
C08  34716054.848   180775604.051        -352.490          46.000    34716038.071   139787084.911        -272.595          49.000  
C13  34712716.779   180758222.004         -54.321          47.000    34712707.857   139773676.862         -42.126          47.000  
C16  35671930.844   185753101.385          -7.750          47.000    35671920.755   143636040.870          -5.946          48.000  
C25  22297638.008   116109663.695       -2575.676          35.000                                                                  
C32  21037547.156   109548031.084         853.575          50.000                                                                  
C06  35362159.789   184140045.252         171.566          44.000    35362144.147   142388699.597         132.563          46.000  
G25  20456758.479   107501005.350        2519.131          42.000    20456750.527    83766975.218        1962.665          43.000  
G10  19496824.554   102456501.143        1004.523          51.000    19496813.119    79836190.810         782.398          43.000  
G28  21995357.374   115586398.578        2563.014          38.000    21995347.322    90067304.854        1996.866          43.000  
C23  20723078.781   107910507.998         222.429          50.000                                                                  
C09  36828948.302   191778003.915         270.557          40.000    36828936.701   148294864.655         208.946          47.000  
C33  26159809.440                       -2938.386          29.000                                                                  
C37  22827549.995   118869059.634        2666.312          44.000                                                                  
> 2025 10 27 02 51 54.6360000  0 19                     
G12  20738137.956   108979650.290         829.322          46.000    20738125.873    84919161.558         646.138          43.000  
G15  23297314.720                       -3262.153          33.000    23297312.507    95398587.109       -2541.973          33.000  
G18  23632785.455   124191106.702       -3675.997          33.000    23632781.949    96772252.302       -2864.308          36.000  
G23  19290116.885   101370243.707       -2127.430          47.000    19290105.456    78989725.386       -1657.593          47.000  
G24  20989240.741                       -3384.544          28.000    20989232.847                       -2636.310          31.000  
G32  20876913.857   109708923.830        1494.340          45.000    20876903.895    85487418.497        1164.342          41.000  
C08  34716057.582   180775618.141        -352.362          46.000    34716040.815   139787095.813        -272.607          49.000  
C13  34712717.173   180758224.178         -54.376          47.000    34712708.297   139773678.540         -42.053          47.000  
C16  35671930.933   185753101.683          -7.551          47.000    35671920.808   143636041.106          -5.938          48.000  
C25  22297657.790   116109766.699       -2575.391          35.000                                                                  
C32  21037540.622   109547996.937         853.596          50.000                                                                  
C06  35362158.461   184140038.392         171.500          44.000    35362142.828   142388694.287         132.678          46.000  
G25  20456739.299   107500904.578        2519.201          42.000    20456731.336    83766896.692        1962.895          43.000  
G10  19496816.920   102456460.965        1004.456          51.000    19496805.473    79836159.508         782.428          43.000  
G28  21995337.866   115586296.059        2562.988          38.000    21995327.808    90067224.973        1996.923          43.000  
C23  20723077.106   107910499.091         222.580          50.000                                                                  
C09  36828946.243   191777993.102         270.380          40.000    36828934.610   148294856.291         209.047          47.000  
C33  26159832.014                       -2938.580          29.000                                                                  
C37  22827529.505   118868952.976        2666.383          44.000                                                                  
> 2025 10 27 02 51 54.6760000  0 19                     
G12  20738131.626   108979617.116         829.340          46.000    20738119.534    84919135.693         646.461          43.000  
G15  23297339.552                       -3259.780          33.000    23297337.346    95398688.803       -2542.201          33.000  
G18  23632813.427   124191253.720       -3675.650          33.000    23632809.922    96772366.866       -2864.229          36.000  
G23  19290133.091   101370328.802       -2127.393          47.000    19290121.663    78989791.690       -1657.574          47.000  
G24  20989266.519                       -3384.073          28.000    20989258.628                       -2637.296          31.000  
G32  20876902.474   109708864.047        1494.512          45.000    20876892.518    85487371.900        1164.715          41.000  
C08  34716060.297   180775632.229        -352.246          46.000    34716043.509   139787106.708        -272.449          49.000  
C13  34712717.578   180758226.341         -54.156          47.000    34712708.733   139773680.216         -41.968          47.000  
C16  35671930.997   185753101.984          -7.502          47.000    35671920.865   143636041.340          -5.897          48.000  
C25  22297677.564   116109869.702       -2575.195          35.000                                                                  
C32  21037534.076   109547962.789         853.655          50.000                                                                  
C06  35362157.138   184140031.530         171.539          44.000    35362141.522   142388688.982         132.644          46.000  
G25  20456720.112   107500803.796        2519.403          42.000    20456712.157    83766818.158        1963.168          43.000  
G10  19496809.299   102456420.790        1004.370          51.000    19496797.801    79836128.197         782.642          43.000  
G28  21995318.358   115586193.549        2562.884          38.000    21995308.319    90067145.096        1996.911          43.000  
C23  20723075.415   107910490.191         222.552          50.000                                                                  
C09  36828944.150   191777982.297         270.111          40.000    36828932.543   148294847.924         209.133          47.000  
C33  26159854.592                       -2938.681          29.000                                                                  
C37  22827509.029   118868846.309        2666.561          44.000                                                                  
> 2025 10 27 02 51 54.7160000  0 19                     
G12  20738125.302   108979583.940         829.397          46.000    20738113.249    84919109.848         646.233          43.000  
G15  23297364.376                       -3261.980          33.000    23297362.199    95398790.465       -2541.805          33.000  
G18  23632841.398   124191400.725       -3675.215          33.000    23632837.904    96772481.397       -2863.524          36.000  
G23  19290149.282   101370413.885       -2127.171          47.000    19290137.870    78989857.998       -1657.661          47.000  
G24  20989292.272                       -3383.948          28.000    20989284.408                       -2637.521          31.000  
G32  20876891.096   109708804.255        1494.736          45.000    20876881.135    85487325.309        1164.778          41.000  
C08  34716063.001   180775646.313        -352.094          46.000    34716046.215   139787117.603        -272.394          49.000  
C13  34712718.008   180758228.502         -54.041          47.000    34712709.149   139773681.888         -41.864          48.000  
C16  35671931.078   185753102.278          -7.409          47.000    35671920.906   143636041.561          -5.631          48.000  
C25  22297697.337   116109972.713       -2575.244          35.000                                                                  
C32  21037527.556   109547928.627         853.928          50.000                                                                  
C06  35362155.797   184140024.663         171.621          44.000    35362140.174   142388683.676         132.644          46.000  
G25  20456700.958   107500703.021        2519.419          42.000    20456692.993    83766739.627        1963.233          43.000  
G10  19496801.651   102456380.608        1004.468          51.000    19496790.170    79836096.881         782.855          43.000  
G28  21995298.831   115586091.031        2562.908          38.000    21995288.815    90067065.213        1997.035          43.000  
C23  20723073.733   107910481.282         222.660          50.000                                                                  
C09  36828942.065   191777971.487         270.115          40.000    36828930.442   148294839.559         209.131          47.000  
C33  26159877.198                       -2938.904          29.000                                                                  
C37  22827488.545   118868739.632        2666.886          44.000                                                                  
> 2025 10 27 02 51 54.7560000  0 19                     
G12  20738119.001   108979550.768         829.351          46.000    20738106.961    84919083.987         646.394          43.000  
G15  23297389.189                       -3261.299          33.000    23297387.043    95398892.151       -2541.960          33.000  
G18  23632869.351   124191547.704       -3674.622          33.000    23632865.883    96772595.951       -2863.603          36.000  
G23  19290165.486   101370498.971       -2127.148          47.000    19290154.064    78989924.300       -1657.624          47.000  
G24  20989317.994                       -3383.894          28.000    20989310.167                       -2636.751          31.000  
G32  20876879.722   109708744.462        1494.850          45.000    20876869.777    85487278.727        1164.658          41.000  
C08  34716065.700   180775660.405        -352.179          46.000    34716048.925   139787128.497        -272.333          49.000  
C13  34712718.435   180758230.662         -53.992          47.000    34712709.560   139773683.557         -41.748          48.000  
C16  35671931.143   185753102.570          -7.296          47.000    35671920.944   143636041.793          -5.723          48.000  
C25  22297717.131   116110075.720       -2575.233          35.000                                                                  
C32  21037521.013   109547894.472         853.923          50.000                                                                  
C06  35362154.466   184140017.791         171.765          44.000    35362138.837   142388678.372         132.606          46.000  
G25  20456681.794   107500602.241        2519.503          42.000    20456673.824    83766661.102        1963.163          43.000  
G10  19496793.985   102456340.424        1004.547          51.000    19496782.515    79836065.562         783.008          43.000  
G28  21995279.309   115585988.512        2562.932          38.000    21995269.308    90066985.331        1997.053          43.000  
C23  20723072.055   107910472.377         222.617          50.000                                                                  
C09  36828939.993   191777960.674         270.212          40.000    36828928.380   148294831.189         209.226          47.000  
C33  26159899.774                       -2938.535          29.000                                                                  
C37  22827468.072   118868632.948        2667.130          44.000                                                                  
> 2025 10 27 02 51 54.7960000  0 19                     
G12  20738112.682   108979517.597         829.305          46.000    20738100.640    84919058.144         646.133          43.000  
G15  23297414.028                       -3262.272          33.000    23297411.894    95398993.841       -2542.139          33.000  
G18  23632897.311   124191694.724       -3675.092          33.000    23632893.855    96772710.507       -2863.771          36.000  
G23  19290181.693   101370584.066       -2127.352          47.000    19290170.254    78989990.614       -1657.809          47.000  
G24  20989343.728                       -3383.657          28.000    20989335.912                       -2635.922          31.000  
G32  20876868.350   109708684.684        1494.604          45.000    20876858.380    85487232.142        1164.619          41.000  
C08  34716068.395   180775674.493        -352.209          46.000    34716051.626   139787139.392        -272.375          49.000  
C13  34712718.828   180758232.835         -54.211          47.000    34712709.991   139773685.234         -41.864          47.000  
C16  35671931.202   185753102.871          -7.425          47.000    35671920.970   143636042.025          -5.807          48.000  
C25  22297736.886   116110178.729       -2575.345          35.000                                                                  
C32  21037514.450   109547860.320         853.850          50.000                                                                  
C06  35362153.129   184140010.928         171.653          44.000    35362137.523   142388673.060         132.704          46.000  
G25  20456662.642   107500501.476        2519.250          42.000    20456654.642    83766582.575        1963.120          43.000  
G10  19496786.359   102456300.252        1004.376          50.000    19496774.868    79836034.255         782.794          43.000  
G28  21995259.810   115585886.002        2562.796          38.000    21995249.804    90066905.452        1996.996          42.000  
C23  20723070.313   107910463.477         222.507          50.000                                                                  
C09  36828937.908   191777949.848         270.507          40.000    36828926.296   148294822.824         209.173          47.000  
C33  26159922.395                       -2938.650          29.000                                                                  
C37  22827447.580   118868526.288        2666.779          44.000                                                                  
> 2025 10 27 02 51 54.8360000  0 19                     
G12  20738106.384   108979484.435         829.106          45.000    20738094.310    84919032.298         646.079          43.000  
G15  23297438.874                       -3263.258          33.000    23297436.712    95399095.531       -2542.360          33.000  
G18  23632925.297   124191841.786       -3676.100          33.000    23632921.842    96772825.093       -2864.445          36.000  
G23  19290197.904   101370669.171       -2127.641          47.000    19290186.423    78990056.932       -1657.968          47.000  
G24  20989369.477                       -3383.420          28.000    20989361.649                       -2636.063          31.000  
G32  20876856.986   109708624.910        1494.379          45.000    20876847.025    85487185.570        1164.390          41.000  
C08  34716071.090   180775688.595        -352.533          46.000    34716054.353   139787150.297        -272.589          49.000  
C13  34712719.227   180758235.006         -54.279          47.000    34712710.413   139773686.915         -42.010          47.000  
C16  35671931.264   185753103.183          -7.719          47.000    35671921.043   143636042.258          -5.857          48.000  
C25  22297756.673   116110281.734       -2575.389          35.000                                                                  
C32  21037507.846   109547826.179         853.612          50.000                                                                  
C06  35362151.793   184140004.076         171.375          44.000    35362136.227   142388667.752         132.716          46.000  
G25  20456643.485   107500400.721        2518.955          42.000    20456635.461    83766504.052        1963.077          43.000  
G10  19496778.743   102456260.079        1004.303          50.000    19496767.203    79836002.958         782.489          43.000  
G28  21995240.321   115585783.511        2562.349          38.000    21995230.293    90066825.575        1996.921          42.000  
C23  20723068.586   107910454.589         222.244          50.000                                                                  
C09  36828935.813   191777939.025         270.560          40.000    36828924.229   148294814.455         209.185          47.000  
C33  26159944.960                       -2938.803          29.000                                                                  
C37  22827427.117   118868419.632        2666.465          44.000                                                                  
> 2025 10 27 02 51 54.8760000  0 19                     
G12  20738100.083   108979451.278         828.930          45.000    20738088.001    84919006.452         646.030          43.000  
G15  23297463.726                       -3262.949          33.000    23297461.546    95399197.197       -2541.991          33.000  
G18  23632953.282   124191988.823       -3676.194          33.000    23632949.823    96772939.680       -2864.732          36.000  
G23  19290214.084   101370754.274       -2127.695          47.000    19290202.627    78990123.244       -1657.906          47.000  
G24  20989395.238                       -3383.669          28.000    20989387.408                       -2636.656          31.000  
G32  20876845.632   109708565.136        1494.282          45.000    20876835.664    85487138.995        1164.337          41.000  
C08  34716073.834   180775702.689        -352.466          46.000    34716057.080   139787161.192        -272.491          49.000  
C13  34712719.681   180758237.177         -54.321          47.000    34712710.823   139773688.598         -42.102          47.000  
C16  35671931.332   185753103.486          -7.684          47.000    35671921.080   143636042.495          -5.938          48.000  
C25  22297776.473   116110384.771       -2575.805          35.000                                                                  
C32  21037501.302   109547792.034         853.566          50.000                                                                  
C06  35362150.465   184139997.218         171.337          44.000    35362134.889   142388662.441         132.747          46.000  
G25  20456624.321   107500299.961        2518.898          42.000    20456616.303    83766425.541        1962.819          43.000  
G10  19496771.139   102456219.909        1004.217          50.000    19496759.573    79835971.655         782.446          43.000  
G28  21995220.826   115585681.011        2562.308          38.000    21995210.787    90066745.704        1996.791          42.000  
C23  20723066.882   107910445.699         222.181          50.000                                                                  
C09  36828933.741   191777928.230         270.094          40.000    36828922.136   148294806.088         209.166          47.000  
C33  26159967.509                       -2939.062          29.000                                                                  
C37  22827406.659   118868312.994        2665.975          44.000                                                                  
> 2025 10 27 02 51 54.9160000  0 19                     
G12  20738093.773   108979418.109         829.086          46.000    20738081.690    84918980.604         646.093          43.000  
G15  23297488.561                       -3261.809          33.000    23297486.358    95399298.857       -2541.666          33.000  
G18  23632981.273   124192135.880       -3676.597          33.000    23632977.795    96773054.240       -2864.369          36.000  
G23  19290230.269   101370839.376       -2127.644          47.000    19290218.822    78990189.551       -1657.763          47.000  
G24  20989421.038                       -3383.776          28.000    20989413.115                       -2636.948          31.000  
G32  20876834.253   109708505.354        1494.431          45.000    20876824.286    85487092.406        1164.595          41.000  
C08  34716076.547   180775716.782        -352.417          46.000    34716059.817   139787172.086        -272.382          49.000  
C13  34712720.096   180758239.344         -54.211          47.000    34712711.224   139773690.277         -42.065          47.000  
C16  35671931.431   185753103.782          -7.519          47.000    35671921.140   143636042.730          -5.942          48.000  
C25  22297796.238   116110487.752       -2574.965          35.000                                                                  
C32  21037494.751   109547757.884         853.640          50.000                                                                  
C06  35362149.143   184139990.365         171.293          44.000    35362133.541   142388657.130         132.772          46.000  
G25  20456605.129   107500199.185        2519.153          42.000    20456597.124    83766347.015        1962.978          43.000  
G10  19496763.463   102456179.735        1004.248          50.000    19496751.923    79835940.355         782.398          43.000  
G28  21995201.310   115585578.502        2562.498          38.000    21995191.295    90066665.823        1996.930          43.000  
C23  20723065.199   107910436.800         222.329          50.000                                                                  
C09  36828931.633   191777917.420         270.117          40.000    36828920.066   148294797.726         209.072          47.000  
C33  26159990.115                       -2938.007          29.000                                                                  
C37  22827386.181   118868206.349        2665.913          44.000                                                                  
> 2025 10 27 02 51 54.9560000  0 19                     
G12  20738087.445   108979384.930         829.351          46.000    20738075.394    84918954.762         646.050          43.000  
G15  23297513.361                       -3261.610          33.000    23297511.186    95399400.525       -2541.531          33.000  
G18  23633009.235   124192282.874       -3675.482          33.000    23633005.759    96773168.789       -2863.946          36.000  
G23  19290246.468   101370924.470       -2127.447          47.000    19290235.018    78990255.859       -1657.721          47.000  
G24  20989446.775                       -3383.582          28.000    20989438.868                       -2636.760          31.000  
G32  20876822.877   109708445.566        1494.625          45.000    20876812.913    85487045.822        1164.609          41.000  
C08  34716079.265   180775730.869        -352.289          46.000    34716062.534   139787182.979        -272.314          49.000  
C13  34712720.534   180758241.499         -53.973          47.000    34712711.651   139773691.946         -41.833          47.000  
C16  35671931.520   185753104.078          -7.428          47.000    35671921.174   143636042.959          -5.789          48.000  
C25  22297816.016   116110590.731       -2574.468          35.000                                                                  
C32  21037488.201   109547723.732         853.729          50.000                                                                  
C06  35362147.834   184139983.488         171.691          44.000    35362132.223   142388651.826         132.664          46.000  
G25  20456585.943   107500098.411        2519.287          42.000    20456577.937    83766268.488        1963.109          43.000  
G10  19496755.790   102456139.565        1004.211          50.000    19496744.270    79835909.048         782.574          44.000  
G28  21995181.805   115585475.994        2562.680          38.000    21995171.803    90066585.933        1997.185          43.000  
C23  20723063.519   107910427.895         222.516          50.000                                                                  
C09  36828929.529   191777906.585         270.680          40.000    36828917.997   148294789.354         209.205          47.000  
C33  26160012.687                       -2938.238          29.000                                                                  
C37  22827365.698   118868099.667        2666.602          44.000                                                                  
> 2025 10 27 02 51 54.9960000  0 19                     
G12  20738081.151   108979351.759         829.325          46.000    20738069.075    84918928.910         646.173          43.000  
G15  23297538.187                       -3261.908          33.000    23297536.002    95399502.168       -2541.041          33.000  
G18  23633037.193   124192429.865       -3674.818          33.000    23633033.728    96773283.325       -2863.485          36.000  
G23  19290262.665   101371009.566       -2127.398          47.000    19290251.220    78990322.166       -1657.684          47.000  
G24  20989472.524                       -3383.665          28.000    20989464.637                       -2637.045          31.000  
G32  20876811.493   109708385.772        1494.827          45.000    20876801.558    85486999.243        1164.509          41.000  
C08  34716081.962   180775744.960        -352.283          46.000    34716065.245   139787193.870        -272.290          49.000  
C13  34712720.938   180758243.667         -54.083          47.000    34712712.062   139773693.616         -41.754          47.000  
C16  35671931.562   185753104.381          -7.510          47.000    35671921.217   143636043.190          -5.772          48.000  
C25  22297835.788   116110693.754       -2575.062          35.000                                                                  
C32  21037481.690   109547689.578         853.812          50.000                                                                  
C06  35362146.518   184139976.601         172.041          44.000    35362130.928   142388646.526         132.494          46.000  
G25  20456566.761   107499997.632        2519.433          42.000    20456558.751    83766189.963        1963.145          43.000  
G10  19496748.107   102456099.394        1004.236          50.000    19496736.624    79835877.740         782.654          44.000  
G28  21995162.305   115585373.473        2562.996          38.000    21995152.301    90066506.044        1997.250          43.000  
C23  20723061.783   107910418.992         222.589          50.000                                                                  
C09  36828927.426   191777895.764         270.668          40.000    36828915.935   148294780.994         209.085          47.000  
C33  26160035.234                       -2938.249          29.000                                                                  
C37  22827345.245   118867993.005        2666.644          44.000                                                                  
> 2025 10 27 02 51 55.0360000  0 19                     
G12  20738074.858   108979318.593         829.213          46.000    20738062.771    84918903.075         645.986          43.000  
G15  23297563.017                       -3262.739          33.000    23297560.815    95399603.850       -2541.585          33.000  
G18  23633065.177   124192576.893       -3675.274          33.000    23633061.695    96773397.897       -2863.953          36.000  
G23  19290278.855   101371094.660       -2127.362          47.000    19290267.444    78990388.478       -1657.777          47.000  
G24  20989498.273                       -3383.641          28.000    20989490.364                       -2637.351          31.000  
G32  20876800.136   109708325.992        1494.658          45.000    20876790.199    85486952.661        1164.517          41.000  
C08  34716084.655   180775759.051        -352.264          46.000    34716067.911   139787204.769        -272.418          49.000  
C13  34712721.319   180758245.833         -54.150          47.000    34712712.473   139773695.296         -41.943          47.000  
C16  35671931.626   185753104.680          -7.496          47.000    35671921.239   143636043.426          -5.865          48.000  
C25  22297855.589   116110796.758       -2575.167          35.000                                                                  
C32  21037475.118   109547655.430         853.725          50.000                                                                  
C06  35362145.180   184139969.744         171.671          44.000    35362129.628   142388641.219         132.552          46.000  
G25  20456547.588   107499896.852        2519.539          42.000    20456539.577    83766111.451        1962.907          43.000  
G10  19496740.466   102456059.227        1004.156          50.000    19496728.985    79835846.432         782.684          44.000  
G28  21995142.791   115585270.952        2563.104          39.000    21995132.791    90066426.169        1996.968          43.000  
C23  20723060.037   107910410.097         222.430          50.000                                                                  
C09  36828925.336   191777884.920         270.989          40.000    36828913.843   148294772.633         208.984          47.000  
C33  26160057.825                       -2938.401          29.000                                                                  
C37  22827324.778   118867886.338        2666.714          44.000                                                                  
> 2025 10 27 02 51 55.0760000  0 19                     
G12  20738068.554   108979285.433         829.033          46.000    20738056.476    84918877.238         645.851          42.000  
G15  23297587.851                       -3262.726          33.000    23297585.615    95399705.539       -2542.010          33.000  
G18  23633093.186   124192723.925       -3675.650          33.000    23633089.658    96773512.446       -2863.821          36.000  
G23  19290295.061   101371179.762       -2127.529          47.000    19290283.643    78990454.796       -1657.949          47.000  
G24  20989524.058                       -3384.063          28.000    20989516.148                       -2637.646          31.000  
G32  20876788.780   109708266.215        1494.442          45.000    20876778.812    85486906.078        1164.570          41.000  
C08  34716087.351   180775773.153        -352.502          46.000    34716070.591   139787215.669        -272.546          49.000  
C13  34712721.730   180758248.005         -54.297          47.000    34712712.886   139773696.976         -42.035          47.000  
C16  35671931.679   185753104.983          -7.551          47.000    35671921.267   143636043.663          -5.924          48.000  
C25  22297875.344   116110899.773       -2575.444          35.000                                                                  
C32  21037468.535   109547621.282         853.688          50.000                                                                  
C06  35362143.887   184139962.884         171.528          44.000    35362128.298   142388635.912         132.615          46.000  
G25  20456528.418   107499796.100        2519.077          42.000    20456520.395    83766032.937        1962.793          43.000  
G10  19496732.827   102456019.063        1004.089          50.000    19496721.360    79835815.136         782.483          44.000  
G28  21995123.289   115585168.433        2563.026          40.000    21995113.299    90066346.294        1996.795          43.000  
C23  20723058.295   107910401.214         222.140          50.000                                                                  
C09  36828923.276   191777874.114         270.450          40.000    36828911.757   148294764.273         208.974          47.000  
C33  26160080.372                       -2938.485          29.000                                                                  
C37  22827304.264   118867779.679        2666.588          44.000                                                                  
> 2025 10 27 02 51 55.1160000  0 19                     
G12  20738062.261   108979252.275         828.934          46.000    20738050.183    84918851.391         646.005          42.000  
G15  23297612.664                       -3262.834          33.000    23297610.454    95399807.240       -2542.432          33.000  
G18  23633121.168   124192870.949       -3675.716          33.000    23633117.650    96773627.032       -2864.411          36.000  
G23  19290311.273   101371264.872       -2127.744          47.000    19290299.826    78990521.106       -1657.856          47.000  
G24  20989549.796                       -3384.356          28.000    20989541.902                       -2635.690          31.000  
G32  20876777.404   109708206.438        1494.404          45.000    20876767.406    85486859.485        1164.743          41.000  
C08  34716090.074   180775787.242        -352.350          46.000    34716073.302   139787226.570        -272.577          49.000  
C13  34712722.146   180758250.173         -54.291          47.000    34712713.314   139773698.656         -42.053          47.000  
C16  35671931.790   185753105.280          -7.470          47.000    35671921.311   143636043.899          -5.940          48.000  
C25  22297895.109   116111002.803       -2575.738          35.000                                                                  
C32  21037462.015   109547587.134         853.676          50.000                                                                  
C06  35362142.592   184139956.019         171.548          44.000    35362126.978   142388630.604         132.638          46.000  
G25  20456509.226   107499695.332        2519.091          42.000    20456501.217    83765954.421        1962.784          43.000  
G10  19496725.169   102455978.893        1004.169          50.000    19496713.714    79835783.843         782.343          44.000  
G28  21995103.791   115585065.902        2563.288          40.000    21995093.793    90066266.413        1996.871          43.000  
C23  20723056.624   107910392.321         222.187          50.000                                                                  
C09  36828921.208   191777863.311         270.173          40.000    36828909.669   148294755.913         208.950          47.000  
C33  26160102.960                       -2938.388          29.000                                                                  
C37  22827283.799   118867673.020        2666.507          44.000                                                                  
> 2025 10 27 02 51 55.1560000  0 19                     
G12  20738055.960   108979219.112         828.978          46.000    20738043.882    84918825.546         646.082          42.000  
G15  23297637.500                       -3261.421          33.000    23297635.293    95399908.902       -2541.931          33.000  
G18  23633149.156   124193017.959       -3675.526          33.000    23633145.634    96773741.585       -2864.131          36.000  
G23  19290327.444   101371349.975       -2127.694          47.000    19290316.036    78990587.418       -1657.850          47.000  
G24  20989575.558                       -3384.352          28.000    20989567.628                       -2636.546          31.000  
G32  20876766.025   109708146.658        1494.427          45.000    20876756.036    85486812.903        1164.641          41.000  
C08  34716092.813   180775801.333        -352.277          46.000    34716076.044   139787237.468        -272.546          49.000  
C13  34712722.555   180758252.343         -54.321          47.000    34712713.774   139773700.330         -41.949          47.000  
C16  35671931.837   185753105.579          -7.465          47.000    35671921.348   143636044.130          -5.863          48.000  
C25  22297914.894   116111105.830       -2575.847          35.000                                                                  
C32  21037455.463   109547552.987         853.624          50.000                                                                  
C06  35362141.260   184139949.164         171.406          44.000    35362125.629   142388625.292         132.715          46.000  
G25  20456490.045   107499594.569        2519.073          42.000    20456482.028    83765875.895        1962.970          43.000  
G10  19496717.512   102455938.722        1004.236          50.000    19496706.071    79835752.531         782.617          44.000  
G28  21995084.282   115584963.396        2562.886          40.000    21995074.277    90066186.543        1996.748          43.000  
C23  20723054.921   107910383.423         222.339          50.000                                                                  
C09  36828919.135   191777852.512         269.906          40.000    36828907.610   148294747.544         209.107          47.000  
C33  26160125.498                       -2938.773          29.000                                                                  
C37  22827263.348   118867566.360        2666.446          44.000                                                                  
> 2025 10 27 02 51 55.1960000  0 19                     
G12  20738049.641   108979185.956         828.889          46.000    20738037.590    84918799.722         645.719          42.000  
G15  23297662.354                       -3261.768          33.000    23297660.089    95400010.585       -2541.964          33.000  
G18  23633177.139   124193164.977       -3675.576          33.000    23633173.607    96773856.136       -2863.923          36.000  
G23  19290343.659   101371435.084       -2127.773          47.000    19290332.213    78990653.734       -1657.893          47.000  
G24  20989601.319   110301110.298       -3384.178          28.000    20989593.356                       -2636.931          31.000  
G32  20876754.616   109708086.880        1494.435          45.000    20876744.660    85486766.331        1164.368          41.000  
C08  34716095.515   180775815.439        -352.539          46.000    34716078.760   139787248.374        -272.668          49.000  
C13  34712723.002   180758254.509         -54.254          47.000    34712714.188   139773702.006         -41.931          47.000  
C16  35671931.898   185753105.893          -7.767          47.000    35671921.385   143636044.360          -5.806          48.000  
C25  22297934.655   116111208.834       -2575.408          35.000                                                                  
C32  21037448.858   109547518.844         853.549          50.000                                                                  
C06  35362139.935   184139942.303         171.409          44.000    35362124.333   142388619.983         132.712          46.000  
G25  20456470.836   107499493.801        2519.166          42.000    20456462.846    83765797.372        1963.040          43.000  
G10  19496709.885   102455898.556        1004.150          50.000    19496698.428    79835721.228         782.574          44.000  
G28  21995064.782   115584860.895        2562.532          40.000    21995054.773    90066106.686        1996.464          42.000  
C23  20723053.203   107910374.530         222.311          50.000                                                                  
C09  36828917.039   191777841.704         269.999          40.000    36828905.537   148294739.182         209.043          47.000  
C33  26160148.096                       -2938.591          29.000                                                                  
C37  22827242.878   118867459.691        2666.582          44.000                                                                  
> 2025 10 27 02 51 55.2360000  0 19                     
G12  20738043.360   108979152.802         828.807          46.000    20738031.270    84918773.886         645.751          43.000  
G15  23297687.183                       -3262.550          33.000    23297684.901    95400112.275       -2542.086          33.000  
G18  23633205.103   124193312.006       -3675.721          33.000    23633201.581    96773970.689       -2863.808          36.000  
G23  19290359.836   101371520.188       -2127.705          47.000    19290348.406    78990720.054       -1657.997          47.000  
G24  20989627.095   110301245.658       -3384.115          28.000    20989619.094                       -2637.022          31.000  
G32  20876743.228   109708027.102        1494.417          45.000    20876733.265    85486719.760        1164.219          41.000  
C08  34716098.217   180775829.536        -352.490          46.000    34716081.420   139787259.274        -272.601          49.000  
C13  34712723.401   180758256.687         -54.413          47.000    34712714.594   139773703.683         -41.956          47.000  
C16  35671931.959   185753106.200          -7.767          47.000    35671921.428   143636044.599          -5.937          48.000  
C25  22297954.437   116111311.835       -2575.094          35.000                                                                  
C32  21037442.303   109547484.703         853.501          50.000                                                                  
C06  35362138.618   184139935.444         171.393          44.000    35362123.035   142388614.690         132.393          46.000  
G25  20456451.656   107499393.046        2518.935          42.000    20456443.653    83765718.863        1962.843          43.000  
G10  19496702.279   102455858.391        1004.095          50.000    19496690.769    79835689.928         782.483          44.000  
G28  21995045.276   115584758.400        2562.344          40.000    21995035.275    90066026.815        1996.572          42.000  
C23  20723051.493   107910365.642         222.215          50.000                                                                  
C09  36828914.961   191777830.888         270.234          40.000    36828903.434   148294730.830         208.849          47.000  
C33  26160170.655                       -2938.872          29.000                                                                  
C37  22827222.427   118867353.048        2666.237          44.000                                                                  
> 2025 10 27 02 51 55.2760000  0 19                     
G12  20738037.028   108979119.644         828.863          46.000    20738024.951    84918748.053         645.748          43.000  
G15  23297712.029                       -3262.869          33.000    23297709.705    95400213.956       -2542.082          33.000  
G18  23633233.085   124193459.041       -3675.735          33.000    23633229.567    96774085.263       -2864.193          36.000  
G23  19290376.018   101371605.293       -2127.655          47.000    19290364.596    78990786.370       -1657.966          47.000  
G24  20989652.867                       -3384.327          28.000    20989644.859                       -2637.109          31.000  
G32  20876731.847   109707967.325        1494.418          45.000    20876721.893    85486673.189        1164.160          41.000  
C08  34716100.930   180775843.636        -352.521          46.000    34716084.114   139787270.172        -272.498          49.000  
C13  34712723.830   180758258.863         -54.449          47.000    34712715.003   139773705.363         -42.010          47.000  
C16  35671932.059   185753106.500          -7.646          47.000    35671921.482   143636044.829          -5.843          48.000  
C25  22297974.215   116111414.855       -2575.286          35.000                                                                  
C32  21037435.774   109547450.560         853.517          50.000                                                                  
C06  35362137.314   184139928.576         171.566          44.000    35362121.735   142388609.392         132.323          46.000  
G25  20456432.501   107499292.296        2518.745          42.000    20456424.482    83765640.352        1962.740          43.000  
G10  19496694.642   102455818.227        1004.059          50.000    19496683.140    79835658.633         782.361          44.000  
G28  21995025.784   115584655.904        2562.292          40.000    21995015.779    90065946.939        1996.797          42.000  
C23  20723049.767   107910356.758         222.093          50.000                                                                  
C09  36828912.864   191777820.062         270.573          40.000    36828901.362   148294722.469         208.940          47.000  
C33  26160193.230                       -2939.369          29.000                                                                  
C37  22827201.947   118867246.388        2666.369          44.000                                                                  
