     3.04           OBSERVATION DATA    M: Mixed            RINEX VERSION / TYPE
RTKCONV 2.4.3 b34                       20251027 032933 UTC PGM / RUN BY / DATE 
format: u-blox UBX                                          COMMENT             
log: D:\GPdata\10_27\fingure_up_130_310_10_27_2.ubx         COMMENT             
                                                            MARKER NAME         
                                                            MARKER NUMBER       
                                                            MARKER TYPE         
                                                            OBSERVER / AGENCY   
                                                            REC # / TYPE / VERS 
                                                            ANT # / TYPE        
        0.0000        0.0000        0.0000                  APPROX POSITION XYZ 
        0.0000        0.0000        0.0000                  ANTENNA: DELTA H/E/N
G    8 C1C L1C D1C S1C C2L L2L D2L S2L                      SYS / # / OBS TYPES 
C    8 C2I L2I D2I S2I C7I L7I D7I S7I                      SYS / # / OBS TYPES 
  2025    10    27    02    16   33.3960000     GPS         TIME OF FIRST OBS   
  2025    10    27    02    17   14.2760000     GPS         TIME OF LAST OBS    
G L1C                                                       SYS / PHASE SHIFT   
G L2L  0.00000                                              SYS / PHASE SHIFT   
C L2I                                                       SYS / PHASE SHIFT   
C L7I                                                       SYS / PHASE SHIFT   
  0                                                         GLONASS SLOT / FRQ #
 C1C    0.000 C1P    0.000 C2C    0.000 C2P    0.000        GLONASS COD/PHS/BIS 
                                                            END OF HEADER       
> 2025 10 27 02 16 33.3960000  0 22                     
G12  21319436.441   112034436.5301       1968.207          45.000    21319425.146    87299507.9441       1533.844          40.000  
G15  22025830.691   115746504.7801      -3042.334          40.000    22025821.310    90192055.3891      -2370.534          38.000  
G18  22139114.314   116341814.0351      -3654.511          41.000    22139105.725    90655930.7881      -2847.749          42.000  
G23  18685991.293    98195545.3951       -870.736          47.000    18685979.030    76515948.8221       -678.589          49.000  
G24  19734563.890   103705824.6821      -2776.660          40.000    19734552.839    80809680.5951      -2163.599          37.000  
G32  21520826.864   113092719.1731       1677.222          45.000    21520817.609    88124156.5041       1306.590          41.000  
C08  34637567.636   180366896.3361        -60.651          45.000    34637549.705   139471056.0171        -46.863          49.000  
C13  34744876.361   180925688.6881        183.527          46.000    34744867.328   139903179.9831        141.882          46.000  
C16  35719059.216   185998512.5491        232.701          48.000    35719047.976   143825804.8061        179.938          47.000  
C25  21418736.096   111532973.7811      -1703.239          43.000                                                                  
C32  21481354.801   111859049.7391       1275.935          47.000                                                                  
C06  35482768.000   184768082.7341        412.209          43.000    35482751.597   142874339.7861        318.677          46.000  
G25  21619275.969   113610081.8681       3135.478          40.000    21619269.759    88527313.3741       2443.474          40.000  
G10  20113763.336   105698538.3111       1971.996          48.000    20113751.884    82362461.8491       1536.632          43.000  
G02  24822376.643                3       1724.441          14.000                                                                  
G28  23141210.761   121607897.7381       3066.344          38.000    23141203.080    94759343.8051       2389.502          41.000  
C23  21041177.287   109566934.1081       1307.870          50.000                                                                  
C09  36987166.742   192601888.2491        494.698          41.000    36987155.060   148931942.9331        382.406          45.000  
C33  25018542.394   130278100.0201      -2670.100          36.000                                                                  
C30  24673995.216   128483951.5161      -2104.991          41.000                                                                  
C27  25143314.911   130927838.6181      -2767.561          31.000                                                                  
C37  24006752.519   125009458.5401       3055.958          42.000                                                                  
> 2025 10 27 02 16 33.4360000  0 22                     
G12  21319421.457   112034357.797        1968.241          45.000    21319410.162    87299446.596        1533.744          40.000  
G15  22025853.861   115746626.455       -3042.065          40.000    22025844.474    90192150.202       -2370.327          38.000  
G18  22139142.114   116341960.214       -3654.487          41.000    22139133.547    90656044.697       -2847.781          42.000  
G23  18685997.925    98195580.221        -870.698          47.000    18685985.665    76515975.965        -678.612          50.000  
G24  19734585.012   103705935.745       -2776.605          40.000    19734573.976    80809767.143       -2163.696          37.000  
G32  21520814.115   113092652.092        1677.123          45.000    21520804.854    88124104.237        1306.583          41.000  
C08  34637568.110   180366898.757         -60.602          45.000    34637550.211   139471057.890         -46.863          49.000  
C13  34744874.935   180925681.347         183.527          46.000    34744865.936   139903174.305         141.925          46.000  
C16  35719057.471   185998503.244         232.658          48.000    35719046.189   143825797.611         179.898          47.000  
C25  21418749.188   111533041.911       -1703.250          43.000                                                                  
C32  21481344.987   111858998.698        1275.970          47.000                                                                  
C06  35482764.812   184768066.242         412.310          43.000    35482748.412   142874327.048         318.481          46.000  
G25  21619252.103   113609956.458        3135.241          40.000    21619245.880    88527215.639        2443.440          40.000  
G10  20113748.334   105698459.430        1972.036          48.000    20113736.859    82362400.387        1536.541          43.000  
G02  24822363.434                3       1724.441          14.000                                                                  
G28  23141187.414   121607775.072        3066.508          38.000    23141179.742    94759248.221        2389.553          41.000  
C23  21041167.232   109566881.795        1307.820          50.000                                                                  
C09  36987162.914   192601868.462         494.690          41.000    36987151.256   148931927.630         382.488          45.000  
C33  25018562.900   130278206.803       -2669.833          36.000                                                                  
C30  24674011.358   128484035.717       -2105.034          41.000                                                                  
C27  25143336.201   130927949.416       -2769.176          31.000                                                                  
C37  24006729.040   125009336.307        3055.831          42.000                                                                  
> 2025 10 27 02 16 33.4760000  0 22                     
G12  21319406.478   112034279.064        1968.265          45.000    21319395.176    87299385.244        1533.743          40.000  
G15  22025877.011   115746748.136       -3042.003          40.000    22025867.625    90192245.034       -2370.602          38.000  
G18  22139169.904   116342106.392       -3654.487          41.000    22139161.350    90656158.591       -2847.488          42.000  
G23  18686004.559    98195615.055        -870.798          47.000    18685992.285    76516003.108        -678.617          49.000  
G24  19734606.139   103706046.812       -2776.715          40.000    19734595.112    80809853.686       -2163.654          37.000  
G32  21520801.338   113092585.028        1676.703          45.000    21520792.086    88124051.973        1306.528          41.000  
C08  34637568.563   180366901.177         -60.547          45.000    34637550.707   139471059.767         -46.948          49.000  
C13  34744873.525   180925674.015         183.344          46.000    34744864.515   139903168.629         141.901          46.000  
C16  35719055.665   185998493.947         232.463          48.000    35719044.375   143825790.420         179.801          47.000  
C25  21418762.267   111533110.047       -1703.396          43.000                                                                  
C32  21481335.193   111858947.666        1275.810          47.000                                                                  
C06  35482761.641   184768049.766         412.020          43.000    35482745.205   142874314.296         318.637          46.000  
G25  21619228.230   113609831.023        3135.662          40.000    21619222.014    88527117.910        2443.308          40.000  
G10  20113733.306   105698380.551        1971.988          48.000    20113721.858    82362338.915        1536.636          43.000  
G02  24822349.556                3       1724.441          14.000                                                                  
G28  23141164.070   121607652.408        3066.548          38.000    23141156.424    94759152.640        2389.552          41.000  
C23  21041157.178   109566829.485        1307.750          50.000                                                                  
C09  36987159.087   192601848.686         494.491          41.000    36987147.452   148931912.338         382.338          45.000  
C33  25018583.388   130278313.583       -2669.659          36.000                                                                  
C30  24674027.527   128484119.902       -2104.756          41.000                                                                  
C27  25143357.478   130928060.144       -2768.725          31.000                                                                  
C37  24006705.540   125009214.061        3056.027          42.000                                                                  
> 2025 10 27 02 16 33.5160000  0 22                     
G12  21319391.487   112034200.335        1968.228          45.000    21319380.197    87299323.893        1533.750          40.000  
G15  22025900.162   115746869.814       -3041.992          40.000    22025890.776    90192339.854       -2370.520          38.000  
G18  22139197.731   116342252.584       -3654.742          41.000    22139189.182    90656272.511       -2847.788          42.000  
G23  18686011.191    98195649.891        -870.897          47.000    18685998.905    76516030.248        -678.559          49.000  
G24  19734627.279   103706157.874       -2776.660          40.000    19734616.242    80809940.225       -2163.556          37.000  
G32  21520788.580   113092517.954        1676.710          45.000    21520779.310    88123999.689        1306.898          41.000  
C08  34637569.032   180366903.600         -60.577          45.000    34637551.209   139471061.640         -46.887          49.000  
C13  34744872.098   180925666.683         183.276          46.000    34744863.101   139903162.959         141.803          46.000  
C16  35719053.869   185998484.646         232.454          48.000    35719042.576   143825783.229         179.730          47.000  
C25  21418775.337   111533178.175       -1703.325          43.000                                                                  
C32  21481325.388   111858896.634        1275.788          47.000                                                                  
C06  35482758.474   184768033.277         412.076          43.000    35482742.043   142874301.550         318.644          46.000  
G25  21619204.358   113609705.596        3135.741          40.000    21619198.148    88527020.188        2443.082          40.000  
G10  20113718.321   105698301.681        1971.816          48.000    20113706.867    82362277.454        1536.537          43.000  
G02  24822337.269                3       1724.441          15.000                                                                  
G28  23141140.732   121607529.749        3066.533          38.000    23141133.087    94759057.071        2389.291          42.000  
C23  21041147.135   109566777.179        1307.651          50.000                                                                  
C09  36987155.299   192601828.906         494.448          41.000    36987143.659   148931897.040         382.358          45.000  
C33  25018603.894   130278420.367       -2669.692          36.000                                                                  
C30  24674043.681   128484204.105       -2104.947          41.000                                                                  
C27  25143378.734   130928170.875       -2768.449          31.000                                                                  
C37  24006682.071   125009091.811        3056.184          42.000                                                                  
> 2025 10 27 02 16 33.5560000  0 22                     
G12  21319376.496   112034121.621        1967.944          45.000    21319365.223    87299262.555        1533.477          40.000  
G15  22025923.320   115746991.520       -3042.484          40.000    22025913.932    90192434.663       -2370.316          38.000  
G18  22139225.537   116342398.772       -3654.797          41.000    22139216.961    90656386.411       -2847.625          42.000  
G23  18686017.808    98195684.729        -870.978          47.000    18686005.513    76516057.394        -678.641          50.000  
G24  19734648.402   103706268.946       -2776.807          40.000    19734637.370    80810026.786       -2163.977          37.000  
G32  21520775.799   113092450.880        1676.732          45.000    21520766.531    88123947.430        1306.615          41.000  
C08  34637569.477   180366906.023         -60.608          45.000    34637551.679   139471063.518         -46.960          49.000  
C13  34744870.726   180925659.352         183.246          46.000    34744861.704   139903157.292         141.669          46.000  
C16  35719052.124   185998475.346         232.437          48.000    35719040.808   143825776.034         179.760          47.000  
C25  21418788.415   111533246.305       -1703.311          43.000                                                                  
C32  21481315.585   111858845.598        1275.820          47.000                                                                  
C06  35482755.296   184768016.796         411.999          43.000    35482738.890   142874288.801         318.675          46.000  
G25  21619180.503   113609580.177        3135.607          40.000    21619174.266    88526922.457        2443.135          40.000  
G10  20113703.322   105698222.805        1971.815          48.000    20113691.865    82362215.997        1536.434          43.000  
G02  24822323.583                3       1724.441          15.000                                                                  
G28  23141117.393   121607407.108        3066.121          38.000    23141109.737    94758961.497        2389.236          42.000  
C23  21041137.117   109566724.868        1307.672          50.000                                                                  
C09  36987151.515   192601809.135         494.263          41.000    36987139.853   148931881.749         382.259          45.000  
C33  25018624.380   130278527.135       -2669.324          36.000                                                                  
C30  24674059.816   128484288.312       -2105.121          41.000                                                                  
C27  25143399.976   130928281.589       -2768.023          31.000                                                                  
C37  24006658.605   125008969.573        3056.013          42.000                                                                  
> 2025 10 27 02 16 33.5960000  0 22                     
G12  21319361.531   112034042.904        1967.866          45.000    21319350.228    87299201.218        1533.373          40.000  
G15  22025946.481   115747113.213       -3042.525          40.000    22025937.102    90192529.504       -2370.796          38.000  
G18  22139253.355   116342544.959       -3654.751          41.000    22139244.763    90656500.327       -2847.863          42.000  
G23  18686024.454    98195719.574        -871.126          47.000    18686012.162    76516084.541        -678.697          50.000  
G24  19734669.548   103706380.022       -2776.984          40.000    19734658.493    80810113.328       -2163.800          37.000  
G32  21520763.031   113092383.801        1676.848          45.000    21520753.779    88123895.165        1306.585          41.000  
C08  34637569.934   180366908.454         -60.754          45.000    34637552.161   139471065.393         -46.936          49.000  
C13  34744869.317   180925652.021         183.228          46.000    34744860.289   139903151.627         141.565          46.000  
C16  35719050.327   185998466.051         232.336          48.000    35719039.026   143825768.842         179.768          47.000  
C25  21418801.501   111533314.450       -1703.571          43.000                                                                  
C32  21481305.755   111858794.575        1275.624          47.000                                                                  
C06  35482752.139   184768000.314         411.983          43.000    35482735.761   142874276.057         318.574          46.000  
G25  21619156.639   113609454.781        3135.073          40.000    21619150.370    88526824.727        2443.212          40.000  
G10  20113688.319   105698143.943        1971.594          48.000    20113676.858    82362154.552        1536.149          43.000  
G02  24822309.020                3       1724.441          15.000                                                                  
G28  23141094.069   121607284.451        3066.183          38.000    23141086.403    94758865.928        2389.129          42.000  
C23  21041127.068   109566672.566        1307.558          50.000                                                                  
C09  36987147.731   192601789.352         494.440          41.000    36987136.021   148931866.459         382.198          45.000  
C33  25018644.889   130278633.924       -2669.583          36.000                                                                  
C30  24674075.979   128484372.515       -2105.119          41.000                                                                  
C27  25143421.223   130928392.309       -2767.990          31.000                                                                  
C37  24006635.129   125008847.354        3055.633          42.000                                                                  
> 2025 10 27 02 16 33.6360000  0 22                     
G12  21319346.530   112033964.180        1967.978          45.000    21319335.262    87299139.890        1533.162          40.000  
G15  22025969.634   115747234.921       -3042.746          40.000    22025960.255    90192624.324       -2370.663          38.000  
G18  22139281.166   116342691.141       -3654.721          41.000    22139272.571    90656614.237       -2847.875          42.000  
G23  18686031.062    98195754.413        -871.092          47.000    18686018.791    76516111.694        -678.828          50.000  
G24  19734690.699   103706491.094       -2776.947          39.000    19734679.631    80810199.875       -2163.800          37.000  
G32  21520750.277   113092316.728        1676.841          45.000    21520741.007    88123842.904        1306.498          41.000  
C08  34637570.393   180366910.882         -60.742          45.000    34637552.624   139471067.269         -46.930          49.000  
C13  34744867.901   180925644.689         183.221          46.000    34744858.876   139903145.965         141.449          46.000  
C16  35719048.573   185998456.750         232.424          48.000    35719037.261   143825761.656         179.651          47.000  
C25  21418814.589   111533382.579       -1703.397          43.000                                                                  
C32  21481295.949   111858743.546        1275.602          47.000                                                                  
C06  35482748.985   184767983.839         411.854          43.000    35482732.602   142874263.318         318.446          46.000  
G25  21619132.779   113609329.361        3135.235          40.000    21619126.515    88526727.004        2443.138          40.000  
G10  20113673.299   105698065.073        1971.649          48.000    20113661.861    82362093.095        1536.246          43.000  
G02  24822295.614                3       1724.441          15.000                                                                  
G28  23141070.719   121607161.807        3066.065          38.000    23141063.072    94758770.355        2389.225          42.000  
C23  21041117.019   109566620.268        1307.419          50.000                                                                  
C09  36987143.916   192601769.566         494.683          41.000    36987132.213   148931851.163         382.318          45.000  
C33  25018665.392   130278740.746       -2670.347          36.000                                                                  
C30  24674092.161   128484456.719       -2105.136          41.000                                                                  
C27  25143442.495   130928503.029       -2768.183          31.000                                                                  
C37  24006611.661   125008725.126        3055.621          42.000                                                                  
> 2025 10 27 02 16 33.6760000  0 22                     
G12  21319331.553   112033885.467        1967.865          45.000    21319320.280    87299078.552        1533.257          40.000  
G15  22025992.795   115747356.593       -3042.114          40.000    22025983.411    90192719.140       -2370.526          38.000  
G18  22139309.000   116342837.323       -3654.703          41.000    22139300.388    90656728.152       -2847.955          42.000  
G23  18686037.697    98195789.255        -871.117          47.000    18686025.430    76516138.848        -678.921          50.000  
G24  19734711.816   103706602.165       -2776.880          39.000    19734700.762    80810286.427       -2163.757          37.000  
G32  21520737.526   113092249.654        1676.848          45.000    21520728.237    88123790.635        1306.635          41.000  
C08  34637570.841   180366913.321         -60.944          45.000    34637553.086   139471069.148         -46.973          49.000  
C13  34744866.477   180925637.361         183.179          46.000    34744857.464   139903140.290         141.693          46.000  
C16  35719046.766   185998447.454         232.380          48.000    35719035.486   143825754.470         179.597          47.000  
C25  21418827.678   111533450.717       -1703.433          43.000                                                                  
C32  21481286.164   111858692.516        1275.662          47.000                                                                  
C06  35482745.816   184767967.370         411.683          43.000    35482729.426   142874250.577         318.444          46.000  
G25  21619108.901   113609203.948        3135.282          40.000    21619102.642    88526629.279        2443.087          40.000  
G10  20113658.276   105697986.199        1971.746          48.000    20113646.844    82362031.633        1536.451          43.000  
G02  24822282.740                3       1724.441          15.000                                                                  
G28  23141047.366   121607039.155        3066.115          38.000    23141039.719    94758674.791        2389.131          42.000  
C23  21041106.969   109566567.968        1307.419          50.000                                                                  
C09  36987140.093   192601749.794         494.482          41.000    36987128.401   148931835.873         382.230          45.000  
C33  25018685.914   130278847.525       -2669.855          36.000                                                                  
C30  24674108.334   128484540.927       -2105.224          41.000                                                                  
C27  25143463.772   130928613.764       -2768.398          31.000                                                                  
C37  24006588.185   125008602.882        3055.900          42.000                                                                  
> 2025 10 27 02 16 33.7160000  0 22                     
G12  21319316.560   112033806.746        1967.942          45.000    21319305.305    87299017.202        1533.563          40.000  
G15  22026015.938   115747478.274       -3041.980          40.000    22026006.576    90192813.966       -2370.671          38.000  
G18  22139336.795   116342983.508       -3654.677          41.000    22139328.221    90656842.070       -2848.009          42.000  
G23  18686044.326    98195824.097        -871.110          47.000    18686032.080    76516165.996        -678.824          50.000  
G24  19734732.951   103706713.240       -2776.923          39.000    19734721.901    80810372.979       -2163.776          37.000  
G32  21520724.783   113092182.589        1676.657          45.000    21520715.474    88123738.379        1306.443          41.000  
C08  34637571.312   180366915.750         -60.834          45.000    34637553.549   139471071.030         -47.052          49.000  
C13  34744865.049   180925630.034         183.142          46.000    34744856.076   139903134.619         141.742          47.000  
C16  35719044.984   185998438.152         232.464          48.000    35719033.716   143825747.284         179.600          47.000  
C25  21418840.751   111533518.872       -1703.781          43.000                                                                  
C32  21481276.374   111858641.490        1275.630          47.000                                                                  
C06  35482742.636   184767950.891         411.780          43.000    35482726.260   142874237.837         318.456          46.000  
G25  21619085.010   113609078.523        3135.502          40.000    21619078.778    88526531.543        2443.288          40.000  
G10  20113643.251   105697907.325        1971.831          48.000    20113631.825    82361970.171        1536.575          43.000  
G02  24822269.037                3       1724.441          15.000                                                                  
G28  23141024.040   121606916.508        3066.134          38.000    23141016.377    94758579.224        2389.141          42.000  
C23  21041096.961   109566515.664        1307.499          50.000                                                                  
C09  36987136.287   192601730.022         494.351          41.000    36987124.639   148931820.574         382.380          45.000  
C33  25018706.428   130278954.307       -2669.587          36.000                                                                  
C30  24674124.517   128484625.127       -2105.058          41.000                                                                  
C27  25143485.015   130928724.530       -2769.042          31.000                                                                  
C37  24006564.712   125008480.648        3055.885          42.000                                                                  
> 2025 10 27 02 16 33.7560000  0 22                     
G12  21319301.561   112033728.028        1967.923          45.000    21319290.317    87298955.853        1533.771          40.000  
G15  22026039.109   115747599.973       -3042.237          40.000    22026029.736    90192908.812       -2371.061          38.000  
G18  22139364.612   116343129.694       -3654.721          41.000    22139356.040    90656955.983       -2847.901          42.000  
G23  18686050.956    98195858.941        -871.147          47.000    18686038.710    76516193.146        -678.811          50.000  
G24  19734754.105   103706824.319       -2776.953          40.000    19734743.039    80810459.524       -2163.660          37.000  
G32  21520712.011   113092115.500        1677.021          45.000    21520702.695    88123686.092        1306.914          41.000  
C08  34637571.748   180366918.172         -60.651          45.000    34637554.002   139471072.911         -47.076          49.000  
C13  34744863.637   180925622.708         183.112          46.000    34744854.652   139903128.944         141.833          46.000  
C16  35719043.144   185998428.863         232.316          48.000    35719031.923   143825740.089         179.764          47.000  
C25  21418853.853   111533587.014       -1703.681          43.000                                                                  
C32  21481266.604   111858590.452        1275.847          47.000                                                                  
C06  35482739.462   184767934.413         411.869          43.000    35482723.102   142874225.093         318.522          46.000  
G25  21619061.137   113608953.089        3135.783          40.000    21619054.927    88526433.822        2443.137          40.000  
G10  20113628.241   105697828.453        1971.833          48.000    20113616.803    82361908.709        1536.594          43.000  
G02  24822255.631                3       1724.441          15.000                                                                  
G28  23141000.695   121606793.857        3066.153          38.000    23140993.024    94758483.644        2389.380          42.000  
C23  21041086.962   109566463.357        1307.600          50.000                                                                  
C09  36987132.489   192601710.248         494.359          41.000    36987120.838   148931805.280         382.360          45.000  
C33  25018726.922   130279061.119       -2670.107          36.000                                                                  
C30  24674140.688   128484709.340       -2105.222          41.000                                                                  
C27  25143506.268   130928835.296       -2769.404          31.000                                                                  
C37  24006541.253   125008358.410        3055.948          42.000                                                                  
> 2025 10 27 02 16 33.7960000  0 22                     
G12  21319286.585   112033649.294        1968.228          45.000    21319275.326    87298894.508        1533.766          40.000  
G15  22026062.266   115747721.661       -3042.250          39.000    22026052.890    90193003.616       -2370.499          38.000  
G18  22139392.431   116343275.880       -3654.708          41.000    22139383.843    90657069.887       -2847.696          42.000  
G23  18686057.585    98195893.780        -871.045          47.000    18686045.343    76516220.294        -678.741          50.000  
G24  19734775.232   103706935.393       -2776.910          39.000    19734764.194    80810546.073       -2163.739          37.000  
G32  21520699.241   113092048.417        1677.112          45.000    21520689.907    88123633.836        1306.631          41.000  
C08  34637572.189   180366920.596         -60.614          45.000    34637554.439   139471074.781         -46.875          49.000  
C13  34744862.256   180925615.365         183.453          46.000    34744853.264   139903123.280         141.675          46.000  
C16  35719041.358   185998419.558         232.500          48.000    35719030.141   143825732.894         179.879          47.000  
C25  21418866.968   111533655.142       -1703.427          43.000                                                                  
C32  21481256.789   111858539.420        1275.832          47.000                                                                  
C06  35482736.295   184767917.919         412.194          43.000    35482719.911   142874212.350         318.552          46.000  
G25  21619037.271   113608827.656        3135.884          40.000    21619031.070    88526336.094        2443.143          40.000  
G10  20113613.236   105697749.580        1971.818          48.000    20113601.812    82361847.248        1536.583          43.000  
G02  24822243.120                3       1724.441          15.000                                                                  
G28  23140977.349   121606671.192        3066.450          38.000    23140969.671    94758388.056        2389.651          42.000  
C23  21041076.907   109566411.054        1307.592          50.000                                                                  
C09  36987128.692   192601690.456         494.677          41.000    36987117.037   148931789.990         382.235          45.000  
C33  25018747.442   130279167.896       -2669.649          36.000                                                                  
C30  24674156.837   128484793.539       -2105.065          41.000                                                                  
C27  25143527.502   130928945.993       -2768.274          31.000                                                                  
C37  24006517.762   125008236.175        3055.900          42.000                                                                  
> 2025 10 27 02 16 33.8360000  0 22                     
G12  21319271.588   112033570.568        1968.217          45.000    21319260.348    87298833.172        1533.528          40.000  
G15  22026085.411   115747843.345       -3042.137          40.000    22026076.030    90193098.430       -2370.313          38.000  
G18  22139420.241   116343422.072       -3654.807          41.000    22139411.674    90657183.800       -2847.785          42.000  
G23  18686064.209    98195928.620        -871.033          47.000    18686051.954    76516247.440        -678.680          50.000  
G24  19734796.372   103707046.460       -2776.727          39.000    19734785.321    80810632.630       -2163.855          37.000  
G32  21520686.470   113091981.342        1677.009          45.000    21520677.145    88123581.567        1306.656          41.000  
C08  34637572.632   180366923.021         -60.638          45.000    34637554.902   139471076.654         -46.826          49.000  
C13  34744860.852   180925608.026         183.527          46.000    34744851.851   139903117.607         141.785          46.000  
C16  35719039.594   185998410.254         232.608          48.000    35719028.345   143825725.700         179.888          47.000  
C25  21418880.065   111533723.275       -1703.308          43.000                                                                  
C32  21481246.969   111858488.395        1275.677          47.000                                                                  
C06  35482733.121   184767901.431         412.299          43.000    35482716.746   142874199.594         318.773          46.000  
G25  21619013.419   113608702.242        3135.515          40.000    21619007.204    88526238.360        2443.275          40.000  
G10  20113598.243   105697670.709        1971.785          48.000    20113586.801    82361785.793        1536.427          43.000  
G02  24822228.387                3       1724.441          15.000                                                                  
G28  23140954.017   121606548.543        3066.283          38.000    23140946.337    94758292.482        2389.542          42.000  
C23  21041066.852   109566358.748        1307.623          50.000                                                                  
C09  36987124.883   192601670.676         494.625          41.000    36987113.240   148931774.687         382.447          45.000  
C33  25018767.945   130279274.687       -2669.695          36.000                                                                  
C30  24674172.994   128484877.735       -2104.959          41.000                                                                  
C27  25143548.762   130929056.678       -2767.433          31.000                                                                  
C37  24006494.280   125008113.936        3055.924          42.000                                                                  
> 2025 10 27 02 16 33.8760000  0 22                     
G12  21319256.599   112033491.848        1968.101          45.000    21319245.366    87298771.828        1533.587          40.000  
G15  22026108.584   115747965.046       -3042.405          40.000    22026099.183    90193193.240       -2370.216          38.000  
G18  22139448.044   116343568.253       -3654.632          41.000    22139439.468    90657297.704       -2847.686          42.000  
G23  18686070.861    98195963.460        -871.008          47.000    18686058.591    76516274.589        -678.725          50.000  
G24  19734817.499   103707157.523       -2776.605          39.000    19734806.450    80810719.183       -2163.885          37.000  
G32  21520673.701   113091914.263        1676.963          45.000    21520664.378    88123529.297        1306.701          41.000  
C08  34637573.050   180366925.453         -60.791          45.000    34637555.349   139471078.530         -46.893          49.000  
C13  34744859.458   180925600.695         183.386          46.000    34744850.437   139903111.931         141.870          46.000  
C16  35719037.851   185998400.945         232.719          48.000    35719026.523   143825718.503         179.923          47.000  
C25  21418893.160   111533791.412       -1703.336          43.000                                                                  
C32  21481237.188   111858437.355        1275.856          47.000                                                                  
C06  35482729.919   184767884.956         412.064          43.000    35482713.619   142874186.855         318.617          46.000  
G25  21618989.558   113608576.829        3135.362          40.000    21618983.319    88526140.620        2443.451          40.000  
G10  20113583.244   105697591.837        1971.771          48.000    20113571.788    82361724.337        1536.356          43.000  
G02  24822214.485                3       1724.441          15.000                                                                  
G28  23140930.682   121606425.876        3066.555          38.000    23140923.017    94758196.912        2389.353          42.000  
C23  21041056.807   109566306.443        1307.635          50.000                                                                  
C09  36987121.085   192601650.894         494.599          41.000    36987109.445   148931759.389         382.452          45.000  
C33  25018788.414   130279381.453       -2669.279          36.000                                                                  
C30  24674189.171   128484961.937       -2105.076          41.000                                                                  
C27  25143569.999                       -2768.273          31.000                                                                  
C37  24006470.814   125007991.685        3056.182          42.000                                                                  
> 2025 10 27 02 16 33.9160000  0 22                     
G12  21319241.618   112033413.126        1968.044          45.000    21319230.398    87298710.491        1533.440          40.000  
G15  22026131.737   115748086.725       -3042.104          40.000    22026122.328    90193288.071       -2370.611          38.000  
G18  22139475.858   116343714.433       -3654.520          41.000    22139467.290    90657411.617       -2847.811          42.000  
G23  18686077.490    98195998.306        -871.122          47.000    18686065.229    76516301.741        -678.794          50.000  
G24  19734838.631   103707268.588       -2776.611          39.000    19734827.574    80810805.729       -2163.782          37.000  
G32  21520660.976   113091847.190        1676.843          45.000    21520651.613    88123477.020        1306.832          41.000  
C08  34637573.515   180366927.879         -60.718          45.000    34637555.798   139471080.409         -46.979          49.000  
C13  34744858.063   180925593.360         183.344          46.000    34744849.029   139903106.259         141.846          46.000  
C16  35719036.060   185998391.646         232.579          48.000    35719024.732   143825711.315         179.772          47.000  
C25  21418906.231   111533859.562       -1703.623          43.000                                                                  
C32  21481227.402   111858386.327        1275.760          47.000                                                                  
C06  35482726.756   184767868.477         411.993          43.000    35482710.462   142874174.109         318.618          46.000  
G25  21618965.700   113608451.414        3135.282          40.000    21618959.466    88526042.896        2443.234          40.000  
G10  20113568.241   105697512.966        1971.759          48.000    20113556.784    82361662.873        1536.508          43.000  
G02  24822200.646                3       1724.441          15.000                                                                  
G28  23140907.329   121606303.231        3066.271          38.000    23140899.690    94758101.344        2389.245          42.000  
C23  21041046.748   109566254.144        1307.513          50.000                                                                  
C09  36987117.294   192601631.117         494.493          41.000    36987105.670   148931744.099         382.309          45.000  
C33  25018808.942   130279488.255       -2669.762          36.000                                                                  
C30  24674205.313   128485046.143       -2105.156          41.000                                                                  
C27  25143591.302                       -2769.321          31.000                                                                  
C37  24006447.337   125007869.447        3056.068          42.000                                                                  
> 2025 10 27 02 16 33.9560000  0 22                     
G12  21319226.655   112033334.420        1967.728          45.000    21319215.391    87298649.147        1533.479          40.000  
G15  22026154.873   115748208.407       -3041.988          40.000    22026145.495    90193382.898       -2370.721          38.000  
G18  22139503.691   116343860.616       -3654.585          41.000    22139495.111    90657525.526       -2847.805          42.000  
G23  18686084.115    98196033.155        -871.234          47.000    18686071.834    76516328.893        -678.850          50.000  
G24  19734859.777   103707379.673       -2776.941          39.000    19734848.704    80810892.280       -2163.800          37.000  
G32  21520648.223   113091780.120        1676.796          45.000    21520638.853    88123424.759        1306.641          41.000  
C08  34637573.959   180366930.305         -60.681          45.000    34637556.220   139471082.287         -47.015          49.000  
C13  34744856.636   180925586.030         183.228          46.000    34744847.620   139903100.592         141.724          47.000  
C16  35719034.295   185998382.349         232.448          48.000    35719022.934   143825704.129         179.637          47.000  
C25  21418919.320   111533927.701       -1703.629          43.000                                                                  
C32  21481217.591   111858335.297        1275.741          47.000                                                                  
C06  35482723.555   184767851.999         411.929          43.000    35482707.291   142874161.373         318.420          46.000  
G25  21618941.843   113608325.992        3135.417          40.000    21618935.618    88525945.181        2442.900          40.000  
G10  20113553.246   105697434.097        1971.707          48.000    20113541.798    82361601.421        1536.346          43.000  
G02  24822186.321                3       1724.441          15.000                                                                  
G28  23140883.985   121606180.589        3066.091          38.000    23140876.353    94758005.777        2389.136          42.000  
C23  21041036.675   109566201.846        1307.444          50.000                                                                  
C09  36987113.501   192601611.333         494.556          41.000    36987101.867   148931728.799         382.422          45.000  
C33  25018829.452   130279595.050       -2669.942          36.000                                                                  
C30  24674221.480   128485130.349       -2105.232          41.000                                                                  
C27  25143612.546                       -2768.935          31.000                                                                  
C37  24006423.838   125007747.229        3055.605          42.000                                                                  
> 2025 10 27 02 16 33.9960000  0 22                     
G12  21319211.669   112033255.711        1967.625          45.000    21319200.429    87298587.824        1533.177          40.000  
G15  22026178.025   115748330.109       -3042.401          40.000    22026168.670    90193477.727       -2370.851          38.000  
G18  22139531.522   116344006.810       -3654.791          41.000    22139522.945    90657639.442       -2847.872          42.000  
G23  18686090.754    98196068.006        -871.307          47.000    18686078.473    76516356.050        -678.930          50.000  
G24  19734880.917   103707490.748       -2776.947          40.000    19734869.845    80810978.831       -2163.837          37.000  
G32  21520635.449   113091713.052        1676.696          45.000    21520626.101    88123372.498        1306.521          41.000  
C08  34637574.424   180366932.730         -60.651          45.000    34637556.693   139471084.164         -46.991          49.000  
C13  34744855.220   180925578.711         182.996          46.000    34744846.224   139903094.933         141.486          47.000  
C16  35719032.528   185998373.057         232.310          48.000    35719021.148   143825696.939         179.667          47.000  
C25  21418932.405   111533995.843       -1703.685          43.000                                                                  
C32  21481207.776   111858284.278        1275.526          47.000                                                                  
C06  35482720.391   184767835.522         411.879          43.000    35482704.125   142874148.627         318.518          46.000  
G25  21618917.957   113608200.579        3135.335          40.000    21618911.748    88525847.448        2443.080          40.000  
G10  20113538.228   105697355.233        1971.591          48.000    20113526.793    82361539.975        1536.143          43.000  
G02  24822172.943                3       1724.441          15.000                                                                  
G28  23140860.637   121606057.944        3066.018          38.000    23140853.009    94757910.199        2389.235          42.000  
C23  21041026.587   109566149.552        1307.324          50.000                                                                  
C09  36987109.710   192601591.555         494.551          41.000    36987098.071   148931713.511         382.241          45.000  
C33  25018849.973   130279701.845       -2669.983          36.000                                                                  
C30  24674237.672   128485214.559       -2105.318          41.000                                                                  
C27  25143633.839   130929499.663       -2768.894          31.000                                                                  
C37  24006400.350   125007625.005        3055.519          42.000                                                                  
> 2025 10 27 02 16 34.0360000  0 22                     
G12  21319196.683   112033176.986        1967.896          45.000    21319185.452    87298526.488        1533.205          40.000  
G15  22026201.180   115748451.802       -3042.431          40.000    22026191.822    90193572.539       -2370.506          38.000  
G18  22139559.347   116344152.998       -3654.770          41.000    22139550.745    90657753.349       -2847.766          42.000  
G23  18686097.370    98196102.849        -871.186          47.000    18686085.098    76516383.205        -678.941          50.000  
G24  19734902.053   103707601.814       -2776.794          40.000    19734890.989    80811065.373       -2163.702          37.000  
G32  21520622.681   113091645.971        1676.921          45.000    21520613.334    88123320.218        1306.809          41.000  
C08  34637574.891   180366935.149         -60.535          45.000    34637557.125   139471086.044         -47.021          49.000  
C13  34744853.816   180925571.378         183.148          46.000    34744844.816   139903089.263         141.577          47.000  
C16  35719030.745   185998363.763         232.270          48.000    35719019.368   143825689.746         179.748          47.000  
C25  21418945.469   111534063.992       -1703.829          43.000                                                                  
C32  21481197.993   111858233.239        1275.817          47.000                                                                  
C06  35482717.254   184767819.031         412.108          43.000    35482700.944   142874135.892         318.374          46.000  
G25  21618894.088   113608075.156        3135.474          40.000    21618887.884    88525749.718        2443.163          40.000  
G10  20113523.233   105697276.362        1971.659          48.000    20113511.778    82361478.516        1536.248          43.000  
G02  24822158.313                3       1724.441          15.000                                                                  
G28  23140837.309   121605935.275        3066.418          38.000    23140829.683    94757814.635        2389.106          42.000  
C23  21041016.564   109566097.254        1307.347          50.000                                                                  
C09  36987105.909   192601571.776         494.526          41.000    36987094.281   148931698.220         382.249          45.000  
C33  25018870.500   130279808.634       -2669.875          36.000                                                                  
C30  24674253.829   128485298.762       -2105.164          41.000                                                                  
C27  25143655.097                       -2768.573          31.000                                                                  
C37  24006376.870   125007502.769        3055.705          42.000                                                                  
> 2025 10 27 02 16 34.0760000  0 22                     
G12  21319181.706   112033098.267        1967.933          45.000    21319170.466    87298465.152        1533.264          40.000  
G15  22026224.345   115748573.495       -3042.397          39.000    22026214.975    90193667.364       -2370.563          38.000  
G18  22139587.169   116344299.193       -3654.900          41.000    22139578.568    90657867.255       -2847.718          42.000  
G23  18686103.988    98196137.698        -871.218          47.000    18686091.715    76516410.357        -678.871          50.000  
G24  19734923.194   103707712.901       -2777.081          40.000    19734912.142    80811151.931       -2163.910          37.000  
G32  21520609.904   113091578.888        1677.051          45.000    21520600.573    88123267.960        1306.592          41.000  
C08  34637575.363   180366937.590         -60.907          45.000    34637557.602   139471087.920         -46.960          49.000  
C13  34744852.404   180925564.045         183.264          46.000    34744843.400   139903083.600         141.534          47.000  
C16  35719028.948   185998354.468         232.312          48.000    35719017.591   143825682.561         179.643          47.000  
C25  21418958.554   111534132.130       -1703.634          43.000                                                                  
C32  21481188.180   111858182.211        1275.756          47.000                                                                  
C06  35482714.083   184767802.560         411.909          43.000    35482697.809   142874123.146         318.544          46.000  
G25  21618870.227   113607949.745        3135.297          40.000    21618864.035    88525651.991        2443.163          40.000  
G10  20113508.214   105697197.497        1971.621          48.000    20113496.780    82361417.065        1536.238          43.000  
G02  24822145.425                3       1724.441          15.000                                                                  
G28  23140813.987   121605812.640        3066.049          38.000    23140806.338    94757719.065        2389.136          42.000  
C23  21041006.544   109566044.952        1307.438          50.000                                                                  
C09  36987102.095   192601551.999         494.469          41.000    36987090.483   148931682.926         382.267          45.000  
C33  25018891.010   130279915.415       -2669.657          36.000                                                                  
C30  24674269.988   128485382.960       -2105.020          41.000                                                                  
C27  25143676.335   130929721.130       -2768.469          32.000                                                                  
C37  24006353.391   125007380.524        3056.017          42.000                                                                  
> 2025 10 27 02 16 34.1160000  0 22                     
G12  21319166.716   112033019.552        1967.913          45.000    21319155.490    87298403.807        1533.481          40.000  
G15  22026247.503   115748695.184       -3042.317          40.000    22026238.127    90193762.208       -2370.974          38.000  
G18  22139614.982   116344445.379       -3654.773          41.000    22139606.406    90657981.166       -2847.793          42.000  
G23  18686110.600    98196172.543        -871.174          47.000    18686098.367    76516437.515        -678.934          50.000  
G24  19734944.343   103707823.985       -2777.203          40.000    19734933.268    80811238.490       -2164.020          37.000  
G32  21520597.144   113091511.810        1677.023          45.000    21520587.804    88123215.696        1306.588          41.000  
C08  34637575.806   180366940.019         -60.846          45.000    34637558.067   139471089.800         -46.991          49.000  
C13  34744851.002   180925556.709         183.362          46.000    34744842.011   139903077.925         141.754          47.000  
C16  35719027.128   185998345.162         232.512          48.000    35719015.816   143825675.377         179.546          47.000  
C25  21418971.642   111534200.273       -1703.570          43.000                                                                  
C32  21481178.380   111858131.179        1275.787          47.000                                                                  
C06  35482710.942   184767786.085         411.876          43.000    35482694.623   142874110.396         318.684          46.000  
G25  21618846.359   113607824.331        3135.267          40.000    21618840.171    88525554.256        2443.353          40.000  
G10  20113493.207   105697118.628        1971.664          48.000    20113481.782    82361355.597        1536.538          43.000  
G02  24822132.520                3       1724.441          15.000                                                                  
G28  23140790.641   121605689.981        3066.299          38.000    23140782.987    94757623.485        2389.377          42.000  
C23  21040996.520   109565992.655        1307.432          50.000                                                                  
C09  36987098.327   192601532.217         494.513          41.000    36987086.655   148931667.633         382.280          45.000  
C33  25018911.510   130280022.205       -2669.766          36.000                                                                  
C30  24674286.156   128485467.168       -2105.129          41.000                                                                  
C27  25143697.584   130929831.826       -2767.698          32.000                                                                  
C37  24006329.911   125007258.287        3056.012          42.000                                                                  
> 2025 10 27 02 16 34.1560000  0 22                     
G12  21319151.742   112032940.834        1967.932          45.000    21319140.514    87298342.471        1533.428          40.000  
G15  22026270.657   115748816.865       -3042.118          39.000    22026261.300    90193857.012       -2370.335          38.000  
G18  22139642.783   116344591.554       -3654.488          41.000    22139634.249    90658095.085       -2847.954          42.000  
G23  18686117.205    98196207.390        -871.181          47.000    18686105.001    76516464.670        -678.927          49.000  
G24  19734965.466   103707935.056       -2776.978          40.000    19734954.410    80811325.039       -2163.892          37.000  
G32  21520584.403   113091444.742        1676.786          45.000    21520575.058    88123163.439        1306.449          41.000  
C08  34637576.275   180366942.444         -60.693          45.000    34637558.537   139471091.677         -46.991          49.000  
C13  34744849.602   180925549.371         183.453          46.000    34744840.595   139903072.253         141.821          47.000  
C16  35719025.332   185998335.857         232.605          48.000    35719014.012   143825668.182         179.718          47.000  
C25  21418984.712   111534268.420       -1703.634          43.000                                                                  
C32  21481168.574   111858080.148        1275.768          47.000                                                                  
C06  35482707.784   184767769.603         411.953          43.000    35482691.445   142874097.654         318.595          46.000  
G25  21618822.502   113607698.922        3135.174          40.000    21618816.293    88525456.522        2443.355          40.000  
G10  20113478.194   105697039.760        1971.664          48.000    20113466.764    82361294.137        1536.521          43.000  
G02  24822119.888                3       1724.441          15.000                                                                  
G28  23140767.310   121605567.341        3066.115          38.000    23140759.641    94757527.925        2389.135          42.000  
C23  21040986.466   109565940.360        1307.394          50.000                                                                  
C09  36987094.518   192601512.450         494.263          41.000    36987082.868   148931652.337         382.348          45.000  
C33  25018932.018   130280128.996       -2669.694          36.000                                                                  
C30  24674302.336   128485551.362       -2104.927          41.000                                                                  
C27  25143718.841   130929942.535       -2767.619          32.000                                                                  
C37  24006306.419   125007136.053        3055.919          42.000                                                                  
> 2025 10 27 02 16 34.1960000  0 22                     
G12  21319136.774   112032862.129        1967.709          45.000    21319125.547    87298281.137        1533.358          40.000  
G15  22026293.788   115748938.565       -3042.330          39.000    22026284.468    90193951.840       -2370.468          38.000  
G18  22139670.615   116344737.748       -3654.689          41.000    22139662.076    90658209.009       -2848.101          42.000  
G23  18686123.845    98196242.247        -871.350          47.000    18686111.625    76516491.825        -678.901          49.000  
G24  19734986.602   103708046.138       -2777.039          40.000    19734975.528    80811411.595       -2163.904          37.000  
G32  21520571.661   113091377.669        1676.770          45.000    21520562.285    88123111.167        1306.648          41.000  
C08  34637576.747   180366944.869         -60.620          45.000    34637559.015   139471093.555         -46.985          49.000  
C13  34744848.196   180925542.044         183.246          46.000    34744839.186   139903066.583         141.779          47.000  
C16  35719023.515   185998326.558         232.523          48.000    35719012.206   143825660.991         179.741          47.000  
C25  21418997.836   111534336.565       -1703.646          43.000                                                                  
C32  21481158.766   111858029.123        1275.646          47.000                                                                  
C06  35482704.596   184767753.124         411.946          43.000    35482688.277   142874084.916         318.484          46.000  
G25  21618798.628   113607573.504        3135.301          40.000    21618792.454    88525358.807        2443.034          40.000  
G10  20113463.168   105696960.890        1971.694          48.000    20113451.779    82361232.701        1536.104          43.000  
G02  24822107.469                3       1724.441          15.000                                                                  
G28  23140743.954   121605444.672        3066.454          38.000    23140736.314    94757432.357        2389.153          42.000  
C23  21040976.407   109565888.067        1307.303          50.000                                                                  
C09  36987090.717   192601492.679         494.209          41.000    36987079.073   148931637.044         382.311          45.000  
C33  25018952.532   130280235.800       -2669.931          36.000                                                                  
C30  24674318.499   128485635.577       -2105.257          41.000                                                                  
C27  25143740.118   130930053.251       -2767.938          32.000                                                                  
C37  24006282.959   125007013.820        3055.842          42.000                                                                  
> 2025 10 27 02 16 34.2360000  0 22                     
G12  21319121.779   112032783.416        1967.750          45.000    21319110.569    87298219.817        1533.047          40.000  
G15  22026316.953   115749060.269       -3042.623          39.000    22026307.636    90194046.675       -2370.693          38.000  
G18  22139698.448   116344883.935       -3654.688          41.000    22139689.862    90658322.927       -2848.056          42.000  
G23  18686130.488    98196277.113        -871.618          47.000    18686118.266    76516518.990        -679.090          49.000  
G24  19735007.739   103708157.214       -2776.947          40.000    19734996.674    80811498.162       -2164.136          37.000  
G32  21520558.905   113091310.602        1676.663          45.000    21520549.530    88123058.911        1306.476          41.000  
C08  34637577.176   180366947.309         -60.919          45.000    34637559.495   139471095.439         -47.070          49.000  
C13  34744846.767   180925534.725         182.990          46.000    34744837.778   139903060.921         141.608          47.000  
C16  35719021.747   185998317.269         232.303          48.000    35719010.403   143825653.807         179.630          47.000  
C25  21419010.925   111534404.722       -1703.888          43.000                                                                  
C32  21481148.956   111857978.105        1275.464          47.000                                                                  
C06  35482701.415   184767736.647         411.873          43.000    35482685.143   142874072.184         318.310          46.000  
G25  21618774.753   113607448.089        3135.332          40.000    21618768.596    88525261.091        2442.873          40.000  
G10  20113448.181   105696882.037        1971.411          48.000    20113436.772    82361171.244        1536.211          43.000  
G02  24822094.120                3       1724.441          15.000                                                                  
G28  23140720.629   121605322.044        3065.934          38.000    23140712.947    94757336.783        2389.237          42.000  
C23  21040966.359   109565835.779        1307.185          50.000                                                                  
C09  36987086.888   192601472.916         494.087          41.000    36987075.288   148931621.764         382.055          45.000  
C33  25018973.061   130280342.580       -2669.726          36.000                                                                  
C30  24674334.674   128485719.787       -2105.279          41.000                                                                  
C27  25143761.422   130930163.980       -2768.267          32.000                                                                  
C37  24006259.449   125006891.593        3055.730          42.000                                                                  
> 2025 10 27 02 16 34.2760000  0 22                     
G12  21319106.797   112032704.717        1967.516          45.000    21319095.606    87298158.481        1533.230          40.000  
G15  22026340.120   115749181.964       -3042.572          39.000    22026330.795    90194141.511       -2370.835          38.000  
G18  22139726.267   116345030.119       -3654.645          41.000    22139717.668    90658436.842       -2847.956          42.000  
G23  18686137.108    98196311.972        -871.614          47.000    18686124.889    76516546.155        -679.176          49.000  
G24  19735028.872   103708268.289       -2776.880          40.000    19735017.818    80811584.711       -2163.861          37.000  
G32  21520546.160   113091243.539        1676.592          45.000    21520536.764    88123006.635        1306.756          41.000  
C08  34637577.646   180366949.750         -61.090          45.000    34637559.946   139471097.320         -47.076          49.000  
C13  34744845.401   180925527.398         183.038          46.000    34744836.374   139903055.255         141.595          47.000  
C16  35719019.990   185998307.983         232.127          48.000    35719008.590   143825646.621         179.599          47.000  
C25  21419023.995   111534472.880       -1704.005          43.000                                                                  
C32  21481139.170   111857927.079        1275.545          47.000                                                                  
C06  35482698.253   184767720.176         411.786          43.000    35482681.961   142874059.437         318.499          46.000  
G25  21618750.902   113607322.687        3135.118          40.000    21618744.741    88525163.370        2442.953          40.000  
G10  20113433.168   105696803.176        1971.415          48.000    20113421.757    82361109.805        1535.997          43.000  
G02  24822080.689                3       1724.441          15.000                                                                  
G28  23140697.286   121605199.420        3065.563          38.000    23140689.625    94757241.208        2389.315          42.000  
C23  21040956.330   109565783.492        1307.111          50.000                                                                  
C09  36987083.093   192601453.136         494.318          41.000    36987071.489   148931606.478         382.039          45.000  
C33  25018993.558   130280449.384       -2670.007          36.000                                                                  
C30  24674350.864   128485804.006       -2105.452          41.000                                                                  
C27  25143782.705   130930274.748       -2768.950          32.000                                                                  
C37  24006235.970   125006769.363        3055.692          42.000                                                                  
> 2025 10 27 02 16 34.3160000  0 22                     
G12  21319091.808   112032626.005        1967.628          45.000    21319080.642    87298097.157        1533.104          40.000  
G15  22026363.266   115749303.647       -3042.252          39.000    22026353.948    90194236.330       -2370.591          38.000  
G18  22139754.106   116345176.317       -3654.882          41.000    22139745.475    90658550.741       -2847.608          42.000  
G23  18686143.745    98196346.822        -871.410          47.000    18686131.516    76516573.313        -679.067          49.000  
G24  19735050.006   103708379.375       -2777.100          40.000    19735038.953    80811671.277       -2163.977          37.000  
G32  21520533.398   113091176.460        1676.842          45.000    21520524.002    88122954.368        1306.755          41.000  
C08  34637578.095   180366952.178         -60.858          45.000    34637560.389   139471099.199         -47.015          49.000  
C13  34744844.005   180925520.066         183.228          46.000    34744834.958   139903049.582         141.736          47.000  
C16  35719018.234   185998298.684         232.289          48.000    35719006.789   143825639.427         179.722          47.000  
C25  21419037.094   111534541.024       -1703.823          43.000                                                                  
C32  21481129.416   111857876.052        1275.636          47.000                                                                  
C06  35482695.111   184767703.699         411.834          43.000    35482678.815   142874046.692         318.568          46.000  
G25  21618727.031   113607197.251        3135.681          40.000    21618720.880    88525065.644        2443.054          40.000  
G10  20113418.162   105696724.309        1971.556          48.000    20113406.760    82361048.337        1536.385          43.000  
G02  24822067.477                3       1724.441          15.000                                                                  
G28  23140673.926   121605076.757        3066.105          38.000    23140666.280    94757145.638        2389.265          42.000  
C23  21040946.292   109565731.195        1307.274          50.000                                                                  
C09  36987079.302   192601433.348         494.610          41.000    36987067.683   148931591.187         382.146          45.000  
C33  25019014.083   130280556.174       -2669.843          36.000                                                                  
C30  24674367.016   128485888.218       -2105.354          41.000                                                                  
C27  25143803.957   130930385.480       -2768.734          32.000                                                                  
C37  24006212.476   125006647.131        3055.733          42.000                                                                  
> 2025 10 27 02 16 34.3560000  0 22                     
G12  21319076.815   112032547.286        1967.864          45.000    21319065.677    87298035.810        1533.461          40.000  
G15  22026386.434   115749425.328       -3042.074          39.000    22026377.105    90194331.162       -2370.742          38.000  
G18  22139781.923   116345322.505       -3654.774          41.000    22139773.281    90658664.661       -2847.854          42.000  
G23  18686150.389    98196381.675        -871.349          47.000    18686138.144    76516600.469        -678.979          49.000  
G24  19735071.162   103708490.466       -2777.319          40.000    19735060.087    80811757.811       -2163.452          37.000  
G32  21520520.653   113091109.388        1676.806          45.000    21520511.236    88122902.098        1306.777          41.000  
C08  34637578.597   180366954.598         -60.583          45.000    34637560.812   139471101.072         -46.869          49.000  
C13  34744842.590   180925512.730         183.380          46.000    34744833.537   139903043.912         141.736          47.000  
C16  35719016.455   185998289.381         232.477          48.000    35719004.995   143825632.238         179.730          47.000  
C25  21419050.211   111534609.165       -1703.601          43.000                                                                  
C32  21481119.611   111857825.016        1275.831          47.000                                                                  
C06  35482691.942   184767687.206         412.127          43.000    35482675.653   142874033.951         318.539          46.000  
G25  21618703.169   113607071.810        3136.001          40.000    21618697.020    88524967.908        2443.337          40.000  
G10  20113403.166   105696645.442        1971.620          48.000    20113391.756    82360986.880        1536.445          43.000  
G02  24822054.918                3       1724.441          15.000                                                                  
G28  23140650.571   121604954.095        3066.445          38.000    23140642.963    94757050.072        2389.146          42.000  
C23  21040936.258   109565678.902        1307.313          50.000                                                                  
C09  36987075.505   192601413.568         494.550          41.000    36987063.872   148931575.888         382.382          45.000  
C33  25019034.588   130280662.961       -2669.643          36.000                                                                  
C30  24674383.174   128485972.423       -2105.165          41.000                                                                  
C27  25143825.189   130930496.188       -2768.041          32.000                                                                  
C37  24006189.000   125006524.893        3055.849          42.000                                                                  
> 2025 10 27 02 16 34.3960000  0 22                     
G12  21319061.830   112032468.569        1967.950          45.000    21319050.705    87297974.467        1533.650          40.000  
G15  22026409.579   115749547.004       -3041.876          39.000    22026400.283    90194425.986       -2370.660          38.000  
G18  22139809.733   116345468.699       -3654.849          41.000    22139801.120    90658778.559       -2847.561          42.000  
G23  18686157.014    98196416.524        -871.249          47.000    18686144.762    76516627.625        -678.898          50.000  
G24  19735092.289   103708601.546       -2777.160          40.000    19735081.209    80811844.359       -2163.544          37.000  
G32  21520507.889   113091042.308        1676.939          45.000    21520498.471    88122849.853        1306.320          41.000  
C08  34637579.018   180366957.023         -60.565          45.000    34637561.267   139471102.948         -46.893          49.000  
C13  34744841.174   180925505.392         183.459          46.000    34744832.125   139903038.243         141.711          47.000  
C16  35719014.678   185998280.077         232.576          48.000    35719003.224   143825625.040         179.884          47.000  
C25  21419063.301   111534677.306       -1703.509          43.000                                                                  
C32  21481109.820   111857773.987        1275.782          47.000                                                                  
C06  35482688.789   184767670.736         411.886          43.000    35482672.494   142874021.200         318.647          46.000  
G25  21618679.274   113606946.404        3135.434          40.000    21618673.154    88524870.170        2443.432          40.000  
G10  20113388.167   105696566.577        1971.631          48.000    20113376.739    82360925.426        1536.346          43.000  
G02  24822041.809                3       1724.441          15.000                                                                  
G28  23140627.249   121604831.434        3066.542          38.000    23140619.625    94756954.498        2389.242          42.000  
C23  21040926.236   109565626.606        1307.355          50.000                                                                  
C09  36987071.713   192601393.795         494.375          41.000    36987060.045   148931560.584         382.580          45.000  
C33  25019055.101   130280769.746       -2669.564          36.000                                                                  
C30  24674399.356   128486056.627       -2105.073          41.000                                                                  
C27  25143846.461   130930606.943       -2768.624          32.000                                                                  
C37  24006165.548   125006402.657        3055.919          42.000                                                                  
> 2025 10 27 02 16 34.4360000  0 22                     
G12  21319046.860   112032389.858        1967.826          45.000    21319035.730    87297913.138        1533.408          40.000  
G15  22026432.736   115749668.703       -3042.247          40.000    22026423.456    90194520.794       -2370.306          38.000  
G18  22139837.544   116345614.882       -3654.680          41.000    22139828.948    90658892.474       -2847.762          42.000  
G23  18686163.656    98196451.379        -871.327          47.000    18686151.391    76516654.787        -679.026          49.000  
G24  19735113.416   103708712.619       -2776.910          40.000    19735102.342    80811930.926       -2163.965          37.000  
G32  21520495.138   113090975.220        1677.185          45.000    21520485.699    88122797.588        1306.412          41.000  
C08  34637579.470   180366959.451         -60.626          45.000    34637561.734   139471104.826         -46.942          49.000  
C13  34744839.796   180925498.063         183.313          46.000    34744830.691   139903032.578         141.626          46.000  
C16  35719012.886   185998270.778         232.546          48.000    35719001.430   143825617.847         179.880          47.000  
C25  21419076.402   111534745.455       -1703.626          43.000                                                                  
C32  21481100.030   111857722.958        1275.704          47.000                                                                  
C06  35482685.655   184767654.251         412.019          43.000    35482669.310   142874008.457         318.606          46.000  
G25  21618655.409   113606820.995        3135.153          40.000    21618649.276    88524772.449        2443.185          40.000  
G10  20113373.157   105696487.713        1971.610          48.000    20113361.755    82360863.993        1535.966          43.000  
G02  24822028.330                3       1724.441          15.000                                                                  
G28  23140603.915   121604708.795        3066.177          38.000    23140596.283    94756858.915        2389.445          42.000  
C23  21040916.156   109565574.312        1307.342          50.000                                                                  
C09  36987067.900   192601374.019         494.301          41.000    36987056.249   148931545.291         382.453          45.000  
C33  25019075.623   130280876.525       -2669.371          36.000                                                                  
C30  24674415.523   128486140.820       -2104.894          41.000                                                                  
C27  25143867.737   130930717.652       -2768.188          32.000                                                                  
C37  24006142.102   125006280.402        3056.248          42.000                                                                  
> 2025 10 27 02 16 34.4760000  0 22                     
G12  21319031.891   112032311.150        1967.704          45.000    21319020.755    87297851.803        1533.357          40.000  
G15  22026455.888   115749790.404       -3042.493          40.000    22026446.606    90194615.629       -2370.670          38.000  
G18  22139865.370   116345761.071       -3654.725          41.000    22139856.769    90659006.387       -2847.830          42.000  
G23  18686170.314    98196486.239        -871.465          47.000    18686158.014    76516681.951        -679.126          49.000  
G24  19735134.534   103708823.691       -2776.794          40.000    19735123.491    80812017.491       -2164.148          37.000  
G32  21520482.366   113090908.146        1677.041          45.000    21520472.907    88122745.321        1306.535          41.000  
C08  34637579.923   180366961.888         -60.858          45.000    34637562.186   139471106.707         -47.009          49.000  
C13  34744838.366   180925490.733         183.246          46.000    34744829.309   139903026.911         141.638          47.000  
C16  35719011.116   185998261.486         232.356          48.000    35718999.652   143825610.657         179.800          47.000  
C25  21419089.512   111534813.609       -1703.824          43.000                                                                  
C32  21481090.214   111857671.934        1275.591          47.000                                                                  
C06  35482682.494   184767637.768         412.055          43.000    35482666.147   142873995.722         318.408          46.000  
G25  21618631.536   113606695.609        3134.643          40.000    21618625.409    88524674.723        2443.136          40.000  
G10  20113358.163   105696408.856        1971.465          48.000    20113346.750    82360802.534        1536.199          43.000  
G02  24822015.373                3       1724.441          15.000                                                                  
G28  23140580.606   121604586.167        3065.771          38.000    23140572.956    94756763.364        2389.026          42.000  
C23  21040906.068   109565522.027        1307.181          50.000                                                                  
C09  36987064.105   192601354.243         494.296          41.000    36987052.434   148931530.006         382.216          45.000  
C33  25019096.146   130280983.334       -2669.909          36.000                                                                  
C30  24674431.702   128486225.030       -2105.176          41.000                                                                  
C27  25143888.953   130930828.378       -2768.165          32.000                                                                  
C37  24006118.649   125006158.174        3055.954          42.000                                                                  
> 2025 10 27 02 16 34.5160000  0 22                     
G12  21319016.923   112032232.446        1967.601          45.000    21319005.792    87297790.476        1533.193          40.000  
G15  22026479.045   115749912.113       -3042.797          39.000    22026469.764    90194710.454       -2370.733          38.000  
G18  22139893.183   116345907.253       -3654.588          41.000    22139884.611    90659120.305       -2847.935          42.000  
G23  18686176.950    98196521.103        -871.595          47.000    18686164.661    76516709.121        -679.294          49.000  
G24  19735155.686   103708934.774       -2776.953          40.000    19735144.626    80812104.058       -2164.252          37.000  
G32  21520469.598   113090841.087        1676.641          45.000    21520460.158    88122693.060        1306.529          41.000  
C08  34637580.396   180366964.325         -60.974          45.000    34637562.640   139471108.590         -47.107          49.000  
C13  34744836.947   180925483.411         183.087          46.000    34744827.911   139903021.237         141.797          46.000  
C16  35719009.320   185998252.191         232.313          48.000    35718997.876   143825603.477         179.535          47.000  
C25  21419102.599   111534881.769       -1704.011          43.000                                                                  
C32  21481080.415   111857620.915        1275.486          47.000                                                                  
C06  35482679.336   184767621.303         411.769          43.000    35482662.974   142873982.982         318.394          46.000  
G25  21618607.682   113606570.188        3135.098          40.000    21618601.555    88524576.989        2443.276          40.000  
G10  20113343.152   105696329.993        1971.503          48.000    20113331.755    82360741.090        1536.102          42.000  
G02  24822001.039                3       1724.441          15.000                                                                  
G28  23140557.264   121604463.517        3065.957          38.000    23140549.606    94756667.798        2389.042          42.000  
C23  21040896.064   109565469.742        1307.107          50.000                                                                  
C09  36987060.324   192601334.473         494.228          41.000    36987048.652   148931514.711         382.267          45.000  
C33  25019116.657   130281090.147       -2670.293          36.000                                                                  
C30  24674447.858   128486309.252       -2105.540          41.000                                                                  
C27  25143910.242   130930939.089       -2767.834          32.000                                                                  
C37  24006095.192   125006035.949        3055.680          42.000                                                                  
> 2025 10 27 02 16 34.5560000  0 22                     
G12  21319001.926   112032153.737        1967.608          45.000    21318990.812    87297729.139        1533.364          40.000  
G15  22026502.224   115750033.816       -3042.723          39.000    22026492.939    90194805.298       -2371.086          38.000  
G18  22139920.997   116346053.441       -3654.658          41.000    22139912.442    90659234.231       -2848.152          42.000  
G23  18686183.572    98196555.966        -871.663          47.000    18686171.286    76516736.280        -679.141          49.000  
G24  19735176.844   103709045.873       -2777.380          40.000    19735165.765    80812190.617       -2164.124          37.000  
G32  21520456.862   113090774.019        1676.614          45.000    21520447.393    88122640.788        1306.667          41.000  
C08  34637580.895   180366966.759         -60.938          45.000    34637563.131   139471110.473         -47.125          49.000  
C13  34744835.552   180925476.082         183.130          46.000    34744826.488   139903015.565         141.833          46.000  
C16  35719007.539   185998242.891         232.394          48.000    35718996.124   143825596.290         179.553          47.000  
C25  21419115.693   111534949.926       -1704.052          43.000                                                                  
C32  21481070.634   111857569.888        1275.591          47.000                                                                  
C06  35482676.168   184767604.827         411.828          43.000    35482659.811   142873970.242         318.431          46.000  
G25  21618583.809   113606444.743        3135.873          40.000    21618577.688    88524479.271        2443.042          40.000  
G10  20113328.130   105696251.132        1971.517          48.000    20113316.734    82360679.635        1536.278          42.000  
G02  24821988.697                3       1724.441          15.000                                                                  
G28  23140533.912   121604340.859        3066.306          38.000    23140526.268    94756572.233        2389.017          42.000  
C23  21040886.063   109565417.452        1307.147          50.000                                                                  
C09  36987056.527   192601314.693         494.366          41.000    36987044.831   148931499.422         382.180          45.000  
C33  25019137.184   130281196.933       -2669.909          36.000                                                                  
C30  24674464.037   128486393.476       -2105.703          41.000                                                                  
C27  25143931.533   130931049.803       -2767.794          32.000                                                                  
C37  24006071.733   125005913.721        3055.661          42.000                                                                  
> 2025 10 27 02 16 34.5960000  0 22                     
G12  21318986.965   112032075.033        1967.533          45.000    21318975.847    87297667.823        1533.072          40.000  
G15  22026525.373   115750155.510       -3042.498          40.000    22026516.099    90194900.114       -2370.722          38.000  
G18  22139948.811   116346199.632       -3654.744          41.000    22139940.233    90659348.142       -2847.969          42.000  
G23  18686190.205    98196590.832        -871.691          47.000    18686177.915    76516763.444        -679.134          49.000  
G24  19735197.977   103709156.962       -2777.399          40.000    19735186.904    80812277.173       -2164.020          37.000  
G32  21520444.085   113090706.940        1676.801          45.000    21520434.640    88122588.519        1306.736          41.000  
C08  34637581.388   180366969.195         -60.938          45.000    34637563.622   139471112.353         -47.076          49.000  
C13  34744834.136   180925468.756         183.130          46.000    34744825.091   139903009.903         141.626          46.000  
C16  35719005.727   185998233.602         232.251          48.000    35718994.370   143825589.107         179.511          47.000  
C25  21419128.822   111535018.092       -1704.221          43.000                                                                  
C32  21481060.858   111857518.861        1275.608          47.000                                                                  
C06  35482672.999   184767588.353         411.851          43.000    35482656.639   142873957.502         318.432          46.000  
G25  21618559.938   113606319.322        3135.789          40.000    21618553.827    88524381.554        2442.886          40.000  
G10  20113313.140   105696172.276        1971.417          48.000    20113301.728    82360618.182        1536.271          42.000  
G02  24821975.958                3       1724.441          15.000                                                                  
G28  23140510.567   121604218.217        3066.146          38.000    23140502.924    94756476.656        2389.249          42.000  
C23  21040876.037   109565365.168        1307.078          50.000                                                                  
C09  36987052.735   192601294.925         494.197          41.000    36987041.050   148931484.135         382.138          45.000  
C33  25019157.667   130281303.720       -2669.754          36.000                                                                  
C30  24674480.207   128486477.676       -2105.296          41.000                                                                  
C27  25143952.786   130931160.522       -2767.801          32.000                                                                  
C37  24006048.254   125005791.495        3055.592          42.000                                                                  
> 2025 10 27 02 16 34.6360000  0 22                     
G12  21318971.994   112031996.327        1967.580          45.000    21318960.869    87297606.494        1533.125          40.000  
G15  22026548.532   115750277.207       -3042.488          40.000    22026539.254    90194994.928       -2370.398          38.000  
G18  22139976.626   116346345.826       -3654.843          41.000    22139968.051    90659462.051       -2847.801          42.000  
G23  18686196.845    98196625.692        -871.602          47.000    18686184.576    76516790.612        -679.216          49.000  
G24  19735219.125   103709268.044       -2777.209          40.000    19735208.062    80812363.739       -2164.069          37.000  
G32  21520431.315   113090639.869        1676.794          45.000    21520421.870    88122536.264        1306.460          41.000  
C08  34637581.857   180366971.613         -60.614          45.000    34637564.111   139471114.231         -46.985          49.000  
C13  34744832.744   180925461.420         183.301          46.000    34744823.683   139903004.235         141.626          46.000  
C16  35719003.910   185998224.307         232.327          48.000    35718992.581   143825581.919         179.585          47.000  
C25  21419141.923   111535086.251       -1704.146          43.000                                                                  
C32  21481051.069   111857467.838        1275.557          47.000                                                                  
C06  35482669.842   184767571.874         411.914          43.000    35482653.435   142873944.758         318.524          46.000  
G25  21618536.102   113606193.926        3135.199          40.000    21618529.956    88524283.833        2442.927          40.000  
G10  20113298.142   105696093.431        1971.163          48.000    20113286.709    82360556.728        1536.310          42.000  
G02  24821962.627                3       1724.441          15.000                                                                  
G28  23140487.255   121604095.578        3066.036          38.000    23140479.574    94756381.094        2389.072          42.000  
C23  21040866.013   109565312.882        1307.080          50.000                                                                  
C09  36987048.948   192601275.153         494.211          41.000    36987037.279   148931468.844         382.220          45.000  
C33  25019178.190   130281410.512       -2669.724          36.000                                                                  
C30  24674496.363   128486561.878       -2105.103          41.000                                                                  
C27  25143974.070   130931271.251       -2768.038          32.000                                                                  
C37  24006024.763   125005669.256        3055.820          42.000                                                                  
> 2025 10 27 02 16 34.6760000  0 22                     
G12  21318957.011   112031917.622        1967.555          45.000    21318945.893    87297545.158        1533.279          40.000  
G15  22026571.700   115750398.888       -3042.126          40.000    22026562.407    90195089.765       -2370.725          38.000  
G18  22140004.437   116346492.020       -3654.848          41.000    22139995.873    90659575.962       -2847.720          42.000  
G23  18686203.458    98196660.555        -871.590          47.000    18686191.215    76516817.777        -679.171          49.000  
G24  19735240.242   103709379.123       -2777.045          40.000    19735229.196    80812450.299       -2164.056          37.000  
G32  21520418.573   113090572.794        1676.850          45.000    21520409.096    88122484.000        1306.495          41.000  
C08  34637582.313   180366974.045         -60.681          45.000    34637564.579   139471116.110         -46.973          49.000  
C13  34744831.345   180925454.082         183.411          46.000    34744822.277   139902998.564         141.718          46.000  
C16  35719002.108   185998215.013         232.327          48.000    35718990.804   143825574.733         179.638          47.000  
C25  21419155.028   111535154.395       -1703.822          43.000                                                                  
C32  21481041.288   111857416.812        1275.589          47.000                                                                  
C06  35482666.656   184767555.396         411.946          43.000    35482650.287   142873932.016         318.542          46.000  
G25  21618512.241   113606068.516        3135.167          40.000    21618506.095    88524186.105        2443.111          40.000  
G10  20113283.135   105696014.573        1971.271          48.000    20113271.707    82360495.283        1536.177          42.000  
G02  24821949.551                3       1724.441          16.000                                                                  
G28  23140463.904   121603972.936        3065.976          38.000    23140456.232    94756285.527        2389.118          42.000  
C23  21040855.953   109565260.596        1307.114          50.000                                                                  
C09  36987045.145   192601255.381         494.242          41.000    36987033.461   148931453.549         382.326          45.000  
C33  25019198.704   130281517.283       -2669.390          36.000                                                                  
C30  24674512.544   128486646.072       -2104.822          41.000                                                                  
C27  25143995.349   130931381.980       -2768.180          32.000                                                                  
C37  24006001.289   125005547.024        3055.831          42.000                                                                  
> 2025 10 27 02 16 34.7160000  0 22                     
G12  21318942.049   112031838.920        1967.517          45.000    21318930.903    87297483.828        1533.237          40.000  
G15  22026594.849   115750520.564       -3041.950          40.000    22026585.562    90195184.587       -2370.675          38.000  
G18  22140032.241   116346638.218       -3654.947          41.000    22140023.673    90659689.870       -2847.679          42.000  
G23  18686210.080    98196695.414        -871.521          47.000    18686197.852    76516844.947        -679.246          49.000  
G24  19735261.363   103709490.211       -2777.154          40.000    19735250.315    80812536.835       -2163.544          37.000  
G32  21520405.797   113090505.727        1676.703          45.000    21520396.324    88122431.731        1306.661          41.000  
C08  34637582.771   180366976.476         -60.736          45.000    34637565.061   139471117.989         -46.979          49.000  
C13  34744829.939   180925446.756         183.234          46.000    34744820.834   139902992.900         141.608          46.000  
C16  35719000.350   185998205.712         232.457          48.000    35718989.019   143825567.540         179.746          47.000  
C25  21419168.113   111535222.555       -1703.939          43.000                                                                  
C32  21481031.468   111857365.788        1275.596          47.000                                                                  
C06  35482663.510   184767538.913         412.049          43.000    35482647.101   142873919.271         318.579          46.000  
G25  21618488.355   113605943.099        3135.275          40.000    21618482.227    88524088.387        2443.016          40.000  
G10  20113268.131   105695935.715        1971.359          48.000    20113256.716    82360433.848        1535.886          42.000  
G02  24821935.834                3       1724.441          16.000                                                                  
G28  23140440.563   121603850.284        3066.165          38.000    23140432.911    94756189.959        2389.108          42.000  
C23  21040845.938   109565208.308        1307.166          50.000                                                                  
C09  36987041.351   192601235.594         494.535          41.000    36987029.660   148931438.263         382.200          45.000  
C33  25019219.190   130281624.092       -2669.877          36.000                                                                  
C30  24674528.717   128486730.283       -2105.098          41.000                                                                  
C27  25144016.626   130931492.715       -2768.327          32.000                                                                  
C37  24005977.807   125005424.791        3055.808          42.000                                                                  
> 2025 10 27 02 16 34.7560000  0 22                     
G12  21318927.078   112031760.210        1967.626          45.000    21318915.919    87297422.513        1532.965          40.000  
G15  22026618.026   115750642.285       -3042.642          40.000    22026608.727    90195279.419       -2370.773          38.000  
G18  22140060.064   116346784.420       -3655.058          41.000    22140051.500    90659803.787       -2847.854          42.000  
G23  18686216.698    98196730.281        -871.628          47.000    18686204.476    76516872.115        -679.264          49.000  
G24  19735282.494   103709601.300       -2777.264          40.000    19735271.461    80812623.419       -2164.258          37.000  
G32  21520393.036   113090438.657        1676.705          45.000    21520383.567    88122379.466        1306.660          41.000  
C08  34637583.266   180366978.912         -60.895          45.000    34637565.546   139471119.868         -46.979          49.000  
C13  34744828.515   180925439.425         183.221          46.000    34744819.416   139902987.229         141.724          47.000  
C16  35718998.562   185998196.418         232.396          48.000    35718987.217   143825560.358         179.649          47.000  
C25  21419181.191   111535290.706       -1703.851          43.000                                                                  
C32  21481021.711   111857314.763        1275.602          47.000                                                                  
C06  35482660.348   184767522.440         411.900          43.000    35482643.934   142873906.533         318.499          46.000  
G25  21618464.493   113605817.702        3135.032          40.000    21618458.362    88523990.648        2443.316          40.000  
G10  20113253.099   105695856.858        1971.384          48.000    20113241.707    82360372.404        1535.938          42.000  
G02  24821922.163                3       1724.441          16.000                                                                  
G28  23140417.192   121603727.635        3066.193          38.000    23140409.578    94756094.391        2389.122          42.000  
C23  21040835.869   109565156.026        1307.088          50.000                                                                  
C09  36987037.572   192601215.817         494.515          41.000    36987025.849   148931422.969         382.281          45.000  
C33  25019239.707   130281730.904       -2670.351          36.000                                                                  
C30  24674544.897   128486814.516       -2105.658          41.000                                                                  
C27  25144037.855   130931603.447       -2768.364          32.000                                                                  
C37  24005954.343   125005302.565        3055.687          42.000                                                                  
> 2025 10 27 02 16 34.7960000  0 22                     
G12  21318912.101   112031681.511        1967.511          45.000    21318900.960    87297361.179        1533.171          40.000  
G15  22026641.192   115750763.972       -3042.466          40.000    22026631.888    90195374.250       -2370.727          38.000  
G18  22140087.881   116346930.606       -3654.827          41.000    22140079.313    90659917.708       -2848.003          42.000  
G23  18686223.371    98196765.151        -871.747          47.000    18686211.107    76516899.281        -679.213          49.000  
G24  19735303.638   103709712.391       -2777.319          40.000    19735292.592    80812709.965       -2163.947          37.000  
G32  21520380.267   113090371.591        1676.630          45.000    21520370.802    88122327.203        1306.602          41.000  
C08  34637583.719   180366981.350         -61.023          45.000    34637565.988   139471121.751         -47.070          49.000  
C13  34744827.103   180925432.102         183.105          46.000    34744817.990   139902981.569         141.522          47.000  
C16  35718996.742   185998187.123         232.350          48.000    35718985.437   143825553.169         179.688          47.000  
C25  21419194.266   111535358.872       -1704.081          43.000                                                                  
C32  21481011.902   111857263.737        1275.608          47.000                                                                  
C06  35482657.191   184767505.977         411.626          43.000    35482640.793   142873893.800         318.331          46.000  
G25  21618440.622   113605692.284        3135.273          40.000    21618434.484    88523892.925        2443.162          40.000  
G10  20113238.107   105695778.002        1971.404          48.000    20113226.702    82360310.953        1536.112          42.000  
G02  24821908.908                3       1724.441          16.000                                                                  
G28  23140393.858   121603604.991        3066.111          38.000    23140386.242    94755998.822        2389.133          42.000  
C23  21040825.837   109565103.745        1307.005          50.000                                                                  
C09  36987033.756   192601196.048         494.308          41.000    36987022.039   148931407.677         382.299          45.000  
C33  25019260.206   130281837.697       -2670.090          36.000                                                                  
C30  24674561.092   128486898.742       -2105.854          41.000                                                                  
C27  25144059.082   130931714.174       -2768.301          32.000                                                                  
C37  24005930.860   125005180.336        3055.683          42.000                                                                  
> 2025 10 27 02 16 34.8360000  0 22                     
G12  21318897.126   112031602.822        1967.285          45.000    21318885.987    87297299.870        1532.854          40.000  
G15  22026664.344   115750885.656       -3042.280          40.000    22026655.044    90195469.068       -2370.555          38.000  
G18  22140115.692   116347076.792       -3654.673          41.000    22140107.133    90660031.626       -2848.026          42.000  
G23  18686230.003    98196800.027        -871.928          47.000    18686217.754    76516926.455        -679.319          49.000  
G24  19735324.770   103709823.494       -2777.588          40.000    19735313.751    80812796.547       -2164.447          37.000  
G32  21520367.509   113090304.520        1676.714          45.000    21520358.036    88122274.952        1306.342          41.000  
C08  34637584.197   180366983.795         -61.169          45.000    34637566.459   139471123.639         -47.198          49.000  
C13  34744825.721   180925424.785         182.947          46.000    34744816.594   139902975.909         141.418          47.000  
C16  35718994.972   185998177.844         232.060          48.000    35718983.659   143825545.982         179.693          47.000  
C25  21419207.364   111535427.034       -1704.135          43.000                                                                  
C32  21481002.127   111857212.722        1275.438          47.000                                                                  
C06  35482654.006   184767489.516         411.439          43.000    35482637.634   142873881.072         318.200          46.000  
G25  21618416.774   113605566.894        3134.960          40.000    21618410.636    88523795.209        2442.936          40.000  
G10  20113223.100   105695699.148        1971.357          48.000    20113211.695    82360249.512        1536.068          42.000  
G02  24821895.558                3       1724.441          16.000                                                                  
G28  23140370.528   121603482.359        3065.884          38.000    23140362.898    94755903.257        2389.095          42.000  
C23  21040815.781   109565051.472        1306.827          50.000                                                                  
C09  36987029.950   192601176.280         494.178          41.000    36987018.264   148931392.387         382.230          45.000  
C33  25019280.718   130281944.512       -2670.325          36.000                                                                  
C30  24674577.266   128486982.958       -2105.646          41.000                                                                  
C27  25144080.390   130931824.919       -2768.498          32.000                                                                  
C37  24005907.397   125005058.107        3055.691          42.000                                                                  
> 2025 10 27 02 16 34.8760000  0 22                     
G12  21318882.142   112031524.126        1967.295          45.000    21318870.993    87297238.550        1532.884          40.000  
G15  22026687.488   115751007.351       -3042.348          39.000    22026678.202    90195563.901       -2370.793          38.000  
G18  22140143.519   116347222.994       -3654.948          41.000    22140134.969    90660145.553       -2848.168          42.000  
G23  18686236.663    98196834.908        -872.082          47.000    18686224.414    76516953.634        -679.482          49.000  
G24  19735345.890   103709934.568       -2777.142          40.000    19735334.887    80812883.115       -2164.404          37.000  
G32  21520354.778   113090237.466        1676.421          45.000    21520345.277    88122222.690        1306.415          41.000  
C08  34637584.705   180366986.229         -60.974          45.000    34637566.947   139471125.526         -47.211          49.000  
C13  34744824.332   180925417.464         182.904          46.000    34744815.224   139902970.243         141.510          47.000  
C16  35718993.206   185998168.560         232.016          48.000    35718981.889   143825538.806         179.472          47.000  
C25  21419220.432   111535495.210       -1704.426          43.000                                                                  
C32  21480992.313   111857161.714        1275.205          47.000                                                                  
C06  35482650.839   184767473.045         411.588          43.000    35482634.469   142873868.336         318.237          46.000  
G25  21618392.906   113605441.480        3135.233          40.000    21618386.761    88523697.498        2442.770          40.000  
G10  20113208.107   105695620.298        1971.252          48.000    20113196.704    82360188.078        1535.897          42.000  
G02  24821881.702                3       1724.441          16.000                                                                  
G28  23140347.192   121603359.734        3065.635          38.000    23140339.593    94755807.699        2388.967          42.000  
C23  21040805.741   109564999.200        1306.737          50.000                                                                  
C09  36987026.140   192601156.518         494.043          41.000    36987014.450   148931377.109         382.013          45.000  
C33  25019301.241   130282051.296       -2669.875          36.000                                                                  
C30  24674593.448   128487067.187       -2105.757          41.000                                                                  
C27  25144101.653   130931935.660       -2768.578          32.000                                                                  
C37  24005883.906   125004935.871        3055.833          42.000                                                                  
> 2025 10 27 02 16 34.9160000  0 22                     
G12  21318867.163   112031445.433        1967.286          45.000    21318856.028    87297177.227        1533.001          40.000  
G15  22026710.667   115751129.092       -3043.275          39.000    22026701.379    90195658.734       -2370.917          38.000  
G18  22140171.330   116347369.196       -3655.065          41.000    22140162.784    90660259.477       -2848.166          42.000  
G23  18686243.290    98196869.783        -872.008          47.000    18686231.053    76516980.813        -679.536          49.000  
G24  19735367.037   103710045.683       -2777.692          40.000    19735356.037    80812969.688       -2164.410          37.000  
G32  21520342.025   113090170.400        1676.508          45.000    21520332.511    88122170.434        1306.385          41.000  
C08  34637585.180   180366988.664         -60.895          45.000    34637567.422   139471127.415         -47.241          49.000  
C13  34744822.942   180925410.134         183.075          46.000    34744813.835   139902964.585         141.425          46.000  
C16  35718991.428   185998159.271         232.098          48.000    35718980.130   143825531.628         179.392          47.000  
C25  21419233.548   111535563.384       -1704.495          43.000                                                                  
C32  21480982.551   111857110.699        1275.255          47.000                                                                  
C06  35482647.669   184767456.574         411.674          43.000    35482631.275   142873855.600         318.292          46.000  
G25  21618369.035   113605316.070        3135.250          40.000    21618362.884    88523599.794        2442.514          40.000  
G10  20113193.123   105695541.453        1971.118          48.000    20113181.704    82360126.635        1535.925          42.000  
G02  24821868.871                3       1724.441          16.000                                                                  
G28  23140323.847   121603237.083        3065.967          38.000    23140316.279    94755712.142        2388.888          42.000  
C23  21040795.721   109564946.924        1306.779          50.000                                                                  
C09  36987022.363   192601136.754         494.046          41.000    36987010.656   148931361.829         381.916          45.000  
C33  25019321.747   130282158.098       -2669.895          36.000                                                                  
C30  24674609.644   128487151.395       -2105.428          41.000                                                                  
C27  25144122.891   130932046.373       -2768.091          32.000                                                                  
C37  24005860.447   125004813.659        3055.447          42.000                                                                  
> 2025 10 27 02 16 34.9560000  0 22                     
G12  21318852.197   112031366.741        1967.269          45.000    21318841.037    87297115.909        1532.924          40.000  
G15  22026733.844   115751250.782       -3042.720          39.000    22026724.548    90195753.574       -2371.077          38.000  
G18  22140199.140   116347515.397       -3655.126          41.000    22140190.618    90660373.399       -2848.122          42.000  
G23  18686249.920    98196904.660        -871.982          47.000    18686237.683    76517007.992        -679.566          49.000  
G24  19735388.182   103710156.788       -2777.679          40.000    19735377.184    80813056.258       -2164.301          37.000  
G32  21520329.257   113090103.325        1676.751          45.000    21520319.755    88122118.175        1306.426          41.000  
C08  34637585.633   180366991.099         -60.876          45.000    34637567.903   139471129.299         -47.168          49.000  
C13  34744821.564   180925402.813         183.014          46.000    34744812.438   139902958.924         141.473          46.000  
C16  35718989.640   185998149.985         232.099          48.000    35718978.392   143825524.445         179.461          47.000  
C25  21419246.643   111535631.557       -1704.485          43.000                                                                  
C32  21480972.747   111857059.679        1275.404          47.000                                                                  
C06  35482644.504   184767440.096         411.890          43.000    35482628.120   142873842.871         318.208          46.000  
G25  21618345.188   113605190.674        3135.003          40.000    21618339.023    88523502.077        2442.709          40.000  
G10  20113178.116   105695462.613        1970.992          48.000    20113166.692    82360065.194        1535.969          42.000  
G02  24821855.648                3       1724.441          16.000                                                                  
G28  23140300.526   121603114.453        3065.814          38.000    23140292.944    94755616.579        2389.008          42.000  
C23  21040785.725   109564894.649        1306.807          50.000                                                                  
C09  36987018.559   192601116.984         494.178          41.000    36987006.855   148931346.548         381.936          45.000  
C33  25019342.273   130282264.900       -2670.009          36.000                                                                  
C30  24674625.838   128487235.605       -2105.267          41.000                                                                  
C27  25144144.128   130932157.105       -2768.099          32.000                                                                  
C37  24005836.942   125004691.442        3055.336          42.000                                                                  
> 2025 10 27 02 16 34.9960000  0 22                     
G12  21318837.245   112031288.045        1967.346          45.000    21318826.070    87297054.591        1532.913          40.000  
G15  22026756.995   115751372.506       -3042.955          39.000    22026747.722    90195848.419       -2371.187          38.000  
G18  22140226.938   116347661.598       -3655.156          41.000    22140218.430    90660487.316       -2847.997          42.000  
G23  18686256.553    98196939.543        -872.056          47.000    18686244.307    76517035.170        -679.545          49.000  
G24  19735409.293   103710267.857       -2777.063          40.000    19735398.315    80813142.821       -2164.142          37.000  
G32  21520316.495   113090036.265        1676.602          45.000    21520306.975    88122065.909        1306.603          41.000  
C08  34637586.100   180366993.545         -61.084          45.000    34637568.376   139471131.187         -47.229          49.000  
C13  34744820.171   180925395.494         182.971          46.000    34744811.044   139902953.258         141.583          46.000  
C16  35718987.824   185998140.702         232.055          48.000    35718976.612   143825517.265         179.475          47.000  
C25  21419259.742   111535699.722       -1704.311          43.000                                                                  
C32  21480962.962   111857008.666        1275.358          47.000                                                                  
C06  35482641.367   184767423.630         411.760          43.000    35482624.958   142873830.131         318.374          46.000  
G25  21618321.342   113605065.262        3135.188          40.000    21618315.149    88523404.351        2442.967          40.000  
G10  20113163.101   105695383.766        1971.067          48.000    20113151.687    82360003.757        1535.952          42.000  
G02  24821842.595                3       1724.441          16.000                                                                  
G28  23140277.166   121602991.803        3066.145          38.000    23140269.609    94755521.018        2389.035          42.000  
C23  21040775.685   109564842.376        1306.801          50.000                                                                  
C09  36987014.757   192601097.224         494.040          41.000    36987003.060   148931331.257         382.105          45.000  
C33  25019362.782   130282371.709       -2670.177          36.000                                                                  
C30  24674642.007   128487319.833       -2105.534          41.000                                                                  
C27  25144165.404   130932267.829       -2768.007          32.000                                                                  
C37  24005813.463   125004569.216        3055.481          42.000                                                                  
> 2025 10 27 02 16 35.0360000  0 22                     
G12  21318822.259   112031209.358        1967.199          45.000    21318811.084    87296993.269        1532.983          40.000  
G15  22026780.161   115751494.194       -3042.520          40.000    22026770.883    90195943.244       -2370.784          38.000  
G18  22140254.766   116347807.804       -3655.179          41.000    22140246.254    90660601.237       -2848.023          42.000  
G23  18686263.190    98196974.428        -872.162          47.000    18686250.924    76517062.350        -679.538          49.000  
G24  19735430.439   103710378.992       -2777.887          40.000    19735419.449    80813229.394       -2164.276          37.000  
G32  21520303.735   113089969.209        1676.412          45.000    21520294.224    88122013.668        1306.201          41.000  
C08  34637586.577   180366995.995         -61.285          45.000    34637568.856   139471133.078         -47.284          49.000  
C13  34744818.739   180925388.186         182.727          46.000    34744809.635   139902947.608         141.321          46.000  
C16  35718985.998   185998131.416         232.108          48.000    35718974.828   143825510.087         179.425          47.000  
C25  21419272.824   111535767.903       -1704.502          43.000                                                                  
C32  21480953.168   111856957.654        1275.301          47.000                                                                  
C06  35482638.196   184767407.173         411.546          43.000    35482621.839   142873817.402         318.281          46.000  
G25  21618297.473   113604939.867        3134.921          40.000    21618291.306    88523306.627        2443.057          40.000  
G10  20113148.105   105695304.930        1970.917          48.000    20113136.691    82359942.320        1535.948          42.000  
G02  24821830.319                3       1724.441          16.000                                                                  
G28  23140253.876   121602869.191        3065.588          38.000    23140246.276    94755425.466        2388.895          42.000  
C23  21040765.605   109564790.116        1306.545          50.000                                                                  
C09  36987010.964   192601077.470         493.848          41.000    36986999.253   148931315.974         382.073          45.000  
C33  25019383.276   130282478.513       -2670.162          36.000                                                                  
C30  24674658.174   128487404.061       -2105.723          41.000                                                                  
C27  25144186.668   130932378.618       -2769.133          32.000                                                                  
C37  24005790.009   125004446.997        3055.438          42.000                                                                  
> 2025 10 27 02 16 35.0760000  0 22                     
G12  21318807.289   112031130.678        1967.017          45.000    21318796.121    87296931.966        1532.685          40.000  
G15  22026803.308   115751615.892       -3042.543          39.000    22026794.059    90196038.092       -2371.016          38.000  
G18  22140282.603   116347954.019       -3655.365          41.000    22140274.086    90660715.169       -2848.203          42.000  
G23  18686269.827    98197009.321        -872.350          47.000    18686257.578    76517089.537        -679.676          49.000  
G24  19735451.574   103710490.101       -2777.844          40.000    19735440.584    80813315.974       -2164.490          37.000  
G32  21520290.971   113089902.166        1676.084          45.000    21520281.468    88121961.418        1306.160          41.000  
C08  34637587.043   180366998.452         -61.456          45.000    34637569.340   139471134.975         -47.424          49.000  
C13  34744817.345   180925380.872         182.709          46.000    34744808.227   139902941.955         141.254          46.000  
C16  35718984.183   185998122.140         231.934          48.000    35718973.028   143825502.917         179.251          47.000  
C25  21419285.945   111535836.072       -1704.352          43.000                                                                  
C32  21480943.340   111856906.647        1275.168          47.000                                                                  
C06  35482635.022   184767390.716         411.407          43.000    35482618.706   142873804.673         318.243          46.000  
G25  21618273.616   113604814.483        3134.630          40.000    21618267.473    88523208.918        2442.829          40.000  
G10  20113133.087   105695226.088        1970.956          48.000    20113121.695    82359880.891        1535.806          42.000  
G02  24821817.281                3       1724.441          16.000                                                                  
G28  23140230.580   121602746.578        3065.297          38.000    23140222.930    94755329.918        2388.755          42.000  
C23  21040755.570   109564737.853        1306.486          50.000                                                                  
C09  36987007.179   192601057.711         493.856          41.000    36986995.462   148931300.700         381.880          45.000  
C33  25019403.775   130282585.335       -2670.505          36.000                                                                  
C30  24674674.326   128487488.302       -2106.027          41.000                                                                  
C27  25144207.960   130932489.345       -2768.693          32.000                                                                  
C37  24005766.584   125004324.785        3055.339          42.000                                                                  
> 2025 10 27 02 16 35.1160000  0 22                     
G12  21318792.307   112031052.006        1966.807          45.000    21318781.144    87296870.647        1532.855          40.000  
G15  22026826.492   115751737.616       -3042.858          40.000    22026817.221    90196132.923       -2370.879          38.000  
G18  22140310.425   116348100.228       -3655.319          41.000    22140301.892    90660829.104       -2848.396          42.000  
G23  18686276.459    98197044.208        -872.334          47.000    18686264.207    76517116.729        -679.818          49.000  
G24  19735472.711   103710601.212       -2777.899          40.000    19735461.733    80813402.562       -2164.697          37.000  
G32  21520278.198   113089835.108        1676.238          45.000    21520268.704    88121909.176        1306.018          41.000  
C08  34637587.530   180367000.891         -61.200          45.000    34637569.838   139471136.870         -47.455          49.000  
C13  34744815.947   180925373.561         182.678          46.000    34744806.818   139902936.301         141.278          46.000  
C16  35718982.428   185998112.862         231.919          48.000    35718971.224   143825495.746         179.205          47.000  
C25  21419299.005   111535904.248       -1704.404          43.000                                                                  
C32  21480933.517   111856855.641        1275.095          47.000                                                                  
C06  35482631.871   184767374.260         411.351          43.000    35482615.548   142873791.951         318.053          46.000  
G25  21618249.732   113604689.088        3134.678          40.000    21618243.615    88523111.211        2442.713          40.000  
G10  20113118.092   105695147.248        1970.945          48.000    20113106.673    82359819.457        1535.850          42.000  
G02  24821804.289                3       1724.441          16.000                                                                  
G28  23140207.255   121602623.936        3065.720          38.000    23140199.597    94755234.367        2388.705          42.000  
C23  21040745.541   109564685.596        1306.370          50.000                                                                  
C09  36987003.409   192601037.961         493.726          41.000    36986991.671   148931285.431         381.694          45.000  
C33  25019424.311   130282692.138       -2670.265          36.000                                                                  
C30  24674690.525   128487572.528       -2105.865          41.000                                                                  
C27  25144229.196   130932600.057       -2767.956          32.000                                                                  
C37  24005743.141   125004202.576        3055.246          42.000                                                                  
> 2025 10 27 02 16 35.1560000  0 22                     
G12  21318777.340   112030973.334        1966.743          45.000    21318766.173    87296809.347        1532.634          40.000  
G15  22026849.638   115751859.341       -3043.226          40.000    22026840.382    90196227.775       -2371.255          38.000  
G18  22140338.259   116348246.433       -3655.225          41.000    22140329.720    90660943.034       -2848.394          42.000  
G23  18686283.102    98197079.098        -872.325          47.000    18686270.821    76517143.917        -679.810          49.000  
G24  19735493.872   103710712.323       -2777.863          40.000    19735482.881    80813489.144       -2164.667          37.000  
G32  21520265.399   113089768.051        1676.329          45.000    21520255.936    88121856.919        1306.224          41.000  
C08  34637588.004   180367003.341         -61.237          45.000    34637570.315   139471138.760         -47.351          49.000  
C13  34744814.546   180925366.247         182.764          46.000    34744805.406   139902930.644         141.376          46.000  
C16  35718980.653   185998103.588         231.831          48.000    35718969.442   143825488.575         179.195          47.000  
C25  21419312.083   111535972.434       -1704.580          43.000                                                                  
C32  21480923.736   111856804.640        1275.002          47.000                                                                  
C06  35482628.705   184767357.820         411.075          43.000    35482612.364   142873779.230         317.948          46.000  
G25  21618225.892   113604563.714        3134.393          40.000    21618219.766    88523013.521        2442.338          40.000  
G10  20113103.116   105695068.425        1970.645          48.000    20113091.689    82359758.033        1535.637          42.000  
G02  24821790.634                3       1724.441          16.000                                                                  
G28  23140183.933   121602501.311        3065.693          38.000    23140176.259    94755138.819        2388.638          42.000  
C23  21040735.535   109564633.337        1306.374          50.000                                                                  
C09  36986999.597   192601018.205         493.759          41.000    36986987.887   148931270.150         381.840          45.000  
C33  25019444.814   130282798.969       -2670.599          36.000                                                                  
C30  24674706.677   128487656.761       -2105.850          41.000                                                                  
C27  25144250.452   130932710.798       -2768.292          32.000                                                                  
C37  24005719.678   125004080.364        3055.222          42.000                                                                  
> 2025 10 27 02 16 35.1960000  0 22                     
G12  21318762.377   112030894.653        1966.900          45.000    21318751.200    87296748.039        1532.637          40.000  
G15  22026872.820   115751981.062       -3043.164          40.000    22026863.542    90196322.616       -2371.184          38.000  
G18  22140366.088   116348392.643       -3655.263          41.000    22140357.536    90661056.958       -2848.250          42.000  
G23  18686289.722    98197113.992        -872.393          47.000    18686277.462    76517171.108        -679.833          49.000  
G24  19735515.004   103710823.427       -2777.686          40.000    19735504.014    80813575.719       -2164.459          37.000  
G32  21520252.619   113089700.994        1676.399          45.000    21520243.162    88121804.671        1306.185          41.000  
C08  34637588.464   180367005.786         -61.157          45.000    34637570.780   139471140.656         -47.406          49.000  
C13  34744813.130   180925358.931         182.843          46.000    34744803.983   139902924.986         141.400          46.000  
C16  35718978.850   185998094.313         231.829          48.000    35718967.640   143825481.401         179.241          47.000  
C25  21419325.177   111536040.617       -1704.627          43.000                                                                  
C32  21480913.936   111856753.633        1275.075          47.000                                                                  
C06  35482625.534   184767341.357         411.333          43.000    35482609.220   142873766.513         317.857          46.000  
G25  21618202.030   113604438.309        3134.804          40.000    21618195.917    88522915.812        2442.468          40.000  
G10  20113088.102   105694989.592        1970.715          48.000    20113076.690    82359696.606        1535.568          42.000  
G02  24821777.737                3       1724.441          16.000                                                                  
G28  23140160.596   121602378.670        3065.986          38.000    23140152.926    94755043.263        2388.723          42.000  
C23  21040725.479   109564581.081        1306.345          50.000                                                                  
C09  36986995.793   192600998.448         493.859          41.000    36986984.069   148931254.877         381.809          45.000  
C33  25019465.313   130282905.771       -2670.236          36.000                                                                  
C30  24674722.874   128487740.992       -2105.766          41.000                                                                  
C27  25144271.731   130932821.522       -2768.169          32.000                                                                  
C37  24005696.190   125003958.145        3055.358          42.000                                                                  
> 2025 10 27 02 16 35.2360000  0 22                     
G12  21318747.412   112030815.961        1967.178          45.000    21318736.212    87296686.728        1532.701          40.000  
G15  22026895.962   115752102.767       -3042.813          40.000    22026886.695    90196417.447       -2370.915          38.000  
G18  22140393.934   116348538.871       -3655.668          41.000    22140385.359    90661170.888       -2848.211          42.000  
G23  18686296.337    98197148.885        -872.405          47.000    18686284.096    76517198.295        -679.743          49.000  
G24  19735536.147   103710934.548       -2777.930          40.000    19735525.174    80813662.309       -2164.642          37.000  
G32  21520239.873   113089633.937        1676.449          45.000    21520230.414    88121752.418        1306.255          41.000  
C08  34637588.924   180367008.239         -61.285          46.000    34637571.256   139471142.551         -47.424          49.000  
C13  34744811.733   180925351.620         182.813          46.000    34744802.559   139902919.333         141.339          46.000  
C16  35718977.114   185998085.037         231.864          48.000    35718965.872   143825474.233         179.172          47.000  
C25  21419338.266   111536108.803       -1704.689          43.000                                                                  
C32  21480904.141   111856702.628        1275.063          47.000                                                                  
C06  35482622.368   184767324.888         411.598          43.000    35482606.063   142873753.785         318.018          46.000  
G25  21618178.136   113604312.905        3135.002          40.000    21618172.070    88522818.093        2442.797          40.000  
G10  20113073.095   105694910.756        1970.791          48.000    20113061.693    82359635.182        1535.509          42.000  
G02  24821764.129                3       1724.441          16.000                                                                  
G28  23140137.269   121602256.063        3065.466          38.000    23140129.616    94754947.718        2388.619          42.000  
C23  21040715.508   109564528.819        1306.443          50.000                                                                  
C09  36986991.997   192600978.688         493.940          41.000    36986980.279   148931239.596         381.927          45.000  
C33  25019485.822   130283012.591       -2670.349          36.000                                                                  
C30  24674739.041   128487825.234       -2105.968          41.000                                                                  
C27  25144292.990   130932932.263       -2768.418          32.000                                                                  
C37  24005672.732   125003835.927        3055.388          42.000                                                                  
> 2025 10 27 02 16 35.2760000  0 22                     
G12  21318732.451   112030737.284        1967.053          45.000    21318721.247    87296625.420        1532.669          40.000  
G15  22026919.121   115752224.485       -3042.851          40.000    22026909.856    90196512.287       -2370.959          38.000  
G18  22140421.732   116348685.077       -3655.404          41.000    22140413.189    90661284.817       -2848.262          42.000  
G23  18686302.987    98197183.781        -872.435          47.000    18686290.728    76517225.487        -679.794          49.000  
G24  19735557.276   103711045.658       -2777.875          40.000    19735546.296    80813748.884       -2164.417          37.000  
G32  21520227.107   113089566.885        1676.372          45.000    21520217.650    88121700.166        1306.307          41.000  
C08  34637589.385   180367010.695         -61.407          46.000    34637571.741   139471144.447         -47.430          49.000  
C13  34744810.321   180925344.311         182.745          46.000    34744801.136   139902913.680         141.290          46.000  
C16  35718975.344   185998075.764         231.824          48.000    35718964.117   143825467.058         179.277          47.000  
C25  21419351.379   111536176.983       -1704.578          43.000                                                                  
C32  21480894.350   111856651.623        1275.063          47.000                                                                  
C06  35482619.207   184767308.438         411.383          43.000    35482602.912   142873741.056         318.122          46.000  
G25  21618154.289   113604187.506        3135.077          40.000    21618148.206    88522720.379        2442.863          40.000  
G10  20113058.108   105694831.921        1970.837          48.000    20113046.668    82359573.748        1535.701          43.000  
G02  24821750.539                3       1724.441          16.000                                                                  
G28  23140113.950   121602133.467        3064.973          38.000    23140106.270    94754852.157        2388.861          42.000  
C23  21040705.467   109564476.561        1306.431          50.000                                                                  
C09  36986988.202   192600958.929         493.951          41.000    36986976.498   148931224.327         381.784          45.000  
C33  25019506.347   130283119.384       -2669.990          36.000                                                                  
C30  24674755.247   128487909.474       -2106.023          41.000                                                                  
C27  25144314.257   130933042.985       -2768.206          32.000                                                                  
C37  24005649.244   125003713.722        3055.149          42.000                                                                  
> 2025 10 27 02 16 35.3160000  0 22                     
G12  21318717.478   112030658.604        1967.009          45.000    21318706.281    87296564.116        1532.599          40.000  
G15  22026942.298   115752346.198       -3042.783          40.000    22026933.028    90196607.149       -2371.415          38.000  
G18  22140449.556   116348831.274       -3655.074          41.000    22140441.020    90661398.739       -2848.144          42.000  
G23  18686309.609    98197218.671        -872.326          47.000    18686297.364    76517252.673        -679.712          49.000  
G24  19735578.429   103711156.764       -2777.759          40.000    19735567.441    80813835.454       -2164.215          37.000  
G32  21520214.344   113089499.829        1676.385          45.000    21520204.907    88121647.916        1306.287          41.000  
C08  34637589.841   180367013.142         -61.298          46.000    34637572.210   139471146.340         -47.363          49.000  
C13  34744808.915   180925336.999         182.758          46.000    34744799.752   139902908.030         141.217          46.000  
C16  35718973.576   185998066.483         231.941          48.000    35718962.336   143825459.875         179.469          47.000  
C25  21419364.454   111536245.163       -1704.502          43.000                                                                  
C32  21480884.533   111856600.615        1275.127          47.000                                                                  
C06  35482616.056   184767291.971         411.544          43.000    35482599.769   142873728.322         318.297          46.000  
G25  21618130.437   113604062.123        3134.754          40.000    21618124.348    88522622.688        2442.498          40.000  
G10  20113043.103   105694753.084        1970.886          48.000    20113031.669    82359512.318        1535.752          42.000  
G02  24821736.510                3       1724.441          16.000                                                                  
G28  23140090.611   121602010.824        3065.598          38.000    23140082.941    94754756.603        2388.878          42.000  
C23  21040695.480   109564424.298        1306.540          50.000                                                                  
C09  36986984.427   192600939.177         493.801          41.000    36986972.694   148931209.045         381.946          45.000  
C33  25019526.876   130283226.193       -2670.060          36.000                                                                  
C30  24674771.427   128487993.703       -2105.885          41.000                                                                  
C27  25144335.571   130933153.730       -2768.486          32.000                                                                  
C37  24005625.780   125003591.504        3055.321          42.000                                                                  
> 2025 10 27 02 16 35.3560000  0 22                     
G12  21318702.511   112030579.930        1966.875          45.000    21318691.290    87296502.805        1532.670          40.000  
G15  22026965.468   115752467.908       -3042.773          40.000    22026956.180    90196701.985       -2371.163          38.000  
G18  22140477.356   116348977.472       -3654.958          41.000    22140468.845    90661512.675       -2848.319          42.000  
G23  18686316.267    98197253.568        -872.389          47.000    18686303.997    76517279.862        -679.726          49.000  
G24  19735599.574   103711267.867       -2777.673          40.000    19735588.570    80813922.038       -2164.490          37.000  
G32  21520201.573   113089432.774        1676.391          45.000    21520192.144    88121595.655        1306.463          41.000  
C08  34637590.310   180367015.596         -61.346          45.000    34637572.677   139471148.230         -47.260          49.000  
C13  34744807.508   180925329.688         182.745          46.000    34744798.345   139902902.374         141.333          46.000  
C16  35718971.792   185998057.207         231.913          48.000    35718960.565   143825452.709         179.271          47.000  
C25  21419377.544   111536313.351       -1704.651          43.000                                                                  
C32  21480874.740   111856549.608        1275.151          47.000                                                                  
C06  35482612.909   184767275.508         411.590          43.000    35482596.586   142873715.590         318.336          46.000  
G25  21618106.580   113603936.740        3134.553          40.000    21618100.485    88522524.982        2442.550          40.000  
G10  20113028.116   105694674.250        1970.824          48.000    20113016.656    82359450.879        1535.913          43.000  
G02  24821724.423                3       1724.441          16.000                                                                  
G28  23140067.277   121601888.200        3065.626          38.000    23140059.620    94754661.045        2388.904          42.000  
C23  21040685.422   109564372.041        1306.448          50.000                                                                  
C09  36986980.608   192600919.425         493.727          41.000    36986968.907   148931193.768         381.921          45.000  
C33  25019547.390   130283333.034       -2670.809          36.000                                                                  
C30  24674787.597   128488077.927       -2105.691          41.000                                                                  
C27  25144356.855   130933264.493       -2768.938          32.000                                                                  
C37  24005602.302   125003469.286        3055.443          42.000                                                                  
> 2025 10 27 02 16 35.3960000  0 22                     
G12  21318687.559   112030501.260        1966.738          45.000    21318676.323    87296441.503        1532.542          40.000  
G15  22026988.638   115752589.616       -3042.648          40.000    22026979.347    90196796.832       -2371.200          38.000  
G18  22140505.194   116349123.684       -3655.191          41.000    22140496.672    90661626.608       -2848.406          42.000  
G23  18686322.937    98197288.470        -872.508          47.000    18686310.630    76517307.059        -679.889          49.000  
G24  19735620.715   103711378.979       -2777.832          40.000    19735609.705    80814008.628       -2164.746          37.000  
G32  21520188.803   113089365.720        1676.352          45.000    21520179.384    88121543.410        1306.212          41.000  
C08  34637590.778   180367018.045         -61.304          45.000    34637573.145   139471150.127         -47.363          49.000  
C13  34744806.117   180925322.387         182.556          46.000    34744796.937   139902896.723         141.278          46.000  
C16  35718969.982   185998047.933         231.868          48.000    35718958.818   143825445.535         179.306          47.000  
C25  21419390.653   111536381.544       -1704.781          43.000                                                                  
C32  21480864.926   111856498.603        1275.119          47.000                                                                  
C06  35482609.760   184767259.060         411.319          43.000    35482593.415   142873702.872         318.071          46.000  
G25  21618082.725   113603811.344        3134.727          40.000    21618076.616    88522427.270        2442.682          40.000  
G10  20113013.126   105694595.420        1970.740          48.000    20113001.661    82359389.459        1535.649          42.000  
G02  24821711.391                3       1724.441          16.000                                                                  
G28  23140043.932   121601765.561        3065.898          38.000    23140036.273    94754565.495        2388.818          42.000  
C23  21040675.396   109564319.791        1306.260          50.000                                                                  
C09  36986976.801   192600899.670         493.765          41.000    36986965.128   148931178.489         381.958          45.000  
C33  25019567.896   130283439.852       -2670.730          36.000                                                                  
C30  24674803.753   128488162.156       -2105.745          41.000                                                                  
C27  25144378.142   130933375.239       -2768.878          32.000                                                                  
C37  24005578.821   125003347.079        3055.240          42.000                                                                  
> 2025 10 27 02 16 35.4360000  0 22                     
G12  21318672.597   112030422.581        1966.822          45.000    21318661.359    87296380.203        1532.469          40.000  
G15  22027011.786   115752711.324       -3042.618          40.000    22027002.492    90196891.656       -2370.827          38.000  
G18  22140533.040   116349269.912       -3655.606          41.000    22140524.507    90661740.541       -2848.391          42.000  
G23  18686329.594    98197323.374        -872.621          47.000    18686317.281    76517334.258        -680.019          49.000  
G24  19735641.866   103711490.103       -2778.094          40.000    19735630.870    80814095.222       -2164.856          37.000  
G32  21520176.057   113089298.677        1676.144          45.000    21520166.632    88121491.177        1305.871          41.000  
C08  34637591.222   180367020.501         -61.401          45.000    34637573.615   139471152.025         -47.467          49.000  
C13  34744804.716   180925315.076         182.648          46.000    34744795.537   139902891.077         141.162          46.000  
C16  35718968.179   185998038.666         231.714          48.000    35718957.055   143825438.368         179.202          47.000  
C25  21419403.744   111536449.731       -1704.760          43.000                                                                  
C32  21480855.068   111856447.605        1274.968          47.000                                                                  
C06  35482606.607   184767242.617         411.123          43.000    35482590.260   142873690.156         317.899          46.000  
G25  21618058.846   113603685.946        3134.839          40.000    21618052.751    88522329.563        2442.663          40.000  
G10  20112998.118   105694516.595        1970.640          48.000    20112986.668    82359328.048        1535.343          42.000  
G02  24821698.106                3       1724.441          16.000                                                                  
G28  23140020.595   121601642.939        3065.781          38.000    23140012.934    94754469.968        2388.318          42.000  
C23  21040665.320   109564267.543        1306.157          50.000                                                                  
C09  36986973.000   192600879.920         493.716          41.000    36986961.338   148931163.226         381.658          45.000  
C33  25019588.417   130283546.668       -2670.583          36.000                                                                  
C30  24674819.915   128488246.396       -2105.934          41.000                                                                  
C27  25144399.422   130933485.986       -2768.763          32.000                                                                  
C37  24005555.363   125003224.868        3055.237          42.000                                                                  
> 2025 10 27 02 16 35.4760000  0 22                     
G12  21318657.626   112030343.917        1966.628          45.000    21318646.404    87296318.895        1532.606          40.000  
G15  22027034.959   115752833.042       -3042.844          39.000    22027025.670    90196986.496       -2370.898          38.000  
G18  22140560.844   116349416.136       -3655.740          41.000    22140552.309    90661854.475       -2848.385          42.000  
G23  18686336.234    98197358.276        -872.643          47.000    18686323.927    76517361.459        -680.086          49.000  
G24  19735663.046   103711601.234       -2778.308          40.000    19735652.014    80814181.791       -2164.484          37.000  
G32  21520163.296   113089231.636        1675.981          45.000    21520153.868    88121438.933        1305.942          41.000  
C08  34637591.664   180367022.952         -61.346          45.000    34637574.077   139471153.924         -47.498          49.000  
C13  34744803.312   180925307.766         182.672          46.000    34744794.147   139902885.425         141.205          46.000  
C16  35718966.399   185998029.394         231.731          48.000    35718955.264   143825431.197         179.211          47.000  
C25  21419416.877   111536517.920       -1704.751          43.000                                                                  
C32  21480845.264   111856396.610        1274.856          47.000                                                                  
C06  35482603.469   184767226.164         411.156          43.000    35482587.130   142873677.439         317.841          46.000  
G25  21618034.998   113603560.559        3134.732          40.000    21618028.891    88522231.859        2442.625          40.000  
G10  20112983.118   105694437.773        1970.535          48.000    20112971.676    82359266.622        1535.460          43.000  
G02  24821685.213                3       1724.441          16.000                                                                  
G28  23139997.299   121601520.350        3065.102          38.000    23139989.590    94754374.422        2388.356          42.000  
C23  21040655.318   109564215.295        1306.149          50.000                                                                  
C09  36986969.210   192600860.164         493.754          41.000    36986957.544   148931147.957         381.617          45.000  
C33  25019608.917   130283653.491       -2670.621          36.000                                                                  
C30  24674836.101   128488330.633       -2106.001          41.000                                                                  
C27  25144420.688   130933596.753       -2769.157          32.000                                                                  
C37  24005531.896   125003102.663        3055.156          42.000                                                                  
> 2025 10 27 02 16 35.5160000  0 22                     
G12  21318642.657   112030265.248        1966.650          45.000    21318631.441    87296257.600        1532.427          40.000  
G15  22027058.127   115752954.787       -3043.478          39.000    22027048.855    90197081.361       -2371.363          38.000  
G18  22140588.664   116349562.358       -3655.763          41.000    22140580.163    90661968.420       -2848.609          42.000  
G23  18686342.871    98197393.187        -872.780          47.000    18686330.574    76517388.655        -680.021          49.000  
G24  19735684.192   103711712.357       -2778.241          40.000    19735673.162    80814268.390       -2164.740          37.000  
G32  21520150.564   113089164.599        1675.865          45.000    21520141.120    88121386.689        1306.047          41.000  
C08  34637592.101   180367025.408         -61.401          45.000    34637574.522   139471155.831         -47.687          49.000  
C13  34744801.946   180925300.462         182.593          46.000    34744792.744   139902879.779         141.125          47.000  
C16  35718964.608   185998020.124         231.707          48.000    35718953.461   143825424.033         179.103          47.000  
C25  21419429.983   111536586.119       -1704.948          43.000                                                                  
C32  21480835.493   111856345.615        1274.795          47.000                                                                  
C06  35482600.326   184767209.718         411.099          43.000    35482583.963   142873664.716         317.951          46.000  
G25  21618011.151   113603435.187        3134.394          40.000    21618005.030    88522134.155        2442.549          40.000  
G10  20112968.109   105694358.949        1970.539          48.000    20112956.648    82359205.200        1535.485          42.000  
G02  24821672.437                3       1724.441          16.000                                                                  
G28  23139973.978   121601397.740        3065.077          38.000    23139966.250    94754278.875        2388.483          42.000  
C23  21040645.309   109564163.048        1306.114          50.000                                                                  
C09  36986965.422   192600840.424         493.555          41.000    36986953.775   148931132.691         381.587          45.000  
C33  25019629.419   130283760.307       -2670.553          36.000                                                                  
C30  24674852.268   128488414.887       -2106.300          41.000                                                                  
C27  25144442.001   130933707.467       -2768.256          32.000                                                                  
C37  24005508.436   125002980.451        3055.175          42.000                                                                  
> 2025 10 27 02 16 35.5560000  0 22                     
G12  21318627.680   112030186.587        1966.519          45.000    21318616.480    87296196.310        1532.265          40.000  
G15  22027081.297   115753076.520       -3043.458          39.000    22027072.037    90197176.227       -2371.666          38.000  
G18  22140616.498   116349708.567       -3655.475          41.000    22140607.983    90662082.362       -2848.650          42.000  
G23  18686349.524    98197428.100        -872.891          47.000    18686337.217    76517415.860        -680.114          49.000  
G24  19735705.337   103711823.486       -2778.314          40.000    19735694.316    80814354.983       -2164.850          37.000  
G32  21520137.811   113089097.555        1675.946          45.000    21520128.366    88121334.444        1306.125          41.000  
C08  34637592.572   180367027.870         -61.554          46.000    34637574.991   139471157.737         -47.729          49.000  
C13  34744800.514   180925293.165         182.422          46.000    34744791.349   139902874.132         141.101          47.000  
C16  35718962.836   185998010.859         231.611          48.000    35718951.681   143825416.871         179.021          47.000  
C25  21419443.090   111536654.320       -1705.097          43.000                                                                  
C32  21480825.724   111856294.615        1274.919          47.000                                                                  
C06  35482597.176   184767193.265         411.230          43.000    35482580.791   142873652.000         317.886          46.000  
G25  21617987.301   113603309.815        3134.254          40.000    21617981.174    88522036.455        2442.501          40.000  
G10  20112953.113   105694280.134        1970.385          48.000    20112941.668    82359143.794        1535.238          42.000  
G02  24821659.013                3       1724.441          16.000                                                                  
G28  23139950.635   121601275.113        3065.359          38.000    23139942.921    94754183.340        2388.339          42.000  
C23  21040635.263   109564110.803        1306.071          50.000                                                                  
C09  36986961.614   192600820.675         493.600          41.000    36986950.003   148931117.424         381.563          45.000  
C33  25019649.886   130283867.138       -2670.796          36.000                                                                  
C30  24674868.456   128488499.139       -2106.415          41.000                                                                  
C27  25144463.259   130933818.201       -2768.244          32.000                                                                  
C37  24005484.974   125002858.250        3055.057          42.000                                                                  
> 2025 10 27 02 16 35.5960000  0 22                     
G12  21318612.740   112030107.936        1966.288          45.000    21318601.525    87296135.014        1532.353          40.000  
G15  22027104.461   115753198.256       -3043.486          39.000    22027095.196    90197271.069       -2371.275          38.000  
G18  22140644.329   116349854.794       -3655.612          41.000    22140635.809    90662196.297       -2848.499          42.000  
G23  18686356.157    98197463.014        -872.938          47.000    18686343.864    76517443.067        -680.181          49.000  
G24  19735726.484   103711934.608       -2778.216          40.000    19735715.452    80814441.571       -2164.813          37.000  
G32  21520125.032   113089030.504        1676.143          45.000    21520115.623    88121282.205        1306.015          41.000  
C08  34637593.035   180367030.337         -61.731          46.000    34637575.421   139471159.643         -47.729          49.000  
C13  34744799.105   180925285.868         182.336          46.000    34744789.926   139902868.495         140.918          47.000  
C16  35718961.050   185998001.603         231.420          48.000    35718949.898   143825409.708         178.979          47.000  
C25  21419456.182   111536722.537       -1705.456          43.000                                                                  
C32  21480815.900   111856243.628        1274.723          47.000                                                                  
C06  35482593.999   184767176.817         411.188          43.000    35482577.597   142873639.281         317.934          46.000  
G25  21617963.415   113603184.445        3134.131          40.000    21617957.316    88521938.754        2442.470          40.000  
G10  20112938.106   105694201.316        1970.386          48.000    20112926.655    82359082.371        1535.402          42.000  
G02  24821645.429                3       1724.441          16.000                                                                  
G28  23139927.279   121601152.490        3065.525          38.000    23139919.594    94754087.800        2388.378          42.000  
C23  21040625.212   109564058.571        1305.823          50.000                                                                  
C09  36986957.826   192600800.934         493.463          41.000    36986946.202   148931102.155         381.645          46.000  
C33  25019670.399   130283973.965       -2670.806          36.000                                                                  
C30  24674884.662   128488583.381       -2106.266          41.000                                                                  
C27  25144484.501   130933928.938       -2768.303          32.000                                                                  
C37  24005461.516   125002736.050        3054.977          42.000                                                                  
> 2025 10 27 02 16 35.6360000  0 22                     
G12  21318597.776   112030029.271        1966.458          45.000    21318586.559    87296073.719        1532.347          40.000  
G15  22027127.641   115753319.980       -3043.242          39.000    22027118.333    90197365.912       -2371.166          38.000  
G18  22140672.165   116350001.016       -3655.631          41.000    22140663.627    90662310.235       -2848.443          42.000  
G23  18686362.768    98197497.924        -872.835          47.000    18686350.504    76517470.270        -680.142          49.000  
G24  19735747.643   103712045.732       -2778.137          40.000    19735736.602    80814528.161       -2164.746          37.000  
G32  21520112.318   113088963.457        1676.161          45.000    21520102.843    88121229.960        1306.006          41.000  
C08  34637593.487   180367032.801         -61.731          45.000    34637575.874   139471161.544         -47.626          49.000  
C13  34744797.693   180925278.575         182.269          46.000    34744788.505   139902862.846         141.077          47.000  
C16  35718959.264   185997992.338         231.491          48.000    35718948.142   143825402.546         178.975          47.000  
C25  21419469.270   111536790.739       -1705.289          43.000                                                                  
C32  21480806.133   111856192.635        1274.764          47.000                                                                  
C06  35482590.851   184767160.381         410.934          43.000    35482574.443   142873626.566         317.848          46.000  
G25  21617939.548   113603059.050        3134.607          40.000    21617933.450    88521841.056        2442.388          40.000  
G10  20112923.105   105694122.501        1970.350          48.000    20112911.645    82359020.959        1535.282          42.000  
G02  24821632.251                3       1724.441          16.000                                                                  
G28  23139903.964   121601029.874        3065.433          38.000    23139896.264    94753992.247        2388.679          42.000  
C23  21040615.191   109564006.327        1305.958          50.000                                                                  
C09  36986954.038   192600781.190         493.497          41.000    36986942.394   148931086.883         381.764          45.000  
C33  25019690.909   130284080.785       -2670.662          36.000                                                                  
C30  24674900.840   128488667.627       -2106.228          41.000                                                                  
C27  25144505.812   130934039.691       -2768.690          32.000                                                                  
C37  24005438.047   125002613.862        3054.717          42.000                                                                  
> 2025 10 27 02 16 35.6760000  0 22                     
G12  21318582.791   112029950.605        1966.560          45.000    21318571.603    87296012.424        1532.346          40.000  
G15  22027150.807   115753441.697       -3043.013          39.000    22027141.492    90197460.746       -2370.981          38.000  
G18  22140699.987   116350147.236       -3655.573          41.000    22140691.466    90662424.164       -2848.282          42.000  
G23  18686369.370    98197532.832        -872.753          47.000    18686357.112    76517497.476        -680.179          49.000  
G24  19735768.789   103712156.847       -2777.930          40.000    19735757.754    80814614.762       -2164.960          37.000  
G32  21520099.556   113088896.411        1676.160          45.000    21520090.112    88121177.714        1306.156          41.000  
C08  34637593.974   180367035.263         -61.633          46.000    34637576.344   139471163.445         -47.552          49.000  
C13  34744796.296   180925271.269         182.495          46.000    34744787.053   139902857.195         141.229          47.000  
C16  35718957.517   185997983.073         231.552          48.000    35718946.339   143825395.380         179.022          47.000  
C25  21419482.359   111536858.934       -1705.065          43.000                                                                  
C32  21480796.370   111856141.640        1274.803          47.000                                                                  
C06  35482587.721   184767143.947         410.791          43.000    35482571.301   142873613.849         317.872          46.000  
G25  21617915.679   113602933.662        3134.775          40.000    21617909.599    88521743.366        2442.227          40.000  
G10  20112908.090   105694043.676        1970.505          48.000    20112896.650    82358959.530        1535.535          42.000  
G02  24821619.059                3       1724.441          16.000                                                                  
G28  23139880.658   121600907.264        3065.258          38.000    23139872.946    94753896.698        2388.730          42.000  
C23  21040605.168   109563954.085        1306.017          50.000                                                                  
C09  36986950.259   192600761.443         493.572          41.000    36986938.627   148931071.613         381.757          45.000  
C33  25019711.406   130284187.627       -2671.074          36.000                                                                  
C30  24674917.022   128488751.872       -2106.152          41.000                                                                  
C27  25144527.084   130934150.478       -2769.477          32.000                                                                  
C37  24005414.594   125002491.656        3054.928          42.000                                                                  
> 2025 10 27 02 16 35.7160000  0 22                     
G12  21318567.814   112029871.941        1966.609          45.000    21318556.617    87295951.123        1532.433          40.000  
G15  22027173.951   115753563.400       -3042.661          40.000    22027164.659    90197555.613       -2371.531          38.000  
G18  22140727.832   116350293.464       -3655.717          41.000    22140719.288    90662538.101       -2848.333          42.000  
G23  18686376.014    98197567.748        -872.854          47.000    18686363.759    76517524.682        -680.198          49.000  
G24  19735789.951   103712267.984       -2778.247          40.000    19735778.889    80814701.358       -2165.009          37.000  
G32  21520086.788   113088829.368        1676.135          45.000    21520077.362    88121125.488        1305.831          41.000  
C08  34637594.440   180367037.727         -61.627          45.000    34637576.832   139471165.350         -47.626          49.000  
C13  34744794.907   180925263.971         182.452          46.000    34744785.640   139902851.554         141.083          47.000  
C16  35718955.729   185997973.805         231.662          48.000    35718944.561   143825388.214         179.060          47.000  
C25  21419495.479   111536927.126       -1704.863          43.000                                                                  
C32  21480786.567   111856090.646        1274.828          47.000                                                                  
C06  35482584.579   184767127.496         411.033          43.000    35482568.165   142873601.134         317.845          46.000  
G25  21617891.817   113602808.280        3134.677          40.000    21617885.760    88521645.680        2442.111          40.000  
G10  20112893.098   105693964.863        1970.392          48.000    20112881.664    82358898.112        1535.514          42.000  
G02  24821605.750                3       1724.441          16.000                                                                  
G28  23139857.355   121600784.668        3064.913          38.000    23139849.605    94753801.157        2388.593          42.000  
C23  21040595.142   109563901.845        1305.990          50.000                                                                  
C09  36986946.472   192600741.699         493.571          41.000    36986934.857   148931056.354         381.526          45.000  
C33  25019731.904   130284294.439       -2670.584          36.000                                                                  
C30  24674933.198   128488836.118       -2106.159          41.000                                                                  
C27  25144548.369   130934261.181       -2768.161          32.000                                                                  
C37  24005391.101   125002369.447        3055.133          42.000                                                                  
> 2025 10 27 02 16 35.7560000  0 22                     
G12  21318552.848   112029793.285        1966.469          45.000    21318541.655    87295889.835        1532.308          40.000  
G15  22027197.091   115753685.117       -3042.759          40.000    22027187.815    90197650.478       -2371.791          38.000  
G18  22140755.647   116350439.687       -3655.698          41.000    22140747.128    90662652.041       -2848.439          42.000  
G23  18686382.639    98197602.664        -872.917          47.000    18686370.376    76517551.889        -680.216          49.000  
G24  19735811.094   103712379.124       -2778.448          40.000    19735800.033    80814787.943       -2164.777          37.000  
G32  21520074.030   113088762.332        1675.983          45.000    21520064.607    88121073.239        1306.103          41.000  
C08  34637594.881   180367040.190         -61.615          46.000    34637577.305   139471167.254         -47.614          49.000  
C13  34744793.505   180925256.667         182.568          46.000    34744784.227   139902845.910         141.064          46.000  
C16  35718953.931   185997964.546         231.551          48.000    35718942.793   143825381.050         179.067          47.000  
C25  21419508.565   111536995.332       -1705.065          43.000                                                                  
C32  21480776.772   111856039.650        1274.885          47.000                                                                  
C06  35482581.424   184767111.061         410.895          43.000    35482564.982   142873588.421         317.794          46.000  
G25  21617867.958   113602682.898        3134.638          40.000    21617861.895    88521547.966        2442.578          40.000  
G10  20112878.101   105693886.041        1970.477          48.000    20112866.671    82358836.700        1535.372          42.000  
G02  24821592.216                3       1724.441          17.000                                                                  
G28  23139834.027   121600662.064        3064.935          38.000    23139826.298    94753705.621        2388.413          42.000  
C23  21040585.086   109563849.609        1305.907          50.000                                                                  
C09  36986942.704   192600721.943         493.751          41.000    36986931.088   148931041.086         381.577          45.000  
C33  25019752.428   130284401.243       -2670.200          36.000                                                                  
C30  24674949.379   128488920.361       -2106.077          41.000                                                                  
C27  25144569.668   130934371.935       -2768.650          32.000                                                                  
C37  24005367.658   125002247.233        3055.309          42.000                                                                  
> 2025 10 27 02 16 35.7960000  0 22                     
G12  21318537.880   112029714.624        1966.489          45.000    21318526.692    87295828.546        1532.239          40.000  
G15  22027220.251   115753806.842       -3043.022          40.000    22027210.983    90197745.320       -2371.438          38.000  
G18  22140783.485   116350585.903       -3655.491          41.000    22140774.948    90662765.985       -2848.620          42.000  
G23  18686389.287    98197637.584        -873.004          47.000    18686377.012    76517579.099        -680.285          49.000  
G24  19735832.222   103712490.241       -2778.101          40.000    19735821.170    80814874.537       -2164.856          37.000  
G32  21520061.284   113088695.287        1676.049          45.000    21520051.851    88121020.993        1306.163          41.000  
C08  34637595.288   180367042.658         -61.725          46.000    34637577.763   139471169.158         -47.620          49.000  
C13  34744792.059   180925249.362         182.611          46.000    34744782.818   139902840.265         141.101          46.000  
C16  35718952.163   185997955.284         231.512          48.000    35718941.014   143825373.888         179.035          47.000  
C25  21419521.673   111537063.540       -1705.197          43.000                                                                  
C32  21480766.973   111855988.656        1274.885          47.000                                                                  
C06  35482578.256   184767094.602         411.248          43.000    35482561.819   142873575.700         317.927          46.000  
G25  21617844.085   113602557.518        3134.524          40.000    21617838.016    88521450.258        2442.694          40.000  
G10  20112863.108   105693807.227        1970.376          48.000    20112851.664    82358775.287        1535.336          42.000  
G02  24821578.957                3       1724.441          17.000                                                                  
G28  23139810.686   121600539.436        3065.435          38.000    23139802.981    94753610.092        2388.195          42.000  
C23  21040575.045   109563797.367        1305.960          50.000                                                                  
C09  36986938.917   192600702.210         493.459          41.000    36986927.303   148931025.820         381.603          45.000  
C33  25019772.954   130284508.067       -2670.378          35.000                                                                  
C30  24674965.555   128489004.604       -2106.085          41.000                                                                  
C27  25144590.931   130934482.682       -2768.768          32.000                                                                  
C37  24005344.180   125002125.030        3055.201          42.000                                                                  
> 2025 10 27 02 16 35.8360000  0 22                     
G12  21318522.911   112029635.967        1966.420          45.000    21318511.717    87295767.257        1532.210          40.000  
G15  22027243.407   115753928.578       -3043.337          40.000    22027234.134    90197840.167       -2371.212          38.000  
G18  22140811.320   116350732.124       -3655.479          41.000    22140802.766    90662879.937       -2848.811          42.000  
G23  18686395.921    98197672.494        -872.851          47.000    18686383.651    76517606.303        -680.196          49.000  
G24  19735853.355   103712601.373       -2778.174          40.000    19735842.325    80814961.137       -2165.027          37.000  
G32  21520048.528   113088628.240        1676.123          45.000    21520039.084    88120968.745        1306.204          41.000  
C08  34637595.751   180367045.110         -61.450          46.000    34637578.232   139471171.061         -47.601          49.000  
C13  34744790.651   180925242.064         182.501          46.000    34744781.415   139902834.618         141.150          47.000  
C16  35718950.373   185997946.015         231.609          48.000    35718939.225   143825366.722         179.094          47.000  
C25  21419534.780   111537131.729       -1704.908          43.000                                                                  
C32  21480757.213   111855937.660        1274.896          47.000                                                                  
C06  35482575.086   184767078.145         411.427          43.000    35482558.644   142873562.984         317.893          46.000  
G25  21617820.245   113602432.149        3134.247          40.000    21617814.170    88521352.566        2442.432          40.000  
G10  20112848.120   105693728.413        1970.319          48.000    20112836.676    82358713.876        1535.266          42.000  
G02  24821565.722                3       1724.441          17.000                                                                  
G28  23139787.334   121600416.810        3065.697          38.000    23139779.640    94753514.548        2388.384          42.000  
C23  21040565.033   109563745.128        1305.960          50.000                                                                  
C09  36986935.106   192600682.468         493.447          41.000    36986923.512   148931010.558         381.566          46.000  
C33  25019793.489   130284614.919       -2671.045          35.000                                                                  
C30  24674981.740   128489088.856       -2106.243          41.000                                                                  
C27  25144612.220   130934593.423       -2768.674          32.000                                                                  
C37  24005320.723   125002002.840        3054.867          42.000                                                                  
> 2025 10 27 02 16 35.8760000  0 22                     
G12  21318507.926   112029557.297        1966.650          45.000    21318496.757    87295705.953        1532.464          40.000  
G15  22027266.577   115754050.320       -3043.608          40.000    22027257.310    90197935.022       -2371.282          38.000  
G18  22140839.136   116350878.347       -3655.537          41.000    22140830.591    90662993.861       -2848.360          42.000  
G23  18686402.557    98197707.416        -873.003          47.000    18686390.294    76517633.508        -680.158          49.000  
G24  19735874.484   103712712.506       -2778.369          40.000    19735863.482    80815047.736       -2165.100          37.000  
G32  21520035.786   113088561.201        1676.028          45.000    21520026.331    88120916.515        1305.911          41.000  
C08  34637596.214   180367047.571         -61.462          45.000    34637578.711   139471172.963         -47.577          49.000  
C13  34744789.253   180925234.765         182.452          46.000    34744779.999   139902828.966         141.260          47.000  
C16  35718948.561   185997936.750         231.628          48.000    35718937.452   143825359.560         179.054          47.000  
C25  21419547.895   111537199.935       -1705.018          43.000                                                                  
C32  21480747.415   111855886.669        1274.793          47.000                                                                  
C06  35482571.919   184767061.702         411.269          43.000    35482555.454   142873550.265         317.945          46.000  
G25  21617796.381   113602306.770        3134.275          40.000    21617790.330    88521254.867        2442.440          40.000  
G10  20112833.131   105693649.600        1970.282          48.000    20112821.676    82358652.455        1535.415          42.000  
G02  24821552.431                3       1724.441          17.000                                                                  
G28  23139764.002   121600294.211        3065.279          38.000    23139756.301    94753418.999        2388.594          42.000  
C23  21040554.961   109563692.895        1305.838          50.000                                                                  
C09  36986931.303   192600662.730         493.392          41.000    36986919.720   148930995.279         381.827          45.000  
C33  25019814.003   130284721.751       -2671.041          35.000                                                                  
C30  24674997.908   128489173.112       -2106.425          41.000                                                                  
C27  25144633.513   130934704.175       -2768.746          32.000                                                                  
C37  24005297.235   125001880.645        3054.789          42.000                                                                  
> 2025 10 27 02 16 35.9160000  0 22                     
G12  21318492.958   112029478.643        1966.464          45.000    21318481.802    87295644.666        1532.271          40.000  
G15  22027289.737   115754172.054       -3043.555          40.000    22027280.468    90198029.861       -2371.060          38.000  
G18  22140866.949   116351024.561       -3655.451          41.000    22140858.414    90663107.800       -2848.399          42.000  
G23  18686409.212    98197742.335        -873.020          47.000    18686396.948    76517660.720        -680.278          49.000  
G24  19735895.646   103712823.647       -2778.522          40.000    19735884.634    80815134.331       -2165.027          37.000  
G32  21520023.026   113088494.150        1676.207          45.000    21520013.555    88120864.277        1305.870          41.000  
C08  34637596.685   180367050.030         -61.475          46.000    34637579.199   139471174.869         -47.632          49.000  
C13  34744787.855   180925227.461         182.520          46.000    34744778.585   139902823.322         141.144          47.000  
C16  35718946.783   185997927.481         231.692          48.000    35718935.658   143825352.391         179.164          47.000  
C25  21419560.973   111537268.147       -1705.214          43.000                                                                  
C32  21480737.658   111855835.671        1274.903          47.000                                                                  
C06  35482568.771   184767045.258         411.135          43.000    35482552.306   142873537.550         317.884          46.000  
G25  21617772.502   113602181.392        3134.275          40.000    21617766.483    88521157.165        2442.447          40.000  
G10  20112818.116   105693570.783        1970.352          48.000    20112806.685    82358591.034        1535.548          42.000  
G02  24821539.571                3       1724.441          18.000                                                                  
G28  23139740.679   121600171.610        3065.100          38.000    23139732.971    94753323.456        2388.582          42.000  
C23  21040544.933   109563640.655        1305.918          50.000                                                                  
C09  36986927.521   192600642.986         493.499          41.000    36986915.939   148930980.008         381.825          45.000  
C33  25019834.551   130284828.588       -2671.101          35.000                                                                  
C30  24675014.084   128489257.358       -2106.289          41.000                                                                  
C27  25144654.751   130934814.903       -2768.410          32.000                                                                  
C37  24005273.767   125001758.441        3054.948          42.000                                                                  
> 2025 10 27 02 16 35.9560000  0 22                     
G12  21318477.999   112029399.988        1966.382          45.000    21318466.857    87295583.361        1532.527          40.000  
G15  22027312.899   115754293.770       -3043.174          40.000    22027303.642    90198124.712       -2371.205          38.000  
G18  22140894.756   116351170.789       -3655.606          41.000    22140886.226    90663221.742       -2848.513          42.000  
G23  18686415.835    98197777.252        -872.988          47.000    18686403.594    76517687.929        -680.283          49.000  
G24  19735916.789   103712934.770       -2778.265          40.000    19735905.781    80815220.914       -2164.746          37.000  
G32  21520010.255   113088427.106        1676.127          45.000    21520000.794    88120812.034        1305.993          41.000  
C08  34637597.160   180367052.499         -61.664          46.000    34637579.686   139471176.773         -47.644          49.000  
C13  34744786.456   180925220.161         182.495          46.000    34744777.193   139902817.678         141.113          47.000  
C16  35718944.981   185997918.223         231.528          48.000    35718933.870   143825345.230         179.052          47.000  
C25  21419574.061   111537336.354       -1705.264          43.000                                                                  
C32  21480727.819   111855784.688        1274.661          47.000                                                                  
C06  35482565.617   184767028.822         410.941          43.000    35482549.139   142873524.839         317.774          46.000  
G25  21617748.646   113602056.022        3134.215          40.000    21617742.612    88521059.471        2442.263          40.000  
G10  20112803.124   105693491.964        1970.411          48.000    20112791.676    82358529.623        1535.382          42.000  
G02  24821527.139                3       1724.441          18.000                                                                  
G28  23139717.368   121600049.014        3064.889          38.000    23139709.638    94753227.925        2388.390          42.000  
C23  21040534.891   109563588.419        1305.879          50.000                                                                  
C09  36986923.741   192600623.228         493.835          41.000    36986912.158   148930964.738         381.755          45.000  
C33  25019855.067   130284935.408       -2670.769          36.000                                                                  
C30  24675030.263   128489341.593       -2106.064          41.000                                                                  
C27  25144676.047   130934925.654       -2768.650          32.000                                                                  
C37  24005250.342   125001636.232        3055.146          42.000                                                                  
> 2025 10 27 02 16 35.9960000  0 22                     
G12  21318463.023   112029321.335        1966.321          45.000    21318451.912    87295522.077        1532.264          40.000  
G15  22027336.048   115754415.482       -3042.927          40.000    22027326.791    90198219.573       -2371.460          38.000  
G18  22140922.581   116351317.027       -3655.942          41.000    22140914.058    90663335.686       -2848.625          42.000  
G23  18686422.460    98197812.170        -873.000          47.000    18686410.247    76517715.142        -680.339          49.000  
G24  19735937.931   103713045.912       -2778.534          40.000    19735926.932    80815307.514       -2164.880          37.000  
G32  21519997.497   113088360.069        1675.949          45.000    21519988.027    88120759.789        1306.082          41.000  
C08  34637597.652   180367054.968         -61.749          45.000    34637580.143   139471178.679         -47.668          49.000  
C13  34744785.038   180925212.860         182.495          46.000    34744775.807   139902812.030         141.150          47.000  
C16  35718943.142   185997908.970         231.336          48.000    35718932.072   143825338.070         179.003          47.000  
C25  21419587.151   111537404.553       -1705.136          43.000                                                                  
C32  21480718.037   111855733.703        1274.575          47.000                                                                  
C06  35482562.462   184767012.378         410.980          43.000    35482545.978   142873512.124         317.769          46.000  
G25  21617724.781   113601930.645        3134.279          40.000    21617718.751    88520961.788        2442.072          40.000  
G10  20112788.109   105693413.149        1970.410          48.000    20112776.689    82358468.222        1535.128          42.000  
G02  24821513.588                3       1724.441          18.000                                                                  
G28  23139694.038   121599926.374        3065.481          38.000    23139686.281    94753132.374        2388.597          42.000  
C23  21040524.864   109563536.185        1305.848          50.000                                                                  
C09  36986919.929   192600603.492         493.571          41.000    36986908.366   148930949.470         381.655          46.000  
C33  25019875.583   130285042.218       -2670.316          36.000                                                                  
C30  24675046.455   128489425.843       -2106.211          41.000                                                                  
C27  25144697.312   130935036.397       -2768.738          32.000                                                                  
C37  24005226.875   125001514.042        3054.853          42.000                                                                  
> 2025 10 27 02 16 36.0360000  0 22                     
G12  21318448.053   112029242.682        1966.311          45.000    21318436.954    87295460.793        1532.081          40.000  
G15  22027359.206   115754537.202       -3042.962          40.000    22027349.942    90198314.429       -2371.489          38.000  
G18  22140950.397   116351463.250       -3655.802          41.000    22140941.887    90663449.638       -2848.810          42.000  
G23  18686429.141    98197847.097        -873.138          47.000    18686416.891    76517742.350        -680.269          49.000  
G24  19735959.092   103713157.045       -2778.497          40.000    19735948.077    80815394.118       -2165.137          37.000  
G32  21519984.730   113088293.033        1675.856          45.000    21519975.264    88120707.551        1306.003          41.000  
C08  34637598.136   180367057.431         -61.670          45.000    34637580.605   139471180.590         -47.791          49.000  
C13  34744783.607   180925205.563         182.416          46.000    34744774.373   139902806.396         140.930          47.000  
C16  35718941.372   185997899.708         231.427          48.000    35718930.273   143825330.906         179.030          47.000  
C25  21419600.244   111537472.762       -1705.197          43.000                                                                  
C32  21480708.259   111855682.705        1274.781          47.000                                                                  
C06  35482559.316   184766995.942         410.900          43.000    35482542.794   142873499.402         317.955          46.000  
G25  21617700.926   113601805.267        3134.401          40.000    21617694.879    88520864.088        2442.296          40.000  
G10  20112773.120   105693334.341        1970.258          48.000    20112761.691    82358406.802        1535.319          42.000  
G02  24821500.936                3       1724.441          18.000                                                                  
G28  23139670.737   121599803.770        3065.243          38.000    23139662.977    94753036.836        2388.530          42.000  
C23  21040514.839   109563483.951        1305.810          50.000                                                                  
C09  36986916.162   192600583.748         493.604          41.000    36986904.558   148930934.210         381.488          46.000  
C33  25019896.103   130285149.035       -2670.301          36.000                                                                  
C30  24675062.619   128489510.088       -2106.191          41.000                                                                  
C27  25144718.580   130935147.170       -2769.259          32.000                                                                  
C37  24005203.388   125001391.839        3054.932          42.000                                                                  
> 2025 10 27 02 16 36.0760000  0 22                     
G12  21318433.073   112029164.010        1966.667          45.000    21318421.974    87295399.512        1531.957          40.000  
G15  22027382.350   115754658.930       -3043.143          40.000    22027373.097    90198409.276       -2371.327          38.000  
G18  22140978.221   116351609.479       -3655.789          41.000    22140969.710    90663563.566       -2848.422          42.000  
G23  18686435.760    98197882.023        -873.193          47.000    18686423.531    76517769.562        -680.320          49.000  
G24  19735980.213   103713268.170       -2778.265          40.000    19735969.221    80815480.710       -2164.923          37.000  
G32  21519971.977   113088225.992        1675.910          45.000    21519962.504    88120655.303        1306.137          41.000  
C08  34637598.609   180367059.902         -61.737          45.000    34637581.073   139471182.495         -47.723          49.000  
C13  34744782.178   180925198.271         182.281          46.000    34744772.982   139902800.749         141.040          47.000  
C16  35718939.668   185997890.443         231.552          48.000    35718928.497   143825323.750         178.900          47.000  
C25  21419613.308   111537540.978       -1705.343          43.000                                                                  
C32  21480698.433   111855631.719        1274.692          47.000                                                                  
C06  35482556.171   184766979.494         411.074          43.000    35482539.659   142873486.686         317.912          46.000  
G25  21617677.090   113601679.879        3134.625          40.000    21617671.030    88520766.380        2442.630          40.000  
G10  20112758.127   105693255.531        1970.201          48.000    20112746.692    82358345.393        1535.266          42.000  
G02  24821487.712                3       1724.441          18.000                                                                  
G28  23139647.426   121599681.164        3065.170          38.000    23139639.643    94752941.305        2388.345          42.000  
C23  21040504.811   109563431.720        1305.767          50.000                                                                  
C09  36986912.376   192600564.007         493.547          41.000    36986900.749   148930918.946         381.483          46.000  
C33  25019916.638   130285255.863       -2670.445          36.000                                                                  
C30  24675078.803   128489594.352       -2106.492          41.000                                                                  
C27  25144739.800   130935257.905       -2768.832          32.000                                                                  
C37  24005179.918   125001269.632        3055.026          42.000                                                                  
> 2025 10 27 02 16 36.1160000  0 22                     
G12  21318418.129   112029085.360        1966.395          45.000    21318407.019    87295338.216        1532.195          40.000  
G15  22027405.521   115754780.660       -3043.190          40.000    22027396.266    90198504.129       -2371.371          38.000  
G18  22141006.031   116351755.692       -3655.496          41.000    22140997.539    90663677.498       -2848.293          42.000  
G23  18686442.403    98197916.945        -873.141          47.000    18686430.184    76517796.783        -680.507          49.000  
G24  19736001.338   103713379.296       -2778.204          40.000    19735990.357    80815567.314       -2165.063          37.000  
G32  21519959.202   113088158.950        1675.954          45.000    21519949.754    88120603.069        1305.906          41.000  
C08  34637599.080   180367062.360         -61.554          45.000    34637581.516   139471184.397         -47.632          49.000  
C13  34744780.759   180925190.973         182.349          46.000    34744771.604   139902795.102         141.132          47.000  
C16  35718937.916   185997881.170         231.763          48.000    35718926.732   143825316.585         179.013          47.000  
C25  21419626.409   111537609.187       -1705.302          43.000                                                                  
C32  21480688.630   111855580.724        1274.832          47.000                                                                  
C06  35482553.026   184766963.048         411.088          43.000    35482536.502   142873473.974         317.812          46.000  
G25  21617653.243   113601554.490        3134.780          40.000    21617647.190    88520668.670        2442.777          40.000  
G10  20112743.135   105693176.716        1970.292          48.000    20112731.670    82358283.975        1535.400          42.000  
G02  24821474.256                3       1724.441          18.000                                                                  
G28  23139624.088   121599558.559        3065.092          38.000    23139616.321    94752845.767        2388.334          42.000  
C23  21040494.802   109563379.485        1305.807          50.000                                                                  
C09  36986908.586   192600544.261         493.635          41.000    36986896.970   148930903.686         381.479          45.000  
C33  25019937.144   130285362.699       -2670.796          36.000                                                                  
C30  24675094.977   128489678.591       -2106.161          41.000                                                                  
C27  25144761.084   130935368.636       -2768.490          32.000                                                                  
C37  24005156.453   125001147.443        3054.770          42.000                                                                  
> 2025 10 27 02 16 36.1560000  0 22                     
G12  21318403.181   112029006.719        1966.085          45.000    21318392.072    87295276.928        1532.195          40.000  
G15  22027428.714   115754902.400       -3043.452          40.000    22027419.433    90198598.986       -2371.439          38.000  
G18  22141033.846   116351901.916       -3655.573          41.000    22141025.376    90663791.448       -2848.588          42.000  
G23  18686449.049    98197951.874        -873.254          47.000    18686436.825    76517823.998        -680.467          49.000  
G24  19736022.463   103713490.435       -2778.461          40.000    19736011.524    80815653.919       -2165.106          37.000  
G32  21519946.470   113088091.912        1675.891          45.000    21519936.996    88120550.839        1305.724          41.000  
C08  34637599.552   180367064.823         -61.536          45.000    34637581.985   139471186.307         -47.754          49.000  
C13  34744779.346   180925183.673         182.446          46.000    34744770.203   139902789.465         140.991          47.000  
C16  35718936.117   185997871.914         231.530          48.000    35718924.980   143825309.428         178.928          47.000  
C25  21419639.485   111537677.397       -1705.314          43.000                                                                  
C32  21480678.838   111855529.739        1274.710          47.000                                                                  
C06  35482549.878   184766946.607         411.028          43.000    35482533.343   142873461.262         317.729          46.000  
G25  21617629.387   113601429.119        3134.488          40.000    21617623.338    88520570.986        2442.352          40.000  
G10  20112728.154   105693097.911        1970.152          48.000    20112716.667    82358222.573        1535.130          42.000  
G02  24821460.604                3       1724.441          17.000                                                                  
G28  23139600.783   121599435.960        3064.937          38.000    23139592.995    94752750.220        2388.470          42.000  
C23  21040484.749   109563327.260        1305.653          50.000                                                                  
C09  36986904.784   192600524.522         493.535          41.000    36986893.169   148930888.421         381.586          45.000  
C33  25019957.679   130285469.534       -2670.923          36.000                                                                  
C30  24675111.169   128489762.848       -2106.339          41.000                                                                  
C27  25144782.332   130935479.364       -2768.250          32.000                                                                  
C37  24005132.984   125001025.246        3054.773          42.000                                                                  
> 2025 10 27 02 16 36.1960000  0 22                     
G12  21318388.206   112028928.078        1965.945          45.000    21318377.109    87295215.655        1531.890          40.000  
G15  22027451.879   115755024.140       -3043.510          40.000    22027442.589    90198693.856       -2371.731          38.000  
G18  22141061.694   116352048.146       -3655.735          40.000    22141053.229    90663905.385       -2848.493          42.000  
G23  18686455.705    98197986.801        -873.253          47.000    18686443.479    76517851.217        -680.529          49.000  
G24  19736043.633   103713601.583       -2778.735          40.000    19736032.662    80815740.512       -2164.905          37.000  
G32  21519933.693   113088024.868        1676.053          45.000    21519924.219    88120498.609        1305.658          41.000  
C08  34637600.025   180367067.287         -61.591          45.000    34637582.483   139471188.219         -47.827          49.000  
C13  34744777.919   180925176.378         182.385          46.000    34744768.776   139902783.823         140.997          47.000  
C16  35718934.359   185997862.664         231.250          48.000    35718923.200   143825302.269         178.911          47.000  
C25  21419652.572   111537745.616       -1705.479          43.000                                                                  
C32  21480669.038   111855478.752        1274.667          47.000                                                                  
C06  35482546.735   184766930.172         410.857          43.000    35482530.211   142873448.556         317.622          46.000  
G25  21617605.537   113601303.749        3134.294          40.000    21617599.484    88520473.295        2442.241          40.000  
G10  20112713.135   105693019.110        1970.048          48.000    20112701.666    82358161.175        1534.898          42.000  
G02  24821447.257                3       1724.441          17.000                                                                  
G28  23139577.443   121599313.345        3065.166          38.000    23139569.651    94752654.689        2388.287          42.000  
C23  21040474.700   109563275.039        1305.503          50.000                                                                  
C09  36986901.011   192600504.792         493.356          41.000    36986889.387   148930873.154         381.673          45.000  
C33  25019978.193   130285576.362       -2670.796          36.000                                                                  
C30  24675127.350   128489847.110       -2106.501          41.000                                                                  
C27  25144803.583   130935590.141       -2769.049          32.000                                                                  
C37  24005109.492   125000903.056        3054.660          42.000                                                                  
> 2025 10 27 02 16 36.2360000  0 22                     
G12  21318373.238   112028849.436        1965.971          45.000    21318362.142    87295154.361        1532.161          40.000  
G15  22027475.036   115755145.858       -3043.110          40.000    22027465.751    90198788.708       -2371.561          38.000  
G18  22141089.506   116352194.376       -3655.771          40.000    22141081.068    90664019.331       -2848.643          42.000  
G23  18686462.342    98198021.733        -873.321          47.000    18686450.112    76517878.433        -680.477          49.000  
G24  19736064.778   103713712.730       -2778.760          40.000    19736053.803    80815827.105       -2164.807          37.000  
G32  21519920.937   113087957.822        1676.166          45.000    21519911.466    88120446.367        1305.864          41.000  
C08  34637600.493   180367069.758         -61.737          45.000    34637582.977   139471190.125         -47.748          49.000  
C13  34744776.518   180925169.075         182.520          46.000    34744767.380   139902778.187         140.906          47.000  
C16  35718932.570   185997853.398         231.420          48.000    35718921.424   143825295.110         178.912          47.000  
C25  21419665.661   111537813.834       -1705.527          43.000                                                                  
C32  21480659.263   111855427.763        1274.706          47.000                                                                  
C06  35482543.548   184766913.742         410.763          43.000    35482527.074   142873435.844         317.687          46.000  
G25  21617581.687   113601178.370        3134.365          40.000    21617575.620    88520375.606        2442.175          40.000  
G10  20112698.149   105692940.302        1970.112          48.000    20112686.691    82358099.761        1535.120          43.000  
G02  24821434.213                3       1724.441          17.000                                                                  
G28  23139554.119   121599190.761        3064.716          38.000    23139546.330    94752559.158        2388.234          42.000  
C23  21040464.673   109563222.808        1305.669          50.000                                                                  
C09  36986897.214   192600485.047         493.519          41.000    36986885.597   148930857.889         381.628          45.000  
C33  25019998.758   130285683.204       -2670.913          36.000                                                                  
C30  24675143.507   128489931.360       -2106.374          41.000                                                                  
C27  25144824.870   130935700.870       -2768.584          32.000                                                                  
C37  24005086.062   125000780.845        3055.063          42.000                                                                  
> 2025 10 27 02 16 36.2760000  0 22                     
G12  21318358.244   112028770.775        1966.335          45.000    21318347.159    87295093.071        1532.216          40.000  
G15  22027498.210   115755267.598       -3043.311          40.000    22027488.929    90198883.543       -2371.081          38.000  
G18  22141117.312   116352340.608       -3655.820          41.000    22141108.908    90664133.286       -2848.872          42.000  
G23  18686468.980    98198056.662        -873.288          47.000    18686456.758    76517905.649        -680.420          49.000  
G24  19736085.929   103713823.867       -2778.631          40.000    19736074.961    80815913.722       -2165.228          37.000  
G32  21519908.183   113087890.790        1675.915          45.000    21519898.712    88120394.132        1305.851          41.000  
C08  34637600.986   180367072.236         -61.957          45.000    34637583.472   139471192.029         -47.644          49.000  
C13  34744775.111   180925161.782         182.367          46.000    34744765.974   139902772.551         140.863          47.000  
C16  35718930.761   185997844.143         231.350          48.000    35718919.660   143825287.948         179.006          47.000  
C25  21419678.793   111537882.044       -1705.372          43.000                                                                  
C32  21480649.461   111855376.779        1274.617          47.000                                                                  
C06  35482540.398   184766897.295         411.038          43.000    35482523.921   142873423.127         317.838          46.000  
G25  21617557.820   113601053.018        3133.875          40.000    21617551.774    88520277.917        2442.184          40.000  
G10  20112683.173   105692861.494        1970.181          48.000    20112671.679    82358038.357        1535.100          43.000  
G02  24821421.582                3       1724.441          17.000                                                                  
G28  23139530.769   121599068.142        3065.076          38.000    23139523.000    94752463.624        2388.244          42.000  
C23  21040454.656   109563170.577        1305.733          50.000                                                                  
C09  36986893.411   192600465.303         493.599          41.000    36986881.792   148930842.624         381.590          45.000  
C33  25020019.266   130285790.039       -2670.957          36.000                                                                  
C30  24675159.691   128490015.619       -2106.493          41.000                                                                  
C27  25144846.169   130935811.605       -2768.456          32.000                                                                  
C37  24005062.592   125000658.653        3054.903          42.000                                                                  
> 2025 10 27 02 16 36.3160000  0 22                     
G12  21318343.271   112028692.125        1966.285          45.000    21318332.203    87295031.794        1531.946          40.000  
G15  22027521.383   115755389.323       -3043.194          40.000    22027512.085    90198978.383       -2370.992          38.000  
G18  22141145.149   116352486.843       -3655.855          41.000    22141136.734    90664247.233       -2848.795          42.000  
G23  18686475.623    98198091.595        -873.331          47.000    18686463.419    76517932.871        -680.515          49.000  
G24  19736107.091   103713935.013       -2778.693          40.000    19736096.111    80816000.332       -2165.338          37.000  
G32  21519895.451   113087823.756        1675.841          45.000    21519885.947    88120341.880        1306.168          41.000  
C08  34637601.507   180367074.703         -61.823          45.000    34637583.937   139471193.939         -47.711          49.000  
C13  34744773.716   180925154.490         182.312          46.000    34744764.548   139902766.899         141.138          47.000  
C16  35718928.991   185997834.885         231.399          48.000    35718917.881   143825280.790         178.958          47.000  
C25  21419691.895   111537950.265       -1705.487          43.000                                                                  
C32  21480639.642   111855325.799        1274.490          47.000                                                                  
C06  35482537.227   184766880.854         411.052          43.000    35482520.752   142873410.415         317.822          46.000  
G25  21617533.981   113600927.633        3134.315          40.000    21617527.911    88520180.216        2442.385          40.000  
G10  20112668.194   105692782.693        1970.059          48.000    20112656.676    82357976.951        1535.095          43.000  
G02  24821408.525                3       1724.441          17.000                                                                  
G28  23139507.455   121598945.548        3064.828          38.000    23139499.671    94752368.081        2388.389          42.000  
C23  21040444.593   109563118.354        1305.623          50.000                                                                  
C09  36986889.594   192600445.559         493.610          41.000    36986878.008   148930827.365         381.478          45.000  
C33  25020039.800   130285896.878       -2671.018          36.000                                                                  
C30  24675175.854   128490099.864       -2106.312          41.000                                                                  
C27  25144867.458   130935922.374       -2769.010          32.000                                                                  
C37  24005039.117   125000536.462        3054.795          42.000                                                                  
> 2025 10 27 02 16 36.3560000  0 22                     
G12  21318328.300   112028613.480        1966.156          45.000    21318317.265    87294970.519        1531.810          40.000  
G15  22027544.541   115755511.049       -3043.195          40.000    22027535.249    90199073.252       -2371.498          38.000  
G18  22141172.993   116352633.060       -3655.594          41.000    22141164.567    90664361.164       -2848.470          42.000  
G23  18686482.265    98198126.526        -873.331          47.000    18686470.072    76517960.092        -680.565          49.000  
G24  19736128.229   103714046.142       -2778.430          40.000    19736117.250    80816086.944       -2165.454          37.000  
G32  21519882.698   113087756.725        1675.729          45.000    21519873.187    88120289.637        1306.176          41.000  
C08  34637601.994   180367077.167         -61.688          45.000    34637584.408   139471195.849         -47.748          49.000  
C13  34744772.306   180925147.202         182.208          46.000    34744763.142   139902761.250         141.217          47.000  
C16  35718927.223   185997825.623         231.497          48.000    35718916.079   143825273.626         179.048          47.000  
C25  21419704.947   111538018.483       -1705.472          43.000                                                                  
C32  21480629.862   111855274.810        1274.601          47.000                                                                  
C06  35482534.061   184766864.410         411.093          43.000    35482517.611   142873397.699         317.866          46.000  
G25  21617510.133   113600802.263        3134.276          40.000    21617504.048    88520082.525        2442.315          40.000  
G10  20112653.182   105692703.890        1970.040          48.000    20112641.679    82357915.544        1535.149          42.000  
G02  24821395.558                3       1724.441          17.000                                                                  
G28  23139484.146   121598822.947        3064.876          38.000    23139476.324    94752272.546        2388.376          42.000  
C23  21040434.569   109563066.131        1305.573          50.000                                                                  
C09  36986885.825   192600425.836         493.192          41.000    36986874.209   148930812.102         381.517          45.000  
C33  25020060.330   130286003.694       -2670.632          36.000                                                                  
C30  24675192.031   128490184.136       -2106.695          41.000                                                                  
C27  25144888.768   130936033.120       -2768.870          32.000                                                                  
C37  24005015.660   125000414.260        3054.925          42.000                                                                  
> 2025 10 27 02 16 36.3960000  0 22                     
G12  21318313.335   112028534.829        1966.182          45.000    21318302.297    87294909.237        1531.831          40.000  
G15  22027567.698   115755632.781       -3043.270          40.000    22027558.414    90199168.115       -2371.588          38.000  
G18  22141200.813   116352779.273       -3655.385          41.000    22141192.399    90664475.113       -2848.596          42.000  
G23  18686488.928    98198161.462        -873.424          47.000    18686476.733    76517987.311        -680.545          49.000  
G24  19736149.372   103714157.286       -2778.497          40.000    19736138.402    80816173.539       -2165.076          37.000  
G32  21519869.933   113087689.679        1675.992          45.000    21519860.453    88120237.410        1305.831          41.000  
C08  34637602.456   180367079.637         -61.713          45.000    34637584.904   139471197.762         -47.809          49.000  
C13  34744770.888   180925139.904         182.336          46.000    34744761.722   139902755.616         140.924          47.000  
C16  35718925.448   185997816.366         231.456          48.000    35718914.304   143825266.470         178.964          47.000  
C25  21419718.057   111538086.698       -1705.414          43.000                                                                  
C32  21480620.113   111855223.821        1274.671          47.000                                                                  
C06  35482530.892   184766847.968         411.050          43.000    35482514.475   142873384.993         317.722          46.000  
G25  21617486.280   113600676.878        3134.527          40.000    21617480.211    88519984.836        2442.219          40.000  
G10  20112638.177   105692625.084        1970.082          48.000    20112626.683    82357854.134        1535.255          42.000  
G02  24821382.355                3       1724.441          17.000                                                                  
G28  23139460.800   121598700.334        3065.159          38.000    23139452.994    94752177.015        2388.296          42.000  
C23  21040424.566   109563013.904        1305.619          50.000                                                                  
C09  36986882.043   192600406.103         493.208          41.000    36986870.425   148930796.839         381.536          45.000  
C33  25020080.839   130286110.514       -2670.586          36.000                                                                  
C30  24675208.199   128490268.398       -2106.704          41.000                                                                  
C27  25144910.083   130936143.829       -2767.990          32.000                                                                  
C37  24004992.194   125000292.059        3054.988          42.000                                                                  
> 2025 10 27 02 16 36.4360000  0 22                     
G12  21318298.381   112028456.185        1966.107          45.000    21318287.342    87294847.945        1532.127          40.000  
G15  22027590.855   115755754.505       -3043.170          40.000    22027581.580    90199262.969       -2371.448          38.000  
G18  22141228.633   116352925.500       -3655.523          41.000    22141220.216    90664589.052       -2848.522          42.000  
G23  18686495.568    98198196.398        -873.448          47.000    18686483.399    76518014.538        -680.671          49.000  
G24  19736170.503   103714268.429       -2778.552          40.000    19736159.566    80816260.141       -2165.027          37.000  
G32  21519857.179   113087622.645        1675.901          45.000    21519847.698    88120185.171        1305.859          41.000  
C08  34637602.940   180367082.107         -61.749          45.000    34637585.377   139471199.673         -47.821          49.000  
C13  34744769.480   180925132.607         182.391          46.000    34744760.308   139902749.980         140.875          47.000  
C16  35718923.691   185997807.107         231.448          48.000    35718912.527   143825259.311         178.951          47.000  
C25  21419731.168   111538154.908       -1705.327          43.000                                                                  
C32  21480610.343   111855172.834        1274.683          47.000                                                                  
C06  35482527.740   184766831.532         410.897          43.000    35482511.343   142873372.284         317.698          46.000  
G25  21617462.430   113600551.509        3134.329          40.000    21617456.367    88519887.148        2442.145          40.000  
G10  20112623.181   105692546.286        1969.957          48.000    20112611.694    82357792.728        1535.214          42.000  
G02  24821369.242                3       1724.441          17.000                                                                  
G28  23139437.472   121598577.706        3065.588          38.000    23139429.667    94752081.479        2388.273          42.000  
C23  21040414.552   109562961.682        1305.562          50.000                                                                  
C09  36986878.260   192600386.355         493.464          41.000    36986866.625   148930781.569         381.679          45.000  
C33  25020101.352   130286217.366       -2671.135          36.000                                                                  
C30  24675224.393   128490352.647       -2106.413          41.000                                                                  
C27  25144931.347   130936254.587       -2768.525          32.000                                                                  
C37  24004968.731   125000169.862        3054.921          42.000                                                                  
> 2025 10 27 02 16 36.4760000  0 22                     
G12  21318283.407   112028377.547        1965.917          45.000    21318272.395    87294786.672        1531.901          40.000  
G15  22027614.011   115755876.256       -3043.644          40.000    22027604.745    90199357.827       -2371.461          38.000  
G18  22141256.476   116353071.750       -3656.078          41.000    22141248.050    90664702.991       -2848.498          42.000  
G23  18686502.199    98198231.336        -873.491          47.000    18686490.037    76518041.757        -680.575          49.000  
G24  19736191.645   103714379.564       -2778.418          40.000    19736180.694    80816346.728       -2164.691          37.000  
G32  21519844.436   113087555.598        1676.066          45.000    21519834.946    88120132.936        1305.835          41.000  
C08  34637603.428   180367084.576         -61.780          45.000    34637585.843   139471201.581         -47.772          49.000  
C13  34744768.071   180925125.310         182.428          46.000    34744758.910   139902744.343         140.851          47.000  
C16  35718921.957   185997797.848         231.469          48.000    35718910.762   143825252.156         178.880          47.000  
C25  21419744.264   111538223.127       -1705.404          43.000                                                                  
C32  21480600.529   111855121.852        1274.561          47.000                                                                  
C06  35482524.569   184766815.104         410.672          43.000    35482508.198   142873359.579         317.616          46.000  
G25  21617438.573   113600426.129        3134.456          40.000    21617432.504    88519789.451        2442.310          40.000  
G10  20112608.164   105692467.475        1970.139          48.000    20112596.683    82357731.326        1535.127          42.000  
G02  24821356.371                3       1724.441          17.000                                                                  
G28  23139414.148   121598455.111        3065.142          38.000    23139406.354    94751985.945        2388.334          42.000  
C23  21040404.579   109562909.455        1305.620          50.000                                                                  
C09  36986874.461   192600366.613         493.538          41.000    36986862.811   148930766.302         381.684          45.000  
C33  25020121.896   130286324.197       -2670.988          36.000                                                                  
C30  24675240.543   128490436.902       -2106.377          41.000                                                                  
C27  25144952.606   130936365.374       -2769.549          32.000                                                                  
C37  24004945.232   125000047.673        3054.783          42.000                                                                  
> 2025 10 27 02 16 36.5160000  0 22                     
G12  21318268.455   112028298.909        1965.825          45.000    21318257.416    87294725.383        1532.075          40.000  
G15  22027637.194   115755997.978       -3043.234          40.000    22027627.893    90199452.668       -2371.188          38.000  
G18  22141284.297   116353217.978       -3655.912          41.000    22141275.891    90664816.936       -2848.567          42.000  
G23  18686508.844    98198266.268        -873.389          47.000    18686496.711    76518068.981        -680.613          49.000  
G24  19736212.781   103714490.695       -2778.308          40.000    19736201.831    80816433.327       -2164.838          37.000  
G32  21519831.696   113087488.571        1675.811          45.000    21519822.191    88120080.702        1305.805          41.000  
C08  34637603.907   180367087.046         -61.774          45.000    34637586.313   139471203.490         -47.766          49.000  
C13  34744766.662   180925118.020         182.294          46.000    34744757.483   139902738.696         141.040          47.000  
C16  35718920.197   185997788.593         231.410          48.000    35718909.005   143825244.997         178.901          47.000  
C25  21419757.344   111538291.353       -1705.627          43.000                                                                  
C32  21480590.719   111855070.868        1274.543          47.000                                                                  
C06  35482521.416   184766798.664         410.812          43.000    35482505.017   142873346.860         317.820          46.000  
G25  21617414.724   113600300.759        3134.317          40.000    21617408.639    88519691.750        2442.466          40.000  
G10  20112593.177   105692388.670        1970.135          48.000    20112581.670    82357669.920        1535.126          42.000  
G02  24821343.055                3       1724.441          17.000                                                                  
G28  23139390.818   121598332.517        3064.917          38.000    23139383.039    94751890.404        2388.411          42.000  
C23  21040394.545   109562857.237        1305.486          50.000                                                                  
C09  36986870.691   192600346.875         493.487          41.000    36986859.023   148930751.044         381.497          45.000  
C33  25020142.417   130286431.027       -2670.767          36.000                                                                  
C30  24675256.715   128490521.149       -2106.201          41.000                                                                  
C27  25144973.857   130936476.067       -2768.158          32.000                                                                  
C37  24004921.750   124999925.477        3054.803          42.000                                                                  
> 2025 10 27 02 16 36.5560000  0 22                     
G12  21318253.493   112028220.273        1965.857          45.000    21318242.456    87294664.103        1531.984          40.000  
G15  22027660.340   115756119.716       -3043.436          40.000    22027651.058    90199547.523       -2371.328          38.000  
G18  22141312.108   116353364.213       -3655.923          41.000    22141303.730    90664930.884       -2848.666          42.000  
G23  18686515.489    98198301.205        -873.415          47.000    18686503.346    76518096.200        -680.542          49.000  
G24  19736233.937   103714601.845       -2778.625          40.000    19736222.993    80816519.933       -2165.106          37.000  
G32  21519818.936   113087421.533        1675.876          45.000    21519809.401    88120028.453        1306.053          41.000  
C08  34637604.400   180367089.512         -61.694          45.000    34637586.799   139471205.394         -47.662          49.000  
C13  34744765.288   180925110.718         182.422          46.000    34744756.082   139902733.052         141.052          47.000  
C16  35718918.402   185997779.333         231.456          48.000    35718907.257   143825237.831         179.049          47.000  
C25  21419770.458   111538359.576       -1705.681          43.000                                                                  
C32  21480580.942   111855019.880        1274.653          47.000                                                                  
C06  35482518.279   184766782.233         410.728          43.000    35482501.850   142873334.140         317.947          46.000  
G25  21617390.872   113600175.396        3134.136          40.000    21617384.777    88519594.048        2442.539          40.000  
G10  20112578.207   105692309.871        1970.022          48.000    20112566.672    82357608.509        1535.206          43.000  
G02  24821330.095                3       1724.441          17.000                                                                  
G28  23139367.467   121598209.939        3064.504          38.000    23139359.719    94751794.878        2388.223          42.000  
C23  21040384.510   109562805.017        1305.469          50.000                                                                  
C09  36986866.918   192600327.147         493.301          41.000    36986855.242   148930735.777         381.604          46.000  
C33  25020162.940   130286537.875       -2671.055          36.000                                                                  
C30  24675272.896   128490605.404       -2106.305          41.000                                                                  
C27  25144995.121   130936586.804       -2768.162          32.000                                                                  
C37  24004898.286   124999803.282        3054.796          42.000                                                                  
> 2025 10 27 02 16 36.5960000  0 22                     
G12  21318238.525   112028141.623        1966.106          45.000    21318227.498    87294602.839        1531.667          40.000  
G15  22027683.528   115756241.462       -3043.622          40.000    22027674.211    90199642.394       -2371.656          38.000  
G18  22141339.915   116353510.431       -3655.611          41.000    22141331.549    90665044.835       -2848.752          42.000  
G23  18686522.111    98198336.135        -873.314          47.000    18686509.981    76518123.423        -680.581          49.000  
G24  19736255.101   103714713.005       -2778.937          40.000    19736244.150    80816606.550       -2165.387          37.000  
G32  21519806.177   113087354.492        1675.978          45.000    21519796.646    88119976.220        1305.898          41.000  
C08  34637604.861   180367091.985         -61.755          45.000    34637587.303   139471207.307         -47.772          49.000  
C13  34744763.892   180925103.427         182.294          46.000    34744754.696   139902727.407         141.089          47.000  
C16  35718916.626   185997770.071         231.486          48.000    35718905.520   143825230.673         178.997          47.000  
C25  21419783.563   111538427.806       -1705.785          43.000                                                                  
C32  21480571.148   111854968.897        1274.575          47.000                                                                  
C06  35482515.103   184766765.795         410.808          43.000    35482498.693   142873321.426         317.903          46.000  
G25  21617367.018   113600050.035        3134.013          40.000    21617360.925    88519496.368        2442.154          40.000  
G10  20112563.230   105692231.076        1969.899          48.000    20112551.689    82357547.119        1534.874          43.000  
G02  24821316.525                3       1724.441          17.000                                                                  
G28  23139344.124   121598087.338        3064.675          38.000    23139336.389    94751699.348        2388.203          42.000  
C23  21040374.453   109562752.798        1305.432          50.000                                                                  
C09  36986863.128   192600307.405         493.458          41.000    36986851.455   148930720.514         381.604          45.000  
C33  25020183.469   130286644.681       -2670.451          36.000                                                                  
C30  24675289.078   128490689.667       -2106.494          41.000                                                                  
C27  25145016.388   130936697.557       -2768.551          32.000                                                                  
C37  24004874.826   124999681.080        3054.898          42.000                                                                  
> 2025 10 27 02 16 36.6360000  0 22                     
G12  21318223.550   112028062.969        1966.332          45.000    21318212.516    87294541.550        1531.924          40.000  
G15  22027706.679   115756363.172       -3043.048          40.000    22027697.384    90199737.258       -2371.767          38.000  
G18  22141367.738   116353656.663       -3655.739          41.000    22141359.370    90665158.779       -2848.620          42.000  
G23  18686528.748    98198371.081        -873.542          47.000    18686516.668    76518150.651        -680.694          49.000  
G24  19736276.235   103714824.168       -2779.163          40.000    19736265.320    80816693.162       -2165.369          37.000  
G32  21519793.412   113087287.455        1675.912          45.000    21519783.881    88119923.978        1305.988          41.000  
C08  34637605.381   180367094.455         -61.768          45.000    34637587.795   139471209.222         -47.870          49.000  
C13  34744762.516   180925096.138         182.196          46.000    34744753.298   139902721.773         140.906          47.000  
C16  35718914.835   185997760.821         231.311          48.000    35718903.748   143825223.523         178.836          47.000  
C25  21419796.644   111538496.027       -1705.660          43.000                                                                  
C32  21480561.329   111854917.907        1274.703          47.000                                                                  
C06  35482511.969   184766749.348         411.016          43.000    35482495.534   142873308.725         317.626          46.000  
G25  21617343.158   113599924.649        3134.463          40.000    21617337.081    88519398.674        2442.213          40.000  
G10  20112548.259   105692152.278        1969.879          48.000    20112536.694    82357485.716        1534.957          43.000  
G02  24821303.216                3       1724.441          17.000                                                                  
G28  23139320.774   121597964.713        3065.266          38.000    23139313.053    94751603.804        2388.463          42.000  
C23  21040364.432   109562700.583        1305.363          50.000                                                                  
C09  36986859.349   192600287.665         493.475          41.000    36986847.674   148930705.257         381.467          45.000  
C33  25020204.002   130286751.528       -2670.858          36.000                                                                  
C30  24675305.252   128490773.923       -2106.460          41.000                                                                  
C27  25145037.681   130936808.309       -2768.698          32.000                                                                  
C37  24004851.352   124999558.891        3054.744          42.000                                                                  
> 2025 10 27 02 16 36.6760000  0 22                     
G12  21318208.610   112027984.326        1966.186          45.000    21318197.538    87294480.271        1531.924          40.000  
G15  22027729.862   115756484.917       -3043.386          40.000    22027720.568    90199832.108       -2371.466          38.000  
G18  22141395.584   116353802.908       -3656.043          41.000    22141387.197    90665272.718       -2848.527          42.000  
G23  18686535.431    98198406.031        -873.753          47.000    18686523.313    76518177.883        -680.818          49.000  
G24  19736297.360   103714935.305       -2778.766          40.000    19736286.479    80816779.786       -2165.613          37.000  
G32  21519780.656   113087220.423        1675.779          45.000    21519771.112    88119871.744        1305.925          41.000  
C08  34637605.863   180367096.935         -61.969          45.000    34637588.292   139471211.138         -47.943          49.000  
C13  34744761.130   180925088.855         182.062          46.000    34744751.890   139902716.143         140.723          47.000  
C16  35718913.057   185997751.570         231.243          48.000    35718901.972   143825216.372         178.735          47.000  
C25  21419809.757   111538564.255       -1705.724          43.000                                                                  
C32  21480551.531   111854866.927        1274.568          47.000                                                                  
C06  35482508.829   184766732.918         410.823          43.000    35482492.391   142873296.015         317.645          46.000  
G25  21617319.284   113599799.275        3134.466          40.000    21617313.208    88519301.005        2441.773          40.000  
G10  20112533.273   105692073.477        1969.912          48.000    20112521.690    82357424.310        1535.057          43.000  
G02  24821290.155                3       1724.441          17.000                                                                  
G28  23139297.408   121597842.115        3065.115          38.000    23139289.721    94751508.266        2388.448          42.000  
C23  21040354.386   109562648.363        1305.423          50.000                                                                  
C09  36986855.564   192600267.933         493.306          41.000    36986843.891   148930689.999         381.430          45.000  
C33  25020224.518   130286858.374       -2671.094          36.000                                                                  
C30  24675321.444   128490858.190       -2106.694          41.000                                                                  
C27  25145058.926   130936919.068       -2768.838          32.000                                                                  
C37  24004827.885   124999436.708        3054.581          42.000                                                                  
> 2025 10 27 02 16 36.7160000  0 22                     
G12  21318193.640   112027905.695        1965.855          45.000    21318182.574    87294418.985        1532.103          40.000  
G15  22027753.029   115756606.668       -3043.658          40.000    22027743.722    90199926.973       -2371.591          38.000  
G18  22141423.414   116353949.119       -3655.549          41.000    22141414.999    90665386.668       -2848.659          42.000  
G23  18686542.080    98198440.974        -873.712          47.000    18686529.966    76518205.113        -680.815          49.000  
G24  19736318.510   103715046.448       -2778.638          40.000    19736307.634    80816866.388       -2165.314          37.000  
G32  21519767.908   113087153.392        1675.705          45.000    21519758.367    88119819.525        1305.616          41.000  
C08  34637606.352   180367099.404         -61.829          45.000    34637588.770   139471213.047         -47.839          49.000  
C13  34744759.737   180925081.563         182.172          46.000    34744750.507   139902710.505         140.802          47.000  
C16  35718911.258   185997742.315         231.293          48.000    35718900.187   143825209.212         178.887          47.000  
C25  21419822.857   111538632.476       -1705.576          43.000                                                                  
C32  21480541.728   111854815.949        1274.475          47.000                                                                  
C06  35482505.663   184766716.476         410.915          43.000    35482489.239   142873283.313         317.510          46.000  
G25  21617295.457   113599673.915        3134.194          40.000    21617289.348    88519203.315        2442.000          40.000  
G10  20112518.255   105691994.674        1970.007          48.000    20112506.689    82357362.905        1535.144          43.000  
G02  24821277.341                3       1724.441          17.000                                                                  
G28  23139274.083   121597719.515        3065.033          38.000    23139266.409    94751412.737        2388.338          42.000  
C23  21040344.352   109562596.146        1305.411          50.000                                                                  
C09  36986851.765   192600248.187         493.538          41.000    36986840.081   148930674.733         381.542          45.000  
C33  25020245.017   130286965.212       -2670.984          36.000                                                                  
C30  24675337.652   128490942.459       -2106.745          41.000                                                                  
C27  25145080.168   130937029.788       -2768.158          32.000                                                                  
C37  24004804.436   124999314.508        3054.837          42.000                                                                  
> 2025 10 27 02 16 36.7560000  0 22                     
G12  21318178.683   112027827.065        1965.669          45.000    21318167.613    87294357.717        1531.821          40.000  
G15  22027776.157   115756728.375       -3042.997          40.000    22027766.897    90200021.833       -2371.528          38.000  
G18  22141451.228   116354095.368       -3656.006          41.000    22141442.833    90665500.625       -2848.845          42.000  
G23  18686548.718    98198475.912        -873.573          47.000    18686536.604    76518232.338        -680.720          49.000  
G24  19736339.678   103715157.601       -2778.741          40.000    19736328.776    80816952.986       -2165.009          37.000  
G32  21519755.157   113087086.350        1675.904          45.000    21519745.621    88119767.299        1305.556          41.000  
C08  34637606.836   180367101.875         -61.786          45.000    34637589.264   139471214.957         -47.791          50.000  
C13  34744758.373   180925074.264         182.373          46.000    34744749.099   139902704.864         140.924          47.000  
C16  35718909.481   185997733.059         231.333          48.000    35718898.408   143825202.052         178.957          47.000  
C25  21419835.955   111538700.694       -1705.490          43.000                                                                  
C32  21480531.969   111854764.966        1274.509          47.000                                                                  
C06  35482502.502   184766700.044         410.811          43.000    35482486.050   142873270.602         317.661          46.000  
G25  21617271.596   113599548.542        3134.291          40.000    21617265.486    88519105.617        2442.251          40.000  
G10  20112503.252   105691915.875        1969.963          48.000    20112491.686    82357301.500        1535.127          43.000  
G02  24821264.118                3       1724.441          17.000                                                                  
G28  23139250.788   121597596.928        3064.786          38.000    23139243.075    94751317.212        2388.224          42.000  
C23  21040334.308   109562543.928        1305.430          50.000                                                                  
C09  36986847.979   192600228.450         493.469          41.000    36986836.298   148930659.474         381.461          45.000  
C33  25020265.504   130287072.035       -2670.699          36.000                                                                  
C30  24675353.832   128491026.711       -2106.434          41.000                                                                  
C27  25145101.430   130937140.543       -2768.486          32.000                                                                  
C37  24004780.991   124999192.307        3055.002          42.000                                                                  
> 2025 10 27 02 16 36.7960000  0 22                     
G12  21318163.702   112027748.429        1965.732          45.000    21318152.645    87294296.446        1531.676          40.000  
G15  22027799.331   115756850.122       -3043.367          40.000    22027790.078    90200116.692       -2371.510          38.000  
G18  22141479.053   116354241.583       -3655.599          41.000    22141470.651    90665614.575       -2848.837          42.000  
G23  18686555.369    98198510.856        -873.604          47.000    18686543.275    76518259.572        -680.846          49.000  
G24  19736360.813   103715268.747       -2778.687          40.000    19736349.931    80817039.586       -2164.960          37.000  
G32  21519742.393   113087019.317        1675.826          45.000    21519732.872    88119715.050        1306.030          41.000  
C08  34637607.306   180367104.349         -61.853          45.000    34637589.730   139471216.865         -47.717          50.000  
C13  34744756.942   180925066.970         182.379          46.000    34744747.690   139902699.224         141.016          47.000  
C16  35718907.731   185997723.807         231.272          48.000    35718896.632   143825194.900         178.839          47.000  
C25  21419849.046   111538768.921       -1705.587          43.000                                                                  
C32  21480522.182   111854713.984        1274.509          47.000                                                                  
C06  35482499.371   184766683.600         410.990          43.000    35482482.874   142873257.892         317.712          46.000  
G25  21617247.706   113599423.171        3134.309          40.000    21617241.641    88519007.913        2442.565          40.000  
G10  20112488.262   105691837.086        1969.759          48.000    20112476.697    82357240.109        1534.895          43.000  
G02  24821251.340                3       1724.441          17.000                                                                  
G28  23139227.446   121597474.313        3065.142          38.000    23139219.761    94751221.693        2388.001          42.000  
C23  21040324.225   109562491.717        1305.308          50.000                                                                  
C09  36986844.203   192600208.714         493.432          41.000    36986832.513   148930644.216         381.450          46.000  
C33  25020286.020   130287178.870       -2670.788          36.000                                                                  
C30  24675370.001   128491110.968       -2106.393          41.000                                                                  
C27  25145122.693   130937251.292       -2768.693          32.000                                                                  
C37  24004757.535   124999070.127        3054.651          42.000                                                                  
> 2025 10 27 02 16 36.8360000  0 22                     
G12  21318148.740   112027669.796        1965.754          45.000    21318137.683    87294235.177        1531.643          40.000  
G15  22027822.513   115756971.852       -3043.305          40.000    22027813.247    90200211.534       -2371.199          38.000  
G18  22141506.870   116354387.826       -3655.912          41.000    22141498.483    90665728.525       -2848.774          42.000  
G23  18686562.036    98198545.805        -873.698          47.000    18686549.900    76518286.803        -680.839          49.000  
G24  19736381.966   103715379.892       -2778.644          40.000    19736371.103    80817126.214       -2165.509          37.000  
G32  21519729.648   113086952.284        1675.789          45.000    21519720.121    88119662.811        1306.069          41.000  
C08  34637607.758   180367106.832         -62.042          45.000    34637590.181   139471218.777         -47.772          50.000  
C13  34744755.512   180925059.679         182.312          46.000    34744746.287   139902693.590         140.881          47.000  
C16  35718905.955   185997714.555         231.242          48.000    35718894.849   143825187.740         178.937          47.000  
C25  21419862.152   111538837.161       -1705.876          43.000                                                                  
C32  21480512.395   111854663.003        1274.502          47.000                                                                  
C06  35482496.216   184766667.175         410.768          43.000    35482479.692   142873245.185         317.685          46.000  
G25  21617223.842   113599297.810        3134.100          40.000    21617217.778    88518910.224        2442.364          40.000  
G10  20112473.248   105691758.289        1969.800          48.000    20112461.682    82357178.711        1534.882          43.000  
G02  24821238.165                3       1724.441          17.000                                                                  
G28  23139204.121   121597351.718        3065.042          38.000    23139196.450    94751126.159        2388.130          42.000  
C23  21040314.141   109562439.508        1305.208          50.000                                                                  
C09  36986840.390   192600188.991         493.139          41.000    36986828.719   148930628.957         381.463          45.000  
C33  25020306.529   130287285.732       -2671.394          36.000                                                                  
C30  24675386.202   128491195.222       -2106.332          41.000                                                                  
C27  25145143.971   130937362.060       -2769.116          32.000                                                                  
C37  24004734.073   124998947.933        3054.751          42.000                                                                  
> 2025 10 27 02 16 36.8760000  0 22                     
G12  21318133.763   112027591.156        1965.901          45.000    21318122.715    87294173.892        1531.943          40.000  
G15  22027845.665   115757093.595       -3043.530          40.000    22027836.421    90200306.402       -2371.500          38.000  
G18  22141534.711   116354534.071       -3656.123          41.000    22141526.294    90665842.466       -2848.631          42.000  
G23  18686568.687    98198580.752        -873.736          47.000    18686556.552    76518314.038        -680.888          49.000  
G24  19736403.118   103715491.033       -2778.589          40.000    19736392.260    80817212.824       -2165.399          37.000  
G32  21519716.899   113086885.246        1675.865          45.000    21519707.369    88119610.577        1305.964          41.000  
C08  34637608.228   180367109.303         -61.908          45.000    34637590.652   139471220.693         -47.870          50.000  
C13  34744754.135   180925052.394         182.166          46.000    34744744.900   139902687.951         140.918          47.000  
C16  35718904.173   185997705.303         231.264          48.000    35718893.052   143825180.585         178.869          47.000  
C25  21419875.251   111538905.390       -1705.861          43.000                                                                  
C32  21480502.555   111854612.019        1274.580          46.000                                                                  
C06  35482493.061   184766650.746         410.755          43.000    35482476.559   142873232.477         317.651          46.000  
G25  21617199.977   113599172.443        3134.147          40.000    21617193.938    88518812.541        2442.131          40.000  
G10  20112458.240   105691679.497        1969.742          48.000    20112446.682    82357117.310        1534.923          43.000  
G02  24821225.129                3       1724.441          17.000                                                                  
G28  23139180.810   121597229.127        3064.869          38.000    23139173.111    94751030.629        2388.124          42.000  
C23  21040304.141   109562387.298        1305.193          50.000                                                                  
C09  36986836.620   192600169.264         493.073          41.000    36986824.924   148930613.699         381.463          45.000  
C33  25020327.068   130287392.573       -2671.290          36.000                                                                  
C30  24675402.372   128491279.490       -2106.553          41.000                                                                  
C27  25145165.212   130937472.784       -2768.483          32.000                                                                  
C37  24004710.603   124998825.739        3054.811          42.000                                                                  
> 2025 10 27 02 16 36.9160000  0 22                     
G12  21318118.795   112027512.507        1966.121          45.000    21318107.758    87294112.627        1531.759          40.000  
G15  22027868.836   115757215.330       -3043.440          40.000    22027859.583    90200401.261       -2371.492          38.000  
G18  22141562.530   116354680.309       -3656.102          41.000    22141554.116    90665956.408       -2848.558          42.000  
G23  18686575.306    98198615.697        -873.697          47.000    18686563.217    76518341.264        -680.729          49.000  
G24  19736424.273   103715602.179       -2778.619          40.000    19736413.416    80817299.423       -2165.100          37.000  
G32  21519704.136   113086818.211        1675.839          45.000    21519694.610    88119558.332        1306.011          41.000  
C08  34637608.712   180367111.770         -61.713          45.000    34637591.128   139471222.603         -47.803          50.000  
C13  34744752.752   180925045.101         182.263          46.000    34744743.499   139902682.316         140.881          47.000  
C16  35718902.436   185997696.044         231.401          48.000    35718891.278   143825173.425         178.935          47.000  
C25  21419888.332   111538973.608       -1705.586          43.000                                                                  
C32  21480492.774   111854561.036        1274.611          47.000                                                                  
C06  35482489.918   184766634.292         411.153          43.000    35482473.414   142873219.767         317.732          46.000  
G25  21617176.113   113599047.070        3134.287          40.000    21617170.088    88518714.862        2441.912          40.000  
G10  20112443.199   105691600.702        1969.799          48.000    20112431.699    82357055.918        1534.797          43.000  
G02  24821212.596                3       1724.441          17.000                                                                  
G28  23139157.470   121597106.530        3064.879          38.000    23139149.765    94750935.092        2388.325          42.000  
C23  21040294.134   109562335.083        1305.304          50.000                                                                  
C09  36986832.824   192600149.528         493.268          41.000    36986821.152   148930598.433         381.606          45.000  
C33  25020347.591   130287499.381       -2670.547          36.000                                                                  
C30  24675418.553   128491363.753       -2106.648          41.000                                                                  
C27  25145186.461   130937583.517       -2768.203          32.000                                                                  
C37  24004687.122   124998703.544        3054.826          42.000                                                                  
> 2025 10 27 02 16 36.9560000  0 22                     
G12  21318103.837   112027433.870        1965.983          45.000    21318092.797    87294051.344        1531.995          40.000  
G15  22027892.000   115757337.044       -3043.004          40.000    22027882.742    90200496.121       -2371.466          38.000  
G18  22141590.353   116354826.526       -3655.684          41.000    22141581.963    90666070.344       -2848.409          42.000  
G23  18686581.949    98198650.639        -873.628          47.000    18686569.874    76518368.491        -680.693          49.000  
G24  19736445.435   103715713.349       -2779.126          40.000    19736434.550    80817386.043       -2165.375          37.000  
G32  21519691.378   113086751.180        1675.762          45.000    21519681.848    88119506.106        1305.692          41.000  
C08  34637609.207   180367114.230         -61.505          45.000    34637591.610   139471224.513         -47.760          50.000  
C13  34744751.382   180925037.807         182.336          46.000    34744742.096   139902676.670         141.089          47.000  
C16  35718900.691   185997686.786         231.456          48.000    35718889.532   143825166.265         178.960          47.000  
C25  21419901.430   111539041.830       -1705.552          43.000                                                                  
C32  21480482.976   111854510.050        1274.655          47.000                                                                  
C06  35482486.739   184766617.849         411.191          43.000    35482470.260   142873207.053         317.836          46.000  
G25  21617152.265   113598921.690        3134.479          40.000    21617146.236    88518617.159        2442.281          40.000  
G10  20112428.204   105691521.896        1970.024          48.000    20112416.707    82356994.528        1534.690          43.000  
G02  24821199.512                3       1724.441          17.000                                                                  
G28  23139134.121   121596983.921        3065.061          38.000    23139126.437    94750839.555        2388.427          42.000  
C23  21040284.127   109562282.863        1305.437          50.000                                                                  
C09  36986829.005   192600129.788         493.397          41.000    36986817.350   148930583.167         381.642          46.000  
C33  25020368.080   130287606.209       -2670.634          36.000                                                                  
C30  24675434.746   128491448.022       -2106.752          41.000                                                                  
C27  25145207.729   130937694.239       -2767.971          32.000                                                                  
C37  24004663.684   124998581.351        3054.813          42.000                                                                  
> 2025 10 27 02 16 36.9960000  0 22                     
G12  21318088.879   112027355.221        1966.108          45.000    21318077.853    87293990.055        1532.253          40.000  
G15  22027915.169   115757458.785       -3043.331          40.000    22027905.891    90200590.971       -2371.318          38.000  
G18  22141618.168   116354972.754       -3655.649          41.000    22141609.778    90666184.294       -2848.610          42.000  
G23  18686588.595    98198685.582        -873.597          47.000    18686576.538    76518395.721        -680.738          49.000  
G24  19736466.575   103715824.486       -2778.680          40.000    19736455.695    80817472.648       -2165.155          37.000  
G32  21519678.603   113086684.134        1676.012          45.000    21519669.087    88119453.881        1305.537          41.000  
C08  34637609.674   180367116.696         -61.578          45.000    34637592.078   139471226.422         -47.736          50.000  
C13  34744750.009   180925030.508         182.471          46.000    34744740.690   139902671.028         141.095          47.000  
C16  35718898.910   185997677.523         231.536          48.000    35718887.740   143825159.109         178.921          47.000  
C25  21419914.534   111539110.049       -1705.477          43.000                                                                  
C32  21480473.175   111854459.068        1274.596          46.000                                                                  
C06  35482483.566   184766601.415         410.994          43.000    35482467.106   142873194.336         317.930          46.000  
G25  21617128.418   113598796.334        3134.054          40.000    21617122.359    88518519.460        2442.384          40.000  
G10  20112413.188   105691443.093        1970.084          48.000    20112401.706    82356933.118        1535.033          43.000  
G02  24821186.133                3       1724.441          17.000                                                                  
G28  23139110.778   121596861.324        3064.951          38.000    23139103.115    94750744.017        2388.495          42.000  
C23  21040274.129   109562230.645        1305.466          50.000                                                                  
C09  36986825.218   192600110.042         493.576          41.000    36986813.550   148930567.903         381.622          46.000  
C33  25020388.622   130287713.038       -2670.627          36.000                                                                  
C30  24675450.921   128491532.281       -2106.592          41.000                                                                  
C27  25145228.996   130937805.006       -2768.689          32.000                                                                  
C37  24004640.222   124998459.152        3054.922          42.000                                                                  
> 2025 10 27 02 16 37.0360000  0 22                     
G12  21318073.939   112027276.588        1965.910          45.000    21318062.878    87293928.764        1532.361          40.000  
G15  22027938.334   115757580.505       -3043.069          40.000    22027929.060    90200685.821       -2371.168          38.000  
G18  22141645.984   116355118.969       -3655.402          41.000    22141637.599    90666298.235       -2848.585          42.000  
G23  18686595.247    98198720.526        -873.616          47.000    18686583.185    76518422.949        -680.714          49.000  
G24  19736487.698   103715935.624       -2778.479          40.000    19736476.836    80817559.256       -2165.149          37.000  
G32  21519665.840   113086617.097        1675.970          45.000    21519656.331    88119401.641        1305.758          41.000  
C08  34637610.132   180367119.169         -61.749          45.000    34637592.547   139471228.330         -47.699          50.000  
C13  34744748.605   180925023.215         182.373          46.000    34744739.287   139902665.385         141.083          47.000  
C16  35718897.122   185997668.263         231.532          48.000    35718885.990   143825151.946         179.025          47.000  
C25  21419927.618   111539178.289       -1705.828          43.000                                                                  
C32  21480463.355   111854408.079        1274.665          46.000                                                                  
C06  35482480.424   184766584.976         410.941          43.000    35482463.920   142873181.621         317.918          46.000  
G25  21617104.600   113598670.967        3134.057          40.000    21617098.514    88518421.771        2442.276          40.000  
G10  20112398.226   105691364.296        1969.987          48.000    20112386.715    82356871.700        1535.348          43.000  
G02  24821172.525                3       1724.441          16.000                                                                  
G28  23139087.439   121596738.708        3065.221          38.000    23139079.790    94750648.486        2388.385          42.000  
C23  21040264.103   109562178.423        1305.534          50.000                                                                  
C09  36986821.428   192600090.296         493.687          41.000    36986809.744   148930552.647         381.454          46.000  
C33  25020409.125   130287819.882       -2670.972          36.000                                                                  
C30  24675467.100   128491616.523       -2106.217          41.000                                                                  
C27  25145250.277   130937915.755       -2768.762          32.000                                                                  
C37  24004616.758   124998336.952        3054.996          42.000                                                                  
> 2025 10 27 02 16 37.0760000  0 22                     
G12  21318058.966   112027197.957        1965.793          45.000    21318047.933    87293867.497        1531.958          40.000  
G15  22027961.490   115757702.221       -3042.960          40.000    22027952.213    90200780.659       -2370.921          38.000  
G18  22141673.810   116355265.192       -3655.442          41.000    22141665.425    90666412.179       -2848.585          42.000  
G23  18686601.895    98198755.474        -873.691          47.000    18686589.828    76518450.176        -680.696          49.000  
G24  19736508.833   103716046.782       -2778.796          40.000    19736497.989    80817645.862       -2165.173          37.000  
G32  21519653.087   113086550.053        1676.039          45.000    21519643.579    88119349.396        1305.972          41.000  
C08  34637610.579   180367121.641         -61.804          45.000    34637593.013   139471230.232         -47.595          50.000  
C13  34744747.209   180925015.911         182.538          46.000    34744737.860   139902659.742         141.071          47.000  
C16  35718895.323   185997659.004         231.490          48.000    35718884.242   143825144.783         179.075          47.000  
C25  21419940.713   111539246.517       -1705.785          43.000                                                                  
C32  21480453.584   111854357.088        1274.739          46.000                                                                  
C06  35482477.254   184766568.538         410.901          43.000    35482460.752   142873168.905         317.922          46.000  
G25  21617080.748   113598545.595        3134.120          40.000    21617074.642    88518324.079        2442.219          40.000  
G10  20112383.216   105691285.489        1970.095          48.000    20112371.712    82356810.292        1535.315          43.000  
G02  24821159.274                3       1724.441          16.000                                                                  
G28  23139064.094   121596616.099        3065.261          38.000    23139056.447    94750552.954        2388.274          42.000  
C23  21040254.063   109562126.209        1305.408          50.000                                                                  
C09  36986817.629   192600070.549         493.709          41.000    36986805.946   148930537.384         381.505          46.000  
C33  25020429.630   130287926.718       -2671.001          36.000                                                                  
C30  24675483.323   128491700.785       -2106.403          41.000                                                                  
C27  25145271.517   130938026.471       -2768.239          32.000                                                                  
C37  24004593.289   124998214.742        3055.205          42.000                                                                  
> 2025 10 27 02 16 37.1160000  0 22                     
G12  21318043.991   112027119.316        1965.890          45.000    21318032.973    87293806.218        1531.927          40.000  
G15  22027984.653   115757823.971       -3043.503          40.000    22027975.382    90200875.510       -2371.099          38.000  
G18  22141701.656   116355411.431       -3655.797          41.000    22141693.242    90666526.127       -2848.678          42.000  
G23  18686608.549    98198790.420        -873.710          47.000    18686596.490    76518477.406        -680.727          49.000  
G24  19736529.980   103716157.933       -2778.851          40.000    19736519.147    80817732.478       -2165.375          37.000  
G32  21519640.344   113086483.007        1676.139          45.000    21519630.825    88119297.142        1306.288          41.000  
C08  34637611.021   180367124.113         -61.835          45.000    34637593.491   139471232.148         -47.803          50.000  
C13  34744745.798   180925008.620         182.397          46.000    34744736.440   139902654.100         141.064          47.000  
C16  35718893.517   185997649.754         231.304          48.000    35718882.465   143825137.624         179.014          47.000  
C25  21419953.810   111539314.741       -1705.663          43.000                                                                  
C32  21480443.772   111854306.105        1274.617          46.000                                                                  
C06  35482474.072   184766552.096         410.950          43.000    35482457.604   142873156.198         317.777          46.000  
G25  21617056.892   113598420.211        3134.429          40.000    21617050.779    88518226.388        2442.214          40.000  
G10  20112368.236   105691206.697        1969.874          48.000    20112356.739    82356748.901        1534.966          43.000  
G02  24821145.920                3       1724.441          16.000                                                                  
G28  23139040.794   121596493.519        3064.729          38.000    23139033.144    94750457.419        2388.255          42.000  
C23  21040244.032   109562074.000        1305.230          50.000                                                                  
C09  36986813.812   192600050.819         493.359          41.000    36986802.146   148930522.116         381.624          46.000  
C33  25020450.145   130288033.544       -2670.769          36.000                                                                  
C30  24675499.515   128491785.036       -2106.329          41.000                                                                  
C27  25145292.835   130938137.209       -2768.436          32.000                                                                  
C37  24004569.818   124998092.556        3054.834          42.000                                                                  
> 2025 10 27 02 16 37.1560000  0 22                     
G12  21318029.022   112027040.674        1966.012          45.000    21318018.020    87293744.952        1531.689          40.000  
G15  22028007.800   115757945.700       -3043.431          40.000    22027998.545    90200970.379       -2371.579          38.000  
G18  22141729.484   116355557.663       -3655.839          41.000    22141721.055    90666640.069       -2848.615          42.000  
G23  18686615.213    98198825.371        -873.778          47.000    18686603.169    76518504.642        -680.871          49.000  
G24  19736551.136   103716269.087       -2778.882          40.000    19736540.301    80817819.103       -2165.705          37.000  
G32  21519627.589   113086415.961        1676.143          45.000    21519618.072    88119244.892        1306.365          41.000  
C08  34637611.489   180367126.581         -61.786          45.000    34637593.934   139471234.056         -47.772          50.000  
C13  34744744.412   180925001.329         182.269          46.000    34744735.011   139902648.458         141.052          47.000  
C16  35718891.749   185997640.494         231.385          48.000    35718880.686   143825130.464         179.001          47.000  
C25  21419966.915   111539382.969       -1705.730          43.000                                                                  
C32  21480433.989   111854255.125        1274.523          47.000                                                                  
C06  35482470.928   184766535.658         410.973          43.000    35482454.452   142873143.490         317.674          46.000  
G25  21617033.035   113598294.824        3134.684          40.000    21617026.934    88518128.699        2442.229          40.000  
G10  20112353.250   105691127.897        1969.899          48.000    20112341.747    82356687.499        1534.974          43.000  
G02  24821132.661                3       1724.441          16.000                                                                  
G28  23139017.456   121596370.912        3064.926          38.000    23139009.814    94750361.889        2388.177          42.000  
C23  21040234.026   109562021.790        1305.156          50.000                                                                  
C09  36986810.022   192600031.071         493.504          41.000    36986798.367   148930506.854         381.585          46.000  
C33  25020470.653   130288140.375       -2670.783          36.000                                                                  
C30  24675515.715   128491869.287       -2106.312          41.000                                                                  
C27  25145314.121   130938247.975       -2769.033          32.000                                                                  
C37  24004546.358   124997970.368        3054.690          42.000                                                                  
> 2025 10 27 02 16 37.1960000  0 22                     
G12  21318014.041   112026962.024        1966.200          45.000    21318003.048    87293683.681        1531.667          40.000  
G15  22028030.982   115758067.424       -3043.174          40.000    22028021.737    90201065.232       -2371.457          38.000  
G18  22141757.330   116355703.892       -3655.763          41.000    22141748.882    90666754.008       -2848.535          42.000  
G23  18686621.863    98198860.317        -873.726          47.000    18686609.801    76518531.872        -680.806          49.000  
G24  19736572.290   103716380.233       -2778.741          40.000    19736561.447    80817905.699       -2165.222          37.000  
G32  21519614.848   113086348.925        1676.003          45.000    21519605.333    88119192.671        1305.795          41.000  
C08  34637611.963   180367129.046         -61.658          45.000    34637594.382   139471235.961         -47.668          50.000  
C13  34744742.976   180924994.035         182.275          46.000    34744733.618   139902642.820         140.961          47.000  
C16  35718889.982   185997631.235         231.431          48.000    35718878.888   143825123.310         178.865          47.000  
C25  21419980.020   111539451.190       -1705.601          43.000                                                                  
C32  21480424.198   111854204.132        1274.696          47.000                                                                  
C06  35482467.772   184766519.217         411.040          43.000    35482451.293   142873130.775         317.790          46.000  
G25  21617009.168   113598169.445        3134.637          40.000    21617003.069    88518031.011        2442.243          40.000  
G10  20112338.247   105691049.100        1969.895          48.000    20112326.768    82356626.094        1535.040          43.000  
G02  24821119.190                3       1724.441          16.000                                                                  
G28  23138994.119   121596248.300        3065.181          38.000    23138986.466    94750266.352        2388.308          42.000  
C23  21040224.045   109561969.575        1305.257          50.000                                                                  
C09  36986806.229   192600011.337         493.355          41.000    36986794.599   148930491.589         381.623          46.000  
C33  25020491.149   130288247.198       -2670.552          36.000                                                                  
C30  24675531.906   128491953.547       -2106.476          41.000                                                                  
C27  25145335.376   130938358.690       -2768.496          32.000                                                                  
C37  24004522.898   124997848.166        3054.896          42.000                                                                  
> 2025 10 27 02 16 37.2360000  0 22                     
G12  21317999.070   112026883.388        1965.993          45.000    21317988.081    87293622.398        1531.925          40.000  
G15  22028054.141   115758189.157       -3043.288          39.000    22028044.892    90201160.082       -2371.369          38.000  
G18  22141785.145   116355850.117       -3655.688          41.000    22141776.701    90666867.952       -2848.591          42.000  
G23  18686628.501    98198895.257        -873.582          47.000    18686616.460    76518559.104        -680.825          49.000  
G24  19736593.416   103716491.373       -2778.607          40.000    19736582.585    80817992.312       -2165.295          37.000  
G32  21519602.091   113086281.881        1676.022          45.000    21519592.591    88119140.435        1305.729          41.000  
C08  34637612.419   180367131.507         -61.560          45.000    34637594.831   139471237.866         -47.650          50.000  
C13  34744741.559   180924986.734         182.452          46.000    34744732.230   139902637.178         140.997          47.000  
C16  35718888.207   185997621.969         231.573          48.000    35718877.088   143825116.152         178.867          47.000  
C25  21419993.082   111539519.417       -1705.648          43.000                                                                  
C32  21480414.427   111854153.144        1274.695          47.000                                                                  
C06  35482464.613   184766502.772         411.142          43.000    35482448.117   142873118.066         317.723          46.000  
G25  21616985.325   113598044.078        3134.281          40.000    21616979.196    88517933.302        2442.594          40.000  
G10  20112323.225   105690970.295        1970.028          48.000    20112311.769    82356564.694        1534.968          43.000  
G02  24821105.757                3       1724.441          16.000                                                                  
G28  23138970.796   121596125.683        3065.426          38.000    23138963.126    94750170.807        2388.534          42.000  
C23  21040214.042   109561917.353        1305.437          50.000                                                                  
C09  36986802.435   192599991.599         493.368          41.000    36986790.816   148930476.322         381.647          46.000  
C33  25020511.675   130288354.034       -2670.708          36.000                                                                  
C30  24675548.068   128492037.808       -2106.601          41.000                                                                  
C27  25145356.638   130938469.419       -2768.245          32.000                                                                  
C37  24004499.452   124997725.969        3054.906          42.000                                                                  
> 2025 10 27 02 16 37.2760000  0 22                     
G12  21317984.112   112026804.760        1965.773          45.000    21317973.099    87293561.123        1531.904          40.000  
G15  22028077.304   115758310.876       -3043.070          40.000    22028068.054    90201254.947       -2371.537          38.000  
G18  22141812.949   116355996.348       -3655.745          41.000    22141804.527    90666981.902       -2848.748          42.000  
G23  18686635.175    98198930.203        -873.622          47.000    18686623.116    76518586.338        -680.856          49.000  
G24  19736614.577   103716602.524       -2778.741          40.000    19736603.719    80818078.917       -2165.210          37.000  
G32  21519589.336   113086214.851        1675.768          45.000    21519579.823    88119088.198        1305.784          41.000  
C08  34637612.879   180367133.978         -61.707          45.000    34637595.278   139471239.774         -47.687          50.000  
C13  34744740.137   180924979.441         182.379          46.000    34744730.829   139902631.534         141.064          47.000  
C16  35718886.433   185997612.705         231.602          48.000    35718875.302   143825108.992         178.921          47.000  
C25  21420006.191   111539587.655       -1705.843          43.000                                                                  
C32  21480404.654   111854102.157        1274.662          47.000                                                                  
C06  35482461.442   184766486.332         411.037          43.000    35482444.936   142873105.355         317.724          46.000  
G25  21616961.482   113597918.712        3134.172          40.000    21616955.336    88517835.615        2442.376          40.000  
G10  20112308.236   105690891.499        1969.939          48.000    20112296.781    82356503.290        1535.001          43.000  
G02  24821092.086                3       1724.441          16.000                                                                  
G28  23138947.442   121596003.098        3064.962          38.000    23138939.782    94750075.286        2388.252          42.000  
C23  21040204.014   109561865.138        1305.408          50.000                                                                  
C09  36986798.637   192599971.865         493.300          41.000    36986787.010   148930461.057         381.621          46.000  
C33  25020532.162   130288460.868       -2670.714          36.000                                                                  
C30  24675564.228   128492122.076       -2106.723          41.000                                                                  
C27  25145377.941   130938580.136       -2767.987          32.000                                                                  
C37  24004475.991   124997603.764        3055.026          42.000                                                                  
> 2025 10 27 02 16 37.3160000  0 22                     
G12  21317969.137   112026726.136        1965.607          45.000    21317958.129    87293499.853        1531.796          40.000  
G15  22028100.459   115758432.623       -3043.507          39.000    22028091.214    90201349.809       -2371.522          38.000  
G18  22141840.770   116356142.571       -3655.671          41.000    22141832.370    90667095.845       -2848.677          42.000  
G23  18686641.806    98198965.163        -873.918          47.000    18686629.782    76518613.572        -680.875          49.000  
G24  19736635.725   103716713.673       -2778.802          40.000    19736624.865    80818165.535       -2165.417          37.000  
G32  21519576.577   113086147.813        1675.869          45.000    21519567.065    88119035.961        1305.870          41.000  
C08  34637613.345   180367136.453         -61.853          45.000    34637595.728   139471241.686         -47.797          50.000  
C13  34744738.706   180924972.144         182.385          46.000    34744729.437   139902625.897         140.967          47.000  
C16  35718884.645   185997603.458         231.301          48.000    35718873.520   143825101.834         178.927          47.000  
C25  21420019.311   111539655.892       -1705.994          43.000                                                                  
C32  21480394.814   111854051.177        1274.523          47.000                                                                  
C06  35482458.301   184766469.897         410.887          43.000    35482441.800   142873092.636         317.855          46.000  
G25  21616937.606   113597793.343        3134.130          40.000    21616931.469    88517737.915        2442.393          40.000  
G10  20112293.238   105690812.707        1969.789          48.000    20112281.795    82356441.901        1534.793          43.000  
G02  24821079.350                3       1724.441          16.000                                                                  
G28  23138924.117   121595880.498        3064.912          38.000    23138916.481    94749979.748        2388.309          42.000  
C23  21040193.973   109561812.937        1305.132          50.000                                                                  
C09  36986794.872   192599952.133         493.271          41.000    36986783.217   148930445.795         381.540          45.000  
C33  25020552.681   130288567.706       -2670.902          36.000                                                                  
C30  24675580.420   128492206.342       -2106.784          41.000                                                                  
C27  25145399.226   130938690.883       -2768.552          32.000                                                                  
C37  24004452.513   124997481.575        3054.845          42.000                                                                  
> 2025 10 27 02 16 37.3560000  0 22                     
G12  21317954.166   112026647.504        1965.713          45.000    21317943.167    87293438.588        1531.623          40.000  
G15  22028123.627   115758554.359       -3043.492          39.000    22028114.384    90201444.663       -2371.398          38.000  
G18  22141868.579   116356288.801       -3655.771          41.000    22141860.218    90667209.807       -2848.982          42.000  
G23  18686648.446    98199000.125        -874.090          47.000    18686636.435    76518640.812        -680.994          49.000  
G24  19736656.884   103716824.838       -2779.108          40.000    19736646.006    80818252.157       -2165.546          37.000  
G32  21519563.793   113086080.774        1675.961          45.000    21519554.308    88118983.718        1306.049          41.000  
C08  34637613.815   180367138.922         -61.804          45.000    34637596.181   139471243.605         -47.968          50.000  
C13  34744737.282   180924964.851         182.312          46.000    34744728.046   139902620.255         140.973          47.000  
C16  35718882.866   185997594.208         231.196          48.000    35718871.750   143825094.681         178.817          47.000  
C25  21420032.422   111539724.128       -1705.997          43.000                                                                  
C32  21480385.023   111854000.195        1274.501          47.000                                                                  
C06  35482455.171   184766453.466         410.762          43.000    35482438.667   142873079.930         317.694          46.000  
G25  21616913.759   113597667.976        3134.191          40.000    21616907.642    88517640.241        2441.946          40.000  
G10  20112278.251   105690733.917        1969.737          48.000    20112266.804    82356380.506        1534.823          43.000  
G02  24821066.163                3       1724.441          16.000                                                                  
G28  23138900.774   121595757.890        3065.090          38.000    23138893.144    94749884.220        2388.212          42.000  
C23  21040183.927   109561760.730        1305.091          50.000                                                                  
C09  36986791.088   192599932.391         493.395          41.000    36986779.395   148930430.534         381.459          45.000  
C33  25020573.199   130288674.515       -2670.510          36.000                                                                  
C30  24675596.614   128492290.604       -2106.674          41.000                                                                  
C27  25145420.528   130938801.596       -2768.043          32.000                                                                  
C37  24004429.080   124997359.380        3054.835          42.000                                                                  
