     3.04           OBSERVATION DATA    M: Mixed            RINEX VERSION / TYPE
RTKCONV 2.4.3 b34                       20251027 032157 UTC PGM / RUN BY / DATE 
format: u-blox UBX                                          COMMENT             
log: D:\GPdata\10_27\metal_110_10_27_1.ubx                  COMMENT             
                                                            MARKER NAME         
                                                            MARKER NUMBER       
                                                            MARKER TYPE         
                                                            OBSERVER / AGENCY   
                                                            REC # / TYPE / VERS 
                                                            ANT # / TYPE        
        0.0000        0.0000        0.0000                  APPROX POSITION XYZ 
        0.0000        0.0000        0.0000                  ANTENNA: DELTA H/E/N
G    8 C1C L1C D1C S1C C2L L2L D2L S2L                      SYS / # / OBS TYPES 
C    8 C2I L2I D2I S2I C7I L7I D7I S7I                      SYS / # / OBS TYPES 
  2025    10    27    02    57   26.9960000     GPS         TIME OF FIRST OBS   
  2025    10    27    02    57   58.7560000     GPS         TIME OF LAST OBS    
G L1C                                                       SYS / PHASE SHIFT   
G L2L  0.00000                                              SYS / PHASE SHIFT   
C L2I                                                       SYS / PHASE SHIFT   
C L7I                                                       SYS / PHASE SHIFT   
  0                                                         GLONASS SLOT / FRQ #
 C1C    0.000 C1P    0.000 C2C    0.000 C2P    0.000        GLONASS COD/PHS/BIS 
                                                            END OF HEADER       
> 2025 10 27 02 57 26.9960000  0 18                     
G12  20692509.330   108739871.2741        613.076          46.000    20692498.034    84732321.4911        477.810          41.000  
G15  23504742.708   123518247.8021      -3295.888          34.000    23504739.869                       -2568.743          31.000  
G18  23864200.977                       -3639.410          31.000    23864200.921    97719881.8821      -2836.211          39.000  
G23  19430775.334   102109404.6121      -2319.173          46.000    19430764.002    79565694.1871      -1807.235          46.000  
G24  21205333.753                       -3446.894          29.000    21205321.089                1      -2685.852          27.000  
G32  20783593.491   109218517.5511       1456.813          45.000    20783583.735    85105303.5091       1135.029          41.000  
C08  34740399.484   180902351.5621       -409.882          46.000    34740378.765   139885093.8311       -317.004          48.000  
C13  34717781.808   180784577.1571       -104.254          47.000    34717769.616   139794056.0941        -80.518          48.000  
C16  35673655.238   185762072.2591        -45.618          48.000    35673641.352   143642969.1271        -35.168          48.000  
C25  22465680.426   116984708.4061      -2687.286          32.000                                                                  
C32  20985948.920   109279325.9361        762.685          51.000                                                                  
C06  35352487.887   184089668.1481        132.429          46.000    35352467.382   142349739.0441        102.504          46.000  
G25  20302108.287   106688313.3551       2368.939          44.000    20302099.718    83133709.0271       1845.906          40.000  
G10  19439294.391   102154181.8311        813.755          50.000    19439283.457    79600614.7491        634.246          45.000  
G28  21836431.202   114751216.3881       2462.301          43.000    21836420.177    89416506.0721       1918.533          41.000  
C23  20714658.010   107866639.4691         42.041          50.000                                                                  
C09  36812941.993   191694627.9461        231.855          44.000    36812925.773   148230398.3261        179.379          47.000  
C37  22660314.165   117998202.4141       2572.638          46.000                                                                  
> 2025 10 27 02 57 27.0360000  0 18                     
G12  20692504.661   108739846.752         613.008          46.000    20692493.374    84732302.379         477.793          41.000  
G15  23504767.796   123518379.667       -3296.292          34.000    23504765.017                       -2569.114          31.000  
G18  23864228.683                       -3640.318          31.000    23864228.636    97719995.317       -2835.993          39.000  
G23  19430792.970   102109497.377       -2319.166          46.000    19430781.667    79565766.472       -1807.222          46.000  
G24  21205359.961                       -3447.128          29.000    21205347.572                       -2685.853          27.000  
G32  20783582.420   109218459.285        1456.648          45.000    20783572.640    85105258.102        1135.075          41.000  
C08  34740402.625   180902367.965        -410.046          46.000    34740381.946   139885106.513        -317.053          48.000  
C13  34717782.611   180784581.321        -104.218          47.000    34717770.405   139794059.313         -80.518          48.000  
C16  35673655.627   185762074.085         -45.673          48.000    35673641.706   143642970.538         -35.249          48.000  
C25  22465701.071   116984815.936       -2687.927          32.000                                                                  
C32  20985943.053   109279295.427         762.671          51.000                                                                  
C06  35352486.844   184089662.849         132.413          46.000    35352466.353   142349734.951         102.357          46.000  
G25  20302090.235   106688218.588        2369.066          44.000    20302081.706    83133635.185        1845.964          40.000  
G10  19439288.181   102154149.277         813.762          50.000    19439277.278    79600589.391         634.006          45.000  
G28  21836412.453   114751117.894        2462.276          43.000    21836401.442    89416429.334        1918.418          41.000  
C23  20714657.711   107866637.788          41.980          50.000                                                                  
C09  36812940.247   191694618.664         231.983          44.000    36812923.966   148230391.149         179.373          47.000  
C37  22660294.414   117998099.507        2572.595          46.000                                                                  
> 2025 10 27 02 57 27.0760000  0 18                     
G12  20692499.988   108739822.223         613.135          46.000    20692488.725    84732283.270         477.681          41.000  
G15  23504792.884   123518511.539       -3296.703          34.000    23504790.078                       -2568.473          31.000  
G18  23864256.416                       -3640.346          31.000    23864256.323    97720108.768       -2836.184          39.000  
G23  19430810.631   102109590.144       -2319.184          46.000    19430799.304    79565838.754       -1807.117          46.000  
G24  21205386.188                       -3447.279          29.000    21205373.936                       -2686.327          27.000  
G32  20783571.342   109218401.012        1456.705          45.000    20783561.554    85105212.694        1135.115          41.000  
C08  34740405.755   180902384.361        -409.985          46.000    34740385.120   139885119.191        -316.998          48.000  
C13  34717783.420   180784585.476        -104.004          47.000    34717771.191   139794062.536         -80.591          48.000  
C16  35673656.001   185762075.904         -45.600          48.000    35673642.075   143642971.943         -35.209          48.000  
C25  22465721.717   116984923.498       -2688.911          32.000                                                                  
C32  20985937.205   109279264.920         762.633          51.000                                                                  
C06  35352485.798   184089657.558         132.277          46.000    35352465.301   142349730.861         102.249          46.000  
G25  20302072.189   106688123.814        2369.263          44.000    20302063.672    83133561.346        1845.946          40.000  
G10  19439281.976   102154116.729         813.688          50.000    19439271.077    79600564.019         634.179          45.000  
G28  21836393.707   114751019.406        2462.214          43.000    21836382.671    89416352.593        1918.440          41.000  
C23  20714657.410   107866636.104          41.996          50.000                                                                  
C09  36812938.484   191694609.386         231.976          44.000    36812922.186   148230383.977         179.292          47.000  
C37  22660274.659   117997996.597        2572.638          46.000                                                                  
> 2025 10 27 02 57 27.1160000  0 18                     
G12  20692495.341   108739797.708         612.933          46.000    20692484.051    84732264.168         477.528          41.000  
G15  23504817.946   123518643.368       -3295.981          34.000    23504815.154                       -2568.056          31.000  
G18  23864284.086                       -3639.372          31.000    23864284.026    97720222.223       -2836.410          39.000  
G23  19430828.298   102109682.915       -2319.252          46.000    19430816.949    79565911.040       -1807.104          46.000  
G24  21205412.435                       -3447.396          29.000    21205399.948                       -2686.809          27.000  
G32  20783560.241   109218342.734        1456.850          45.000    20783550.441    85105167.283        1135.219          41.000  
C08  34740408.899   180902400.766        -410.132          46.000    34740388.239   139885131.873        -317.059          48.000  
C13  34717784.225   180784589.641        -104.077          47.000    34717772.025   139794065.757         -80.585          48.000  
C16  35673656.371   185762077.724         -45.553          48.000    35673642.418   143642973.355         -35.302          48.000  
C25  22465742.340   116985030.990       -2688.112          32.000                                                                  
C32  20985931.335   109279234.417         762.546          51.000                                                                  
C06  35352484.766   184089652.264         132.268          46.000    35352464.276   142349726.766         102.301          46.000  
G25  20302054.152   106688029.063        2368.948          44.000    20302045.650    83133487.507        1845.934          40.000  
G10  19439275.771   102154084.178         813.701          50.000    19439264.892    79600538.662         633.976          45.000  
G28  21836374.982   114750920.926        2462.009          43.000    21836363.919    89416275.853        1918.441          41.000  
C23  20714657.106   107866634.428          41.887          50.000                                                                  
C09  36812936.692   191694600.110         231.958          44.000    36812920.394   148230376.812         179.130          47.000  
C37  22660254.903   117997893.691        2572.620          46.000                                                                  
> 2025 10 27 02 57 27.1560000  0 18                     
G12  20692490.694   108739773.201         612.664          46.000    20692479.394    84732245.069         477.432          41.000  
G15  23504843.015   123518775.218       -3296.196          34.000    23504840.258                       -2569.002          31.000  
G18  23864311.809                       -3639.884          31.000    23864311.729    97720335.668       -2836.308          39.000  
G23  19430845.949   102109775.690       -2319.387          46.000    19430834.619    79565983.327       -1807.167          46.000  
G24  21205438.677                       -3447.590          29.000    21205426.272                       -2686.464          27.000  
G32  20783549.148   109218284.461        1456.834          45.000    20783539.317    85105121.872        1135.249          41.000  
C08  34740412.044   180902417.167        -410.138          46.000    34740391.384   139885144.554        -317.102          48.000  
C13  34717785.026   180784593.813        -104.279          47.000    34717772.830   139794068.983         -80.664          48.000  
C16  35673656.724   185762079.551         -45.665          48.000    35673642.769   143642974.768         -35.372          48.000  
C25  22465763.019   116985138.510       -2687.981          32.000                                                                  
C32  20985925.473   109279203.918         762.459          51.000                                                                  
C06  35352483.739   184089646.970         132.271          46.000    35352463.235   142349722.664         102.424          46.000  
G25  20302036.134   106687934.312        2368.768          44.000    20302027.616    83133413.661        1846.045          40.000  
G10  19439269.596   102154051.631         813.665          50.000    19439258.718    79600513.301         633.964          45.000  
G28  21836356.237   114750822.430        2462.219          43.000    21836345.175    89416199.101        1918.649          41.000  
C23  20714656.776   107866632.751          41.846          50.000                                                                  
C09  36812934.926   191694590.826         232.006          44.000    36812918.601   148230369.637         179.252          46.000  
C37  22660235.149   117997790.785        2572.595          46.000                                                                  
> 2025 10 27 02 57 27.1960000  0 18                     
G12  20692486.013   108739748.683         612.784          46.000    20692474.718    84732225.975         477.252          41.000  
G15  23504868.087   123518907.116       -3297.269          34.000    23504865.387                       -2568.711          31.000  
G18  23864339.515                       -3640.018          31.000    23864339.425    97720449.112       -2836.140          39.000  
G23  19430863.584   102109868.466       -2319.467          46.000    19430852.300    79566055.619       -1807.283          46.000  
G24  21205464.939                       -3447.687          29.000    21205452.264                       -2686.625          27.000  
G32  20783538.076   109218226.202        1456.564          45.000    20783528.220    85105076.472        1135.065          41.000  
C08  34740415.219   180902433.566        -410.028          46.000    34740394.549   139885157.235        -317.108          48.000  
C13  34717785.833   180784597.978        -104.230          47.000    34717773.661   139794072.204         -80.585          48.000  
C16  35673657.096   185762081.376         -45.669          48.000    35673643.129   143642976.173         -35.244          48.000  
C25  22465783.680   116985246.024       -2687.815          32.000                                                                  
C32  20985919.628   109279173.408         762.608          51.000                                                                  
C06  35352482.726   184089641.678         132.261          46.000    35352462.227   142349718.565         102.469          46.000  
G25  20302018.120   106687839.555        2368.810          44.000    20302009.592    83133339.835        1845.760          40.000  
G10  19439263.392   102154019.079         813.726          50.000    19439252.513    79600487.937         634.027          45.000  
G28  21836337.513   114750723.952        2462.024          43.000    21836326.418    89416122.363        1918.496          41.000  
C23  20714656.474   107866631.068          41.972          50.000                                                                  
C09  36812933.143   191694581.554         231.855          44.000    36812916.804   148230362.451         179.522          46.000  
C37  22660215.395   117997687.880        2572.595          46.000                                                                  
> 2025 10 27 02 57 27.2360000  0 18                     
G12  20692481.346   108739724.163         612.882          46.000    20692470.041    84732206.867         477.446          41.000  
G15  23504893.147   123519038.935       -3296.338          33.000    23504890.476                       -2568.745          31.000  
G18  23864367.220                       -3639.474          31.000    23864367.110    97720562.550       -2835.974          39.000  
G23  19430881.239   102109961.231       -2319.281          46.000    19430869.964    79566127.914       -1807.394          46.000  
G24  21205491.169                       -3447.426          29.000    21205478.496                       -2686.416          27.000  
G32  20783526.986   109218167.930        1456.686          45.000    20783517.145    85105031.077        1134.854          41.000  
C08  34740418.334   180902449.955        -409.784          46.000    34740397.738   139885169.916        -317.084          48.000  
C13  34717786.619   180784602.148        -104.291          47.000    34717774.475   139794075.421         -80.481          48.000  
C16  35673657.447   185762083.193         -45.524          48.000    35673643.475   143642977.582         -35.238          48.000  
C25  22465804.327   116985353.503       -2687.213          32.000                                                                  
C32  20985913.795   109279142.902         762.620          51.000                                                                  
C06  35352481.719   184089636.377         132.421          46.000    35352461.243   142349714.471         102.407          46.000  
G25  20302000.080   106687744.797        2368.888          44.000    20301991.554    83133266.002        1845.748          40.000  
G10  19439257.186   102153986.529         813.720          50.000    19439246.315    79600462.573         634.069          45.000  
G28  21836318.749   114750625.460        2462.189          43.000    21836307.683    89416045.622        1918.478          41.000  
C23  20714656.168   107866629.389          41.958          50.000                                                                  
C09  36812931.376   191694572.273         231.906          44.000    36812915.012   148230355.274         179.494          47.000  
C37  22660195.633   117997584.979        2572.504          46.000                                                                  
> 2025 10 27 02 57 27.2760000  0 18                     
G12  20692476.683   108739699.647         612.874          46.000    20692465.370    84732187.742         477.914          41.000  
G15  23504918.250   123519170.787       -3296.272          33.000    23504915.558                       -2568.673          31.000  
G18  23864394.935                       -3639.488          31.000    23864394.805    97720675.987       -2835.903          39.000  
G23  19430898.870   102110054.008       -2319.405          46.000    19430887.624    79566200.206       -1807.375          46.000  
G24  21205517.419                       -3447.791          29.000    21205504.798                       -2686.195          27.000  
G32  20783515.900   109218109.648        1456.959          45.000    20783506.035    85104985.659        1135.198          41.000  
C08  34740421.464   180902466.354        -409.882          46.000    34740400.881   139885182.599        -317.102          48.000  
C13  34717787.413   180784606.315        -104.248          47.000    34717775.281   139794078.632         -80.316          48.000  
C16  35673657.820   185762085.012         -45.495          48.000    35673643.810   143642978.989         -35.227          48.000  
C25  22465825.011   116985460.997       -2687.167          32.000                                                                  
C32  20985907.935   109279112.395         762.652          51.000                                                                  
C06  35352480.702   184089631.087         132.306          46.000    35352460.260   142349710.391         102.097          46.000  
G25  20301982.046   106687650.038        2368.920          44.000    20301973.525    83133192.165        1845.835          40.000  
G10  19439251.002   102153953.981         813.683          50.000    19439240.125    79600437.208         634.106          45.000  
G28  21836300.004   114750526.971        2462.214          43.000    21836288.948    89415968.877        1918.573          41.000  
C23  20714655.838   107866627.711          41.925          50.000                                                                  
C09  36812929.586   191694562.998         231.882          44.000    36812913.214   148230348.106         179.266          46.000  
C37  22660175.870   117997482.074        2572.571          46.000                                                                  
> 2025 10 27 02 57 27.3160000  0 18                     
G12  20692471.994   108739675.129         612.893          46.000    20692460.702    84732168.639         477.783          41.000  
G15  23504943.349   123519302.639       -3296.100          33.000    23504940.651    96248877.721       -2568.362          31.000  
G18  23864422.635                       -3639.637          31.000    23864422.511    97720789.433       -2836.042          39.000  
G23  19430916.525   102110146.782       -2319.417          46.000    19430905.266    79566272.494       -1807.294          46.000  
G24  21205543.684                       -3447.813          29.000    21205530.915                       -2686.051          27.000  
G32  20783504.805   109218051.368        1457.049          45.000    20783494.939    85104940.250        1135.233          41.000  
C08  34740424.598   180902482.760        -410.071          46.000    34740403.987   139885195.278        -317.059          48.000  
C13  34717788.227   180784610.482        -104.211          47.000    34717776.041   139794081.859         -80.560          48.000  
C16  35673658.171   185762086.838         -45.601          48.000    35673644.165   143642980.404         -35.365          48.000  
C25  22465845.646   116985568.520       -2687.797          32.000                                                                  
C32  20985902.035   109279081.896         762.504          51.000                                                                  
C06  35352479.695   184089625.794         132.321          46.000    35352459.269   142349706.303         102.067          46.000  
G25  20301964.015   106687555.286        2368.818          44.000    20301955.502    83133118.335        1845.747          40.000  
G10  19439244.825   102153921.439         813.554          50.000    19439233.917    79600411.845         634.081          45.000  
G28  21836281.281   114750428.494        2462.019          43.000    21836270.199    89415892.143        1918.416          41.000  
C23  20714655.511   107866626.040          41.785          50.000                                                                  
C09  36812927.805   191694553.719         231.913          44.000    36812911.456   148230340.931         179.312          46.000  
C37  22660156.110   117997379.175        2572.455          46.000                                                                  
> 2025 10 27 02 57 27.3560000  0 18                     
G12  20692467.339   108739650.613         612.881          46.000    20692456.041    84732149.547         477.491          41.000  
G15  23504968.420   123519434.471       -3295.813          33.000    23504965.735    96248980.450       -2568.322          31.000  
G18  23864450.341                       -3640.090          31.000    23864450.207    97720902.880       -2836.189          39.000  
G23  19430934.170   102110239.552       -2319.330          46.000    19430922.936    79566344.787       -1807.331          46.000  
G24  21205569.955                       -3447.672          29.000    21205557.116                       -2686.173          27.000  
G32  20783493.740   109217993.104        1456.745          45.000    20783483.867    85104894.841        1135.209          41.000  
C08  34740427.779   180902499.166        -410.156          46.000    34740407.141   139885207.962        -317.114          48.000  
C13  34717789.021   180784614.650        -104.230          47.000    34717776.809   139794085.086         -80.695          48.000  
C16  35673658.536   185762088.665         -45.656          48.000    35673644.528   143642981.817         -35.359          48.000  
C25  22465866.299   116985676.045       -2688.160          32.000                                                                  
C32  20985896.196   109279051.397         762.448          51.000                                                                  
C06  35352478.718   184089620.498         132.347          46.000    35352458.279   142349702.205         102.305          46.000  
G25  20301945.982   106687460.543        2368.633          44.000    20301937.476    83133044.498        1845.900          40.000  
G10  19439238.625   102153888.898         813.487          50.000    19439227.751    79600386.489         633.927          45.000  
G28  21836262.542   114750330.007        2462.095          43.000    21836251.436    89415815.396        1918.581          41.000  
C23  20714655.204   107866624.368          41.756          50.000                                                                  
C09  36812926.001   191694544.447         231.788          44.000    36812909.669   148230333.761         179.270          46.000  
C37  22660136.333   117997276.278        2572.388          46.000                                                                  
> 2025 10 27 02 57 27.3960000  0 18                     
G12  20692462.677   108739626.108         612.646          46.000    20692451.398    84732130.454         477.314          41.000  
G15  23504993.491   123519566.289       -3295.371          33.000    23504990.829    96249083.175       -2568.144          31.000  
G18  23864478.065                       -3640.358          31.000    23864477.924    97721016.319       -2836.060          39.000  
G23  19430951.816   102110332.329       -2319.380          46.000    19430940.585    79566417.088       -1807.504          46.000  
G24  21205596.188                       -3447.533          29.000    21205583.440                       -2686.073          27.000  
G32  20783482.667   109217934.843        1456.529          45.000    20783472.789    85104849.436        1135.095          41.000  
C08  34740430.961   180902515.567        -410.138          46.000    34740410.279   139885220.649        -317.200          48.000  
C13  34717789.817   180784618.819        -104.254          47.000    34717777.602   139794088.313         -80.737          48.000  
C16  35673658.883   185762090.488         -45.627          48.000    35673644.875   143642983.231         -35.404          48.000  
C25  22465886.980   116985783.559       -2688.108          32.000                                                                  
C32  20985890.332   109279020.896         762.430          51.000                                                                  
C06  35352477.712   184089615.209         132.281          46.000    35352457.263   142349698.112         102.343          46.000  
G25  20301927.950   106687365.785        2368.798          44.000    20301919.427    83132970.657        1846.013          40.000  
G10  19439232.428   102153856.358         813.431          50.000    19439221.577    79600361.137         633.755          45.000  
G28  21836243.796   114750231.525        2462.039          43.000    21836232.708    89415738.653        1918.579          41.000  
C23  20714654.904   107866622.694          41.784          50.000                                                                  
C09  36812924.211   191694535.172         231.789          44.000    36812907.884   148230326.593         179.196          46.000  
C37  22660116.562   117997173.370        2572.607          46.000                                                                  
> 2025 10 27 02 57 27.4360000  0 18                     
G12  20692458.028   108739601.602         612.556          46.000    20692446.711    84732111.351         477.451          41.000  
G15  23505018.625   123519698.164       -3296.275          33.000    23505015.917    96249185.916       -2568.239          31.000  
G18  23864505.759                       -3638.976          31.000    23864505.645    97721129.774       -2836.245          39.000  
G23  19430969.479   102110425.115       -2319.601          46.000    19430958.242    79566489.382       -1807.460          46.000  
G24  21205622.403                       -3447.326          30.000    21205609.690                       -2686.281          27.000  
G32  20783471.553   109217876.578        1456.510          45.000    20783461.706    85104804.045        1134.801          41.000  
C08  34740434.142   180902531.976        -410.236          46.000    34740413.427   139885233.331        -317.120          48.000  
C13  34717790.619   180784622.987        -104.230          47.000    34717778.418   139794091.537         -80.676          48.000  
C16  35673659.243   185762092.317         -45.706          48.000    35673645.250   143642984.638         -35.298          48.000  
C25  22465907.609   116985891.057       -2687.744          32.000                                                                  
C32  20985884.472   109278990.394         762.484          51.000                                                                  
C06  35352476.700   184089609.914         132.343          46.000    35352456.240   142349694.004         102.595          46.000  
G25  20301909.924   106687271.032        2368.823          44.000    20301901.374    83132896.822        1845.900          40.000  
G10  19439226.217   102153823.816         813.457          50.000    19439215.386    79600335.783         633.750          45.000  
G28  21836225.078   114750133.044        2461.982          43.000    21836213.970    89415661.909        1918.617          41.000  
C23  20714654.593   107866621.024          41.727          50.000                                                                  
C09  36812922.434   191694525.902         231.746          44.000    36812906.088   148230319.414         179.353          47.000  
C37  22660096.810   117997070.460        2572.711          46.000                                                                  
> 2025 10 27 02 57 27.4760000  0 18                     
G12  20692453.356   108739577.077         612.903          46.000    20692442.058    84732092.252         477.463          41.000  
G15  23505043.748   123519830.040       -3296.670          34.000    23505041.016    96249288.711       -2569.385          31.000  
G18  23864533.482                       -3639.501          31.000    23864533.355    97721243.209       -2835.975          39.000  
G23  19430987.122   102110517.887       -2319.446          46.000    19430975.866    79566561.664       -1807.207          46.000  
G24  21205648.671   111436430.097       -3447.114          29.000    21205636.013                       -2686.349          27.000  
G32  20783460.445   109217818.303        1456.735          45.000    20783450.618    85104758.631        1135.122          41.000  
C08  34740437.284   180902548.367        -409.967          46.000    34740416.616   139885246.007        -316.962          48.000  
C13  34717791.432   180784627.148        -104.083          47.000    34717779.190   139794094.751         -80.438          48.000  
C16  35673659.586   185762094.134         -45.546          48.000    35673645.574   143642986.044         -35.201          48.000  
C25  22465928.269   116985998.578       -2687.966          32.000                                                                  
C32  20985878.637   109278959.887         762.613          51.000                                                                  
C06  35352475.693   184089604.620         132.349          46.000    35352455.200   142349689.910         102.452          46.000  
G25  20301891.898   106687176.263        2369.082          44.000    20301883.337    83132822.979        1846.021          40.000  
G10  19439220.008   102153791.268         813.599          50.000    19439209.167    79600310.418         633.985          45.000  
G28  21836206.346   114750034.565        2461.946          43.000    21836195.209    89415585.171        1918.522          41.000  
C23  20714654.253   107866619.345          41.872          50.000                                                                  
C09  36812920.677   191694516.620         231.935          44.000    36812904.339   148230312.235         179.452          47.000  
C37  22660077.015   117996967.559        2572.595          46.000                                                                  
> 2025 10 27 02 57 27.5160000  0 18                     
G12  20692448.698   108739552.570         612.751          46.000    20692437.367    84732073.138         477.715          41.000  
G15  23505068.836   123519961.924       -3297.081          33.000    23505066.137    96249391.479       -2569.534          31.000  
G18  23864561.166                       -3639.909          31.000    23864561.065    97721356.656       -2836.086          39.000  
G23  19431004.764   102110610.669       -2319.545          46.000    19430993.536    79566633.957       -1807.263          46.000  
G24  21205674.891   111436567.977       -3447.023          30.000    21205662.302                       -2686.255          27.000  
G32  20783449.335   109217760.020        1456.957          45.000    20783439.533    85104713.227        1135.106          41.000  
C08  34740440.421   180902564.769        -409.985          46.000    34740419.766   139885258.686        -316.931          48.000  
C13  34717792.208   180784631.317        -104.193          47.000    34717779.971   139794097.972         -80.463          48.000  
C16  35673659.946   185762095.963         -45.661          48.000    35673645.898   143642987.455         -35.251          48.000  
C25  22465948.902   116986106.092       -2688.003          32.000                                                                  
C32  20985872.806   109278929.383         762.584          51.000                                                                  
C06  35352474.674   184089599.330         132.283          46.000    35352454.183   142349685.824         102.242          46.000  
G25  20301873.860   106687081.517        2368.796          44.000    20301865.294    83132749.152        1845.792          40.000  
G10  19439213.800   102153758.725         813.586          50.000    19439202.964    79600285.064         633.911          45.000  
G28  21836187.592   114749936.085        2461.922          43.000    21836176.499    89415508.428        1918.599          41.000  
C23  20714653.908   107866617.673          41.818          50.000                                                                  
C09  36812918.894   191694507.338         232.034          44.000    36812902.565   148230305.062         179.381          46.000  
C37  22660057.249   117996864.661        2572.455          46.000                                                                  
> 2025 10 27 02 57 27.5560000  0 18                     
G12  20692444.052   108739528.061         612.707          46.000    20692432.723    84732054.045         477.463          41.000  
G15  23505093.944   123520093.756       -3296.151          34.000    23505091.238                       -2568.181          31.000  
G18  23864588.881                       -3640.156          31.000    23864588.767    97721470.097       -2836.129          39.000  
G23  19431022.409   102110703.446       -2319.489          46.000    19431011.202    79566706.256       -1807.436          46.000  
G24  21205701.172   111436705.876       -3447.164          29.000    21205688.103                       -2686.583          27.000  
G32  20783438.262   109217701.750        1456.861          45.000    20783428.433    85104667.820        1135.138          41.000  
C08  34740443.568   180902581.171        -410.022          46.000    34740422.881   139885271.371        -317.053          48.000  
C13  34717793.019   180784635.487        -104.248          47.000    34717780.802   139794101.192         -80.475          48.000  
C16  35673660.284   185762097.785         -45.593          48.000    35673646.242   143642988.868         -35.337          48.000  
C25  22465969.541   116986213.615       -2688.101          32.000                                                                  
C32  20985866.942   109278898.883         762.506          51.000                                                                  
C06  35352473.680   184089594.037         132.295          46.000    35352453.165   142349681.739         102.102          46.000  
G25  20301855.847   106686986.769        2368.689          44.000    20301847.278    83132675.333        1845.521          40.000  
G10  19439207.612   102153726.188         813.450          50.000    19439196.797    79600259.704         633.972          45.000  
G28  21836168.848   114749837.604        2461.960          43.000    21836157.743    89415431.680        1918.692          41.000  
C23  20714653.569   107866616.007          41.669          50.000                                                                  
C09  36812917.094   191694498.065         231.907          44.000    36812900.792   148230297.898         179.161          47.000  
C37  22660037.477   117996761.766        2572.357          46.000                                                                  
> 2025 10 27 02 57 27.5960000  0 18                     
G12  20692439.377   108739503.555         612.643          46.000    20692428.073    84732034.954         477.305          41.000  
G15  23505119.008   123520225.574       -3295.673          34.000    23505116.301    96249596.884       -2567.939          31.000  
G18  23864616.591   125409403.358       -3639.608          31.000    23864616.449    97721583.527       -2835.909          39.000  
G23  19431040.072   102110796.229       -2319.538          46.000    19431028.871    79566778.558       -1807.571          46.000  
G24  21205727.451   111436843.780       -3447.354          29.000    21205714.425                       -2686.173          27.000  
G32  20783427.173   109217643.480        1456.761          45.000    20783417.331    85104622.417        1135.098          41.000  
C08  34740446.716   180902597.574        -410.101          46.000    34740426.036   139885284.062        -317.242          48.000  
C13  34717793.847   180784639.657        -104.297          47.000    34717781.566   139794104.425         -80.750          48.000  
C16  35673660.628   185762099.619         -45.764          48.000    35673646.567   143642990.281         -35.375          48.000  
C25  22465990.194   116986321.106       -2687.496          32.000                                                                  
C32  20985861.046   109278868.392         762.302          51.000                                                                  
C06  35352472.670   184089588.744         132.301          46.000    35352452.127   142349677.649         102.135          46.000  
G25  20301837.824   106686892.034        2368.390          44.000    20301829.228    83132601.513        1845.405          40.000  
G10  19439201.448   102153693.655         813.291          50.000    19439190.612    79600234.347         633.935          45.000  
G28  21836150.098   114749739.117        2462.086          43.000    21836138.995    89415354.953        1918.416          41.000  
C23  20714653.225   107866614.342          41.582          50.000                                                                  
C09  36812915.293   191694488.799         231.674          44.000    36812898.994   148230290.723         179.283          47.000  
C37  22660017.750   117996658.869        2572.345          46.000                                                                  
> 2025 10 27 02 57 27.6360000  0 18                     
G12  20692434.710   108739479.051         612.561          46.000    20692423.401    84732015.860         477.291          41.000  
G15  23505144.107   123520357.465       -3296.728          34.000    23505141.422    96249699.633       -2568.455          31.000  
G18  23864644.264   125409548.903       -3638.885          31.000    23864644.136    97721696.976       -2836.152          39.000  
G23  19431057.714   102110889.012       -2319.618          46.000    19431046.522    79566850.861       -1807.651          46.000  
G24  21205753.698                       -3447.625          29.000    21205740.754                       -2686.759          27.000  
G32  20783416.073   109217585.221        1456.510          45.000    20783406.228    85104577.008        1135.169          41.000  
C08  34740449.863   180902613.983        -410.211          46.000    34740429.163   139885296.753        -317.352          48.000  
C13  34717794.673   180784643.830        -104.376          47.000    34717782.369   139794107.659         -80.933          48.000  
C16  35673660.972   185762101.445         -45.734          48.000    35673646.870   143642991.689         -35.301          48.000  
C25  22466010.787   116986428.629       -2687.787          32.000                                                                  
C32  20985855.229   109278837.895         762.314          51.000                                                                  
C06  35352471.653   184089583.451         132.310          46.000    35352451.085   142349673.561         102.166          46.000  
G25  20301819.810   106686797.283        2368.542          44.000    20301811.185    83132527.680        1845.613          40.000  
G10  19439195.243   102153661.122         813.242          50.000    19439184.424    79600208.996         633.781          45.000  
G28  21836131.375   114749640.635        2462.033          43.000    21836120.269    89415278.219        1918.342          41.000  
C23  20714652.934   107866612.677          41.566          50.000                                                                  
C09  36812913.529   191694479.525         231.728          44.000    36812897.228   148230283.559         179.120          47.000  
C37  22659998.005   117996555.973        2572.302          46.000                                                                  
> 2025 10 27 02 57 27.6760000  0 18                     
G12  20692430.032   108739454.549         612.492          46.000    20692418.748    84731996.767         477.247          41.000  
G15  23505169.203   123520489.318       -3296.631          34.000    23505166.507    96249802.379       -2568.695          31.000  
G18  23864671.984   125409694.507       -3639.546          31.000    23864671.851    97721810.428       -2836.350          39.000  
G23  19431075.381   102110981.799       -2319.698          46.000    19431064.179    79566923.157       -1807.520          46.000  
G24  21205779.953   111437119.599       -3447.717          29.000    21205767.401                       -2686.844          27.000  
G32  20783404.973   109217526.957        1456.497          45.000    20783395.152    85104531.619        1134.858          41.000  
C08  34740453.037   180902630.384        -410.120          46.000    34740432.335   139885309.438        -317.273          48.000  
C13  34717795.456   180784648.003        -104.431          47.000    34717783.152   139794110.883         -80.762          48.000  
C16  35673661.314   185762103.269         -45.662          48.000    35673647.198   143642993.104         -35.353          48.000  
C25  22466031.441   116986536.131       -2687.665          32.000                                                                  
C32  20985849.389   109278807.399         762.324          51.000                                                                  
C06  35352470.638   184089578.164         132.225          46.000    35352450.058   142349669.469         102.218          46.000  
G25  20301801.783   106686702.531        2368.690          44.000    20301793.162    83132453.853        1845.612          40.000  
G10  19439189.032   102153628.585         813.323          50.000    19439178.235    79600183.649         633.677          45.000  
G28  21836112.627   114749542.154        2462.022          43.000    21836101.516    89415201.477        1918.457          41.000  
C23  20714652.628   107866611.010          41.588          50.000                                                                  
C09  36812911.763   191694470.252         231.760          44.000    36812895.461   148230276.383         179.246          47.000  
C37  22659978.266   117996453.069        2572.485          46.000                                                                  
> 2025 10 27 02 57 27.7160000  0 18                     
G12  20692425.391   108739430.051         612.378          46.000    20692414.087    84731977.680         477.174          41.000  
G15  23505194.287   123520621.184       -3296.803          33.000    23505191.615    96249905.144       -2569.114          31.000  
G18  23864699.714   125409840.093       -3639.510          31.000    23864699.563    97721923.878       -2836.307          39.000  
G23  19431093.056   102111074.586       -2319.722          46.000    19431081.827    79566995.458       -1807.514          46.000  
G24  21205806.171   111437257.498       -3447.677          29.000    21205793.843                       -2686.790          27.000  
G32  20783393.899   109217468.695        1456.457          45.000    20783384.060    85104486.217        1134.956          41.000  
C08  34740456.205   180902646.795        -410.242          46.000    34740435.523   139885322.123        -317.194          48.000  
C13  34717796.269   180784652.179        -104.480          47.000    34717783.966   139794114.101         -80.554          48.000  
C16  35673661.644   185762105.095         -45.669          48.000    35673647.567   143642994.518         -35.363          48.000  
C25  22466052.110   116986643.650       -2687.837          32.000                                                                  
C32  20985843.583   109278776.902         762.382          51.000                                                                  
C06  35352469.610   184089572.872         132.253          46.000    35352448.998   142349665.378         102.223          46.000  
G25  20301783.745   106686607.781        2368.734          44.000    20301775.129    83132380.018        1845.775          40.000  
G10  19439182.837   102153596.049         813.348          50.000    19439172.027    79600158.310         633.461          45.000  
G28  21836093.892   114749443.682        2461.821          43.000    21836082.745    89415124.742        1918.361          41.000  
C23  20714652.328   107866609.346          41.551          50.000                                                                  
C09  36812909.999   191694460.978         231.785          44.000    36812893.667   148230269.214         179.215          47.000  
C37  22659958.490   117996350.174        2572.394          46.000                                                                  
> 2025 10 27 02 57 27.7560000  0 18                     
G12  20692420.734   108739405.548         612.442          46.000    20692409.428    84731958.585         477.261          42.000  
G15  23505219.379   123520753.014       -3296.111          33.000    23505216.690    96250007.896       -2569.022          32.000  
G18  23864727.454   125409985.727       -3640.373          31.000    23864727.269    97722037.334       -2836.345          40.000  
G23  19431110.701   102111167.370       -2319.647          46.000    19431099.456    79567067.756       -1807.465          47.000  
G24  21205832.427   111437395.401       -3447.688          29.000    21205820.123                       -2686.378          28.000  
G32  20783382.809   109217410.422        1456.661          45.000    20783372.974    85104440.807        1135.130          42.000  
C08  34740459.356   180902663.197        -410.138          46.000    34740438.685   139885334.810        -317.188          48.000  
C13  34717797.060   180784656.349        -104.358          47.000    34717784.795   139794117.328         -80.597          48.000  
C16  35673661.994   185762106.917         -45.598          48.000    35673647.912   143642995.929         -35.329          48.000  
C25  22466072.773   116986751.183       -2688.256          32.000                                                                  
C32  20985837.745   109278746.403         762.427          51.000                                                                  
C06  35352468.602   184089567.581         132.261          46.000    35352447.953   142349661.288         102.214          46.000  
G25  20301765.738   106686513.041        2368.567          44.000    20301757.110    83132306.182        1845.885          41.000  
G10  19439176.653   102153563.515         813.323          50.000    19439165.818    79600132.963         633.512          46.000  
G28  21836075.154   114749345.210        2461.742          43.000    21836063.992    89415048.016        1918.161          42.000  
C23  20714652.023   107866607.680          41.584          50.000                                                                  
C09  36812908.242   191694451.705         231.765          44.000    36812891.891   148230262.048         179.140          47.000  
C37  22659938.703   117996247.282        2572.278          46.000                                                                  
> 2025 10 27 02 57 27.7960000  0 18                     
G12  20692416.066   108739381.048         612.431          46.000    20692404.751    84731939.499         477.123          42.000  
G15  23505244.458   123520884.880       -3296.486          33.000    23505241.771    96250110.634       -2568.688          32.000  
G18  23864755.165   125410131.294       -3639.591          31.000    23864754.943    97722150.762       -2835.913          40.000  
G23  19431128.362   102111260.158       -2319.709          46.000    19431117.106    79567140.061       -1807.625          47.000  
G24  21205858.664   111437533.287       -3447.472          29.000    21205846.898                       -2685.922          28.000  
G32  20783371.712   109217352.155        1456.664          45.000    20783361.885    85104395.404        1135.088          42.000  
C08  34740462.504   180902679.604        -410.199          46.000    34740441.819   139885347.491        -317.078          48.000  
C13  34717797.886   180784660.515        -104.224          47.000    34717785.583   139794120.554         -80.640          48.000  
C16  35673662.321   185762108.749         -45.750          48.000    35673648.255   143642997.345         -35.375          48.000  
C25  22466093.428   116986858.662       -2687.354          32.000                                                                  
C32  20985831.871   109278715.906         762.419          51.000                                                                  
C06  35352467.596   184089562.293         132.208          46.000    35352446.928   142349657.198         102.223          46.000  
G25  20301747.708   106686418.310        2368.335          44.000    20301739.059    83132232.362        1845.672          41.000  
G10  19439170.486   102153530.986         813.218          50.000    19439159.618    79600107.610         633.673          46.000  
G28  21836056.409   114749246.730        2461.890          43.000    21836045.252    89414971.287        1918.139          42.000  
C23  20714651.704   107866606.013          41.609          50.000                                                                  
C09  36812906.453   191694442.429         231.835          44.000    36812890.105   148230254.881         179.128          47.000  
C37  22659918.968   117996144.383        2572.388          46.000                                                                  
> 2025 10 27 02 57 27.8360000  0 18                     
G12  20692411.391   108739356.541         612.582          46.000    20692400.107    84731920.414         477.062          42.000  
G15  23505269.561   123521016.783       -3297.203          33.000    23505266.855    96250213.349       -2568.129          32.000  
G18  23864782.868   125410276.796       -3637.874          31.000    23864782.649    97722264.184       -2835.559          40.000  
G23  19431146.023   102111352.944       -2319.703          46.000    19431134.750    79567212.358       -1807.532          47.000  
G24  21205884.915   111437671.192       -3447.516          29.000    21205873.285                       -2686.158          28.000  
G32  20783360.611   109217293.891        1456.605          45.000    20783350.798    85104349.996        1135.192          42.000  
C08  34740465.680   180902696.006        -410.114          46.000    34740444.948   139885360.169        -316.962          48.000  
C13  34717798.676   180784664.689        -104.309          47.000    34717786.386   139794123.782         -80.701          48.000  
C16  35673662.665   185762110.577         -45.754          48.000    35673648.582   143642998.758         -35.376          48.000  
C25  22466114.086   116986966.216       -2688.355          32.000                                                                  
C32  20985826.018   109278685.407         762.443          51.000                                                                  
C06  35352466.566   184089557.005         132.184          46.000    35352445.916   142349653.104         102.281          46.000  
G25  20301729.675   106686323.566        2368.441          44.000    20301721.038    83132158.540        1845.596          41.000  
G10  19439164.303   102153498.456         813.188          50.000    19439153.424    79600082.246         633.999          46.000  
G28  21836037.658   114749148.244        2462.141          43.000    21836026.510    89414894.547        1918.310          42.000  
C23  20714651.386   107866604.350          41.564          50.000                                                                  
C09  36812904.694   191694433.153         231.898          44.000    36812888.341   148230247.702         179.348          47.000  
C37  22659899.228   117996041.486        2572.406          46.000                                                                  
> 2025 10 27 02 57 27.8760000  0 18                     
G12  20692406.731   108739332.039         612.560          46.000    20692395.425    84731901.301         477.555          42.000  
G15  23505294.665   123521148.581       -3295.739          33.000    23505291.934    96250316.117       -2568.798          32.000  
G18  23864810.563                       -3639.173          31.000    23864810.349    97722377.627       -2835.791          40.000  
G23  19431163.663   102111445.726       -2319.611          46.000    19431152.391    79567284.658       -1807.514          47.000  
G24  21205911.178   111437809.104       -3447.642          29.000    21205899.004                       -2686.129          28.000  
G32  20783349.514   109217235.618        1456.741          45.000    20783339.706    85104304.591        1135.183          42.000  
C08  34740468.855   180902712.404        -409.979          46.000    34740448.083   139885372.850        -316.974          48.000  
C13  34717799.495   180784668.852        -104.138          47.000    34717787.197   139794127.000         -80.530          48.000  
C16  35673662.991   185762112.396         -45.569          48.000    35673648.911   143643000.157         -35.101          48.000  
C25  22466134.735   116987073.763       -2688.691          32.000                                                                  
C32  20985820.168   109278654.907         762.482          51.000                                                                  
C06  35352465.536   184089551.713         132.251          46.000    35352444.889   142349649.010         102.334          46.000  
G25  20301711.668   106686228.811        2368.734          44.000    20301702.998    83132084.700        1845.841          41.000  
G10  19439158.123   102153465.919         813.355          50.000    19439147.229    79600056.891         633.986          46.000  
G28  21836018.926   114749049.748        2462.356          43.000    21836007.750    89414817.792        1918.704          42.000  
C23  20714651.080   107866602.685          41.599          50.000                                                                  
C09  36812902.938   191694423.876         231.941          44.000    36812886.536   148230240.524         179.421          47.000  
C37  22659879.487   117995938.580        2572.583          46.000                                                                  
> 2025 10 27 02 57 27.9160000  0 18                     
G12  20692402.054   108739307.529         612.695          46.000    20692390.758    84731882.193         477.735          42.000  
G15  23505319.754   123521280.446       -3296.203          33.000    23505317.008    96250418.836       -2568.321          32.000  
G18  23864838.311                       -3639.265          31.000    23864838.031    97722491.067       -2835.904          40.000  
G23  19431181.315   102111538.510       -2319.642          46.000    19431170.047    79567356.953       -1807.397          47.000  
G24  21205937.420   111437947.008       -3447.660          30.000    21205925.219                       -2685.891          28.000  
G32  20783338.437   109217177.332        1457.043          45.000    20783328.617    85104259.173        1135.360          42.000  
C08  34740472.025   180902728.800        -409.906          46.000    34740451.232   139885385.534        -317.084          48.000  
C13  34717800.294   180784673.008        -103.955          47.000    34717788.003   139794130.222         -80.536          48.000  
C16  35673663.325   185762114.210         -45.405          48.000    35673649.250   143643001.567         -35.200          48.000  
C25  22466155.379   116987181.271       -2687.954          32.000                                                                  
C32  20985814.328   109278624.402         762.589          51.000                                                                  
C06  35352464.512   184089546.409         132.513          46.000    35352443.856   142349644.910         102.435          46.000  
G25  20301693.624   106686134.050        2369.004          44.000    20301684.952    83132010.876        1845.684          41.000  
G10  19439151.924   102153433.374         813.545          50.000    19439141.024    79600031.525         634.133          46.000  
G28  21836000.178   114748951.268        2462.145          43.000    21835989.012    89414741.050        1918.623          42.000  
C23  20714650.780   107866601.012          41.747          50.000                                                                  
C09  36812901.131   191694414.594         232.021          44.000    36812884.730   148230233.344         179.495          46.000  
C37  22659859.702   117995835.670        2572.723          46.000                                                                  
> 2025 10 27 02 57 27.9560000  0 18                     
G12  20692397.382   108739283.023         612.685          46.000    20692386.106    84731863.108         477.378          42.000  
G15  23505344.855   123521412.254       -3295.564          33.000    23505342.147    96250521.604       -2568.901          32.000  
G18  23864866.017                       -3640.582          31.000    23864865.719    97722604.502       -2835.864          40.000  
G23  19431198.962   102111631.286       -2319.488          46.000    19431187.704    79567429.252       -1807.440          47.000  
G24  21205963.661   111438084.896       -3447.398          30.000    21205951.398                       -2686.151          28.000  
G32  20783327.348   109217119.052        1457.100          45.000    20783317.529    85104213.766        1135.258          42.000  
C08  34740475.165   180902745.197        -409.876          46.000    34740454.395   139885398.216        -317.059          48.000  
C13  34717801.069   180784677.171        -104.010          47.000    34717788.811   139794133.437         -80.414          48.000  
C16  35673663.680   185762116.025         -45.325          48.000    35673649.601   143643002.970         -35.131          48.000  
C25  22466176.023   116987288.753       -2687.142          32.000                                                                  
C32  20985808.470   109278593.900         762.581          51.000                                                                  
C06  35352463.508   184089541.104         132.642          46.000    35352442.845   142349640.812         102.443          46.000  
G25  20301675.580   106686039.293        2369.060          44.000    20301666.913    83131937.032        1845.935          41.000  
G10  19439145.741   102153400.833         813.575          50.000    19439134.820    79600006.178         633.811          46.000  
G28  21835981.444   114748852.798        2461.850          43.000    21835970.248    89414664.308        1918.578          42.000  
C23  20714650.456   107866599.340          41.803          50.000                                                                  
C09  36812899.352   191694405.316         231.969          44.000    36812882.945   148230226.168         179.443          46.000  
C37  22659839.933   117995732.768        2572.620          46.000                                                                  
> 2025 10 27 02 57 27.9960000  0 18                     
G12  20692392.704   108739258.514         612.721          46.000    20692381.446    84731844.020         477.213          42.000  
G15  23505369.956   123521544.118       -3296.200          33.000    23505367.226    96250624.345       -2568.735          32.000  
G18  23864893.723                       -3640.194          31.000    23864893.418    97722717.930       -2835.763          40.000  
G23  19431216.607   102111724.071       -2319.575          46.000    19431205.358    79567501.549       -1807.434          47.000  
G24  21205989.889   111438222.743       -3446.340          29.000    21205977.676                       -2686.182          28.000  
G32  20783316.261   109217060.781        1456.877          45.000    20783306.454    85104168.361        1135.141          42.000  
C08  34740478.317   180902761.601        -410.046          46.000    34740457.566   139885410.898        -317.072          48.000  
C13  34717801.834   180784681.336        -104.120          47.000    34717789.619   139794136.656         -80.420          48.000  
C16  35673664.016   185762117.839         -45.327          48.000    35673649.947   143643004.376         -35.166          48.000  
C25  22466196.687   116987396.241       -2686.949          32.000                                                                  
C32  20985802.605   109278563.398         762.566          51.000                                                                  
C06  35352462.479   184089535.810         132.467          46.000    35352441.849   142349636.717         102.367          46.000  
G25  20301657.541   106685944.539        2368.998          44.000    20301648.880    83131863.203        1845.786          41.000  
G10  19439139.580   102153368.299         813.427          50.000    19439128.652    79599980.833         633.602          46.000  
G28  21835962.703   114748754.319        2461.853          43.000    21835951.510    89414587.577        1918.332          42.000  
C23  20714650.118   107866597.671          41.766          50.000                                                                  
C09  36812897.574   191694396.034         232.012          44.000    36812881.164   148230219.000         179.261          46.000  
C37  22659820.172   117995629.862        2572.632          46.000                                                                  
> 2025 10 27 02 57 28.0360000  0 18                     
G12  20692388.054   108739234.018         612.488          46.000    20692376.781    84731824.933         477.127          42.000  
G15  23505395.049   123521675.993       -3296.718          34.000    23505392.306    96250727.074       -2568.471          32.000  
G18  23864921.393                       -3640.177          31.000    23864921.106    97722831.375       -2835.990          40.000  
G23  19431234.289   102111816.862       -2319.772          46.000    19431223.026    79567573.857       -1807.644          47.000  
G24  21206016.135   111438360.639       -3446.886          29.000    21206003.775                       -2686.421          28.000  
G32  20783305.178   109217002.517        1456.625          45.000    20783295.352    85104122.953        1135.137          42.000  
C08  34740481.447   180902778.018        -410.370          46.000    34740460.726   139885423.585        -317.151          48.000  
C13  34717802.645   180784685.511        -104.370          47.000    34717790.416   139794139.881         -80.560          48.000  
C16  35673664.320   185762119.668         -45.591          48.000    35673650.285   143643005.784         -35.213          48.000  
C25  22466217.328   116987503.756       -2687.408          32.000                                                                  
C32  20985796.753   109278532.901         762.430          51.000                                                                  
C06  35352461.444   184089530.518         132.328          46.000    35352440.835   142349632.615         102.438          46.000  
G25  20301639.542   106685849.804        2368.584          44.000    20301630.871    83131789.380        1845.603          41.000  
G10  19439133.405   102153335.772         813.217          50.000    19439122.469    79599955.492         633.449          46.000  
G28  21835943.943   114748655.825        2462.162          43.000    21835932.798    89414510.847        1918.190          42.000  
C23  20714649.760   107866596.009          41.591          50.000                                                                  
C09  36812895.802   191694386.761         231.829          44.000    36812879.366   148230211.826         179.268          46.000  
C37  22659800.412   117995526.971        2572.327          46.000                                                                  
> 2025 10 27 02 57 28.0760000  0 18                     
G12  20692383.419   108739209.532         612.194          46.000    20692372.139    84731805.848         477.020          42.000  
G15  23505420.159   123521807.838       -3296.475          34.000    23505417.398    96250829.790       -2568.057          32.000  
G18  23864949.078                       -3639.333          31.000    23864948.801    97722944.821       -2836.148          40.000  
G23  19431251.960   102111909.654       -2319.870          46.000    19431240.685    79567646.160       -1807.668          47.000  
G24  21206042.386   111438498.523       -3447.086          29.000    21206030.131                       -2686.564          28.000  
G32  20783294.095   109216944.251        1456.549          45.000    20783284.269    85104077.545        1135.185          42.000  
C08  34740484.624   180902794.430        -410.407          46.000    34740463.880   139885436.273        -317.206          48.000  
C13  34717803.479   180784689.686        -104.462          47.000    34717791.233   139794143.109         -80.737          48.000  
C16  35673664.639   185762121.496         -45.708          48.000    35673650.616   143643007.209         -35.524          48.000  
C25  22466237.947   116987611.306       -2688.357          32.000                                                                  
C32  20985790.867   109278502.405         762.369          51.000                                                                  
C06  35352460.408   184089525.233         132.141          46.000    35352439.822   142349628.532         102.140          46.000  
G25  20301621.529   106685755.072        2368.296          44.000    20301612.850    83131715.567        1845.349          41.000  
G10  19439127.193   102153303.238         813.237          50.000    19439116.281    79599930.139         633.685          46.000  
G28  21835925.214   114748557.349        2461.978          43.000    21835914.077    89414434.104        1918.395          42.000  
C23  20714649.402   107866594.354          41.374          50.000                                                                  
C09  36812894.047   191694377.487         231.781          44.000    36812877.560   148230204.653         179.275          46.000  
C37  22659780.647   117995424.080        2572.180          46.000                                                                  
> 2025 10 27 02 57 28.1160000  0 18                     
G12  20692378.746   108739185.034         612.301          46.000    20692367.472    84731786.758         477.137          42.000  
G15  23505445.250   123521939.695       -3296.511          34.000    23505442.481    96250932.521       -2567.941          32.000  
G18  23864976.772                       -3639.390          30.000    23864976.486    97723058.260       -2836.113          40.000  
G23  19431269.611   102112002.440       -2319.783          46.000    19431258.327    79567718.457       -1807.538          47.000  
G24  21206068.653   111438636.442       -3447.653          29.000    21206056.455                       -2686.449          28.000  
G32  20783282.991   109216885.978        1456.671          45.000    20783273.195    85104032.146        1135.044          42.000  
C08  34740487.782   180902810.825        -410.065          46.000    34740467.030   139885448.953        -317.072          48.000  
C13  34717804.290   180784693.854        -104.340          47.000    34717792.052   139794146.332         -80.682          48.000  
C16  35673664.992   185762123.321         -45.716          48.000    35673650.962   143643008.621         -35.462          48.000  
C25  22466258.607   116987718.832       -2688.335          32.000                                                                  
C32  20985785.015   109278471.910         762.327          51.000                                                                  
C06  35352459.392   184089519.939         132.216          46.000    35352438.813   142349624.440         102.140          46.000  
G25  20301603.493   106685660.328        2368.411          44.000    20301594.820    83131641.743        1845.425          41.000  
G10  19439120.998   102153270.706         813.225          50.000    19439110.096    79599904.789         633.703          46.000  
G28  21835906.500   114748458.878        2461.789          43.000    21835895.332    89414357.370        1918.364          42.000  
C23  20714649.088   107866592.695          41.388          50.000                                                                  
C09  36812892.244   191694368.208         231.903          44.000    36812875.750   148230197.479         179.288          46.000  
C37  22659760.896   117995321.185        2572.247          46.000                                                                  
> 2025 10 27 02 57 28.1560000  0 18                     
G12  20692374.075   108739160.532         612.426          46.000    20692362.824    84731767.654         477.456          42.000  
G15  23505470.330   123522071.533       -3296.169          34.000    23505467.573    96251035.291       -2568.891          32.000  
G18  23865004.482                       -3638.813          31.000    23865004.211    97723171.694       -2835.968          40.000  
G23  19431287.261   102112095.223       -2319.678          46.000    19431275.985    79567790.759       -1807.557          47.000  
G24  21206094.912   111438774.356       -3447.815          29.000    21206082.813                       -2686.326          28.000  
G32  20783271.879   109216827.701        1456.840          45.000    20783262.102    85103986.741        1135.045          42.000  
C08  34740490.942   180902827.216        -409.833          46.000    34740470.205   139885461.629        -316.943          48.000  
C13  34717805.088   180784698.013        -104.065          47.000    34717792.867   139794149.552         -80.585          48.000  
C16  35673665.360   185762125.143         -45.647          48.000    35673651.311   143643010.022         -35.186          48.000  
C25  22466279.270                       -2688.477          32.000                                                                  
C32  20985779.181   109278441.409         762.425          51.000                                                                  
C06  35352458.393   184089514.643         132.339          46.000    35352437.792   142349620.347         102.228          46.000  
G25  20301585.462   106685565.585        2368.495          44.000    20301576.771    83131567.912        1845.620          41.000  
G10  19439114.808   102153238.172         813.268          50.000    19439103.905    79599879.433         633.857          46.000  
G28  21835887.755   114748360.403        2461.800          43.000    21835876.563    89414280.624        1918.539          42.000  
C23  20714648.791   107866591.030          41.508          50.000                                                                  
C09  36812890.469   191694358.923         232.060          44.000    36812873.987   148230190.304         179.326          46.000  
C37  22659741.120   117995218.284        2572.400          46.000                                                                  
> 2025 10 27 02 57 28.1960000  0 18                     
G12  20692369.406   108739136.035         612.398          46.000    20692358.170    84731748.575         477.185          42.000  
G15  23505495.439   123522203.384       -3296.158          34.000    23505492.675    96251138.026       -2568.788          32.000  
G18  23865032.193                       -3639.033          31.000    23865031.913    97723285.131       -2835.944          40.000  
G23  19431304.912   102112188.017       -2319.839          46.000    19431293.612    79567863.062       -1807.588          47.000  
G24  21206121.130   111438912.263       -3447.863          29.000    21206108.680                       -2686.290          28.000  
G32  20783260.808   109216769.437        1456.695          45.000    20783251.012    85103941.344        1134.930          42.000  
C08  34740494.050   180902843.616        -409.924          46.000    34740473.367   139885474.317        -317.114          48.000  
C13  34717805.851   180784702.181        -104.150          47.000    34717793.661   139794152.776         -80.627          48.000  
C16  35673665.712   185762126.964         -45.581          48.000    35673651.640   143643011.425         -35.093          48.000  
C25  22466299.920                       -2688.124          32.000                                                                  
C32  20985773.353   109278410.910         762.451          51.000                                                                  
C06  35352457.391   184089509.344         132.422          46.000    35352436.753   142349616.248         102.373          46.000  
G25  20301567.424   106685470.842        2368.507          43.000    20301558.738    83131494.087        1845.618          41.000  
G10  19439108.603   102153205.638         813.299          50.000    19439097.715    79599854.085         633.770          46.000  
G28  21835869.028   114748261.916        2462.052          43.000    21835857.822    89414203.887        1918.435          42.000  
C23  20714648.496   107866589.366          41.552          50.000                                                                  
C09  36812888.710   191694349.640         232.127          44.000    36812872.207   148230183.129         179.344          46.000  
C37  22659721.389   117995115.377        2572.595          46.000                                                                  
> 2025 10 27 02 57 28.2360000  0 18                     
G12  20692364.772   108739111.547         612.223          46.000    20692353.527    84731729.496         476.964          42.000  
G15  23505520.566   123522335.224       -3296.089          34.000    23505517.752    96251240.785       -2568.925          32.000  
G18  23865059.911                       -3641.130          31.000    23865059.615    97723398.564       -2835.923          40.000  
G23  19431322.574   102112280.812       -2319.924          46.000    19431311.269    79567935.371       -1807.735          47.000  
G24  21206147.362   111439050.153       -3447.547          29.000    21206134.953                       -2686.077          28.000  
G32  20783249.696   109216711.168        1456.676          45.000    20783239.930    85103895.948        1134.849          42.000  
C08  34740497.188   180902860.021        -410.071          46.000    34740476.553   139885487.004        -317.181          48.000  
C13  34717806.641   180784706.349        -104.187          47.000    34717794.476   139794156.002         -80.652          48.000  
C16  35673666.040   185762128.790         -45.628          48.000    35673651.946   143643012.835         -35.195          48.000  
C25  22466320.563                       -2687.649          32.000                                                                  
C32  20985767.495   109278380.414         762.418          51.000                                                                  
C06  35352456.369   184089504.049         132.405          46.000    35352435.730   142349612.157         102.317          46.000  
G25  20301549.389   106685376.099        2368.518          44.000    20301540.708    83131420.257        1845.715          41.000  
G10  19439102.424   102153173.117         813.059          50.000    19439091.525    79599828.745         633.561          46.000  
G28  21835850.285   114748163.443        2461.905          43.000    21835839.082    89414127.157        1918.286          42.000  
C23  20714648.133   107866587.711          41.436          50.000                                                                  
C09  36812886.924   191694340.370         231.861          44.000    36812870.427   148230175.963         179.161          46.000  
C37  22659701.605   117995012.485        2572.400          46.000                                                                  
> 2025 10 27 02 57 28.2760000  0 18                     
G12  20692360.126   108739087.055         612.194          46.000    20692348.860    84731710.408         477.042          42.000  
G15  23505545.669   123522467.064       -3296.035          34.000    23505542.856    96251343.512       -2568.364          32.000  
G18  23865087.605                       -3639.653          31.000    23865087.332    97723512.013       -2836.182          40.000  
G23  19431340.239   102112373.606       -2319.967          46.000    19431328.930    79568007.681       -1807.815          47.000  
G24  21206173.599   111439188.035       -3447.244          29.000    21206160.980                       -2686.217          28.000  
G32  20783238.601   109216652.895        1456.734          45.000    20783228.817    85103850.539        1135.046          42.000  
C08  34740500.335   180902876.432        -410.284          46.000    34740479.692   139885499.695        -317.303          48.000  
C13  34717807.423   180784710.525        -104.370          47.000    34717795.286   139794159.224         -80.609          48.000  
C16  35673666.368   185762130.617         -45.673          48.000    35673652.281   143643014.249         -35.306          48.000  
C25  22466341.219                       -2688.242          32.000                                                                  
C32  20985761.628   109278349.921         762.315          51.000                                                                  
C06  35352455.348   184089498.756         132.336          46.000    35352434.706   142349608.066         102.278          46.000  
G25  20301531.378   106685281.359        2368.457          44.000    20301522.673    83131346.436        1845.621          41.000  
G10  19439096.238   102153140.599         812.918          50.000    19439085.345    79599803.397         633.611          46.000  
G28  21835831.540   114748064.969        2461.811          43.000    21835820.355    89414050.425        1918.237          42.000  
C23  20714647.808   107866586.055          41.365          50.000                                                                  
C09  36812885.124   191694331.103         231.687          44.000    36812868.628   148230168.798         179.089          46.000  
C37  22659681.828   117994909.596        2572.229          46.000                                                                  
> 2025 10 27 02 57 28.3160000  0 18                     
G12  20692355.472   108739062.571         612.083          46.000    20692344.169    84731691.322         477.069          42.000  
G15  23505570.780   123522598.922       -3296.352          34.000    23505567.942                       -2568.247          32.000  
G18  23865115.295                       -3638.661          31.000    23865115.058    97723625.444       -2835.949          40.000  
G23  19431357.908   102112466.405       -2320.047          46.000    19431346.579    79568079.992       -1807.845          47.000  
G24  21206199.877   111439325.975       -3448.024          29.000    21206187.295                       -2686.180          28.000  
G32  20783227.493   109216594.632        1456.620          45.000    20783217.729    85103805.129        1135.179          42.000  
C08  34740503.482   180902892.855        -410.590          46.000    34740482.847   139885512.384        -317.303          48.000  
C13  34717808.225   180784714.707        -104.565          47.000    34717796.048   139794162.457         -80.792          48.000  
C16  35673666.705   185762132.449         -45.789          48.000    35673652.630   143643015.671         -35.533          48.000  
C25  22466361.863   116988256.426       -2688.112          32.000                                                                  
C32  20985755.760   109278319.434         762.184          51.000                                                                  
C06  35352454.323   184089493.478         132.054          46.000    35352433.673   142349603.983         102.126          46.000  
G25  20301513.374   106685186.625        2368.341          44.000    20301504.675    83131272.617        1845.496          41.000  
G10  19439090.039   102153108.081         812.863          50.000    19439079.154    79599778.061         633.401          46.000  
G28  21835812.785   114747966.493        2461.851          43.000    21835801.625    89413973.704        1918.013          42.000  
C23  20714647.455   107866584.404          41.265          50.000                                                                  
C09  36812883.366   191694321.832         231.690          44.000    36812866.875   148230161.628         179.147          46.000  
C37  22659662.085   117994806.702        2572.223          46.000                                                                  
> 2025 10 27 02 57 28.3560000  0 18                     
G12  20692350.822   108739038.087         612.036          46.000    20692339.513    84731672.245         476.928          42.000  
G15  23505595.865   123522730.810       -3297.057          34.000    23505593.051    96251549.019       -2569.130          32.000  
G18  23865142.997                       -3638.104          31.000    23865142.744    97723738.885       -2835.996          40.000  
G23  19431375.552   102112559.201       -2319.996          46.000    19431364.232    79568152.302       -1807.801          47.000  
G24  21206226.118   111439463.887       -3447.983          29.000    21206213.564                       -2686.483          28.000  
G32  20783216.392   109216536.374        1456.495          45.000    20783206.640    85103759.726        1135.091          42.000  
C08  34740506.656   180902909.262        -410.376          46.000    34740485.996   139885525.072        -317.273          48.000  
C13  34717809.018   180784718.881        -104.504          47.000    34717796.851   139794165.685         -80.756          48.000  
C16  35673667.061   185762134.274         -45.715          48.000    35673653.023   143643017.085         -35.487          48.000  
C25  22466382.519   116988363.962       -2688.352          32.000                                                                  
C32  20985749.921   109278288.944         762.174          51.000                                                                  
C06  35352453.324   184089488.194         132.003          46.000    35352432.654   142349599.895         102.146          46.000  
G25  20301495.363   106685091.889        2368.342          44.000    20301486.626    83131198.797        1845.481          41.000  
G10  19439083.858   102153075.559         812.919          50.000    19439072.963    79599752.719         633.408          46.000  
G28  21835794.042   114747868.017        2461.857          43.000    21835782.855    89413896.970        1918.167          42.000  
C23  20714647.147   107866582.751          41.243          50.000                                                                  
C09  36812881.587   191694312.559         231.761          44.000    36812865.086   148230154.457         179.198          46.000  
C37  22659642.311   117994703.812        2572.180          46.000                                                                  
> 2025 10 27 02 57 28.3960000  0 18                     
G12  20692346.149   108739013.597         612.136          46.000    20692334.855    84731653.167         476.912          42.000  
G15  23505620.934   123522862.661       -3296.618          34.000    23505618.166    96251651.776       -2569.191          32.000  
G18  23865170.702                       -3639.739          31.000    23865170.446    97723852.327       -2836.027          40.000  
G23  19431393.212   102112651.998       -2319.972          46.000    19431381.897    79568224.611       -1807.739          47.000  
G24  21206252.358                       -3446.806          30.000    21206239.847                       -2686.544          28.000  
G32  20783205.310   109216478.104        1456.647          45.000    20783195.556    85103714.318        1135.136          42.000  
C08  34740509.810   180902925.666        -410.175          46.000    34740489.162   139885537.763        -317.297          48.000  
C13  34717809.831   180784723.055        -104.456          47.000    34717797.636   139794168.911         -80.707          48.000  
C16  35673667.419   185762136.101         -45.714          48.000    35673653.378   143643018.502         -35.504          48.000  
C25  22466403.156   116988471.490       -2688.370          32.000                                                                  
C32  20985744.105   109278258.453         762.208          51.000                                                                  
C06  35352452.322   184089482.907         132.085          46.000    35352431.584   142349595.810         102.074          46.000  
G25  20301477.338   106684997.159        2368.204          44.000    20301468.633    83131124.986        1845.291          41.000  
G10  19439077.662   102153043.040         812.914          50.000    19439066.767    79599727.390         633.218          46.000  
G28  21835775.311   114747769.554        2461.612          43.000    21835764.105    89413820.231        1918.362          42.000  
C23  20714646.845   107866581.099          41.246          50.000                                                                  
C09  36812879.819   191694303.285         231.824          44.000    36812863.277   148230147.285         179.248          46.000  
C37  22659622.570   117994600.919        2572.247          46.000                                                                  
> 2025 10 27 02 57 28.4360000  0 18                     
G12  20692341.474   108738989.103         612.265          46.000    20692330.195    84731634.078         477.077          42.000  
G15  23505646.011   123522994.515       -3296.426          34.000    23505643.243    96251754.504       -2568.603          32.000  
G18  23865198.434                       -3639.913          31.000    23865198.168    97723965.761       -2835.896          40.000  
G23  19431410.883   102112744.802       -2320.082          46.000    19431399.579    79568296.917       -1807.690          47.000  
G24  21206278.565                       -3447.978          30.000    21206266.196                       -2686.920          28.000  
G32  20783194.210   109216419.835        1456.704          45.000    20783184.481    85103668.920        1135.015          42.000  
C08  34740512.952   180902942.066        -410.046          46.000    34740492.323   139885550.445        -317.151          48.000  
C13  34717810.636   180784727.223        -104.321          47.000    34717798.446   139794172.138         -80.682          48.000  
C16  35673667.734   185762137.928         -45.693          48.000    35673653.718   143643019.917         -35.475          48.000  
C25  22466423.805   116988578.996       -2687.745          32.000                                                                  
C32  20985738.262   109278227.959         762.286          51.000                                                                  
C06  35352451.303   184089477.611         132.284          46.000    35352430.531   142349591.718         102.211          46.000  
G25  20301459.302   106684902.426        2368.237          44.000    20301450.573    83131051.176        1845.206          41.000  
G10  19439071.445   102153010.518         812.994          50.000    19439060.580    79599702.047         633.410          46.000  
G28  21835756.571   114747671.090        2461.533          43.000    21835745.359    89413743.504        1918.248          42.000  
C23  20714646.530   107866579.447          41.261          50.000                                                                  
C09  36812878.033   191694294.012         231.829          44.000    36812861.509   148230140.109         179.373          46.000  
C37  22659602.822   117994498.029        2572.235          46.000                                                                  
> 2025 10 27 02 57 28.4760000  0 18                     
G12  20692336.800   108738964.612         612.247          46.000    20692325.532    84731615.006         476.881          42.000  
G15  23505671.104   123523126.355       -3296.037          34.000    23505668.342    96251857.249       -2568.521          32.000  
G18  23865226.147                       -3639.936          31.000    23865225.891    97724079.202       -2836.011          40.000  
G23  19431428.531   102112837.600       -2320.026          46.000    19431417.252    79568369.226       -1807.722          47.000  
G24  21206304.821                       -3447.614          30.000    21206292.549                       -2686.873          28.000  
G32  20783183.141   109216361.558        1456.897          45.000    20783173.392    85103623.513        1135.114          42.000  
C08  34740516.059   180902958.469        -410.046          46.000    34740495.481   139885563.129        -317.090          48.000  
C13  34717811.465   180784731.391        -104.218          47.000    34717799.247   139794175.361         -80.615          48.000  
C16  35673668.072   185762139.758         -45.733          48.000    35673654.082   143643021.326         -35.345          48.000  
C25  22466444.426   116988686.527       -2688.081          32.000                                                                  
C32  20985732.412   109278197.466         762.305          51.000                                                                  
C06  35352450.292   184089472.315         132.390          46.000    35352429.474   142349587.614         102.487          45.000  
G25  20301441.267   106684807.684        2368.425          44.000    20301432.528    83130977.342        1845.573          41.000  
G10  19439065.254   102152977.993         813.074          50.000    19439054.388    79599676.699         633.632          46.000  
G28  21835737.824   114747572.615        2461.731          43.000    21835726.644    89413666.774        1918.248          42.000  
C23  20714646.220   107866577.795          41.255          50.000                                                                  
C09  36812876.223   191694284.737         231.867          44.000    36812859.738   148230132.938         179.315          46.000  
C37  22659583.059   117994395.140        2572.217          46.000                                                                  
> 2025 10 27 02 57 28.5160000  0 18                     
G12  20692332.153   108738940.127         612.137          46.000    20692320.861    84731595.925         476.908          42.000  
G15  23505696.179   123523258.224       -3296.338          34.000    23505693.409    96251959.968       -2568.128          32.000  
G18  23865253.868                       -3639.834          31.000    23865253.575    97724192.642       -2836.015          40.000  
G23  19431446.190   102112930.394       -2319.909          46.000    19431434.916    79568441.536       -1807.771          47.000  
G24  21206331.061                       -3448.233          30.000    21206319.004                       -2686.396          28.000  
G32  20783172.053   109216303.294        1456.716          45.000    20783162.275    85103578.106        1135.158          42.000  
C08  34740519.170   180902974.880        -410.193          46.000    34740498.622   139885575.809        -317.029          48.000  
C13  34717812.274   180784735.556        -104.126          47.000    34717800.065   139794178.587         -80.646          48.000  
C16  35673668.451   185762141.581         -45.648          48.000    35673654.433   143643022.732         -35.217          48.000  
C25  22466465.068   116988794.032       -2687.878          32.000                                                                  
C32  20985726.573   109278166.969         762.413          51.000                                                                  
C06  35352449.259   184089467.017         132.477          46.000    35352428.493   142349583.526         102.360          45.000  
G25  20301423.239   106684712.947        2368.435          44.000    20301414.485    83130903.521        1845.504          41.000  
G10  19439059.059   102152945.467         813.117          50.000    19439048.188    79599651.356         633.613          46.000  
G28  21835719.094   114747474.136        2461.957          43.000    21835707.906    89413590.043        1918.216          42.000  
C23  20714645.895   107866576.145          41.229          50.000                                                                  
C09  36812874.433   191694275.461         231.885          44.000    36812857.964   148230125.768         179.271          46.000  
C37  22659563.308   117994292.247        2572.260          46.000                                                                  
> 2025 10 27 02 57 28.5560000  0 18                     
G12  20692327.510   108738915.648         611.971          46.000    20692316.204    84731576.847         476.924          42.000  
G15  23505721.265   123523390.047       -3295.825          34.000    23505718.475    96252062.732       -2568.786          32.000  
G18  23865281.577                       -3639.966          31.000    23865281.280    97724306.058       -2835.588          40.000  
G23  19431463.849   102113023.195       -2320.002          46.000    19431452.578    79568513.854       -1807.944          47.000  
G24  21206357.290                       -3447.681          29.000    21206345.044                       -2686.517          28.000  
G32  20783160.963   109216245.023        1456.749          45.000    20783151.173    85103532.711        1134.969          42.000  
C08  34740522.338   180902991.287        -410.205          46.000    34740501.740   139885588.500        -317.194          48.000  
C13  34717813.067   180784739.731        -104.297          47.000    34717800.865   139794181.809         -80.573          48.000  
C16  35673668.802   185762143.408         -45.683          48.000    35673654.804   143643024.141         -35.208          48.000  
C25  22466485.713   116988901.589       -2688.786          32.000                                                                  
C32  20985720.699   109278136.476         762.360          51.000                                                                  
C06  35352448.235   184089461.734         132.220          46.000    35352427.477   142349579.439         102.231          45.000  
G25  20301405.227   106684618.207        2368.478          43.000    20301396.458    83130829.698        1845.508          41.000  
G10  19439052.864   102152912.949         812.987          50.000    19439042.005    79599626.010         633.643          46.000  
G28  21835700.338   114747375.649        2462.161          43.000    21835689.174    89413513.307        1918.323          42.000  
C23  20714645.591   107866574.488          41.313          50.000                                                                  
C09  36812872.668   191694266.193         231.739          44.000    36812856.212   148230118.597         179.226          46.000  
C37  22659543.534   117994189.348        2572.400          46.000                                                                  
> 2025 10 27 02 57 28.5960000  0 18                     
G12  20692322.850   108738891.169         611.932          46.000    20692311.539    84731557.759         477.092          42.000  
G15  23505746.371   123523521.911       -3296.254          34.000    23505743.579    96252165.476       -2568.665          32.000  
G18  23865309.278                       -3639.897          31.000    23865308.988    97724419.500       -2835.850          40.000  
G23  19431481.541   102113116.003       -2320.200          46.000    19431470.212    79568586.168       -1807.943          47.000  
G24  21206383.559   111440291.312       -3447.911          29.000    21206371.133                       -2686.574          28.000  
G32  20783149.863   109216186.751        1456.761          45.000    20783140.096    85103487.310        1134.932          42.000  
C08  34740525.502   180903007.693        -410.168          46.000    34740504.878   139885601.192        -317.322          48.000  
C13  34717813.868   180784743.912        -104.492          47.000    34717801.665   139794185.034         -80.603          48.000  
C16  35673669.147   185762145.235         -45.717          48.000    35673655.164   143643025.555         -35.310          48.000  
C25  22466506.344                       -2688.136          32.000                                                                  
C32  20985714.813   109278105.986         762.281          51.000                                                                  
C06  35352447.208   184089456.456         131.986          46.000    35352426.466   142349575.344         102.284          45.000  
G25  20301387.195   106684523.481        2368.259          43.000    20301378.437    83130755.881        1845.403          41.000  
G10  19439046.699   102152880.433         812.876          50.000    19439035.830    79599600.669         633.562          46.000  
G28  21835681.628   114747277.180        2461.899          43.000    21835670.441    89413436.570        1918.424          42.000  
C23  20714645.250   107866572.841          41.210          50.000                                                                  
C09  36812870.895   191694256.920         231.746          44.000    36812854.424   148230111.425         179.284          46.000  
C37  22659523.738   117994086.467        2572.156          46.000                                                                  
> 2025 10 27 02 57 28.6360000  0 18                     
G12  20692318.175   108738866.683         612.019          46.000    20692306.880    84731538.682         476.965          42.000  
G15  23505771.466   123523653.764       -3296.290          34.000    23505768.672    96252268.246       -2569.219          32.000  
G18  23865336.997                       -3639.792          30.000    23865336.706    97724532.941       -2835.978          40.000  
G23  19431499.202   102113208.801       -2320.094          46.000    19431487.858    79568658.479       -1807.844          47.000  
G24  21206409.788                       -3447.375          30.000    21206397.237                       -2686.336          28.000  
G32  20783138.786   109216128.486        1456.672          45.000    20783128.983    85103441.898        1135.134          42.000  
C08  34740528.668   180903024.099        -410.193          46.000    34740508.043   139885613.885        -317.358          48.000  
C13  34717814.654   180784748.090        -104.511          47.000    34717802.452   139794188.270         -80.823          48.000  
C16  35673669.499   185762147.062         -45.722          48.000    35673655.544   143643026.971         -35.414          48.000  
C25  22466527.021   116989116.625       -2688.339          32.000                                                                  
C32  20985708.956   109278075.503         762.129          51.000                                                                  
C06  35352446.185   184089451.164         132.098          46.000    35352425.486   142349571.251         102.291          45.000  
G25  20301369.193   106684428.747        2368.291          43.000    20301360.422    83130682.056        1845.497          41.000  
G10  19439040.525   102152847.923         812.729          50.000    19439029.647    79599575.340         633.291          46.000  
G28  21835662.905   114747178.723        2461.484          43.000    21835651.699    89413359.839        1918.307          42.000  
C23  20714644.970   107866571.191          41.211          50.000                                                                  
C09  36812869.143   191694247.647         231.733          44.000    36812852.662   148230104.257         179.188          46.000  
C37  22659503.981   117993983.571        2572.278          46.000                                                                  
> 2025 10 27 02 57 28.6760000  0 18                     
G12  20692313.499   108738842.200         612.032          46.000    20692302.237    84731519.612         476.771          42.000  
G15  23505796.539   123523785.602       -3296.009          34.000    23505793.746                       -2568.558          32.000  
G18  23865364.673                       -3639.233          30.000    23865364.401    97724646.385       -2836.139          40.000  
G23  19431516.857   102113301.597       -2319.977          46.000    19431505.503    79568730.792       -1807.850          47.000  
G24  21206436.021   111440567.089       -3447.314          30.000    21206423.425                       -2686.212          28.000  
G32  20783127.707   109216070.218        1456.658          45.000    20783117.911    85103396.488        1135.175          42.000  
C08  34740531.791   180903040.511        -410.291          46.000    34740511.177   139885626.564        -317.133          48.000  
C13  34717815.462   180784752.260        -104.346          47.000    34717803.236   139794191.493         -80.707          48.000  
C16  35673669.836   185762148.891         -45.732          48.000    35673655.930   143643028.383         -35.404          48.000  
C25  22466547.661   116989224.148       -2688.228          32.000                                                                  
C32  20985703.111   109278045.015         762.119          51.000                                                                  
C06  35352445.162   184089445.878         132.115          46.000    35352424.456   142349567.161         102.266          45.000  
G25  20301351.203   106684334.020        2368.187          43.000    20301342.410    83130608.255        1845.156          41.000  
G10  19439034.325   102152815.411         812.705          50.000    19439023.457    79599550.008         633.206          46.000  
G28  21835644.161   114747080.259        2461.439          43.000    21835632.963    89413283.108        1918.323          42.000  
C23  20714644.671   107866569.542          41.173          50.000                                                                  
C09  36812867.344   191694238.371         231.804          44.000    36812850.870   148230097.092         179.102          46.000  
C37  22659484.208   117993880.674        2572.375          46.000                                                                  
> 2025 10 27 02 57 28.7160000  0 18                     
G12  20692308.831   108738817.715         612.103          46.000    20692297.578    84731500.538         476.771          42.000  
G15  23505821.679   123523917.531       -3297.507          34.000    23505818.843                       -2568.146          32.000  
G18  23865392.326                       -3639.696          30.000    23865392.107    97724759.814       -2835.912          40.000  
G23  19431534.511   102113394.396       -2319.940          46.000    19431523.149    79568803.101       -1807.745          47.000  
G24  21206462.264   111440704.972       -3447.064          29.000    21206449.793                       -2686.131          28.000  
G32  20783116.622   109216011.956        1456.557          45.000    20783106.832    85103351.092        1134.988          42.000  
C08  34740534.948   180903056.913        -410.101          46.000    34740514.329   139885639.245        -317.035          48.000  
C13  34717816.252   180784756.427        -104.211          47.000    34717804.023   139794194.719         -80.652          48.000  
C16  35673670.204   185762150.709         -45.529          48.000    35673656.299   143643029.800         -35.467          48.000  
C25  22466568.334   116989331.667       -2688.024          32.000                                                                  
C32  20985697.248   109278014.522         762.244          51.000                                                                  
C06  35352444.140   184089440.583         132.296          46.000    35352423.462   142349563.083         102.023          45.000  
G25  20301333.185   106684239.286        2368.271          43.000    20301324.394    83130534.442        1845.172          41.000  
G10  19439028.110   102152782.894         812.804          50.000    19439017.283    79599524.675         633.219          46.000  
G28  21835625.411   114746981.775        2461.832          43.000    21835614.223    89413206.384        1918.166          42.000  
C23  20714644.400   107866567.890          41.238          50.000                                                                  
C09  36812865.573   191694229.099         231.798          44.000    36812849.126   148230089.913         179.330          46.000  
C37  22659464.441   117993777.783        2572.302          46.000                                                                  
> 2025 10 27 02 57 28.7560000  0 18                     
G12  20692304.184   108738793.233         612.064          46.000    20692292.910    84731481.458         476.891          42.000  
G15  23505846.782   123524049.355       -3296.418          34.000    23505843.942    96252576.416       -2568.169          32.000  
G18  23865420.047                       -3639.517          30.000    23865419.812    97724873.250       -2835.881          40.000  
G23  19431552.172   102113487.196       -2319.983          46.000    19431540.812    79568875.412       -1807.758          47.000  
G24  21206488.525                       -3447.739          30.000    21206475.813                       -2685.977          28.000  
G32  20783105.543   109215953.690        1456.571          45.000    20783095.746    85103305.692        1134.952          42.000  
C08  34740538.089   180903073.322        -410.199          46.000    34740517.450   139885651.931        -317.084          48.000  
C13  34717817.032   180784760.592        -104.108          47.000    34717804.829   139794197.941         -80.566          48.000  
C16  35673670.554   185762152.530         -45.503          48.000    35673656.707   143643031.210         -35.339          48.000  
C25  22466589.005   116989439.176       -2687.784          32.000                                                                  
C32  20985691.432   109277984.022         762.442          51.000                                                                  
C06  35352443.097   184089435.283         132.452          46.000    35352422.457   142349558.988         102.195          45.000  
G25  20301315.157   106684144.556        2368.258          43.000    20301306.372    83130460.636        1845.090          41.000  
G10  19439021.915   102152750.376         812.916          50.000    19439011.104    79599499.339         633.319          46.000  
G28  21835606.674   114746883.299        2461.899          43.000    21835595.474    89413129.650        1918.293          42.000  
C23  20714644.101   107866566.240          41.232          50.000                                                                  
C09  36812863.779   191694219.826         231.817          44.000    36812847.351   148230082.734         179.486          46.000  
C37  22659444.666   117993674.896        2572.217          46.000                                                                  
> 2025 10 27 02 57 28.7960000  0 18                     
G12  20692299.532   108738768.754         611.986          46.000    20692288.218    84731462.382         476.870          42.000  
G15  23505871.838   123524181.153       -3295.285          34.000    23505869.045                       -2569.172          32.000  
G18  23865447.760                       -3639.212          30.000    23865447.518    97724986.684       -2835.891          39.000  
G23  19431569.854   102113580.008       -2320.248          46.000    19431558.459    79568947.728       -1807.875          47.000  
G24  21206514.785   111440980.797       -3447.885          30.000    21206502.321                       -2686.484          28.000  
G32  20783094.459   109215895.413        1456.779          45.000    20783084.647    85103260.275        1135.238          42.000  
C08  34740541.236   180903089.731        -410.236          46.000    34740520.580   139885664.626        -317.303          48.000  
C13  34717817.828   180784764.764        -104.199          47.000    34717805.639   139794201.170         -80.670          48.000  
C16  35673670.915   185762154.363         -45.734          48.000    35673657.061   143643032.616         -35.192          48.000  
C25  22466609.637   116989546.693       -2687.741          32.000                                                                  
C32  20985685.528   109277953.531         762.366          51.000                                                                  
C06  35352442.055   184089429.992         132.332          46.000    35352421.467   142349554.889         102.391          45.000  
G25  20301297.102   106684049.812        2368.483          43.000    20301288.334    83130386.801        1845.562          41.000  
G10  19439015.728   102152717.860         812.903          50.000    19439004.890    79599473.996         633.503          46.000  
G28  21835587.929   114746784.833        2461.727          43.000    21835576.747    89413052.926        1918.167          42.000  
C23  20714643.781   107866564.596          41.136          50.000                                                                  
C09  36812862.025   191694210.551         231.841          44.000    36812845.611   148230075.566         179.313          46.000  
C37  22659424.889   117993572.013        2572.058          46.000                                                                  
> 2025 10 27 02 57 28.8360000  0 18                     
G12  20692294.912   108738744.282         611.833          46.000    20692283.565    84731443.307         476.844          42.000  
G15  23505896.914   123524313.011       -3295.805          34.000    23505894.167                       -2569.172          32.000  
G18  23865475.445                       -3639.064          31.000    23865475.204    97725100.111       -2835.770          39.000  
G23  19431587.528   102113672.820       -2320.321          46.000    19431576.127    79569020.053       -1808.109          47.000  
G24  21206541.055   111441118.717       -3448.066          30.000    21206528.308                       -2686.627          28.000  
G32  20783083.376   109215837.149        1456.659          45.000    20783073.532    85103214.880        1134.987          42.000  
C08  34740544.405   180903106.142        -410.278          46.000    34740523.742   139885677.320        -317.389          48.000  
C13  34717818.593   180784768.944        -104.419          47.000    34717806.440   139794204.402         -80.804          48.000  
C16  35673671.269   185762156.193         -45.816          48.000    35673657.421   143643034.025         -35.222          48.000  
C25  22466630.279   116989654.244       -2688.539          32.000                                                                  
C32  20985679.629   109277923.050         762.115          51.000                                                                  
C06  35352441.034   184089424.716         132.019          46.000    35352420.451   142349550.802         102.245          45.000  
G25  20301279.089   106683955.090        2368.198          43.000    20301270.313    83130312.980        1845.573          41.000  
G10  19439009.552   102152685.351         812.767          50.000    19438998.698    79599448.668         633.299          46.000  
G28  21835569.218   114746686.369        2461.589          43.000    21835557.984    89412976.194        1918.211          42.000  
C23  20714643.482   107866562.951          41.100          50.000                                                                  
C09  36812860.273   191694201.278         231.809          44.000    36812843.820   148230068.396         179.257          46.000  
C37  22659405.133   117993469.127        2572.058          46.000                                                                  
> 2025 10 27 02 57 28.8760000  0 18                     
G12  20692290.266   108738719.807         611.805          46.000    20692278.898    84731424.244         476.626          42.000  
G15  23505921.995   123524444.892       -3296.890          34.000    23505919.224                       -2568.290          32.000  
G18  23865503.128                       -3639.719          31.000    23865502.907    97725213.548       -2835.828          39.000  
G23  19431605.187   102113765.633       -2320.401          46.000    19431593.782    79569092.371       -1808.077          47.000  
G24  21206567.294   111441256.666       -3448.670          30.000    21206554.425                       -2686.694          28.000  
G32  20783072.292   109215778.891        1456.473          45.000    20783062.462    85103169.484        1134.881          42.000  
C08  34740547.542   180903122.551        -410.291          46.000    34740526.913   139885690.009        -317.316          48.000  
C13  34717819.382   180784773.123        -104.511          47.000    34717807.258   139794207.628         -80.743          48.000  
C16  35673671.648   185762158.027         -45.890          48.000    35673657.778   143643035.445         -35.420          48.000  
C25  22466650.961   116989761.787       -2688.740          32.000                                                                  
C32  20985673.758   109277892.568         762.011          51.000                                                                  
C06  35352440.034   184089419.426         132.126          46.000    35352419.480   142349546.713         102.163          45.000  
G25  20301261.069   106683860.355        2368.275          43.000    20301252.281    83130239.162        1845.477          41.000  
G10  19439003.374   102152652.840         812.730          50.000    19438992.519    79599423.334         633.324          46.000  
G28  21835550.476   114746587.905        2461.561          43.000    21835539.227    89412899.465        1918.186          42.000  
C23  20714643.184   107866561.311          40.999          50.000                                                                  
C09  36812858.506   191694192.006         231.726          44.000    36812842.062   148230061.233         179.094          46.000  
C37  22659385.354   117993366.236        2572.162          46.000                                                                  
> 2025 10 27 02 57 28.9160000  0 18                     
G12  20692285.623   108738695.339         611.686          46.000    20692274.230    84731405.165         476.832          42.000  
G15  23505947.107   123524576.791       -3297.515          34.000    23505944.328                       -2568.453          32.000  
G18  23865530.840                       -3639.237          30.000    23865530.612    97725327.001       -2836.150          39.000  
G23  19431622.837   102113858.441       -2320.326          46.000    19431611.461    79569164.692       -1808.070          47.000  
G24  21206593.527                       -3446.801          30.000    21206580.705                       -2686.886          28.000  
G32  20783061.183   109215720.627        1456.497          45.000    20783051.384    85103124.083        1134.963          42.000  
C08  34740550.692   180903138.963        -410.321          46.000    34740530.089   139885702.694        -317.181          48.000  
C13  34717820.177   180784777.302        -104.553          47.000    34717808.038   139794210.860         -80.786          48.000  
C16  35673672.043   185762159.855         -45.828          48.000    35673658.165   143643036.865         -35.513          48.000  
C25  22466671.639   116989869.316       -2688.478          32.000                                                                  
C32  20985667.910   109277862.079         762.112          51.000                                                                  
C06  35352439.045   184089414.134         132.228          46.000    35352418.447   142349542.630         102.078          45.000  
G25  20301243.056   106683765.640        2367.952          43.000    20301234.266    83130165.363        1845.133          41.000  
G10  19438997.174   102152620.330         812.688          50.000    19438986.308    79599398.001         633.300          45.000  
G28  21835531.712   114746489.433        2461.713          43.000    21835520.474    89412822.744        1918.068          42.000  
C23  20714642.881   107866559.669          40.983          50.000                                                                  
C09  36812856.724   191694182.733         231.772          44.000    36812840.284   148230054.068         179.065          46.000  
C37  22659365.601   117993263.341        2572.321          46.000                                                                  
> 2025 10 27 02 57 28.9560000  0 18                     
G12  20692280.964   108738670.858         611.844          46.000    20692269.580    84731386.103         476.630          42.000  
G15  23505972.221   123524708.628       -3296.723          34.000    23505969.425                       -2568.558          32.000  
G18  23865558.530                       -3639.168          31.000    23865558.339    97725440.446       -2836.181          39.000  
G23  19431640.506   102113951.251       -2320.326          46.000    19431629.131    79569237.008       -1807.947          47.000  
G24  21206619.774                       -3447.225          30.000    21206607.023                       -2686.676          28.000  
G32  20783050.084   109215662.364        1456.525          45.000    20783040.298    85103078.683        1135.018          42.000  
C08  34740553.845   180903155.381        -410.400          46.000    34740533.239   139885715.383        -317.206          48.000  
C13  34717820.976   180784781.482        -104.590          47.000    34717808.829   139794214.090         -80.804          48.000  
C16  35673672.411   185762161.680         -45.721          48.000    35673658.488   143643038.275         -35.392          48.000  
C25  22466692.305   116989976.867       -2688.799          32.000                                                                  
C32  20985662.063   109277831.593         762.125          51.000                                                                  
C06  35352438.061   184089408.844         132.208          46.000    35352417.427   142349538.544         102.084          45.000  
G25  20301225.028   106683670.911        2368.076          43.000    20301216.263    83130091.558        1845.038          41.000  
G10  19438991.003   102152587.822         812.670          50.000    19438980.123    79599372.666         633.325          45.000  
G28  21835512.981   114746390.968        2461.662          43.000    21835501.714    89412746.020        1918.146          42.000  
C23  20714642.593   107866558.025          41.044          50.000                                                                  
C09  36812854.945   191694173.466         231.678          44.000    36812838.498   148230046.902         179.073          46.000  
C37  22659345.821   117993160.455        2572.186          46.000                                                                  
> 2025 10 27 02 57 28.9960000  0 18                     
G12  20692276.316   108738646.385         611.811          46.000    20692264.947    84731367.035         476.648          42.000  
G15  23505997.328   123524840.477       -3296.382          34.000    23505994.547                       -2568.556          32.000  
G18  23865586.238                       -3639.629          31.000    23865586.045    97725553.880       -2835.963          39.000  
G23  19431658.162   102114044.058       -2320.227          46.000    19431646.774    79569309.332       -1808.064          47.000  
G24  21206646.031   111441670.298       -3447.568          30.000    21206633.266                       -2686.761          28.000  
G32  20783038.987   109215604.098        1456.592          45.000    20783029.205    85103033.281        1135.041          42.000  
C08  34740556.996   180903171.792        -410.339          46.000    34740536.397   139885728.080        -317.371          48.000  
C13  34717821.782   180784785.663        -104.626          47.000    34717809.626   139794217.325         -80.908          48.000  
C16  35673672.770   185762163.511         -45.762          48.000    35673658.843   143643039.689         -35.386          48.000  
C25  22466712.961   116990084.401       -2688.594          32.000                                                                  
C32  20985656.219   109277801.105         762.177          51.000                                                                  
C06  35352437.027   184089403.567         131.992          46.000    35352416.450   142349534.457         102.114          45.000  
G25  20301206.992   106683576.202        2367.822          43.000    20301198.227    83130017.744        1845.190          41.000  
G10  19438984.806   102152555.319         812.571          50.000    19438973.945    79599347.338         633.201          45.000  
G28  21835494.262   114746292.504        2461.593          43.000    21835482.969    89412669.289        1918.285          42.000  
C23  20714642.261   107866556.386          40.971          50.000                                                                  
C09  36812853.166   191694164.198         231.616          44.000    36812836.728   148230039.734         179.118          46.000  
C37  22659326.035   117993057.581        2571.887          46.000                                                                  
> 2025 10 27 02 57 29.0360000  0 18                     
G12  20692271.664   108738621.919         611.663          46.000    20692260.303    84731347.963         476.753          42.000  
G15  23506022.413   123524972.325       -3296.174          34.000    23506019.649                       -2568.302          32.000  
G18  23865613.935                       -3640.244          31.000    23865613.736    97725667.312       -2835.741          39.000  
G23  19431675.828   102114136.871       -2320.314          46.000    19431664.461    79569381.653       -1808.052          47.000  
G24  21206672.310   111441808.238       -3448.317          30.000    21206659.229                       -2686.439          28.000  
G32  20783027.893   109215545.837        1456.538          45.000    20783018.116    85102987.877        1135.064          42.000  
C08  34740560.145   180903188.210        -410.431          46.000    34740539.522   139885740.775        -317.407          48.000  
C13  34717822.580   180784789.838        -104.492          47.000    34717810.454   139794220.558         -80.896          48.000  
C16  35673673.158   185762165.340         -45.757          48.000    35673659.206   143643041.105         -35.399          48.000  
C25  22466733.594   116990191.908       -2687.953          32.000                                                                  
C32  20985650.340   109277770.622         762.079          51.000                                                                  
C06  35352436.001   184089398.282         131.991          46.000    35352415.436   142349530.362         102.269          45.000  
G25  20301188.973   106683481.484        2367.866          43.000    20301180.211    83129943.937        1845.138          41.000  
G10  19438978.611   102152522.819         812.473          50.000    19438967.746    79599322.004         633.276          45.000  
G28  21835475.521   114746194.038        2461.626          43.000    21835464.212    89412592.555        1918.390          42.000  
C23  20714641.946   107866554.746          40.960          50.000                                                                  
C09  36812851.398   191694154.932         231.599          44.000    36812834.950   148230032.562         179.250          46.000  
C37  22659306.283   117992954.699        2571.899          46.000                                                                  
> 2025 10 27 02 57 29.0760000  0 18                     
G12  20692266.991   108738597.454         611.575          46.000    20692255.664    84731328.899         476.641          42.000  
G15  23506047.518   123525104.167       -3296.102          34.000    23506044.721                       -2568.508          32.000  
G18  23865641.660                       -3640.182          31.000    23865641.442    97725780.744       -2835.677          39.000  
G23  19431693.506   102114229.687       -2320.412          46.000    19431682.129    79569453.967       -1807.934          47.000  
G24  21206698.533   111441946.164       -3448.336          30.000    21206685.515                       -2686.309          28.000  
G32  20783016.810   109215487.574        1456.552          45.000    20783007.016    85102942.481        1134.933          42.000  
C08  34740563.327   180903204.615        -410.248          46.000    34740542.687   139885753.463        -317.303          48.000  
C13  34717823.384   180784794.013        -104.419          47.000    34717811.266   139794223.782         -80.701          48.000  
C16  35673673.551   185762167.167         -45.732          48.000    35673659.562   143643042.518         -35.359          48.000  
C25  22466754.236   116990299.421       -2687.640          32.000                                                                  
C32  20985644.485   109277740.137         762.080          51.000                                                                  
C06  35352434.981   184089392.994         132.067          46.000    35352414.405   142349526.276         102.192          45.000  
G25  20301170.941   106683386.754        2368.091          43.000    20301162.183    83129870.122        1845.245          41.000  
G10  19438972.413   102152490.309         812.616          50.000    19438961.566    79599296.675         633.245          45.000  
G28  21835456.768   114746095.572        2461.658          43.000    21835445.491    89412515.837        1918.105          42.000  
C23  20714641.656   107866553.106          40.954          50.000                                                                  
C09  36812849.634   191694145.659         231.719          44.000    36812833.151   148230025.388         179.349          46.000  
C37  22659286.561   117992851.819        2571.918          46.000                                                                  
> 2025 10 27 02 57 29.1160000  0 18                     
G12  20692262.335   108738572.981         611.703          46.000    20692250.997    84731309.816         476.912          42.000  
G15  23506072.629   123525236.048       -3296.683          34.000    23506069.815                       -2569.175          32.000  
G18  23865669.352                       -3638.660          31.000    23865669.132    97725894.178       -2835.721          39.000  
G23  19431711.150   102114322.499       -2320.393          46.000    19431699.806    79569526.295       -1808.138          47.000  
G24  21206724.767                       -3448.215          30.000    21206711.829                       -2686.568          28.000  
G32  20783005.715   109215429.305        1456.641          45.000    20782995.915    85102897.083        1134.931          42.000  
C08  34740566.471   180903221.025        -410.242          46.000    34740545.845   139885766.157        -317.334          48.000  
C13  34717824.199   180784798.187        -104.364          47.000    34717812.043   139794227.010         -80.707          48.000  
C16  35673673.918   185762168.996         -45.738          48.000    35673659.916   143643043.938         -35.442          48.000  
C25  22466774.860   116990406.930       -2687.526          32.000                                                                  
C32  20985638.653   109277709.652         762.087          51.000                                                                  
C06  35352433.968   184089387.705         132.131          46.000    35352413.375   142349522.191         102.141          45.000  
G25  20301152.915   106683292.024        2368.168          43.000    20301144.165    83129796.307        1845.349          41.000  
G10  19438966.207   102152457.799         812.708          50.000    19438955.361    79599271.348         633.196          45.000  
G28  21835438.030   114745997.104        2461.676          43.000    21835426.741    89412439.110        1918.086          42.000  
C23  20714641.356   107866551.473          40.841          50.000                                                                  
C09  36812847.864   191694136.388         231.763          44.000    36812831.378   148230018.213         179.385          46.000  
C37  22659266.831   117992748.927        2572.186          46.000                                                                  
> 2025 10 27 02 57 29.1560000  0 18                     
G12  20692257.708   108738548.512         611.684          46.000    20692246.334    84731290.753         476.675          42.000  
G15  23506097.729   123525367.918       -3296.773          34.000    23506094.884                       -2568.712          32.000  
G18  23865697.065                       -3639.236          31.000    23865696.849    97726007.603       -2835.630          39.000  
G23  19431728.805   102114415.312       -2320.325          46.000    19431717.452    79569598.618       -1808.181          47.000  
G24  21206750.979                       -3446.638          30.000    21206738.131                       -2686.493          28.000  
G32  20782994.621   109215371.038        1456.693          45.000    20782984.853    85102851.670        1135.204          42.000  
C08  34740569.628   180903237.440        -410.364          46.000    34740549.014   139885778.848        -317.334          48.000  
C13  34717824.983   180784802.364        -104.413          47.000    34717812.838   139794230.243         -80.798          48.000  
C16  35673674.291   185762170.829         -45.836          48.000    35673660.279   143643045.352         -35.402          48.000  
C25  22466795.491   116990514.502       -2688.779          32.000                                                                  
C32  20985632.849   109277679.165         762.126          51.000                                                                  
C06  35352432.962   184089382.420         132.112          46.000    35352412.367   142349518.101         102.162          45.000  
G25  20301134.907   106683197.296        2368.175          43.000    20301126.148    83129722.500        1845.261          41.000  
G10  19438960.029   102152425.291         812.726          50.000    19438949.192    79599246.017         633.239          45.000  
G28  21835419.299   114745898.641        2461.580          43.000    21835408.000    89412362.381        1918.176          42.000  
C23  20714641.077   107866549.834          40.895          50.000                                                                  
C09  36812846.089   191694127.117         231.768          44.000    36812829.644   148230011.046         179.238          46.000  
C37  22659247.086   117992646.035        2572.321          46.000                                                                  
> 2025 10 27 02 57 29.1960000  0 18                     
G12  20692253.041   108738524.045         611.658          46.000    20692241.694    84731271.693         476.552          42.000  
G15  23506122.853   123525499.750       -3296.121          34.000    23506119.990    96253706.637       -2568.863          32.000  
G18  23865724.727                       -3639.253          31.000    23865724.568    97726121.025       -2835.566          39.000  
G23  19431746.471   102114508.125       -2320.306          46.000    19431735.103    79569670.936       -1808.076          47.000  
G24  21206777.232                       -3447.975          30.000    21206764.350                       -2686.305          28.000  
G32  20782983.537   109215312.769        1456.723          45.000    20782973.770    85102806.273        1135.037          42.000  
C08  34740572.752   180903253.851        -410.352          46.000    34740552.175   139885791.538        -317.291          48.000  
C13  34717825.777   180784806.542        -104.474          47.000    34717813.641   139794233.469         -80.731          48.000  
C16  35673674.657   185762172.656         -45.761          48.000    35673660.638   143643046.765         -35.365          48.000  
C25  22466816.126   116990622.053       -2689.135          32.000                                                                  
C32  20985626.964   109277648.681         762.106          51.000                                                                  
C06  35352431.934   184089377.126         132.277          46.000    35352411.335   142349514.011         102.229          45.000  
G25  20301116.894   106683102.579        2368.026          43.000    20301108.110    83129648.685        1845.333          41.000  
G10  19438953.853   102152392.789         812.602          50.000    19438943.027    79599220.706         632.875          45.000  
G28  21835400.556   114745800.182        2461.455          43.000    21835389.249    89412285.659        1918.062          42.000  
C23  20714640.774   107866548.195          40.921          50.000                                                                  
C09  36812844.293   191694117.845         231.767          44.000    36812827.873   148230003.883         179.088          46.000  
C37  22659227.288   117992543.156        2572.101          46.000                                                                  
> 2025 10 27 02 57 29.2360000  0 18                     
G12  20692248.377   108738499.568         611.827          46.000    20692237.023    84731252.633         476.477          42.000  
G15  23506147.933   123525631.597       -3296.138          34.000    23506145.066                       -2568.720          32.000  
G18  23865752.435                       -3639.498          31.000    23865752.289    97726234.480       -2836.152          40.000  
G23  19431764.124   102114600.940       -2320.381          46.000    19431752.763    79569743.260       -1808.131          47.000  
G24  21206803.485                       -3448.047          30.000    21206790.503                       -2686.156          28.000  
G32  20782972.460   109215254.507        1456.597          45.000    20782962.649    85102760.873        1134.978          42.000  
C08  34740575.915   180903270.261        -410.297          46.000    34740555.325   139885804.220        -317.102          48.000  
C13  34717826.569   180784810.716        -104.431          47.000    34717814.471   139794236.697         -80.731          48.000  
C16  35673675.072   185762174.478         -45.611          48.000    35673660.998   143643048.172         -35.244          48.000  
C25  22466836.777   116990729.587       -2688.698          32.000                                                                  
C32  20985621.120   109277618.196         762.087          51.000                                                                  
C06  35352430.920   184089371.833         132.339          46.000    35352410.335   142349509.924         102.188          45.000  
G25  20301098.853   106683007.855        2368.048          43.000    20301090.074    83129574.872        1845.331          41.000  
G10  19438947.647   102152360.278         812.701          50.000    19438936.839    79599195.373         633.099          45.000  
G28  21835381.812   114745701.713        2461.615          43.000    21835370.512    89412208.936        1918.005          42.000  
C23  20714640.474   107866546.554          40.999          50.000                                                                  
C09  36812842.502   191694108.567         231.880          44.000    36812826.095   148229996.720         179.002          46.000  
C37  22659207.526   117992440.266        2572.198          46.000                                                                  
> 2025 10 27 02 57 29.2760000  0 18                     
G12  20692243.725   108738475.102         611.674          46.000    20692232.367    84731233.572         476.434          42.000  
G15  23506173.046   123525763.460       -3296.361          34.000    23506170.160                       -2569.024          32.000  
G18  23865780.125                       -3639.902          31.000    23865779.990    97726347.922       -2836.220          40.000  
G23  19431781.786   102114693.756       -2320.417          46.000    19431770.432    79569815.584       -1808.156          47.000  
G24  21206829.696                       -3447.636          30.000    21206816.762                       -2686.302          28.000  
G32  20782961.362   109215196.248        1456.456          45.000    20782951.586    85102715.472        1134.966          42.000  
C08  34740579.058   180903286.684        -410.522          46.000    34740558.476   139885816.911        -317.212          48.000  
C13  34717827.364   180784814.890        -104.425          47.000    34717815.274   139794239.929         -80.786          48.000  
C16  35673675.416   185762176.308         -45.699          48.000    35673661.352   143643049.588         -35.358          48.000  
C25  22466857.408   116990837.127       -2688.643          32.000                                                                  
C32  20985615.258   109277587.713         762.055          51.000                                                                  
C06  35352429.870   184089366.551         132.141          46.000    35352409.289   142349505.834         102.206          45.000  
G25  20301080.831   106682913.136        2367.957          43.000    20301072.025    83129501.057        1845.333          41.000  
G10  19438941.471   102152327.777         812.541          50.000    19438930.644    79599170.037         633.302          45.000  
G28  21835363.053   114745603.245        2461.677          43.000    21835351.785    89412132.220        1917.862          42.000  
C23  20714640.148   107866544.922          40.849          50.000                                                                  
C09  36812840.727   191694099.299         231.741          44.000    36812824.331   148229989.548         179.136          46.000  
C37  22659187.758   117992337.389        2571.997          46.000                                                                  
> 2025 10 27 02 57 29.3160000  0 18                     
G12  20692239.087   108738450.653         611.328          46.000    20692227.701    84731214.509         476.490          42.000  
G15  23506198.147   123525895.343       -3296.932          34.000    23506195.248                       -2568.801          32.000  
G18  23865807.857   125415663.252       -3639.626          31.000    23865807.685    97726461.353       -2836.004          40.000  
G23  19431799.460   102114786.578       -2320.534          46.000    19431788.120    79569887.912       -1808.230          47.000  
G24  21206855.928                       -3447.863          30.000    21206843.046                       -2686.612          28.000  
G32  20782950.281   109215137.985        1456.478          45.000    20782940.494    85102670.068        1134.984          42.000  
C08  34740582.223   180903303.097        -410.425          46.000    34740561.619   139885829.607        -317.358          48.000  
C13  34717828.145   180784819.072        -104.535          47.000    34717816.089   139794243.156         -80.725          48.000  
C16  35673675.755   185762178.146         -45.862          48.000    35673661.706   143643051.006         -35.442          48.000  
C25  22466878.033   116990944.645       -2688.131          32.000                                                                  
C32  20985609.403   109277557.232         761.985          51.000                                                                  
C06  35352428.801   184089361.264         132.118          46.000    35352408.251   142349501.744         102.212          45.000  
G25  20301062.806   106682818.413        2367.993          43.000    20301053.998    83129427.260        1844.995          41.000  
G10  19438935.325   102152295.283         812.356          50.000    19438924.461    79599144.708         633.258          45.000  
G28  21835344.327   114745504.782        2461.594          43.000    21835333.055    89412055.494        1918.023          42.000  
C23  20714639.847   107866543.284          40.883          50.000                                                                  
C09  36812838.957   191694090.029         231.742          44.000    36812822.549   148229982.376         179.237          46.000  
C37  22659168.024   117992234.510        2571.936          46.000                                                                  
> 2025 10 27 02 57 29.3560000  0 18                     
G12  20692234.423   108738426.191         611.387          46.000    20692223.057    84731195.444         476.535          42.000  
G15  23506223.291   123526027.207       -3296.787          34.000    23506220.359                       -2568.849          32.000  
G18  23865835.592   125415808.849       -3639.891          31.000    23865835.400    97726574.784       -2835.863          40.000  
G23  19431817.126   102114879.399       -2320.595          46.000    19431805.757    79569960.239       -1808.241          47.000  
G24  21206882.161                       -3448.186          30.000    21206869.387                       -2686.875          28.000  
G32  20782939.174   109215079.715        1456.642          45.000    20782929.413    85102624.673        1134.864          42.000  
C08  34740585.427   180903319.507        -410.297          46.000    34740564.815   139885842.303        -317.456          48.000  
C13  34717828.975   180784823.250        -104.529          47.000    34717816.866   139794246.391         -80.847          48.000  
C16  35673676.104   185762179.982         -45.950          48.000    35673662.038   143643052.430         -35.616          48.000  
C25  22466898.687   116991052.178       -2688.083          32.000                                                                  
C32  20985603.498   109277526.760         761.801          51.000                                                                  
C06  35352427.764   184089355.988         131.923          46.000    35352407.254   142349497.668         102.003          45.000  
G25  20301044.792   106682723.698        2367.881          43.000    20301035.981    83129353.456        1844.972          41.000  
G10  19438929.130   102152262.791         812.234          50.000    19438918.277    79599119.388         633.023          45.000  
G28  21835325.612   114745406.336        2461.217          43.000    21835314.308    89411978.767        1918.123          42.000  
C23  20714639.524   107866541.655          40.761          50.000                                                                  
C09  36812837.182   191694080.758         231.774          44.000    36812820.778   148229975.217         179.047          46.000  
C37  22659148.259   117992131.633        2571.881          46.000                                                                  
> 2025 10 27 02 57 29.3960000  0 18                     
G12  20692229.746   108738401.727         611.482          46.000    20692218.414    84731176.388         476.481          42.000  
G15  23506248.354   123526159.054       -3296.283          34.000    23506245.455                       -2567.852          32.000  
G18  23865863.302                       -3638.814          31.000    23865863.106    97726688.220       -2835.917          40.000  
G23  19431834.795   102114972.221       -2320.576          46.000    19431823.413    79570032.569       -1808.271          47.000  
G24  21206908.421                       -3448.823          30.000    21206895.724                       -2686.821          28.000  
G32  20782928.069   109215021.454        1456.570          45.000    20782918.359    85102579.278        1134.850          42.000  
C08  34740588.570   180903335.929        -410.474          46.000    34740567.977   139885854.993        -317.346          48.000  
C13  34717829.799   180784827.427        -104.498          47.000    34717817.650   139794249.621         -80.817          48.000  
C16  35673676.475   185762181.814         -45.873          48.000    35673662.407   143643053.848         -35.549          48.000  
C25  22466919.307   116991159.721       -2688.219          32.000                                                                  
C32  20985597.659   109277496.277         761.934          51.000                                                                  
C06  35352426.736   184089350.707         131.946          46.000    35352406.224   142349493.582         102.069          45.000  
G25  20301026.766   106682628.985        2367.821          43.000    20301017.983    83129279.658        1844.861          41.000  
G10  19438922.943   102152230.295         812.297          50.000    19438912.129    79599094.072         632.845          46.000  
G28  21835306.879   114745307.883        2461.165          43.000    21835295.583    89411902.038        1918.210          42.000  
C23  20714639.212   107866540.026          40.680          50.000                                                                  
C09  36812835.396   191694071.493         231.668          44.000    36812819.024   148229968.047         179.169          46.000  
C37  22659128.492   117992028.755        2571.912          46.000                                                                  
> 2025 10 27 02 57 29.4360000  0 18                     
G12  20692225.092   108738377.259         611.632          46.000    20692213.744    84731157.325         476.572          42.000  
G15  23506273.430   123526290.925       -3296.545          34.000    23506270.535                       -2568.722          32.000  
G18  23865890.983                       -3639.975          31.000    23865890.825    97726801.652       -2835.825          40.000  
G23  19431852.450   102115065.036       -2320.453          46.000    19431841.057    79570104.895       -1808.172          47.000  
G24  21206934.660                       -3447.239          30.000    21206921.907                       -2686.900          28.000  
G32  20782916.967   109214963.185        1456.688          45.000    20782907.265    85102533.873        1135.033          42.000  
C08  34740591.726   180903352.334        -410.266          46.000    34740571.145   139885867.685        -317.322          48.000  
C13  34717830.609   180784831.597        -104.327          47.000    34717818.423   139794252.844         -80.658          48.000  
C16  35673676.859   185762183.642         -45.796          48.000    35673662.756   143643055.257         -35.346          48.000  
C25  22466939.940   116991267.264       -2688.385          32.000                                                                  
C32  20985591.823   109277465.784         762.220          51.000                                                                  
C06  35352425.717   184089345.422         132.035          46.000    35352405.218   142349489.490         102.194          45.000  
G25  20301008.751   106682534.260        2368.016          43.000    20300999.944    83129205.847        1845.072          41.000  
G10  19438916.764   102152197.790         812.532          50.000    19438905.915    79599068.751         632.890          46.000  
G28  21835288.134   114745209.409        2461.582          43.000    21835276.849    89411825.311        1918.208          42.000  
C23  20714638.908   107866538.391          40.780          50.000                                                                  
C09  36812833.607   191694062.227         231.657          44.000    36812817.234   148229960.877         179.230          46.000  
C37  22659108.731   117991925.864        2572.174          46.000                                                                  
> 2025 10 27 02 57 29.4760000  0 18                     
G12  20692220.414   108738352.793         611.647          46.000    20692209.071    84731138.249         476.814          42.000  
G15  23506298.518   123526422.791       -3296.576          34.000    23506295.631                       -2568.706          32.000  
G18  23865918.692                       -3638.783          31.000    23865918.526    97726915.073       -2835.602          40.000  
G23  19431870.100   102115157.853       -2320.397          46.000    19431858.711    79570177.211       -1807.963          47.000  
G24  21206960.887                       -3446.923          30.000    21206948.129                       -2686.768          28.000  
G32  20782905.881   109214904.919        1456.665          45.000    20782896.172    85102488.465        1135.198          42.000  
C08  34740594.903   180903368.740        -410.162          46.000    34740574.277   139885880.372        -317.224          48.000  
C13  34717831.401   180784835.770        -104.321          47.000    34717819.214   139794256.071         -80.658          48.000  
C16  35673677.247   185762185.463         -45.601          48.000    35673663.101   143643056.664         -35.227          48.000  
C25  22466960.571   116991374.761       -2687.677          32.000                                                                  
C32  20985585.938   109277435.297         762.227          51.000                                                                  
C06  35352424.669   184089340.121         132.355          46.000    35352404.227   142349485.395         102.314          45.000  
G25  20300990.726   106682439.540        2367.991          43.000    20300981.903    83129132.031        1845.282          41.000  
G10  19438910.594   102152165.288         812.562          50.000    19438899.727    79599043.416         633.204          46.000  
G28  21835269.385   114745110.940        2461.706          43.000    21835258.100    89411748.593        1918.031          42.000  
C23  20714638.632   107866536.751          40.908          50.000                                                                  
C09  36812831.827   191694052.948         231.845          44.000    36812815.464   148229953.701         179.362          46.000  
C37  22659088.977   117991822.977        2572.229          46.000                                                                  
> 2025 10 27 02 57 29.5160000  0 18                     
G12  20692215.769   108738328.333         611.555          46.000    20692204.412    84731119.188         476.686          42.000  
G15  23506323.602   123526554.628       -3296.094          34.000    23506320.680                       -2568.600          32.000  
G18  23865946.417                       -3638.739          31.000    23865946.223    97727028.510       -2835.768          40.000  
G23  19431887.755   102115250.668       -2320.367          46.000    19431876.367    79570249.534       -1808.020          47.000  
G24  21206987.124                       -3447.754          30.000    21206974.088                       -2686.610          28.000  
G32  20782894.788   109214846.648        1456.748          45.000    20782885.079    85102443.051        1135.341          42.000  
C08  34740598.048   180903385.152        -410.248          46.000    34740577.414   139885893.062        -317.255          48.000  
C13  34717832.194   180784839.943        -104.340          47.000    34717820.007   139794259.299         -80.688          48.000  
C16  35673677.585   185762187.286         -45.575          48.000    35673663.436   143643058.074         -35.219          48.000  
C25  22466981.223   116991482.306       -2688.346          32.000                                                                  
C32  20985580.105   109277404.808         762.261          51.000                                                                  
C06  35352423.657   184089334.836         132.233          46.000    35352403.244   142349481.304         102.311          45.000  
G25  20300972.691   106682344.824        2367.920          43.000    20300963.883    83129058.223        1845.227          41.000  
G10  19438904.407   102152132.786         812.567          50.000    19438893.543    79599018.089         633.228          45.000  
G28  21835250.642   114745012.473        2461.735          43.000    21835239.370    89411671.871        1918.020          42.000  
C23  20714638.305   107866535.116          40.906          50.000                                                                  
C09  36812830.038   191694043.679         231.780          44.000    36812813.680   148229946.529         179.353          46.000  
C37  22659069.210   117991720.089        2572.223          46.000                                                                  
> 2025 10 27 02 57 29.5560000  0 18                     
G12  20692211.129   108738303.876         611.454          46.000    20692199.766    84731100.142         476.317          42.000  
G15  23506348.668   123526686.463       -3295.884          34.000    23506345.771                       -2568.230          32.000  
G18  23865974.122                       -3639.471          31.000    23865973.933    97727141.948       -2835.937          40.000  
G23  19431905.435   102115343.499       -2320.663          46.000    19431894.042    79570321.867       -1808.248          47.000  
G24  21207013.387                       -3448.239          30.000    21207000.216                       -2686.075          28.000  
G32  20782883.720   109214788.384        1456.655          45.000    20782873.986    85102397.662        1134.919          42.000  
C08  34740601.214   180903401.566        -410.333          46.000    34740580.591   139885905.752        -317.249          48.000  
C13  34717832.972   180784844.123        -104.456          47.000    34717820.804   139794262.530         -80.750          48.000  
C16  35673677.910   185762189.122         -45.795          48.000    35673663.755   143643059.488         -35.293          48.000  
C25  22467001.886   116991589.857       -2688.783          32.000                                                                  
C32  20985574.214   109277374.333         762.000          51.000                                                                  
C06  35352422.646   184089329.545         132.241          46.000    35352402.221   142349477.215         102.246          45.000  
G25  20300954.670   106682250.102        2367.985          43.000    20300945.850    83128984.423        1845.024          41.000  
G10  19438898.266   102152100.295         812.339          50.000    19438887.379    79598992.777         632.932          46.000  
G28  21835231.900   114744914.023        2461.405          43.000    21835220.636    89411595.143        1918.141          42.000  
C23  20714637.970   107866533.490          40.724          50.000                                                                  
C09  36812828.267   191694034.408         231.741          44.000    36812811.916   148229939.363         179.195          46.000  
C37  22659049.447   117991617.212        2572.034          46.000                                                                  
> 2025 10 27 02 57 29.5960000  0 18                     
G12  20692206.470   108738279.421         611.359          46.000    20692195.140    84731081.082         476.383          42.000  
G15  23506373.772   123526818.301       -3295.781          34.000    23506370.895                       -2568.568          32.000  
G18  23866001.825                       -3639.703          31.000    23866001.610    97727255.383       -2835.941          40.000  
G23  19431923.083   102115436.317       -2320.588          46.000    19431911.700    79570394.202       -1808.395          47.000  
G24  21207039.683                       -3448.177          30.000    21207026.372                       -2685.789          28.000  
G32  20782872.637   109214730.127        1456.488          45.000    20782862.900    85102352.273        1134.697          42.000  
C08  34740604.393   180903417.981        -410.394          46.000    34740583.732   139885918.444        -317.291          48.000  
C13  34717833.791   180784848.303        -104.541          47.000    34717821.610   139794265.758         -80.725          48.000  
C16  35673678.242   185762190.953         -45.830          48.000    35673664.060   143643060.910         -35.516          48.000  
C25  22467022.523   116991697.401       -2688.786          32.000                                                                  
C32  20985568.344   109277343.853         761.945          51.000                                                                  
C06  35352421.640   184089324.264         132.048          46.000    35352401.208   142349473.132         102.109          45.000  
G25  20300936.660   106682155.387        2367.893          44.000    20300927.833    83128910.620        1845.018          41.000  
G10  19438892.090   102152067.802         812.266          50.000    19438881.180    79598967.457         632.927          46.000  
G28  21835213.140   114744815.561        2461.420          43.000    21835201.907    89411518.425        1918.021          42.000  
C23  20714637.639   107866531.866          40.584          50.000                                                                  
C09  36812826.483   191694025.140         231.659          44.000    36812810.135   148229932.202         179.033          46.000  
C37  22659029.702   117991514.336        2571.899          46.000                                                                  
> 2025 10 27 02 57 29.6360000  0 18                     
G12  20692201.808   108738254.961         611.395          46.000    20692190.483    84731062.011         476.659          42.000  
G15  23506398.869   123526950.172       -3296.307          34.000    23506395.998                       -2568.657          32.000  
G18  23866029.497                       -3639.898          31.000    23866029.301    97727368.804       -2835.700          40.000  
G23  19431940.735   102115529.133       -2320.465          46.000    19431929.362    79570466.532       -1808.345          47.000  
G24  21207065.900                       -3448.106          30.000    21207052.598                       -2686.090          28.000  
G32  20782861.567   109214671.860        1456.589          45.000    20782851.808    85102306.868        1134.915          42.000  
C08  34740607.536   180903434.388        -410.266          46.000    34740586.854   139885931.136        -317.316          48.000  
C13  34717834.616   180784852.473        -104.364          47.000    34717822.432   139794268.988         -80.750          48.000  
C16  35673678.599   185762192.781         -45.747          48.000    35673664.403   143643062.334         -35.621          48.000  
C25  22467043.176   116991804.936       -2688.594          32.000                                                                  
C32  20985562.483   109277313.374         761.923          51.000                                                                  
C06  35352420.652   184089318.980         132.020          46.000    35352400.193   142349469.045         102.113          45.000  
G25  20300918.632   106682060.671        2367.876          44.000    20300909.819    83128836.810        1845.126          41.000  
G10  19438885.877   102152035.302         812.396          50.000    19438874.993    79598942.141         632.822          46.000  
G28  21835194.411   114744717.094        2461.553          43.000    21835183.165    89411441.707        1917.972          42.000  
C23  20714637.338   107866530.232          40.700          50.000                                                                  
C09  36812824.707   191694015.862         231.837          44.000    36812808.362   148229925.031         179.141          46.000  
C37  22659009.959   117991411.457        2571.924          46.000                                                                  
> 2025 10 27 02 57 29.6760000  0 18                     
G12  20692197.150   108738230.501         611.434          46.000    20692185.847    84731042.958         476.446          42.000  
G15  23506423.923   123527082.043       -3296.858          34.000    23506421.079                       -2568.575          32.000  
G18  23866057.187   125416973.413       -3639.394          31.000    23866057.005    97727482.230       -2835.618          40.000  
G23  19431958.416   102115621.967       -2320.761          46.000    19431947.027    79570538.858       -1808.252          47.000  
G24  21207092.118                       -3446.276          30.000    21207078.466                       -2686.412          28.000  
G32  20782850.470   109214613.590        1456.680          45.000    20782840.707    85102261.461        1135.075          42.000  
C08  34740610.685   180903450.800        -410.315          46.000    34740590.011   139885943.820        -317.175          48.000  
C13  34717835.410   180784856.641        -104.242          47.000    34717823.227   139794272.215         -80.713          48.000  
C16  35673678.958   185762194.606         -45.656          48.000    35673664.728   143643063.738         -35.341          48.000  
C25  22467063.832   116991912.475       -2688.538          32.000                                                                  
C32  20985556.635   109277282.893         761.945          51.000                                                                  
C06  35352419.661   184089313.687         132.185          46.000    35352399.189   142349464.954         102.174          45.000  
G25  20300900.606   106681965.953        2367.888          44.000    20300891.788    83128763.003        1845.138          41.000  
G10  19438879.704   102152002.804         812.408          50.000    19438868.817    79598916.811         633.032          46.000  
G28  21835175.683   114744618.634        2461.497          43.000    21835164.430    89411364.981        1918.047          42.000  
C23  20714637.055   107866528.599          40.771          50.000                                                                  
C09  36812822.914   191694006.587         231.861          44.000    36812806.599   148229917.858         179.236          46.000  
C37  22658990.203   117991308.577        2571.930          46.000                                                                  
> 2025 10 27 02 57 29.7160000  0 18                     
G12  20692192.501   108738206.045         611.383          46.000    20692181.179    84731023.900         476.448          42.000  
G15  23506449.010   123527213.874       -3296.094          34.000    23506446.183                       -2568.393          32.000  
G18  23866084.869   125417118.950       -3638.658          31.000    23866084.707    97727595.661       -2835.699          40.000  
G23  19431976.075   102115714.792       -2320.741          46.000    19431964.681    79570611.186       -1808.240          47.000  
G24  21207118.372                       -3446.951          30.000    21207104.907                       -2686.443          28.000  
G32  20782839.367   109214555.321        1456.715          45.000    20782829.619    85102216.059        1135.093          42.000  
C08  34740613.856   180903467.218        -410.455          46.000    34740593.150   139885956.513        -317.279          48.000  
C13  34717836.205   180784860.818        -104.352          47.000    34717824.050   139794275.446         -80.774          48.000  
C16  35673679.318   185762196.441         -45.797          48.000    35673665.041   143643065.152         -35.325          48.000  
C25  22467084.478   116992019.975       -2687.837          32.000                                                                  
C32  20985550.791   109277252.411         762.012          51.000                                                                  
C06  35352418.667   184089308.401         132.150          46.000    35352398.192   142349460.860         102.300          45.000  
G25  20300882.574   106681871.236        2367.904          44.000    20300873.760    83128689.200        1845.050          41.000  
G10  19438873.536   102151970.308         812.371          50.000    19438862.600    79598891.483         633.167          46.000  
G28  21835156.931   114744520.176        2461.421          43.000    21835145.690    89411288.261        1918.002          42.000  
C23  20714636.739   107866526.968          40.778          50.000                                                                  
C09  36812821.111   191693997.318         231.759          44.000    36812804.821   148229910.689         179.229          46.000  
C37  22658970.435   117991205.696        2571.979          46.000                                                                  
> 2025 10 27 02 57 29.7560000  0 18                     
G12  20692187.855   108738181.597         611.202          46.000    20692176.502    84731004.843         476.390          42.000  
G15  23506474.121   123527345.770       -3297.029          34.000    23506471.250                       -2568.692          32.000  
G18  23866112.575   125417264.535       -3639.229          31.000    23866112.414    97727709.098       -2835.862          40.000  
G23  19431993.721   102115807.612       -2320.612          46.000    19431982.359    79570683.521       -1808.357          47.000  
G24  21207144.632                       -3448.521          30.000    21207131.424                       -2687.027          28.000  
G32  20782828.293   109214497.060        1456.590          45.000    20782818.522    85102170.656        1135.069          42.000  
C08  34740617.006   180903483.632        -410.431          46.000    34740596.249   139885969.212        -317.456          48.000  
C13  34717836.993   180784865.002        -104.565          47.000    34717824.867   139794278.675         -80.768          48.000  
C16  35673679.679   185762198.271         -45.801          48.000    35673665.377   143643066.560         -35.230          48.000  
C25  22467105.137   116992127.532       -2688.573          32.000                                                                  
C32  20985544.931   109277221.931         761.984          51.000                                                                  
C06  35352417.637   184089303.114         132.148          46.000    35352397.173   142349456.775         102.185          45.000  
G25  20300864.554   106681776.527        2367.745          44.000    20300855.756    83128615.409        1844.795          41.000  
G10  19438867.373   102151937.818         812.247          50.000    19438856.427    79598866.166         632.982          45.000  
G28  21835138.196   114744421.721        2461.321          43.000    21835126.970    89411211.537        1918.021          42.000  
C23  20714636.366   107866525.342          40.672          50.000                                                                  
C09  36812819.328   191693988.052         231.666          44.000    36812803.029   148229903.514         179.330          46.000  
C37  22658950.688   117991102.818        2571.930          46.000                                                                  
> 2025 10 27 02 57 29.7960000  0 18                     
G12  20692183.169   108738157.146         611.175          46.000    20692171.873    84730985.797         476.164          42.000  
G15  23506499.221   123527477.611       -3296.532          34.000    23506496.333                       -2569.252          32.000  
G18  23866140.308   125417410.129       -3639.595          31.000    23866140.126    97727822.540       -2836.013          40.000  
G23  19432011.379   102115900.446       -2320.834          46.000    19432000.038    79570755.855       -1808.357          47.000  
G24  21207170.888                       -3449.543          30.000    21207157.845                       -2686.966          28.000  
G32  20782817.231   109214438.810        1456.314          45.000    20782807.436    85102125.258        1134.984          42.000  
C08  34740620.191   180903500.048        -410.431          46.000    34740599.411   139885981.910        -317.499          48.000  
C13  34717837.806   180784869.188        -104.700          47.000    34717825.657   139794281.908         -80.798          48.000  
C16  35673680.026   185762200.105         -45.838          48.000    35673665.722   143643067.984         -35.483          48.000  
C25  22467125.781   116992235.070       -2688.534          32.000                                                                  
C32  20985539.056   109277191.453         761.937          51.000                                                                  
C06  35352416.640   184089297.833         132.037          46.000    35352396.163   142349452.692         102.095          45.000  
G25  20300846.552   106681681.825        2367.546          44.000    20300837.751    83128541.617        1844.727          41.000  
G10  19438861.211   102151905.333         812.088          50.000    19438850.264    79598840.855         632.779          46.000  
G28  21835119.461   114744323.259        2461.417          43.000    21835108.238    89411134.819        1917.946          42.000  
C23  20714636.038   107866523.727          40.414          50.000                                                                  
C09  36812817.546   191693978.786         231.604          44.000    36812801.249   148229896.350         179.171          46.000  
C37  22658930.907   117990999.946        2571.826          46.000                                                                  
> 2025 10 27 02 57 29.8360000  0 18                     
G12  20692178.506   108738132.690         611.289          46.000    20692167.219    84730966.753         476.062          42.000  
G15  23506524.307                       -3296.621          34.000    23506521.437                       -2568.925          32.000  
G18  23866168.006   125417555.681       -3639.034          31.000    23866167.835    97727935.956       -2835.621          40.000  
G23  19432029.034   102115993.280       -2320.914          46.000    19432017.732    79570828.196       -1808.504          47.000  
G24  21207197.139                       -3449.405          30.000    21207184.260                       -2687.491          28.000  
G32  20782806.138   109214380.548        1456.414          45.000    20782796.366    85102079.868        1134.752          42.000  
C08  34740623.347   180903516.471        -410.565          46.000    34740602.555   139885994.602        -317.395          48.000  
C13  34717838.636   180784873.373        -104.706          47.000    34717826.467   139794285.139         -80.798          48.000  
C16  35673680.357   185762201.937         -45.823          48.000    35673666.052   143643069.404         -35.550          48.000  
C25  22467146.439   116992342.661       -2689.569          32.000                                                                  
C32  20985533.191   109277160.981         761.831          51.000                                                                  
C06  35352415.651   184089292.552         131.974          46.000    35352395.129   142349448.607         102.104          45.000  
G25  20300828.532   106681587.121        2367.516          44.000    20300819.718    83128467.811        1844.895          41.000  
G10  19438855.016   102151872.847         812.045          50.000    19438844.095    79598815.544         632.700          45.000  
G28  21835100.707   114744224.802        2461.392          43.000    21835089.525    89411058.104        1917.859          42.000  
C23  20714635.740   107866522.107          40.369          50.000                                                                  
C09  36812815.782   191693969.516         231.656          44.000    36812799.467   148229889.186         179.064          46.000  
C37  22658911.159   117990897.066        2571.906          46.000                                                                  
> 2025 10 27 02 57 29.8760000  0 18                     
G12  20692173.852   108738108.240         611.264          46.000    20692162.537    84730947.700         476.150          42.000  
G15  23506549.381   123527741.306       -3295.806          34.000    23506546.554    96255453.309       -2568.626          32.000  
G18  23866195.694                       -3638.807          31.000    23866195.529    97728049.389       -2835.731          40.000  
G23  19432046.690   102116086.109       -2320.833          46.000    19432035.366    79570900.529       -1808.399          47.000  
G24  21207223.372                       -3449.257          30.000    21207210.414                       -2686.837          28.000  
G32  20782795.044   109214322.289        1456.442          45.000    20782785.283    85102034.468        1134.855          42.000  
C08  34740626.492   180903532.886        -410.455          46.000    34740605.729   139886007.292        -317.310          48.000  
C13  34717839.463   180784877.551        -104.535          47.000    34717827.300   139794288.373         -80.847          48.000  
C16  35673680.719   185762203.769         -45.816          48.000    35673666.371   143643070.821         -35.547          48.000  
C25  22467167.108   116992450.193       -2688.937          32.000                                                                  
C32  20985527.345   109277130.506         761.821          51.000                                                                  
C06  35352414.631   184089287.273         131.953          46.000    35352394.122   142349444.523         102.067          45.000  
G25  20300810.487   106681492.404        2367.789          44.000    20300801.678    83128394.006        1845.000          41.000  
G10  19438848.822   102151840.360         812.090          50.000    19438837.915    79598790.235         632.639          45.000  
G28  21835081.959   114744126.349        2461.323          43.000    21835070.759    89410981.377        1918.036          42.000  
C23  20714635.432   107866520.484          40.447          50.000                                                                  
C09  36812813.987   191693960.258         231.520          44.000    36812797.668   148229882.026         178.960          46.000  
C37  22658891.418   117990794.188        2571.936          46.000                                                                  
> 2025 10 27 02 57 29.9160000  0 18                     
G12  20692169.196   108738083.794         611.166          46.000    20692157.884    84730928.651         476.208          42.000  
G15  23506574.478   123527873.170       -3296.156          34.000    23506571.659    96255556.072       -2568.966          32.000  
G18  23866223.409                       -3640.119          31.000    23866223.238    97728162.825       -2835.847          40.000  
G23  19432064.352   102116178.932       -2320.672          46.000    19432053.010    79570972.862       -1808.337          47.000  
G24  21207249.581                       -3448.056          30.000    21207236.868                       -2687.044          28.000  
G32  20782783.961   109214264.026        1456.486          45.000    20782774.185    85101989.065        1134.972          42.000  
C08  34740629.679   180903549.302        -410.413          46.000    34740608.870   139886019.985        -317.322          48.000  
C13  34717840.270   180784881.727        -104.419          47.000    34717828.112   139794291.605         -80.829          48.000  
C16  35673681.049   185762205.601         -45.823          48.000    35673666.696   143643072.241         -35.535          48.000  
C25  22467187.787   116992557.715       -2688.425          32.000                                                                  
C32  20985521.501   109277100.029         761.862          51.000                                                                  
C06  35352413.583   184089281.981         132.153          46.000    35352393.081   142349440.432         102.180          45.000  
G25  20300792.483   106681397.699        2367.676          44.000    20300783.658    83128320.207        1844.999          41.000  
G10  19438842.625   102151807.871         812.158          50.000    19438831.742    79598764.916         632.812          45.000  
G28  21835063.221   114744027.901        2461.225          43.000    21835052.020    89410904.658        1917.959          41.000  
C23  20714635.131   107866518.862          40.520          50.000                                                                  
C09  36812812.201   191693950.987         231.652          44.000    36812795.857   148229874.862         179.019          46.000  
C37  22658871.674   117990691.315        2571.851          46.000                                                                  
> 2025 10 27 02 57 29.9560000  0 18                     
G12  20692164.530   108738059.340         611.239          46.000    20692153.225    84730909.601         476.213          42.000  
G15  23506599.567                       -3297.534          34.000    23506596.721    96255658.814       -2568.715          32.000  
G18  23866251.113                       -3640.068          31.000    23866250.922    97728276.258       -2835.789          40.000  
G23  19432082.011   102116271.762       -2320.735          46.000    19432070.650    79571045.199       -1808.405          47.000  
G24  21207275.770                       -3447.918          30.000    21207262.792                       -2686.853          28.000  
G32  20782772.886   109214205.765        1456.518          45.000    20782763.088    85101943.671        1134.854          42.000  
C08  34740632.838   180903565.710        -410.254          46.000    34740612.010   139886032.680        -317.383          48.000  
C13  34717841.076   180784885.900        -104.346          47.000    34717828.906   139794294.836         -80.780          48.000  
C16  35673681.385   185762207.433         -45.829          48.000    35673667.053   143643073.659         -35.510          48.000  
C25  22467208.434   116992665.240       -2688.131          32.000                                                                  
C32  20985515.665   109277069.550         761.927          51.000                                                                  
C06  35352412.554   184089276.695         132.175          46.000    35352392.034   142349436.346         102.158          45.000  
G25  20300774.464   106681302.985        2367.817          44.000    20300765.623    83128246.403        1844.999          41.000  
G10  19438836.421   102151775.380         812.244          50.000    19438825.553    79598739.595         632.972          45.000  
G28  21835044.493   114743929.438        2461.434          43.000    21835033.300    89410827.940        1917.883          41.000  
C23  20714634.824   107866517.234          40.650          50.000                                                                  
C09  36812810.437   191693941.716         231.753          44.000    36812794.098   148229867.689         179.240          46.000  
C37  22658851.931   117990588.436        2571.899          46.000                                                                  
> 2025 10 27 02 57 29.9960000  0 18                     
G12  20692159.893   108738034.892         611.194          46.000    20692148.583    84730890.541         476.384          42.000  
G15  23506624.674                       -3296.828          34.000    23506621.792    96255761.514       -2567.861          32.000  
G18  23866278.781                       -3638.382          31.000    23866278.620    97728389.683       -2835.675          40.000  
G23  19432099.689   102116364.593       -2320.808          46.000    19432088.317    79571117.540       -1808.510          47.000  
G24  21207302.016                       -3447.931          30.000    21207289.053                       -2686.849          28.000  
G32  20782761.805   109214147.503        1456.496          45.000    20782751.986    85101898.274        1134.828          42.000  
C08  34740636.023   180903582.128        -410.370          46.000    34740615.148   139886045.372        -317.334          48.000  
C13  34717841.870   180784890.080        -104.474          47.000    34717829.725   139794298.064         -80.725          48.000  
C16  35673681.720   185762209.265         -45.809          48.000    35673667.382   143643075.074         -35.443          48.000  
C25  22467229.090   116992772.807       -2688.817          32.000                                                                  
C32  20985509.780   109277039.076         761.881          51.000                                                                  
C06  35352411.489   184089271.420         131.954          46.000    35352391.026   142349432.263         102.070          45.000  
G25  20300756.447   106681208.273        2367.791          44.000    20300747.603    83128172.595        1845.150          41.000  
G10  19438830.251   102151742.896         812.163          50.000    19438819.391    79598714.281         632.891          45.000  
G28  21835025.772   114743830.984        2461.414          43.000    21835014.577    89410751.234        1917.666          41.000  
C23  20714634.475   107866515.609          40.646          50.000                                                                  
C09  36812808.661   191693932.446         231.757          44.000    36812792.301   148229860.526         179.149          46.000  
C37  22658832.182   117990485.555        2571.973          46.000                                                                  
> 2025 10 27 02 57 30.0360000  0 18                     
G12  20692155.222   108738010.446         611.130          46.000    20692143.919    84730871.492         476.237          42.000  
G15  23506649.756                       -3296.476          34.000    23506646.895                       -2568.549          32.000  
G18  23866306.515                       -3637.939          31.000    23866306.310    97728503.113       -2835.745          40.000  
G23  19432117.356   102116457.428       -2320.870          46.000    19432105.996    79571189.878       -1808.491          47.000  
G24  21207328.240                       -3447.850          30.000    21207315.474                       -2686.510          28.000  
G32  20782750.704   109214089.235        1456.632          45.000    20782740.904    85101852.875        1134.875          42.000  
C08  34740639.150   180903598.542        -410.388          46.000    34740618.319   139886058.066        -317.389          48.000  
C13  34717842.660   180784894.260        -104.535          47.000    34717830.542   139794301.299         -80.859          48.000  
C16  35673682.073   185762211.097         -45.803          48.000    35673667.709   143643076.488         -35.367          48.000  
C25  22467249.771   116992880.368       -2689.068          32.000                                                                  
C32  20985503.934   109277008.598         761.905          51.000                                                                  
C06  35352410.455   184089266.126         132.224          46.000    35352390.028   142349428.179         102.039          45.000  
G25  20300738.412   106681113.566        2367.688          44.000    20300729.574    83128098.793        1845.121          41.000  
G10  19438824.055   102151710.409         812.120          50.000    19438813.207    79598688.965         632.885          45.000  
G28  21835007.025   114743732.525        2461.483          43.000    21834995.841    89410674.517        1917.814          41.000  
C23  20714634.112   107866513.992          40.488          50.000                                                                  
C09  36812806.867   191693923.177         231.737          44.000    36812790.512   148229853.357         179.180          46.000  
C37  22658812.414   117990382.685        2571.820          46.000                                                                  
> 2025 10 27 02 57 30.0760000  0 18                     
G12  20692150.584   108737986.006         610.983          46.000    20692139.268    84730852.440         476.210          42.000  
G15  23506674.824   123528400.644       -3296.139          34.000    23506672.027                       -2569.010          32.000  
G18  23866334.227                       -3639.300          31.000    23866334.022    97728616.550       -2835.887          40.000  
G23  19432134.972   102116550.256       -2320.789          46.000    19432123.664    79571262.216       -1808.484          47.000  
G24  21207354.466                       -3447.644          30.000    21207341.891                       -2686.167          28.000  
G32  20782739.613   109214030.968        1456.669          45.000    20782729.808    85101807.472        1135.000          42.000  
C08  34740642.306   180903614.956        -410.382          46.000    34740621.458   139886070.760        -317.395          48.000  
C13  34717843.481   180784898.444        -104.584          47.000    34717831.345   139794304.535         -80.939          48.000  
C16  35673682.395   185762212.930         -45.849          48.000    35673668.046   143643077.900         -35.338          48.000  
C25  22467270.446   116992987.919       -2689.036          32.000                                                                  
C32  20985498.078   109276978.124         761.855          51.000                                                                  
C06  35352409.419   184089260.839         132.219          46.000    35352389.016   142349424.092         102.115          45.000  
G25  20300720.381   106681018.861        2367.593          44.000    20300711.547    83128024.995        1844.955          41.000  
G10  19438817.871   102151677.929         812.022          50.000    19438807.038    79598663.659         632.694          45.000  
G28  21834988.285   114743634.071        2461.387          43.000    21834977.102    89410597.793        1917.996          41.000  
C23  20714633.784   107866512.379          40.336          50.000                                                                  
C09  36812805.090   191693913.908         231.705          44.000    36812788.746   148229846.192         179.116          46.000  
C37  22658792.674   117990279.812        2571.790          46.000                                                                  
> 2025 10 27 02 57 30.1160000  0 18                     
G12  20692145.932   108737961.558         611.031          46.000    20692134.621    84730833.395         476.076          42.000  
G15  23506699.869   123528532.452       -3295.339          34.000    23506697.097                       -2568.299          32.000  
G18  23866361.944                       -3639.927          31.000    23866361.746    97728729.985       -2835.929          40.000  
G23  19432152.640   102116643.095       -2320.974          46.000    19432141.339    79571334.556       -1808.478          47.000  
G24  21207380.704                       -3447.595          30.000    21207367.933                       -2686.171          28.000  
G32  20782728.535   109213972.706        1456.595          45.000    20782718.700    85101762.074        1134.958          42.000  
C08  34740645.441   180903631.372        -410.431          46.000    34740624.656   139886083.452        -317.352          48.000  
C13  34717844.305   180784902.627        -104.596          47.000    34717832.142   139794307.770         -80.963          48.000  
C16  35673682.736   185762214.763         -45.848          48.000    35673668.347   143643079.318         -35.419          48.000  
C25  22467291.097   116993095.457       -2688.721          32.000                                                                  
C32  20985492.246   109276947.649         761.842          51.000                                                                  
C06  35352408.386   184089255.563         132.012          46.000    35352388.040   142349420.003         102.145          45.000  
G25  20300702.374   106680924.163        2367.461          43.000    20300693.527    83127951.206        1844.722          41.000  
G10  19438811.698   102151645.447         812.004          50.000    19438800.866    79598638.346         632.713          46.000  
G28  21834969.538   114743535.617        2461.310          43.000    21834958.385    89410521.071        1918.057          41.000  
C23  20714633.530   107866510.760          40.386          50.000                                                                  
C09  36812803.293   191693904.645         231.586          44.000    36812786.990   148229839.032         179.017          46.000  
C37  22658772.903   117990176.941        2571.741          46.000                                                                  
> 2025 10 27 02 57 30.1560000  0 18                     
G12  20692141.277   108737937.117         610.975          46.000    20692129.970    84730814.357         475.907          42.000  
G15  23506724.954   123528664.358       -3296.672          34.000    23506722.200                       -2568.887          32.000  
G18  23866389.643                       -3640.316          31.000    23866389.462    97728843.413       -2835.771          40.000  
G23  19432170.305   102116735.932       -2320.998          46.000    19432158.999    79571406.889       -1808.373          47.000  
G24  21207406.946                       -3447.710          30.000    21207394.131                       -2685.929          28.000  
G32  20782717.473   109213914.453        1456.414          45.000    20782707.633    85101716.685        1134.750          42.000  
C08  34740648.547   180903647.797        -410.608          46.000    34740627.788   139886096.154        -317.505          48.000  
C13  34717845.142   180784906.811        -104.620          47.000    34717832.879   139794311.006         -80.963          48.000  
C16  35673683.067   185762216.594         -45.815          48.000    35673668.690   143643080.734         -35.459          48.000  
C25  22467311.769   116993202.979       -2688.172          32.000                                                                  
C32  20985486.423   109276917.176         761.810          51.000                                                                  
C06  35352407.383   184089250.279         132.036          46.000    35352387.051   142349415.919         102.126          45.000  
G25  20300684.355   106680829.469        2367.301          44.000    20300675.524    83127877.416        1844.653          41.000  
G10  19438805.511   102151612.968         811.943          50.000    19438794.709    79598613.043         632.597          46.000  
G28  21834950.799   114743437.171        2461.149          43.000    21834939.689    89410444.357        1917.943          41.000  
C23  20714633.187   107866509.148          40.283          50.000                                                                  
C09  36812801.503   191693895.389         231.399          44.000    36812785.250   148229831.869         179.005          46.000  
C37  22658753.123   117990074.064        2571.857          46.000                                                                  
> 2025 10 27 02 57 30.1960000  0 18                     
G12  20692136.621   108737912.680         610.894          46.000    20692125.338    84730795.321         475.832          42.000  
G15  23506750.041   123528796.241       -3297.090          34.000    23506747.261    96256275.260       -2568.394          32.000  
G18  23866417.342                       -3639.385          31.000    23866417.156    97728956.828       -2835.524          40.000  
G23  19432187.979   102116828.777       -2321.139          46.000    19432176.671    79571479.230       -1808.479          47.000  
G24  21207433.181                       -3447.798          30.000    21207420.080                       -2685.938          28.000  
G32  20782706.406   109213856.202        1456.251          45.000    20782696.540    85101671.282        1134.922          42.000  
C08  34740651.686   180903664.218        -410.645          46.000    34740630.919   139886108.853        -317.517          48.000  
C13  34717845.958   180784910.991        -104.547          47.000    34717833.658   139794314.235         -80.804          48.000  
C16  35673683.402   185762218.433         -45.946          48.000    35673669.009   143643082.161         -35.660          48.000  
C25  22467332.421   116993310.500       -2687.916          32.000                                                                  
C32  20985480.587   109276886.702         761.819          51.000                                                                  
C06  35352406.357   184089244.998         132.012          46.000    35352386.036   142349411.835         102.100          45.000  
G25  20300666.330   106680734.760        2367.550          43.000    20300657.531    83127803.638        1844.446          41.000  
G10  19438799.346   102151580.491         811.894          50.000    19438788.545    79598587.727         632.782          45.000  
G28  21834932.070   114743338.720        2461.164          43.000    21834920.938    89410367.647        1917.760          42.000  
C23  20714632.900   107866507.531          40.325          50.000                                                                  
C09  36812799.748   191693886.123         231.503          44.000    36812783.481   148229824.690         179.321          46.000  
C37  22658733.348   117989971.196        2571.765          46.000                                                                  
> 2025 10 27 02 57 30.2360000  0 18                     
G12  20692131.955   108737888.237         610.982          46.000    20692120.674    84730776.267         476.154          42.000  
G15  23506775.153   123528928.119       -3297.110          34.000    23506772.353    96256378.028       -2568.800          32.000  
G18  23866445.032                       -3638.466          31.000    23866444.871    97729070.269       -2835.839          40.000  
G23  19432205.654   102116921.619       -2321.145          46.000    19432194.326    79571551.578       -1808.632          47.000  
G24  21207459.406                       -3447.766          30.000    21207446.433                       -2686.703          28.000  
G32  20782695.312   109213797.945        1456.323          45.000    20782685.464    85101625.885        1134.901          42.000  
C08  34740654.824   180903680.638        -410.602          46.000    34740634.073   139886121.547        -317.426          48.000  
C13  34717846.784   180784915.166        -104.419          47.000    34717834.454   139794317.465         -80.756          48.000  
C16  35673683.763   185762220.261         -45.806          48.000    35673669.356   143643083.575         -35.517          48.000  
C25  22467353.061   116993418.050       -2688.461          32.000                                                                  
C32  20985474.718   109276856.233         761.728          51.000                                                                  
C06  35352405.352   184089239.715         131.997          46.000    35352385.023   142349407.747         102.131          45.000  
G25  20300648.309   106680640.060        2367.535          43.000    20300639.480    83127729.848        1844.553          41.000  
G10  19438793.139   102151548.010         811.944          50.000    19438782.382    79598562.421         632.677          45.000  
G28  21834913.328   114743240.263        2461.317          43.000    21834902.196    89410290.937        1917.687          42.000  
C23  20714632.588   107866505.914          40.399          50.000                                                                  
C09  36812797.960   191693876.848         231.735          44.000    36812781.696   148229817.526         179.199          46.000  
C37  22658713.608   117989868.314        2571.954          46.000                                                                  
> 2025 10 27 02 57 30.2760000  0 18                     
G12  20692127.294   108737863.793         611.006          46.000    20692116.018    84730757.225         476.085          42.000  
G15  23506800.243   123529059.932       -3295.914          34.000    23506797.447                       -2569.557          32.000  
G18  23866472.757                       -3639.058          31.000    23866472.573    97729183.706       -2835.918          40.000  
G23  19432223.327   102117014.455       -2321.015          46.000    19432211.980    79571623.921       -1808.632          47.000  
G24  21207485.650                       -3447.910          30.000    21207472.540                       -2686.743          28.000  
G32  20782684.224   109213739.676        1456.569          45.000    20782674.377    85101580.485        1134.947          42.000  
C08  34740658.012   180903697.062        -410.638          46.000    34740637.249   139886134.240        -317.371          48.000  
C13  34717847.596   180784919.345        -104.456          47.000    34717835.249   139794320.697         -80.756          48.000  
C16  35673684.106   185762222.088         -45.703          48.000    35673669.704   143643084.990         -35.443          48.000  
C25  22467373.738   116993525.622       -2689.119          32.000                                                                  
C32  20985468.892   109276825.751         761.917          51.000                                                                  
C06  35352404.330   184089234.424         132.145          46.000    35352384.005   142349403.667         102.028          45.000  
G25  20300630.303   106680545.342        2367.843          43.000    20300621.457    83127656.049        1844.808          41.000  
G10  19438786.966   102151515.527         812.030          50.000    19438776.220    79598537.111         632.696          45.000  
G28  21834894.597   114743141.809        2461.379          43.000    21834883.449    89410214.217        1917.833          42.000  
C23  20714632.290   107866504.291          40.528          50.000                                                                  
C09  36812796.215   191693867.577         231.803          44.000    36812779.941   148229810.356         179.236          46.000  
C37  22658693.857   117989765.439        2571.948          46.000                                                                  
> 2025 10 27 02 57 30.3160000  0 18                     
G12  20692122.665   108737839.351         611.013          46.000    20692111.366    84730738.169         476.317          42.000  
G15  23506825.337   123529191.774       -3295.844          34.000    23506822.547                       -2569.273          32.000  
G18  23866500.489                       -3638.998          31.000    23866500.278    97729297.124       -2835.616          39.000  
G23  19432240.999   102117107.285       -2320.818          46.000    19432229.653    79571696.260       -1808.558          47.000  
G24  21207511.931                       -3447.978          30.000    21207498.795                       -2686.860          28.000  
G32  20782673.145   109213681.413        1456.590          45.000    20782663.272    85101535.077        1135.141          42.000  
C08  34740661.193   180903713.466        -410.248          46.000    34740640.405   139886146.933        -317.328          48.000  
C13  34717848.399   180784923.524        -104.480          47.000    34717836.035   139794323.931         -80.811          48.000  
C16  35673684.429   185762223.920         -45.732          48.000    35673670.033   143643086.398         -35.268          48.000  
C25  22467394.430   116993633.170       -2688.925          32.000                                                                  
C32  20985463.031   109276795.278         761.849          51.000                                                                  
C06  35352403.333   184089229.140         132.108          46.000    35352382.999   142349399.579         102.089          45.000  
G25  20300612.304   106680450.637        2367.754          44.000    20300603.425    83127582.250        1844.919          41.000  
G10  19438780.796   102151483.046         812.005          50.000    19438770.048    79598511.800         632.751          45.000  
G28  21834875.844   114743043.348        2461.503          43.000    21834864.713    89410137.494        1918.009          41.000  
C23  20714631.954   107866502.674          40.492          50.000                                                                  
C09  36812794.427   191693858.316         231.644          44.000    36812778.176   148229803.187         179.248          46.000  
C37  22658674.103   117989662.566        2571.881          46.000                                                                  
> 2025 10 27 02 57 30.3560000  0 18                     
G12  20692117.996   108737814.900         611.174          46.000    20692106.705    84730719.119         476.264          42.000  
G15  23506850.412                       -3296.146          34.000    23506847.631                       -2569.317          32.000  
G18  23866528.178                       -3638.286          31.000    23866527.976    97729410.552       -2835.607          40.000  
G23  19432258.662   102117200.110       -2320.683          46.000    19432247.318    79571768.594       -1808.428          47.000  
G24  21207538.180                       -3447.877          30.000    21207525.048                       -2687.015          28.000  
G32  20782662.071   109213623.143        1456.722          45.000    20782652.195    85101489.675        1135.083          42.000  
C08  34740664.317   180903729.871        -410.101          46.000    34740643.564   139886159.625        -317.303          48.000  
C13  34717849.237   180784927.697        -104.370          47.000    34717836.817   139794327.164         -80.859          48.000  
C16  35673684.787   185762225.754         -45.812          48.000    35673670.370   143643087.817         -35.371          48.000  
C25  22467415.087   116993740.694       -2688.375          32.000                                                                  
C32  20985457.197   109276764.797         761.952          51.000                                                                  
C06  35352402.332   184089223.853         132.140          46.000    35352381.978   142349395.489         102.166          45.000  
G25  20300594.286   106680355.932        2367.700          43.000    20300585.407    83127508.440        1845.155          41.000  
G10  19438774.595   102151450.563         812.036          50.000    19438763.850    79598486.490         632.726          45.000  
G28  21834857.093   114742944.889        2461.507          43.000    21834845.980    89410060.766        1918.163          41.000  
C23  20714631.642   107866501.054          40.485          50.000                                                                  
C09  36812792.630   191693849.030         232.022          44.000    36812776.384   148229796.017         179.248          46.000  
C37  22658654.367   117989559.703        2571.661          46.000                                                                  
> 2025 10 27 02 57 30.3960000  0 18                     
G12  20692113.339   108737790.459         611.100          46.000    20692102.074    84730700.073         476.144          42.000  
G15  23506875.528   123529455.495       -3296.394          34.000    23506872.722                       -2567.885          32.000  
G18  23866555.908                       -3639.349          31.000    23866555.665    97729523.973       -2835.535          40.000  
G23  19432276.337   102117292.949       -2320.863          46.000    19432264.985    79571840.928       -1808.342          47.000  
G24  21207564.441                       -3447.996          30.000    21207550.942                       -2687.138          28.000  
G32  20782650.988   109213564.872        1456.782          45.000    20782641.129    85101444.282        1134.922          42.000  
C08  34740667.440   180903746.282        -410.156          46.000    34740646.706   139886172.315        -317.273          48.000  
C13  34717849.998   180784931.874        -104.407          47.000    34717837.634   139794330.395         -80.829          48.000  
C16  35673685.128   185762227.581         -45.719          48.000    35673670.719   143643089.232         -35.385          48.000  
C25  22467435.753   116993848.243       -2688.556          32.000                                                                  
C32  20985451.337   109276734.319         761.965          51.000                                                                  
C06  35352401.350   184089218.554         132.405          46.000    35352380.947   142349391.393         102.329          45.000  
G25  20300576.239   106680261.223        2367.690          43.000    20300567.364    83127434.639        1845.084          41.000  
G10  19438768.421   102151418.084         811.992          50.000    19438757.640    79598461.181         632.714          45.000  
G28  21834838.380   114742846.432        2461.461          43.000    21834827.249    89409984.048        1918.028          41.000  
C23  20714631.294   107866499.439          40.419          50.000                                                                  
C09  36812790.850   191693839.760         231.899          44.000    36812774.623   148229788.847         179.247          46.000  
C37  22658634.627   117989456.826        2571.790          46.000                                                                  
> 2025 10 27 02 57 30.4360000  0 18                     
G12  20692108.669   108737766.013         611.113          46.000    20692097.432    84730681.026         476.141          42.000  
G15  23506900.638   123529587.358       -3296.573          34.000    23506897.807                       -2568.993          32.000  
G18  23866583.609                       -3639.414          31.000    23866583.348    97729637.386       -2835.329          40.000  
G23  19432293.994   102117385.780       -2320.857          46.000    19432282.668    79571913.265       -1808.386          47.000  
G24  21207590.699                       -3447.826          30.000    21207577.125                       -2686.714          28.000  
G32  20782639.896   109213506.602        1456.776          45.000    20782630.025    85101398.884        1134.912          42.000  
C08  34740670.580   180903762.696        -410.291          46.000    34740649.862   139886185.006        -317.291          48.000  
C13  34717850.756   180784936.055        -104.517          47.000    34717838.431   139794333.618         -80.658          48.000  
C16  35673685.502   185762229.412         -45.782          48.000    35673671.089   143643090.639         -35.255          48.000  
C25  22467456.406   116993955.793       -2688.629          32.000                                                                  
C32  20985445.517   109276703.837         762.027          51.000                                                                  
C06  35352400.358   184089213.267         132.296          46.000    35352379.933   142349387.305         102.251          45.000  
G25  20300558.223   106680166.528        2367.454          43.000    20300549.358    83127360.835        1845.109          41.000  
G10  19438762.235   102151385.595         812.141          50.000    19438751.435    79598435.870         632.758          45.000  
G28  21834819.650   114742747.970        2461.498          43.000    21834808.515    89409907.328        1917.951          41.000  
C23  20714630.968   107866497.819          40.452          50.000                                                                  
C09  36812789.074   191693830.486         231.852          44.000    36812772.848   148229781.677         179.234          46.000  
C37  22658614.885   117989353.944        2571.954          46.000                                                                  
> 2025 10 27 02 57 30.4760000  0 18                     
G12  20692104.029   108737741.574         611.023          46.000    20692092.786    84730661.979         476.135          42.000  
G15  23506925.728   123529719.220       -3296.666          34.000    23506922.895                       -2568.267          32.000  
G18  23866611.339                       -3639.200          31.000    23866611.047    97729750.818       -2835.608          40.000  
G23  19432311.652   102117478.614       -2320.869          46.000    19432300.354    79571985.606       -1808.479          47.000  
G24  21207616.945                       -3447.814          30.000    21207603.478                       -2686.695          28.000  
G32  20782628.815   109213448.343        1456.568          45.000    20782618.938    85101353.470        1135.197          42.000  
C08  34740673.725   180903779.111        -410.376          46.000    34740653.004   139886197.698        -317.303          48.000  
C13  34717851.581   180784940.234        -104.511          47.000    34717839.216   139794336.846         -80.670          48.000  
C16  35673685.867   185762231.234         -45.638          48.000    35673671.434   143643092.053         -35.312          48.000  
C25  22467477.043   116994063.317       -2688.179          32.000                                                                  
C32  20985439.629   109276673.359         761.978          51.000                                                                  
C06  35352399.357   184089207.977         132.274          46.000    35352378.881   142349383.215         102.222          45.000  
G25  20300540.182   106680071.814        2367.670          43.000    20300531.344    83127287.047        1844.794          41.000  
G10  19438756.055   102151353.114         812.085          50.000    19438745.249    79598410.559         632.770          45.000  
G28  21834800.943   114742649.529        2461.121          43.000    21834789.794    89409830.606        1917.984          41.000  
C23  20714630.664   107866496.205          40.368          50.000                                                                  
C09  36812787.291   191693821.215         231.797          44.000    36812771.078   148229774.520         178.996          46.000  
C37  22658595.139   117989251.057        2572.107          46.000                                                                  
> 2025 10 27 02 57 30.5160000  0 18                     
G12  20692099.379   108737717.135         610.960          46.000    20692088.128    84730642.943         475.965          42.000  
G15  23506950.823                       -3296.213          34.000    23506947.958                       -2568.530          32.000  
G18  23866639.021                       -3638.970          31.000    23866638.746    97729864.233       -2835.444          40.000  
G23  19432329.326   102117571.459       -2321.091          46.000    19432318.010    79572057.947       -1808.565          47.000  
G24  21207643.158                       -3447.575          30.000    21207629.953                       -2686.770          28.000  
G32  20782617.711   109213390.076        1456.597          45.000    20782607.880    85101308.069        1135.066          42.000  
C08  34740676.908   180903795.524        -410.407          46.000    34740656.172   139886210.391        -317.310          48.000  
C13  34717852.377   180784944.410        -104.456          47.000    34717840.048   139794340.074         -80.695          48.000  
C16  35673686.218   185762233.060         -45.648          48.000    35673671.812   143643093.466         -35.339          48.000  
C25  22467497.697   116994170.887       -2688.965          32.000                                                                  
C32  20985433.721   109276642.884         761.874          51.000                                                                  
C06  35352398.341   184089202.693         132.155          46.000    35352377.880   142349379.127         102.203          45.000  
G25  20300522.151   106679977.113        2367.555          43.000    20300513.323    83127213.253        1844.762          41.000  
G10  19438749.907   102151320.634         812.023          50.000    19438739.053    79598385.248         632.763          45.000  
G28  21834782.218   114742551.070        2461.314          43.000    21834771.059    89409753.894        1917.809          41.000  
C23  20714630.371   107866494.589          40.348          50.000                                                                  
C09  36812785.504   191693811.943         231.784          44.000    36812769.294   148229767.351         179.093          46.000  
C37  22658575.373   117989148.184        2571.924          46.000                                                                  
> 2025 10 27 02 57 30.5560000  0 18                     
G12  20692094.732   108737692.694         610.961          46.000    20692083.465    84730623.904         475.924          42.000  
G15  23506975.936                       -3296.070          34.000    23506973.041                       -2568.211          32.000  
G18  23866666.745                       -3640.060          31.000    23866666.432    97729977.656       -2835.511          40.000  
G23  19432346.982   102117664.296       -2321.072          46.000    19432335.699    79572130.290       -1808.589          47.000  
G24  21207669.381                       -3447.570          30.000    21207656.235                       -2686.299          28.000  
G32  20782606.612   109213331.814        1456.526          45.000    20782596.803    85101262.665        1135.074          42.000  
C08  34740680.061   180903811.944        -410.522          46.000    34740659.335   139886223.082        -317.291          48.000  
C13  34717853.173   180784948.581        -104.309          47.000    34717840.872   139794343.306         -80.762          48.000  
C16  35673686.514   185762234.893         -45.774          48.000    35673672.138   143643094.888         -35.507          48.000  
C25  22467518.323   116994278.413       -2688.538          32.000                                                                  
C32  20985427.865   109276612.409         761.831          51.000                                                                  
C06  35352397.327   184089197.408         132.112          46.000    35352376.852   142349375.038         102.191          45.000  
G25  20300504.115   106679882.394        2367.756          43.000    20300495.296    83127139.447        1844.929          41.000  
G10  19438743.720   102151288.151         812.029          50.000    19438732.859    79598359.938         632.726          45.000  
G28  21834763.478   114742452.607        2461.471          43.000    21834752.341    89409677.183        1917.691          41.000  
C23  20714630.072   107866492.973          40.330          50.000                                                                  
C09  36812783.725   191693802.676         231.691          44.000    36812767.514   148229760.170         179.401          46.000  
C37  22658555.610   117989045.310        2571.826          46.000                                                                  
> 2025 10 27 02 57 30.5960000  0 18                     
G12  20692090.084   108737668.262         610.834          46.000    20692078.806    84730604.851         476.157          42.000  
G15  23507001.017                       -3296.155          34.000    23506998.152                       -2568.904          32.000  
G18  23866694.420                       -3639.017          31.000    23866694.158    97730091.092       -2835.790          40.000  
G23  19432364.645   102117757.132       -2320.991          46.000    19432353.359    79572202.628       -1808.484          47.000  
G24  21207695.635                       -3447.686          30.000    21207682.559                       -2686.540          28.000  
G32  20782595.505   109213273.549        1456.542          45.000    20782585.728    85101217.266        1135.010          42.000  
C08  34740683.211   180903828.357        -410.437          46.000    34740662.503   139886235.773        -317.303          48.000  
C13  34717853.982   180784952.758        -104.388          47.000    34717841.660   139794346.535         -80.774          48.000  
C16  35673686.847   185762236.714         -45.627          48.000    35673672.518   143643096.299         -35.399          48.000  
C25  22467538.955   116994385.976       -2689.076          32.000                                                                  
C32  20985422.017   109276581.935         761.809          51.000                                                                  
C06  35352396.322   184089192.110         132.312          46.000    35352375.823   142349370.946         102.238          45.000  
G25  20300486.093   106679787.705        2367.336          43.000    20300477.282    83127065.659        1844.708          41.000  
G10  19438737.553   102151255.675         811.918          50.000    19438726.659    79598334.634         632.584          45.000  
G28  21834744.747   114742354.150        2461.489          43.000    21834733.584    89409600.460        1917.908          41.000  
C23  20714629.774   107866491.360          40.286          50.000                                                                  
C09  36812781.947   191693793.404         231.750          44.000    36812765.726   148229752.995         179.449          46.000  
C37  22658535.863   117988942.435        2571.814          46.000                                                                  
> 2025 10 27 02 57 30.6360000  0 18                     
G12  20692085.442   108737643.825         610.858          46.000    20692074.158    84730585.807         476.128          42.000  
G15  23507026.139                       -3296.146          34.000    23507023.241                       -2568.671          32.000  
G18  23866722.119                       -3638.290          31.000    23866721.865    97730204.518       -2835.798          40.000  
G23  19432382.311   102117849.968       -2320.948          46.000    19432371.038    79572274.970       -1808.546          47.000  
G24  21207721.870                       -3447.572          30.000    21207708.726                       -2686.647          27.000  
G32  20782584.414   109213215.277        1456.698          45.000    20782574.633    85101171.867        1134.947          42.000  
C08  34740686.365   180903844.769        -410.339          46.000    34740665.657   139886248.461        -317.236          48.000  
C13  34717854.771   180784956.928        -104.279          47.000    34717842.440   139794349.765         -80.774          48.000  
C16  35673687.201   185762238.542         -45.696          48.000    35673672.899   143643097.706         -35.227          48.000  
C25  22467559.593   116994493.508       -2688.604          32.000                                                                  
C32  20985416.172   109276551.459         761.848          51.000                                                                  
C06  35352395.298   184089186.819         132.322          46.000    35352374.783   142349366.853         102.275          45.000  
G25  20300468.078   106679693.002        2367.388          43.000    20300459.286    83126991.867        1844.733          41.000  
G10  19438731.373   102151223.198         811.876          50.000    19438720.484    79598309.322         632.677          45.000  
G28  21834726.020   114742255.698        2461.362          43.000    21834714.870    89409523.729        1918.132          41.000  
C23  20714629.456   107866489.741          40.385          50.000                                                                  
C09  36812780.189   191693784.122         231.950          44.000    36812763.960   148229745.828         179.276          46.000  
C37  22658516.108   117988839.565        2571.717          46.000                                                                  
> 2025 10 27 02 57 30.6760000  0 18                     
G12  20692080.801   108737619.392         610.801          46.000    20692069.546    84730566.777         475.836          42.000  
G15  23507051.207   123530378.448       -3296.234          34.000    23507048.335                       -2568.650          32.000  
G18  23866749.864   125420612.542       -3637.729          31.000    23866749.572    97730317.927       -2835.405          40.000  
G23  19432399.988   102117942.815       -2321.139          46.000    19432388.694    79572347.314       -1808.607          47.000  
G24  21207748.124                       -3447.542          30.000    21207734.709                       -2686.578          28.000  
G32  20782573.332   109213157.004        1456.813          45.000    20782563.564    85101126.462        1135.052          42.000  
C08  34740689.501   180903861.185        -410.407          46.000    34740668.786   139886261.152        -317.255          48.000  
C13  34717855.562   180784961.107        -104.425          47.000    34717843.233   139794352.993         -80.725          48.000  
C16  35673687.531   185762240.365         -45.610          48.000    35673673.239   143643099.118         -35.252          48.000  
C25  22467580.261   116994601.023       -2688.026          32.000                                                                  
C32  20985410.326   109276520.981         761.895          51.000                                                                  
C06  35352394.271   184089181.538         132.122          46.000    35352373.782   142349362.764         102.256          45.000  
G25  20300450.066   106679598.303        2367.380          43.000    20300441.253    83126918.085        1844.558          41.000  
G10  19438725.203   102151190.720         811.895          50.000    19438714.294    79598284.018         632.572          45.000  
G28  21834707.304   114742157.246        2461.300          43.000    21834696.135    89409447.005        1918.148          41.000  
C23  20714629.158   107866488.130          40.280          50.000                                                                  
C09  36812778.397   191693774.847         231.922          44.000    36812762.176   148229738.658         179.219          46.000  
C37  22658496.349   117988736.690        2571.759          46.000                                                                  
> 2025 10 27 02 57 30.7160000  0 18                     
G12  20692076.136   108737594.956         610.801          46.000    20692064.893    84730547.734         475.905          42.000  
G15  23507076.284                       -3297.077          34.000    23507073.426                       -2568.049          32.000  
G18  23866777.583                       -3639.687          31.000    23866777.267    97730431.338       -2835.284          40.000  
G23  19432417.659   102118035.658       -2321.169          46.000    19432406.338    79572419.651       -1808.515          47.000  
G24  21207774.379                       -3447.473          30.000    21207760.952                       -2686.088          28.000  
G32  20782562.249   109213098.733        1456.794          45.000    20782552.465    85101081.061        1134.998          42.000  
C08  34740692.669   180903877.599        -410.425          46.000    34740671.933   139886273.852        -317.450          48.000  
C13  34717856.331   180784965.293        -104.639          47.000    34717844.044   139794356.220         -80.682          48.000  
C16  35673687.846   185762242.199         -45.781          48.000    35673673.581   143643100.527         -35.235          48.000  
C25  22467600.901   116994708.576       -2688.571          32.000                                                                  
C32  20985404.473   109276490.504         761.906          51.000                                                                  
C06  35352393.244   184089176.250         132.140          46.000    35352372.763   142349358.681         102.102          45.000  
G25  20300432.041   106679503.589        2367.698          43.000    20300423.241    83126844.283        1844.843          41.000  
G10  19438719.014   102151158.242         811.907          50.000    19438708.110    79598258.713         632.523          45.000  
G28  21834688.582   114742058.796        2461.265          43.000    21834677.405    89409370.283        1918.090          41.000  
C23  20714628.809   107866486.520          40.210          50.000                                                                  
C09  36812776.590   191693765.581         231.733          44.000    36812760.377   148229731.496         179.076          46.000  
C37  22658476.593   117988633.814        2571.814          46.000                                                                  
> 2025 10 27 02 57 30.7560000  0 18                     
G12  20692071.490   108737570.520         610.821          46.000    20692060.221    84730528.695         475.908          42.000  
G15  23507101.364                       -3296.671          34.000    23507098.569                       -2568.117          32.000  
G18  23866805.250                       -3639.441          31.000    23866804.980    97730544.772       -2835.651          40.000  
G23  19432435.317   102118128.500       -2321.163          46.000    19432424.005    79572491.999       -1808.663          47.000  
G24  21207800.623                       -3447.625          30.000    21207787.327                       -2686.249          28.000  
G32  20782551.183   109213040.472        1456.573          45.000    20782541.383    85101035.664        1134.908          42.000  
C08  34740695.836   180903894.023        -410.590          46.000    34740675.120   139886286.548        -317.468          48.000  
C13  34717857.134   180784969.467        -104.486          47.000    34717844.843   139794359.448         -80.688          48.000  
C16  35673688.194   185762244.023         -45.688          48.000    35673673.955   143643101.943         -35.376          48.000  
C25  22467621.577   116994816.125       -2688.892          32.000                                                                  
C32  20985398.617   109276460.029         761.859          51.000                                                                  
C06  35352392.210   184089170.958         132.219          46.000    35352371.761   142349354.589         102.200          45.000  
G25  20300414.017   106679408.891        2367.585          43.000    20300405.188    83126770.494        1844.723          41.000  
G10  19438712.842   102151125.769         811.808          50.000    19438701.939    79598233.407         632.542          45.000  
G28  21834669.840   114741960.341        2461.315          43.000    21834658.653    89409293.565        1917.971          41.000  
C23  20714628.525   107866484.906          40.260          50.000                                                                  
C09  36812774.807   191693756.304         231.848          44.000    36812758.608   148229724.328         179.124          46.000  
C37  22658456.797   117988530.942        2571.790          46.000                                                                  
> 2025 10 27 02 57 30.7960000  0 18                     
G12  20692066.832   108737546.077         610.965          46.000    20692055.572    84730509.648         476.065          42.000  
G15  23507126.462                       -3296.592          34.000    23507123.698                       -2568.580          32.000  
G18  23866832.926                       -3638.348          31.000    23866832.699    97730658.189       -2835.567          40.000  
G23  19432452.958   102118221.327       -2320.829          46.000    19432441.695    79572564.343       -1808.675          47.000  
G24  21207826.840                       -3447.657          30.000    21207813.496                       -2686.572          28.000  
G32  20782540.105   109212982.211        1456.492          45.000    20782530.274    85100990.262        1134.948          42.000  
C08  34740698.995   180903910.439        -410.492          46.000    34740678.313   139886299.239        -317.334          48.000  
C13  34717857.965   180784973.641        -104.401          47.000    34717845.634   139794362.686         -80.914          48.000  
C16  35673688.562   185762245.854         -45.760          48.000    35673674.354   143643103.369         -35.619          48.000  
C25  22467642.238   116994923.701       -2689.445          32.000                                                                  
C32  20985392.748   109276429.555         761.827          51.000                                                                  
C06  35352391.173   184089165.667         132.267          46.000    35352370.767   142349350.503         102.133          45.000  
G25  20300396.008   106679314.186        2367.616          43.000    20300387.158    83126696.700        1844.753          41.000  
G10  19438706.651   102151093.298         811.741          50.000    19438695.767    79598208.101         632.586          45.000  
G28  21834651.119   114741861.888        2461.302          43.000    21834639.909    89409216.852        1917.801          41.000  
C23  20714628.222   107866483.296          40.229          50.000                                                                  
C09  36812773.036   191693747.035         231.779          44.000    36812756.825   148229717.155         179.256          46.000  
C37  22658437.040   117988428.064        2571.893          46.000                                                                  
> 2025 10 27 02 57 30.8360000  0 18                     
G12  20692062.179   108737521.650         610.768          46.000    20692050.916    84730490.613         475.967          42.000  
G15  23507151.546   123530905.894       -3296.342          34.000    23507148.796                       -2569.010          32.000  
G18  23866860.607                       -3638.416          31.000    23866860.418    97730771.613       -2835.615          40.000  
G23  19432470.621   102118314.167       -2320.911          46.000    19432459.346    79572636.690       -1808.699          47.000  
G24  21207853.070                       -3447.538          30.000    21207839.972                       -2686.539          28.000  
G32  20782529.015   109212923.951        1456.446          45.000    20782519.155    85100944.846        1135.219          42.000  
C08  34740702.141   180903926.850        -410.333          46.000    34740681.463   139886311.932        -317.328          48.000  
C13  34717858.750   180784977.822        -104.504          47.000    34717846.439   139794365.924         -80.994          48.000  
C16  35673688.941   185762247.685         -45.804          48.000    35673674.727   143643104.782         -35.496          48.000  
C25  22467662.917   116995031.219       -2688.604          32.000                                                                  
C32  20985386.922   109276399.079         761.835          51.000                                                                  
C06  35352390.126   184089160.381         132.191          46.000    35352369.779   142349346.412         102.186          45.000  
G25  20300377.977   106679219.488        2367.480          43.000    20300369.159    83126622.910        1844.667          41.000  
G10  19438700.460   102151060.826         811.729          50.000    19438689.602    79598182.803         632.456          45.000  
G28  21834632.392   114741763.444        2461.138          43.000    21834621.197    89409140.145        1917.608          41.000  
C23  20714627.925   107866481.687          40.197          50.000                                                                  
C09  36812771.274   191693737.766         231.710          44.000    36812755.013   148229709.986         179.249          46.000  
C37  22658417.298   117988325.192        2571.820          46.000                                                                  
> 2025 10 27 02 57 30.8760000  0 18                     
G12  20692057.522   108737497.227         610.557          46.000    20692046.277    84730471.588         475.661          42.000  
G15  23507176.632   123531037.772       -3296.784          34.000    23507173.914    96258021.934       -2569.097          32.000  
G18  23866888.323                       -3638.871          31.000    23866888.126    97730885.041       -2835.669          40.000  
G23  19432488.281   102118407.020       -2321.225          46.000    19432477.023    79572709.043       -1808.859          47.000  
G24  21207879.297                       -3447.721          30.000    21207866.336                       -2686.653          28.000  
G32  20782517.921   109212865.687        1456.487          45.000    20782508.082    85100899.460        1134.849          42.000  
C08  34740705.250   180903943.264        -410.327          46.000    34740684.619   139886324.629        -317.401          48.000  
C13  34717859.514   180784982.013        -104.718          47.000    34717847.243   139794369.155         -80.884          48.000  
C16  35673689.310   185762249.518         -45.854          48.000    35673675.115   143643106.201         -35.532          48.000  
C25  22467683.589   116995138.788       -2689.222          32.000                                                                  
C32  20985381.051   109276368.614         761.667          51.000                                                                  
C06  35352389.116   184089155.101         132.007          46.000    35352368.784   142349342.325         102.167          45.000  
G25  20300359.969   106679124.809        2367.083          43.000    20300351.120    83126549.107        1844.888          41.000  
G10  19438694.276   102151028.356         811.693          50.000    19438683.425    79598157.494         632.592          45.000  
G28  21834613.635   114741665.003        2460.989          43.000    21834602.450    89409063.444        1917.502          41.000  
C23  20714627.589   107866480.086          40.029          50.000                                                                  
C09  36812769.487   191693728.506         231.509          44.000    36812753.205   148229702.812         179.329          46.000  
C37  22658397.502   117988222.331        2571.570          46.000                                                                  
> 2025 10 27 02 57 30.9160000  0 18                     
G12  20692052.882   108737472.804         610.480          46.000    20692041.622    84730452.556         475.684          42.000  
G15  23507201.718   123531169.635       -3296.731          34.000    23507199.031    96258124.702       -2569.288          32.000  
G18  23866916.024                       -3639.125          31.000    23866915.827    97730998.477       -2835.854          40.000  
G23  19432505.965   102118499.881       -2321.520          46.000    19432494.693    79572781.398       -1808.951          47.000  
G24  21207905.565                       -3448.054          30.000    21207892.499                       -2686.739          28.000  
G32  20782506.830   109212807.426        1456.489          45.000    20782496.994    85100854.057        1134.942          42.000  
C08  34740708.399   180903959.678        -410.345          46.000    34740687.767   139886337.331        -317.535          48.000  
C13  34717860.330   180784986.196        -104.669          47.000    34717848.038   139794372.390         -80.890          48.000  
C16  35673689.671   185762251.352         -45.897          48.000    35673675.467   143643107.623         -35.570          48.000  
C25  22467704.253   116995246.332       -2689.049          32.000                                                                  
C32  20985375.192   109276338.150         761.550          51.000                                                                  
C06  35352388.096   184089149.825         131.888          46.000    35352367.745   142349338.240         102.108          45.000  
G25  20300341.941   106679030.110        2367.227          43.000    20300333.104    83126475.326        1844.614          41.000  
G10  19438688.106   102150995.887         811.675          50.000    19438677.235    79598132.192         632.537          45.000  
G28  21834594.892   114741566.558        2461.018          43.000    21834583.694    89408986.742        1917.461          41.000  
C23  20714627.247   107866478.488          39.899          50.000                                                                  
C09  36812767.709   191693719.248         231.386          44.000    36812751.385   148229695.649         179.146          46.000  
C37  22658377.744   117988119.464        2571.552          46.000                                                                  
> 2025 10 27 02 57 30.9560000  0 18                     
G12  20692048.231   108737448.375         610.576          46.000    20692036.970    84730433.507         476.010          42.000  
G15  23507226.814   123531301.484       -3296.385          34.000    23507224.096    96258227.447       -2568.957          32.000  
G18  23866943.727                       -3639.555          31.000    23866943.538    97731111.901       -2835.657          40.000  
G23  19432523.631   102118592.740       -2321.623          46.000    19432512.335    79572853.747       -1808.857          47.000  
G24  21207931.839                       -3448.506          30.000    21207918.934                       -2686.730          28.000  
G32  20782495.727   109212749.164        1456.502          45.000    20782485.907    85100808.661        1134.899          42.000  
C08  34740711.531   180903976.104        -410.571          46.000    34740690.917   139886350.034        -317.603          48.000  
C13  34717861.135   180784990.377        -104.602          47.000    34717848.863   139794375.622         -80.853          48.000  
C16  35673690.044   185762253.187         -45.912          48.000    35673675.816   143643109.033         -35.398          48.000  
C25  22467724.954   116995353.851       -2688.251          32.000                                                                  
C32  20985369.368   109276307.683         761.574          51.000                                                                  
C06  35352387.066   184089144.548         131.855          46.000    35352366.740   142349334.156         102.064          45.000  
G25  20300323.945   106678935.422        2367.166          43.000    20300315.087    83126401.542        1844.513          41.000  
G10  19438681.913   102150963.422         811.620          50.000    19438671.068    79598106.894         632.426          45.000  
G28  21834576.152   114741468.103        2461.271          43.000    21834564.952    89408910.026        1917.760          41.000  
C23  20714626.958   107866476.882          40.002          50.000                                                                  
C09  36812765.946   191693709.974         231.635          44.000    36812749.599   148229688.486         179.072          46.000  
C37  22658357.981   117988016.598        2571.539          46.000                                                                  
> 2025 10 27 02 57 30.9960000  0 18                     
G12  20692043.583   108737423.951         610.566          46.000    20692032.336    84730414.479         475.825          42.000  
G15  23507251.914   123531433.323       -3296.097          34.000    23507249.198    96258330.150       -2567.914          32.000  
G18  23866971.441                       -3639.675          31.000    23866971.237    97731225.310       -2835.296          40.000  
G23  19432541.298   102118685.594       -2321.504          46.000    19432529.995    79572926.092       -1808.722          47.000  
G24  21207958.122                       -3447.927          30.000    21207944.971                       -2686.918          28.000  
G32  20782484.642   109212690.910        1456.394          45.000    20782474.799    85100763.262        1134.906          42.000  
C08  34740714.698   180903992.525        -410.632          46.000    34740694.072   139886362.729        -317.480          48.000  
C13  34717861.956   180784994.554        -104.468          47.000    34717849.660   139794378.861         -80.933          48.000  
C16  35673690.400   185762255.016         -45.793          48.000    35673676.168   143643110.443         -35.290          48.000  
C25  22467745.601   116995461.408       -2688.648          32.000                                                                  
C32  20985363.501   109276277.209         761.739          51.000                                                                  
C06  35352386.086   184089139.266         131.940          46.000    35352365.733   142349330.070         102.064          45.000  
G25  20300305.920   106678840.716        2367.458          43.000    20300297.067    83126327.759        1844.496          41.000  
G10  19438675.733   102150930.960         811.552          50.000    19438664.903    79598081.598         632.359          45.000  
G28  21834557.411   114741369.640        2461.552          43.000    21834546.218    89408833.303        1918.015          41.000  
C23  20714626.642   107866475.274          40.125          50.000                                                                  
C09  36812764.152   191693700.698         231.835          44.000    36812747.805   148229681.312         179.230          46.000  
C37  22658338.264   117987913.723        2571.729          46.000                                                                  
> 2025 10 27 02 57 31.0360000  0 18                     
G12  20692038.940   108737399.519         610.721          46.000    20692027.686    84730395.446         475.813          42.000  
G15  23507276.976   123531565.162       -3295.916          34.000    23507274.270    96258432.884       -2568.170          32.000  
G18  23866999.165   125421922.634       -3639.112          31.000    23866998.937    97731338.727       -2835.322          40.000  
G23  19432558.972   102118778.440       -2321.263          46.000    19432547.658    79572998.441       -1808.734          46.000  
G24  21207984.395                       -3448.106          30.000    21207971.355                       -2687.110          28.000  
G32  20782473.546   109212632.643        1456.572          45.000    20782463.720    85100717.867        1134.855          42.000  
C08  34740717.879   180904008.946        -410.620          46.000    34740697.267   139886375.415        -317.236          48.000  
C13  34717862.744   180784998.735        -104.504          47.000    34717850.452   139794382.087         -80.737          48.000  
C16  35673690.783   185762256.838         -45.606          48.000    35673676.530   143643111.858         -35.333          48.000  
C25  22467766.289   116995568.973       -2689.024          32.000                                                                  
C32  20985357.674   109276246.735         761.807          51.000                                                                  
C06  35352385.087   184089133.961         132.393          46.000    35352364.731   142349325.989         101.993          45.000  
G25  20300287.903   106678746.014        2367.546          43.000    20300279.047    83126253.967        1844.615          41.000  
G10  19438669.530   102150898.491         811.614          50.000    19438658.711    79598056.311         632.143          45.000  
G28  21834538.687   114741271.192        2461.365          43.000    21834527.494    89408756.586        1918.016          41.000  
C23  20714626.363   107866473.668          40.125          50.000                                                                  
C09  36812762.385   191693691.420         231.952          44.000    36812745.998   148229674.138         179.318          46.000  
C37  22658318.519   117987810.849        2571.808          46.000                                                                  
> 2025 10 27 02 57 31.0760000  0 18                     
G12  20692034.299   108737375.093         610.674          46.000    20692023.051    84730376.418         475.689          42.000  
G15  23507302.051   123531697.040       -3296.602          34.000    23507299.358    96258535.654       -2568.969          32.000  
G18  23867026.865   125422068.131       -3637.846          31.000    23867026.636    97731452.160       -2835.651          40.000  
G23  19432576.628   102118871.278       -2321.012          46.000    19432565.336    79573070.796       -1808.877          46.000  
G24  21208010.639                       -3446.758          30.000    21207997.866                       -2686.768          28.000  
G32  20782462.460   109212574.367        1456.834          45.000    20782452.624    85100672.471        1134.865          42.000  
C08  34740720.984   180904025.366        -410.577          46.000    34740700.434   139886388.113        -317.377          48.000  
C13  34717863.546   180785002.915        -104.523          47.000    34717851.264   139794385.321         -80.811          48.000  
C16  35673691.167   185762258.668         -45.698          48.000    35673676.893   143643113.274         -35.373          48.000  
C25  22467786.937   116995676.551       -2689.460          32.000                                                                  
C32  20985351.805   109276216.265         761.786          51.000                                                                  
C06  35352384.087   184089128.677         132.277          46.000    35352363.736   142349321.906         102.004          45.000  
G25  20300269.889   106678651.332        2367.209          43.000    20300261.042    83126180.170        1844.773          41.000  
G10  19438663.360   102150866.025         811.608          50.000    19438652.526    79598031.012         632.292          45.000  
G28  21834519.960   114741172.751        2461.075          43.000    21834508.753    89408679.876        1917.857          41.000  
C23  20714626.062   107866472.064          40.103          50.000                                                                  
C09  36812760.581   191693682.163         231.571          44.000    36812744.207   148229666.977         179.121          46.000  
C37  22658298.744   117987707.983        2571.686          46.000                                                                  
> 2025 10 27 02 57 31.1160000  0 18                     
G12  20692029.662   108737350.672         610.557          46.000    20692018.411    84730357.382         475.750          42.000  
G15  23507327.168   123531828.926       -3297.053          34.000    23507324.438    96258638.411       -2569.173          32.000  
G18  23867054.598                       -3639.132          31.000    23867054.322    97731565.596       -2835.866          40.000  
G23  19432594.313   102118964.140       -2321.377          46.000    19432583.023    79573143.151       -1808.957          46.000  
G24  21208036.871                       -3446.824          30.000    21208023.945                       -2686.302          28.000  
G32  20782451.406   109212516.101        1456.781          45.000    20782441.512    85100627.070        1134.963          42.000  
C08  34740724.119   180904041.787        -410.571          46.000    34740703.605   139886400.817        -317.560          48.000  
C13  34717864.346   180785007.105        -104.724          47.000    34717852.054   139794388.553         -80.829          48.000  
C16  35673691.530   185762260.510         -45.954          48.000    35673677.259   143643114.693         -35.465          48.000  
C25  22467807.610   116995784.081       -2688.756          32.000                                                                  
C32  20985345.920   109276185.797         761.707          51.000                                                                  
C06  35352383.097   184089123.393         132.173          46.000    35352362.738   142349317.819         102.113          45.000  
G25  20300251.862   106678556.638        2367.242          43.000    20300243.013    83126106.392        1844.581          41.000  
G10  19438657.202   102150833.562         811.559          50.000    19438646.368    79598005.711         632.447          45.000  
G28  21834501.239   114741074.321        2460.764          43.000    21834490.032    89408603.172        1917.643          41.000  
C23  20714625.734   107866470.470          39.890          50.000                                                                  
C09  36812758.810   191693672.897         231.561          44.000    36812742.410   148229659.815         179.028          46.000  
C37  22658278.982   117987605.123        2571.490          46.000                                                                  
> 2025 10 27 02 57 31.1560000  0 18                     
G12  20692025.013   108737326.258         610.372          46.000    20692013.781    84730338.353         475.700          42.000  
G15  23507352.250   123531960.804       -3297.073          34.000    23507349.527    96258741.150       -2568.813          32.000  
G18  23867082.293                       -3639.070          31.000    23867082.026    97731679.033       -2835.975          40.000  
G23  19432611.967   102119057.007       -2321.635          46.000    19432600.682    79573215.509       -1809.017          46.000  
G24  21208063.145                       -3448.584          30.000    21208050.009                       -2686.306          28.000  
G32  20782440.334   109212457.855        1456.351          45.000    20782430.411    85100581.673        1134.927          42.000  
C08  34740727.273   180904058.207        -410.553          46.000    34740706.736   139886413.512        -317.474          48.000  
C13  34717865.166   180785011.292        -104.749          47.000    34717852.823   139794391.791         -80.945          48.000  
C16  35673691.889   185762262.350         -46.073          48.000    35673677.633   143643116.116         -35.573          47.000  
C25  22467828.233   116995891.650       -2689.146          32.000                                                                  
C32  20985340.067   109276155.337         761.554          51.000                                                                  
C06  35352382.079   184089118.123         131.844          46.000    35352361.732   142349313.728         102.217          45.000  
G25  20300233.837   106678461.962        2366.990          43.000    20300224.976    83126032.627        1844.152          41.000  
G10  19438651.050   102150801.108         811.368          50.000    19438640.188    79597980.418         632.360          45.000  
G28  21834482.501   114740975.881        2460.833          43.000    21834471.306    89408526.466        1917.531          41.000  
C23  20714625.413   107866468.881          39.713          50.000                                                                  
C09  36812757.010   191693663.635         231.520          44.000    36812740.622   148229652.656         178.930          46.000  
C37  22658259.196   117987502.271        2571.246          46.000                                                                  
> 2025 10 27 02 57 31.1960000  0 18                     
G12  20692020.345   108737301.839         610.376          46.000    20692009.130    84730319.338         475.396          42.000  
G15  23507377.372   123532092.659       -3296.679          34.000    23507374.620    96258843.920       -2569.207          32.000  
G18  23867109.963                       -3639.073          31.000    23867109.720    97731792.444       -2835.561          40.000  
G23  19432629.644   102119149.866       -2321.584          46.000    19432618.352    79573287.869       -1809.072          46.000  
G24  21208089.390                       -3449.082          30.000    21208076.581                       -2686.358          28.000  
G32  20782429.264   109212399.612        1456.055          45.000    20782419.332    85100536.274        1134.906          42.000  
C08  34740730.435   180904074.635        -410.681          46.000    34740709.884   139886426.209        -317.462          48.000  
C13  34717865.980   180785015.480        -104.791          47.000    34717853.642   139794395.030         -81.030          48.000  
C16  35673692.276   185762264.192         -46.123          48.000    35673677.980   143643117.545         -35.718          47.000  
C25  22467848.897   116995999.213       -2689.101          32.000                                                                  
C32  20985334.194   109276124.883         761.358          51.000                                                                  
C06  35352381.072   184089112.849         131.742          46.000    35352360.714   142349309.644         102.167          45.000  
G25  20300215.801   106678367.280        2366.960          43.000    20300206.958    83125958.850        1844.214          41.000  
G10  19438644.860   102150768.654         811.289          50.000    19438634.013    79597955.117         632.477          45.000  
G28  21834463.763   114740877.433        2461.074          43.000    21834452.583    89408449.761        1917.534          41.000  
C23  20714625.114   107866467.283          39.785          50.000                                                                  
C09  36812755.226   191693654.377         231.440          44.000    36812738.825   148229645.497         178.887          46.000  
C37  22658239.474   117987399.409        2571.350          46.000                                                                  
> 2025 10 27 02 57 31.2360000  0 18                     
G12  20692015.698   108737277.430         610.245          46.000    20692004.496    84730300.321         475.342          42.000  
G15  23507402.456   123532224.516       -3296.525          34.000    23507399.740    96258946.708       -2569.606          32.000  
G18  23867137.687   125422650.402       -3638.976          31.000    23867137.394    97731905.864       -2835.469          40.000  
G23  19432647.291   102119242.725       -2321.534          46.000    19432636.011    79573360.228       -1809.072          46.000  
G24  21208115.628                       -3448.283          30.000    21208102.708                       -2686.435          28.000  
G32  20782418.203   109212341.365        1456.049          45.000    20782408.260    85100490.878        1134.834          42.000  
C08  34740733.604   180904091.067        -410.815          46.000    34740713.039   139886438.916        -317.633          48.000  
C13  34717866.817   180785019.666        -104.724          47.000    34717854.447   139794398.274         -81.140          48.000  
C16  35673692.652   185762266.032         -46.071          48.000    35673678.377   143643118.966         -35.674          47.000  
C25  22467869.587   116996106.746       -2688.496          32.000                                                                  
C32  20985328.388   109276094.425         761.345          51.000                                                                  
C06  35352380.077   184089107.578         131.714          46.000    35352359.707   142349305.565         102.028          45.000  
G25  20300197.795   106678272.596        2366.993          43.000    20300188.969    83125885.058        1844.537          41.000  
G10  19438638.683   102150736.194         811.388          50.000    19438627.845    79597929.833         632.206          45.000  
G28  21834445.026   114740778.988        2461.110          43.000    21834433.871    89408373.063        1917.353          41.000  
C23  20714624.812   107866465.691          39.755          50.000                                                                  
C09  36812753.434   191693645.120         231.359          44.000    36812737.037   148229638.333         178.970          46.000  
C37  22658219.737   117987296.547        2571.423          46.000                                                                  
> 2025 10 27 02 57 31.2760000  0 18                     
G12  20692011.046   108737253.016         610.236          46.000    20691999.862    84730281.295         475.503          42.000  
G15  23507427.529   123532356.360       -3296.212          34.000    23507424.831    96259049.423       -2568.542          32.000  
G18  23867165.405   125422796.029       -3640.177          31.000    23867165.078    97732019.285       -2835.522          40.000  
G23  19432664.961   102119335.578       -2321.361          46.000    19432653.674    79573432.581       -1808.917          46.000  
G24  21208141.854                       -3448.118          30.000    21208129.179                       -2686.726          28.000  
G32  20782407.122   109212283.101        1456.391          45.000    20782397.196    85100445.498        1134.539          42.000  
C08  34740736.806   180904107.493        -410.748          46.000    34740716.229   139886451.624        -317.743          48.000  
C13  34717867.627   180785023.853        -104.730          47.000    34717855.247   139794401.508         -80.975          48.000  
C16  35673693.035   185762267.867         -45.959          48.000    35673678.728   143643120.387         -35.593          48.000  
C25  22467890.277                       -2689.337          32.000                                                                  
C32  20985322.533   109276063.959         761.524          51.000                                                                  
C06  35352379.095   184089102.285         132.065          46.000    35352358.706   142349301.489         101.892          45.000  
G25  20300179.766   106678177.913        2367.008          43.000    20300170.939    83125811.277        1844.503          41.000  
G10  19438632.505   102150703.733         811.462          50.000    19438621.674    79597904.542         632.219          45.000  
G28  21834426.310   114740680.545        2461.077          43.000    21834415.149    89408296.358        1917.450          41.000  
C23  20714624.537   107866464.097          39.797          50.000                                                                  
C09  36812751.707   191693635.853         231.518          44.000    36812735.283   148229631.167         179.104          46.000  
C37  22658199.981   117987193.676        2571.631          46.000                                                                  
> 2025 10 27 02 57 31.3160000  0 18                     
G12  20692006.396   108737228.606         610.221          46.000    20691995.196    84730262.267         475.585          42.000  
G15  23507452.648   123532488.253       -3296.743          34.000    23507449.918    96259152.151       -2568.140          32.000  
G18  23867193.131                       -3639.546          31.000    23867192.786    97732132.704       -2835.485          40.000  
G23  19432682.663   102119428.446       -2321.639          46.000    19432671.354    79573504.940       -1808.948          46.000  
G24  21208168.099                       -3448.063          30.000    21208155.372                       -2686.587          28.000  
G32  20782396.052   109212224.837        1456.548          45.000    20782386.086    85100400.104        1134.678          42.000  
C08  34740739.972   180904123.920        -410.712          46.000    34740719.383   139886464.323        -317.615          48.000  
C13  34717868.454   180785028.035        -104.626          47.000    34717856.028   139794404.751         -81.067          48.000  
C16  35673693.417   185762269.698         -45.838          48.000    35673679.101   143643121.802         -35.450          48.000  
C25  22467910.941   116996321.904       -2689.372          32.000                                                                  
C32  20985316.709   109276033.493         761.620          51.000                                                                  
C06  35352378.060   184089097.006         132.026          46.000    35352357.698   142349297.416         101.779          45.000  
G25  20300161.761   106678083.231        2367.002          43.000    20300152.914    83125737.494        1844.507          41.000  
G10  19438626.314   102150671.272         811.486          50.000    19438615.481    79597879.250         632.244          45.000  
G28  21834407.594   114740582.115        2460.839          43.000    21834396.431    89408219.643        1917.690          41.000  
C23  20714624.267   107866462.499          39.881          50.000                                                                  
C09  36812749.963   191693626.583         231.687          44.000    36812733.532   148229624.004         179.115          46.000  
C37  22658180.218   117987090.817        2571.521          46.000                                                                  
> 2025 10 27 02 57 31.3560000  0 18                     
G12  20692001.714   108737204.190         610.320          46.000    20691990.563    84730243.246         475.532          42.000  
G15  23507477.718   123532620.091       -3296.235          34.000    23507474.999    96259254.889       -2568.262          32.000  
G18  23867220.795   125423087.114       -3638.588          31.000    23867220.503    97732246.146       -2835.915          40.000  
G23  19432700.340   102119521.313       -2321.707          46.000    19432689.023    79573577.311       -1809.207          46.000  
G24  21208194.354                       -3448.283          30.000    21208181.376                       -2687.084          27.000  
G32  20782384.974   109212166.580        1456.491          45.000    20782374.991    85100354.703        1134.913          42.000  
C08  34740743.096   180904140.356        -410.876          46.000    34740722.518   139886477.023        -317.548          48.000  
C13  34717869.267   180785032.225        -104.712          47.000    34717856.799   139794407.992         -81.073          48.000  
C16  35673693.740   185762271.543         -46.031          48.000    35673679.494   143643123.220         -35.433          48.000  
C25  22467931.586   116996429.456       -2688.914          32.000                                                                  
C32  20985310.869   109276003.030         761.617          51.000                                                                  
C06  35352377.038   184089091.729         131.959          46.000    35352356.678   142349293.332         101.937          45.000  
G25  20300143.752   106677988.553        2366.932          43.000    20300134.907    83125663.713        1844.514          41.000  
G10  19438620.145   102150638.826         811.215          50.000    19438609.308    79597853.960         632.226          45.000  
G28  21834388.880   114740483.688        2460.672          43.000    21834377.699    89408142.935        1917.675          41.000  
C23  20714623.900   107866460.912          39.724          50.000                                                                  
C09  36812748.191   191693617.320         231.635          44.000    36812731.777   148229616.843         179.045          46.000  
C37  22658160.458   117986987.963        2571.399          46.000                                                                  
> 2025 10 27 02 57 31.3960000  0 18                     
G12  20691997.077   108737179.782         610.229          46.000    20691985.923    84730224.228         475.484          42.000  
G15  23507502.763   123532751.940       -3296.121          34.000    23507500.071    96259357.656       -2568.773          32.000  
G18  23867248.491   125423232.694       -3639.033          32.000    23867248.206    97732359.575       -2835.899          40.000  
G23  19432718.026   102119614.178       -2321.706          46.000    19432706.705    79573649.670       -1809.120          46.000  
G24  21208220.599                       -3447.561          30.000    21208207.585                       -2686.878          27.000  
G32  20782373.910   109212108.330        1456.333          45.000    20782363.892    85100309.319        1134.682          42.000  
C08  34740746.253   180904156.776        -410.645          46.000    34740725.668   139886489.724        -317.535          48.000  
C13  34717870.076   180785036.418        -104.828          47.000    34717857.594   139794411.226         -80.933          48.000  
C16  35673694.105   185762273.383         -46.049          48.000    35673679.841   143643124.641         -35.460          48.000  
C25  22467952.234   116996537.021       -2689.044          32.000                                                                  
C32  20985304.923   109275972.572         761.492          51.000                                                                  
C06  35352375.987   184089086.461         131.798          46.000    35352355.620   142349289.237         102.239          45.000  
G25  20300125.707   106677893.874        2366.929          43.000    20300116.886    83125589.942        1844.294          41.000  
G10  19438613.968   102150606.376         811.160          50.000    19438603.133    79597828.675         632.133          45.000  
G28  21834370.128   114740385.248        2460.858          43.000    21834358.956    89408066.214        1917.913          41.000  
C23  20714623.574   107866459.325          39.656          50.000                                                                  
C09  36812746.438   191693608.061         231.521          44.000    36812729.995   148229609.693         178.825          46.000  
C37  22658140.724   117986885.108        2571.307          46.000                                                                  
> 2025 10 27 02 57 31.4360000  0 18                     
G12  20691992.441   108737155.373         610.219          46.000    20691981.273    84730205.208         475.485          42.000  
G15  23507527.849   123532883.796       -3296.317          34.000    23507525.189    96259460.405       -2568.759          32.000  
G18  23867276.215                       -3639.015          32.000    23867275.888    97732472.994       -2835.648          40.000  
G23  19432735.703   102119707.038       -2321.601          46.000    19432724.371    79573722.029       -1809.064          46.000  
G24  21208246.847                       -3448.310          30.000    21208233.851                       -2686.715          27.000  
G32  20782362.833   109212050.079        1456.257          45.000    20782352.803    85100263.922        1134.806          42.000  
C08  34740749.398   180904173.197        -410.547          46.000    34740728.821   139886502.425        -317.529          48.000  
C13  34717870.870   180785040.604        -104.736          48.000    34717858.398   139794414.459         -80.859          48.000  
C16  35673694.475   185762275.225         -46.078          48.000    35673680.167   143643126.067         -35.608          48.000  
C25  22467972.902   116996644.560       -2688.688          32.000                                                                  
C32  20985299.076   109275942.111         761.474          51.000                                                                  
C06  35352374.961   184089081.179         131.898          46.000    35352354.607   142349285.154         102.158          45.000  
G25  20300107.679   106677799.190        2367.021          43.000    20300098.889    83125516.160        1844.393          41.000  
G10  19438607.787   102150573.922         811.217          50.000    19438596.952    79597803.386         632.133          45.000  
G28  21834351.375   114740286.804        2461.027          43.000    21834340.235    89407989.519        1917.565          41.000  
C23  20714623.324   107866457.733          39.716          50.000                                                                  
C09  36812744.647   191693598.809         231.314          44.000    36812728.228   148229602.533         178.878          46.000  
C37  22658121.016   117986782.244        2571.484          46.000                                                                  
> 2025 10 27 02 57 31.4760000  0 18                     
G12  20691987.792   108737130.965         610.193          46.000    20691976.612    84730186.180         475.641          42.000  
G15  23507552.947   123533015.686       -3297.056          34.000    23507550.294    96259563.229       -2570.232          32.000  
G18  23867303.910                       -3639.501          32.000    23867303.597    97732586.409       -2835.443          40.000  
G23  19432753.370   102119799.904       -2321.644          46.000    19432742.027    79573794.390       -1809.040          46.000  
G24  21208273.086                       -3447.784          30.000    21208259.981                       -2686.682          27.000  
G32  20782351.738   109211991.821        1456.345          45.000    20782341.715    85100218.518        1134.985          42.000  
C08  34740752.553   180904189.619        -410.547          46.000    34740731.999   139886515.127        -317.560          48.000  
C13  34717871.685   180785044.787        -104.608          48.000    34717859.214   139794417.696         -80.896          48.000  
C16  35673694.853   185762277.056         -45.901          48.000    35673680.525   143643127.492         -35.677          48.000  
C25  22467993.524   116996752.114       -2688.757          32.000                                                                  
C32  20985293.199   109275911.652         761.462          51.000                                                                  
C06  35352373.939   184089075.905         131.866          46.000    35352353.562   142349281.075         102.030          45.000  
G25  20300089.635   106677704.506        2367.067          43.000    20300080.877    83125442.387        1844.290          41.000  
G10  19438601.602   102150541.466         811.328          50.000    19438590.784    79597778.103         632.047          45.000  
G28  21834332.637   114740188.360        2461.118          43.000    21834321.510    89407912.815        1917.542          41.000  
C23  20714623.065   107866456.142          39.737          50.000                                                                  
C09  36812742.873   191693589.542         231.525          44.000    36812726.420   148229595.366         179.067          46.000  
C37  22658101.269   117986679.379        2571.576          46.000                                                                  
> 2025 10 27 02 57 31.5160000  0 18                     
G12  20691983.123   108737106.547         610.342          46.000    20691971.964    84730167.146         475.790          42.000  
G15  23507578.034   123533147.540       -3296.694          34.000    23507575.382    96259665.932       -2568.535          32.000  
G18  23867331.617                       -3638.629          32.000    23867331.286    97732699.827       -2835.377          40.000  
G23  19432771.040   102119892.762       -2321.533          46.000    19432759.676    79573866.750       -1808.990          46.000  
G24  21208299.300                       -3448.085          30.000    21208286.110                       -2687.117          27.000  
G32  20782340.640   109211933.551        1456.636          45.000    20782330.627    85100173.125        1134.877          42.000  
C08  34740755.685   180904206.043        -410.559          46.000    34740735.170   139886527.829        -317.566          48.000  
C13  34717872.484   180785048.966        -104.504          48.000    34717860.038   139794420.938         -81.018          48.000  
C16  35673695.234   185762278.885         -45.781          48.000    35673680.863   143643128.912         -35.615          48.000  
C25  22468014.178   116996859.661       -2688.696          32.000                                                                  
C32  20985287.382   109275881.184         761.607          51.000                                                                  
C06  35352372.927   184089070.617         132.085          46.000    35352352.558   142349276.999         101.914          45.000  
G25  20300071.597   106677609.822        2367.069          43.000    20300062.883    83125368.601        1844.541          41.000  
G10  19438595.421   102150509.006         811.445          50.000    19438584.607    79597752.802         632.350          45.000  
G28  21834313.926   114740089.915        2461.135          43.000    21834302.785    89407836.113        1917.525          41.000  
C23  20714622.780   107866454.550          39.763          50.000                                                                  
C09  36812741.097   191693580.274         231.611          44.000    36812724.620   148229588.195         179.242          46.000  
C37  22658081.521   117986576.517        2571.552          46.000                                                                  
> 2025 10 27 02 57 31.5560000  0 18                     
G12  20691978.469   108737082.142         610.206          46.000    20691967.306    84730148.119         475.727          42.000  
G15  23507603.106   123533279.422       -3297.106          34.000    23507600.447                       -2567.917          32.000  
G18  23867359.307                       -3638.578          32.000    23867358.995    97732813.251       -2835.492          40.000  
G23  19432788.719   102119985.628       -2321.638          46.000    19432777.353    79573939.114       -1809.046          46.000  
G24  21208325.534                       -3448.144          30.000    21208312.307                       -2686.786          27.000  
G32  20782329.544   109211875.291        1456.597          45.000    20782319.539    85100127.718        1135.084          42.000  
C08  34740758.846   180904222.466        -410.590          46.000    34740738.366   139886540.525        -317.438          48.000  
C13  34717873.264   180785053.155        -104.657          48.000    34717860.861   139794424.174         -80.988          48.000  
C16  35673695.575   185762280.718         -45.785          48.000    35673681.216   143643130.332         -35.547          48.000  
C25  22468034.816   116996967.238       -2689.245          32.000                                                                  
C32  20985281.540   109275850.723         761.551          51.000                                                                  
C06  35352371.895   184089065.324         132.281          46.000    35352351.564   142349272.904         102.195          45.000  
G25  20300053.570   106677515.129        2367.233          43.000    20300044.846    83125294.817        1844.629          41.000  
G10  19438589.245   102150476.549         811.444          50.000    19438578.432    79597727.507         632.417          45.000  
G28  21834295.200   114739991.476        2461.039          43.000    21834284.050    89407759.413        1917.502          41.000  
C23  20714622.487   107866452.957          39.814          50.000                                                                  
C09  36812739.301   191693571.001         231.767          44.000    36812722.842   148229581.027         179.258          46.000  
C37  22658061.761   117986473.657        2571.460          46.000                                                                  
> 2025 10 27 02 57 31.5960000  0 18                     
G12  20691973.846   108737057.733         610.200          46.000    20691962.638    84730129.097         475.617          42.000  
G15  23507628.179   123533411.240       -3296.084          34.000    23507625.557                       -2568.148          32.000  
G18  23867387.002                       -3638.879          32.000    23867386.707    97732926.659       -2835.314          40.000  
G23  19432806.371   102120078.482       -2321.459          46.000    19432795.012    79574011.471       -1808.991          46.000  
G24  21208351.782                       -3447.464          30.000    21208338.561                       -2686.703          27.000  
G32  20782318.460   109211817.033        1456.516          45.000    20782308.452    85100082.324        1134.965          42.000  
C08  34740761.974   180904238.886        -410.529          46.000    34740741.504   139886553.226        -317.505          48.000  
C13  34717874.046   180785057.339        -104.620          48.000    34717861.669   139794427.403         -80.823          48.000  
C16  35673695.935   185762282.552         -45.819          48.000    35673681.593   143643131.750         -35.463          48.000  
C25  22468055.474   116997074.801       -2689.168          32.000                                                                  
C32  20985275.720   109275820.262         761.512          51.000                                                                  
C06  35352370.873   184089060.043         132.175          46.000    35352350.559   142349268.824         102.104          45.000  
G25  20300035.557   106677420.442        2367.194          43.000    20300026.837    83125221.047        1844.371          41.000  
G10  19438583.064   102150444.096         811.345          50.000    19438572.267    79597702.225         632.195          45.000  
G28  21834276.457   114739893.029        2461.140          43.000    21834265.314    89407682.699        1917.741          41.000  
C23  20714622.162   107866451.369          39.708          50.000                                                                  
C09  36812737.518   191693561.742         231.576          44.000    36812721.070   148229573.872         179.030          46.000  
C37  22658042.019   117986370.801        2571.368          46.000                                                                  
> 2025 10 27 02 57 31.6360000  0 18                     
G12  20691969.213   108737033.319         610.319          46.000    20691957.982    84730110.082         475.419          42.000  
G15  23507653.294   123533543.109       -3296.480          34.000    23507650.638                       -2568.292          32.000  
G18  23867414.713                       -3639.501          32.000    23867414.401    97733040.088       -2835.589          40.000  
G23  19432824.037   102120171.347       -2321.558          46.000    19432812.699    79574083.823       -1808.874          46.000  
G24  21208378.000                       -3447.040          30.000    21208364.700                       -2686.458          27.000  
G32  20782307.381   109211758.784        1456.317          45.000    20782297.395    85100036.939        1134.748          42.000  
C08  34740765.129   180904255.307        -410.541          46.000    34740744.623   139886565.919        -317.358          48.000  
C13  34717874.853   180785061.522        -104.578          48.000    34717862.451   139794430.638         -80.841          48.000  
C16  35673696.309   185762284.389         -45.871          48.000    35673681.916   143643133.163         -35.361          48.000  
C25  22468076.172   116997182.340       -2688.631          32.000                                                                  
C32  20985269.887   109275789.793         761.635          51.000                                                                  
C06  35352369.848   184089054.765         132.050          46.000    35352349.551   142349264.737         102.144          45.000  
G25  20300017.540   106677325.754        2367.255          43.000    20300008.830    83125147.275        1844.269          41.000  
G10  19438576.906   102150411.641         811.321          50.000    19438566.089    79597676.940         632.103          45.000  
G28  21834257.727   114739794.587        2461.076          43.000    21834246.590    89407605.983        1917.910          41.000  
C23  20714621.877   107866449.774          39.808          50.000                                                                  
C09  36812735.723   191693552.481         231.495          44.000    36812719.309   148229566.708         179.037          46.000  
C37  22658022.274   117986267.938        2571.497          46.000                                                                  
> 2025 10 27 02 57 31.6760000  0 18                     
G12  20691964.578   108737008.903         610.366          46.000    20691953.333    84730091.068         475.320          42.000  
G15  23507678.381   123533674.930       -3295.813          34.000    23507675.689                       -2568.681          32.000  
G18  23867442.423                       -3639.191          32.000    23867442.107    97733153.524       -2835.851          40.000  
G23  19432841.722   102120264.214       -2321.688          46.000    19432830.379    79574156.180       -1808.912          46.000  
G24  21208404.263                       -3447.601          30.000    21208390.792                       -2686.335          27.000  
G32  20782296.295   109211700.525        1456.392          45.000    20782286.305    85099991.537        1134.919          42.000  
C08  34740768.271   180904271.723        -410.468          46.000    34740747.786   139886578.616        -317.377          48.000  
C13  34717875.633   180785065.699        -104.443          48.000    34717863.269   139794433.875         -80.914          48.000  
C16  35673696.674   185762286.214         -45.707          48.000    35673682.279   143643134.575         -35.295          48.000  
C25  22468096.844   116997289.895       -2688.769          32.000                                                                  
C32  20985264.000   109275759.329         761.606          51.000                                                                  
C06  35352368.809   184089049.480         132.078          46.000    35352348.541   142349260.644         102.279          45.000  
G25  20299999.515   106677231.070        2367.201          43.000    20299990.791    83125073.488        1844.490          41.000  
G10  19438570.722   102150379.185         811.358          50.000    19438559.909    79597651.645         632.257          45.000  
G28  21834238.975   114739696.138        2461.157          43.000    21834227.858    89407529.270        1917.899          41.000  
C23  20714621.571   107866448.181          39.825          50.000                                                                  
C09  36812733.932   191693543.220         231.490          44.000    36812717.532   148229559.538         179.183          46.000  
C37  22658002.521   117986165.061        2571.814          46.000                                                                  
> 2025 10 27 02 57 31.7160000  0 18                     
G12  20691959.963   108736984.499         610.190          46.000    20691948.693    84730072.063         475.112          42.000  
G15  23507703.510   123533806.831       -3296.713          34.000    23507700.776                       -2568.783          32.000  
G18  23867470.116                       -3637.817          32.000    23867469.798    97733266.937       -2835.543          40.000  
G23  19432859.400   102120357.073       -2321.545          46.000    19432848.073    79574228.547       -1809.103          46.000  
G24  21208430.509                       -3448.701          30.000    21208417.310                       -2686.432          27.000  
G32  20782285.201   109211642.253        1456.665          45.000    20782275.231    85099946.133        1135.026          42.000  
C08  34740771.435   180904288.144        -410.553          46.000    34740750.976   139886591.311        -317.371          48.000  
C13  34717876.381   180785069.884        -104.565          48.000    34717864.077   139794437.108         -80.859          48.000  
C16  35673697.003   185762288.048         -45.763          48.000    35673682.607   143643135.994         -35.392          48.000  
C25  22468117.475   116997397.480       -2689.336          32.000                                                                  
C32  20985258.137   109275728.867         761.547          51.000                                                                  
C06  35352367.779   184089044.194         132.087          46.000    35352347.551   142349256.558         102.223          45.000  
G25  20299981.496   106677136.397        2366.958          43.000    20299972.759    83124999.695        1844.724          41.000  
G10  19438564.548   102150346.732         811.315          50.000    19438553.719    79597626.355         632.276          45.000  
G28  21834220.254   114739597.710        2460.779          43.000    21834209.116    89407452.564        1917.708          41.000  
C23  20714621.260   107866446.589          39.785          50.000                                                                  
C09  36812732.168   191693533.947         231.692          44.000    36812715.764   148229552.368         179.244          46.000  
C37  22657982.736   117986062.203        2571.606          46.000                                                                  
> 2025 10 27 02 57 31.7560000  0 18                     
G12  20691955.329   108736960.095         610.088          46.000    20691944.049    84730053.040         475.366          42.000  
G15  23507728.628   123533938.712       -3297.152          34.000    23507725.894    96260282.392       -2568.745          32.000  
G18  23867497.779                       -3638.251          32.000    23867497.492    97733380.361       -2835.579          40.000  
G23  19432877.070   102120449.929       -2321.416          46.000    19432865.732    79574300.908       -1809.121          46.000  
G24  21208456.783                       -3448.450          30.000    21208443.622                       -2686.601          27.000  
G32  20782274.121   109211583.989        1456.664          45.000    20782264.131    85099900.733        1134.995          42.000  
C08  34740774.579   180904304.568        -410.620          46.000    34740754.162   139886604.013        -317.499          48.000  
C13  34717877.177   180785074.069        -104.608          48.000    34717864.864   139794440.340         -80.841          48.000  
C16  35673697.337   185762289.883         -45.855          48.000    35673682.930   143643137.419         -35.567          48.000  
C25  22468138.161   116997505.005       -2688.427          32.000                                                                  
C32  20985252.324   109275698.402         761.574          51.000                                                                  
C06  35352366.777   184089038.911         132.076          46.000    35352346.552   142349252.486         101.931          45.000  
G25  20299963.488   106677041.724        2366.825          43.000    20299954.765    83124925.920        1844.547          41.000  
G10  19438558.382   102150314.281         811.247          50.000    19438547.536    79597601.072         632.134          45.000  
G28  21834201.531   114739499.283        2460.588          43.000    21834190.409    89407375.862        1917.559          41.000  
C23  20714620.954   107866445.007          39.617          50.000                                                                  
C09  36812730.390   191693524.676         231.740          44.000    36812713.994   148229545.202         179.192          46.000  
C37  22657962.946   117985959.345        2571.466          46.000                                                                  
> 2025 10 27 02 57 31.7960000  0 18                     
G12  20691950.693   108736935.683         610.189          46.000    20691939.387    84730034.004         475.760          42.000  
G15  23507753.721   123534070.511       -3295.580          34.000    23507751.006    96260385.128       -2568.574          32.000  
G18  23867525.488                       -3639.324          32.000    23867525.195    97733493.761       -2835.133          40.000  
G23  19432894.746   102120542.793       -2321.490          46.000    19432883.420    79574373.278       -1809.255          46.000  
G24  21208483.007                       -3447.798          30.000    21208469.890                       -2686.861          27.000  
G32  20782263.032   109211525.723        1456.681          45.000    20782253.044    85099855.322        1135.216          42.000  
C08  34740777.726   180904320.988        -410.535          46.000    34740757.296   139886616.706        -317.407          48.000  
C13  34717877.984   180785078.254        -104.675          48.000    34717865.717   139794443.572         -80.811          48.000  
C16  35673697.687   185762291.715         -45.835          48.000    35673683.262   143643138.832         -35.432          47.000  
C25  22468158.809   116997612.556       -2688.554          32.000                                                                  
C32  20985246.507   109275667.934         761.652          51.000                                                                  
C06  35352365.786   184089033.625         132.136          46.000    35352345.549   142349248.402         101.958          45.000  
G25  20299945.472   106676947.051        2366.774          43.000    20299936.753    83124852.149        1844.337          41.000  
G10  19438552.197   102150281.828         811.266          50.000    19438541.349    79597575.783         632.171          45.000  
G28  21834182.807   114739400.845        2460.750          43.000    21834171.681    89407299.163        1917.422          41.000  
C23  20714620.665   107866443.420          39.608          50.000                                                                  
C09  36812728.636   191693515.405         231.776          44.000    36812712.195   148229538.039         179.059          46.000  
C37  22657943.194   117985856.479        2571.564          46.000                                                                  
> 2025 10 27 02 57 31.8360000  0 18                     
G12  20691946.047   108736911.276         610.131          46.000    20691934.745    84730014.985         475.640          42.000  
G15  23507778.795   123534202.350       -3295.659          34.000    23507776.140    96260487.907       -2569.233          32.000  
G18  23867553.178                       -3639.195          32.000    23867552.890    97733607.167       -2835.093          40.000  
G23  19432912.432   102120635.669       -2321.768          46.000    19432901.089    79574445.632       -1809.015          46.000  
G24  21208509.237                       -3447.349          30.000    21208496.119                       -2687.244          27.000  
G32  20782251.952   109211467.465        1456.503          45.000    20782241.992    85099809.934        1134.930          42.000  
C08  34740780.854   180904337.414        -410.638          46.000    34740760.399   139886629.406        -317.487          48.000  
C13  34717878.807   180785082.432        -104.541          47.000    34717866.510   139794446.805         -80.823          48.000  
C16  35673698.027   185762293.552         -45.900          48.000    35673683.581   143643140.243         -35.328          47.000  
C25  22468179.467   116997720.143       -2689.381          32.000                                                                  
C32  20985240.674   109275637.464         761.708          51.000                                                                  
C06  35352364.788   184089028.333         132.253          46.000    35352344.532   142349244.325         101.853          45.000  
G25  20299927.446   106676852.355        2367.153          43.000    20299918.713    83124778.366        1844.431          41.000  
G10  19438546.045   102150249.389         811.026          50.000    19438535.184    79597550.503         632.011          45.000  
G28  21834164.054   114739302.391        2461.173          43.000    21834152.942    89407222.456        1917.557          41.000  
C23  20714620.387   107866441.826          39.719          50.000                                                                  
C09  36812726.848   191693506.139         231.687          44.000    36812710.399   148229530.873         179.034          46.000  
C37  22657923.431   117985753.620        2571.454          46.000                                                                  
