     3.04           OBSERVATION DATA    M: Mixed            RINEX VERSION / TYPE
RTKCONV 2.4.3 b34                       20251027 032150 UTC PGM / RUN BY / DATE 
format: u-blox UBX                                          COMMENT             
log: D:\GPdata\10_27\metal_110_10_27_2_cover.ubx            COMMENT             
                                                            MARKER NAME         
                                                            MARKER NUMBER       
                                                            MARKER TYPE         
                                                            OBSERVER / AGENCY   
                                                            REC # / TYPE / VERS 
                                                            ANT # / TYPE        
        0.0000        0.0000        0.0000                  APPROX POSITION XYZ 
        0.0000        0.0000        0.0000                  ANTENNA: DELTA H/E/N
G    8 C1C L1C D1C S1C C2L L2L D2L S2L                      SYS / # / OBS TYPES 
C    8 C2I L2I D2I S2I C7I L7I D7I S7I                      SYS / # / OBS TYPES 
  2025    10    27    02    58   23.0760000     GPS         TIME OF FIRST OBS   
  2025    10    27    02    59   05.7960000     GPS         TIME OF LAST OBS    
G L1C                                                       SYS / PHASE SHIFT   
G L2L  0.00000                                              SYS / PHASE SHIFT   
C L2I                                                       SYS / PHASE SHIFT   
C L7I                                                       SYS / PHASE SHIFT   
  0                                                         GLONASS SLOT / FRQ #
 C1C    0.000 C1P    0.000 C2C    0.000 C2P    0.000        GLONASS COD/PHS/BIS 
                                                            END OF HEADER       
> 2025 10 27 02 58 23.0760000  0 18                     
G12  20686160.692   108706510.0121        576.422          46.000    20686149.531    84706325.6581        449.345          42.000  
G15  23539944.867   123703255.4001      -3301.105          34.000    23539943.228    96392203.7361      -2572.664          32.000  
G18  23903002.468                1      -3631.225          31.000    23903002.713    97878760.5841      -2830.075          40.000  
G23  19455691.454   102240338.5581      -2350.594          46.000    19455679.771    79667720.5051      -1831.673          47.000  
G24  21242172.124                       -3456.931          28.000    21242157.833                       -2693.902          27.000  
G32  20768077.903   109136982.4601       1450.803          45.000    20768067.682    85041769.6961       1130.272          42.000  
C08  34744864.118   180925599.7561       -419.464          46.000    34744843.576   139903070.7621       -324.329          48.000  
C13  34718945.842   180790637.4141       -112.189          48.000    34718933.068   139798742.2441        -86.780          48.000  
C16  35674175.662   185764782.6141        -51.302          48.000    35674161.750   143645064.9191        -39.688          48.000  
C25  22494720.561   117135923.4341      -2705.890          32.000                                                                  
C32  20977817.268   109236981.3411        747.199          51.000                                                                  
C06  35351093.140   184082407.0041        126.228          46.000    35351072.858   142344124.2451         97.668          45.000  
G25  20276964.188   106556182.6311       2342.800          43.000    20276956.183    83030750.0501       1825.896          41.000  
G10  19430781.531   102109446.0851        781.432          50.000    19430770.850    79565755.6851        608.979          46.000  
G28  21810243.203   114613600.3001       2445.296          42.000    21810232.682    89309272.9291       1905.674          41.000  
C23  20714365.040   107865113.6271         12.134          50.000                                                                  
C09  36810474.984   191681779.8751        226.151          44.000    36810458.531   148220463.3761        174.762          46.000  
C37  22632692.375   117854369.0401       2556.604          46.000                                                                  
> 2025 10 27 02 58 23.1160000  0 18                     
G12  20686156.298   108706486.962         576.255          46.000    20686145.157    84706307.702         449.038          41.000  
G15  23539969.970   123703387.462       -3301.395          34.000    23539968.346    96392306.622       -2572.205          31.000  
G18  23903030.146                       -3631.758          31.000    23903030.380    97878873.812       -2830.496          40.000  
G23  19455709.358   102240432.586       -2350.704          46.000    19455697.662    79667793.778       -1831.814          47.000  
G24  21242198.448                       -3457.130          28.000    21242184.183                       -2693.685          27.000  
G32  20768066.859   109136924.429        1450.781          45.000    20768056.634    85041724.480        1130.302          42.000  
C08  34744867.328   180925616.538        -419.574          46.000    34744846.795   139903083.733        -324.274          48.000  
C13  34718946.706   180790641.912        -112.372          48.000    34718933.917   139798745.720         -86.884          48.000  
C16  35674176.048   185764784.676         -51.506          48.000    35674162.196   143645066.505         -39.696          48.000  
C25  22494741.334   117136031.633       -2705.377          32.000                                                                  
C32  20977811.520   109236951.454         747.155          51.000                                                                  
C06  35351092.198   184082401.952         126.249          46.000    35351071.896   142344120.340          97.598          45.000  
G25  20276946.371   106556088.907        2343.000          43.000    20276938.361    83030677.026        1825.682          41.000  
G10  19430775.586   102109414.834         781.290          50.000    19430764.919    79565731.334         608.812          46.000  
G28  21810224.594   114613502.486        2445.291          42.000    21810214.060    89309196.713        1905.503          41.000  
C23  20714364.950   107865113.150          11.954          50.000                                                                  
C09  36810473.236   191681770.835         226.067          44.000    36810456.821   148220456.383         174.813          46.000  
C37  22632672.746   117854266.776        2556.561          46.000                                                                  
> 2025 10 27 02 58 23.1560000  0 18                     
G12  20686151.906   108706463.914         576.129          46.000    20686140.775    84706289.755         448.688          41.000  
G15  23539995.129   123703519.549       -3302.107          34.000    23539993.438    96392409.514       -2572.170          31.000  
G18  23903057.830                       -3631.958          31.000    23903058.020    97878987.033       -2830.597          40.000  
G23  19455727.239   102240526.608       -2350.635          46.000    19455715.542    79667867.050       -1831.863          47.000  
G24  21242224.786                       -3456.895          28.000    21242210.281                       -2693.653          27.000  
G32  20768055.818   109136866.403        1450.677          45.000    20768045.591    85041679.267        1130.291          42.000  
C08  34744870.544   180925633.315        -419.507          46.000    34744849.977   139903096.703        -324.268          48.000  
C13  34718947.584   180790646.415        -112.579          48.000    34718934.800   139798749.194         -86.884          48.000  
C16  35674176.441   185764786.736         -51.559          48.000    35674162.621   143645068.096         -39.767          47.000  
C25  22494762.136   117136139.830       -2704.993          32.000                                                                  
C32  20977805.778   109236921.574         747.001          51.000                                                                  
C06  35351091.253   184082396.901         126.223          46.000    35351070.917   142344116.426          97.743          45.000  
G25  20276928.536   106555995.192        2342.908          43.000    20276920.552    83030604.014        1825.328          41.000  
G10  19430769.647   102109383.591         781.069          50.000    19430758.949    79565706.995         608.492          46.000  
G28  21810205.982   114613404.683        2445.110          42.000    21810195.457    89309120.504        1905.270          41.000  
C23  20714364.824   107865112.675          11.829          50.000                                                                  
C09  36810471.504   191681761.797         225.966          44.000    36810455.075   148220449.392         174.792          46.000  
C37  22632653.095   117854164.519        2556.415          46.000                                                                  
> 2025 10 27 02 58 23.1960000  0 18                     
G12  20686147.554   108706440.865         576.123          46.000    20686136.361    84706271.798         448.689          41.000  
G15  23540020.262   123703651.580       -3301.344          34.000    23540018.581                       -2572.367          31.000  
G18  23903085.482   125611551.0661      -3631.539          31.000    23903085.677    97879100.237       -2830.306          40.000  
G23  19455745.163   102240620.646       -2350.870          46.000    19455733.432    79667940.320       -1831.831          46.000  
G24  21242251.079                       -3456.599          28.000    21242236.447                       -2693.496          27.000  
G32  20768044.797   109136808.386        1450.464          45.000    20768034.554    85041634.055        1130.301          42.000  
C08  34744873.783   180925650.097        -419.574          46.000    34744853.204   139903109.678        -324.341          48.000  
C13  34718948.447   180790650.908        -112.457          48.000    34718935.659   139798752.666         -86.847          47.000  
C16  35674176.855   185764788.794         -51.530          48.000    35674163.027   143645069.691         -39.884          47.000  
C25  22494782.944   117136248.087       -2705.927          32.000                                                                  
C32  20977800.064   109236891.690         747.013          51.000                                                                  
C06  35351090.289   184082391.853         126.187          46.000    35351069.979   142344112.525          97.590          45.000  
G25  20276910.710   106555901.493        2342.581          43.000    20276902.715    83030531.009        1825.122          41.000  
G10  19430763.711   102109352.348         780.966          50.000    19430753.012    79565682.646         608.561          46.000  
G28  21810187.376   114613306.868        2445.218          42.000    21810176.851    89309044.297        1905.142          41.000  
C23  20714364.748   107865112.195          11.866          50.000                                                                  
C09  36810469.760   191681752.769         225.722          44.000    36810453.339   148220442.404         174.729          46.000  
C37  22632633.464   117854062.262        2556.354          46.000                                                                  
> 2025 10 27 02 58 23.2360000  0 18                     
G12  20686143.164   108706417.814         576.185          46.000    20686131.978    84706253.833         448.904          41.000  
G15  23540045.378   123703783.640       -3301.331          34.000    23540043.712                       -2572.471          31.000  
G18  23903113.107   125611696.407       -3632.895          31.000    23903113.303    97879213.440       -2830.156          40.000  
G23  19455763.073   102240714.683       -2350.992          46.000    19455751.305    79668013.588       -1831.738          46.000  
G24  21242277.376                       -3456.876          28.000    21242262.668                       -2693.365          27.000  
G32  20768033.748   109136750.361        1450.509          45.000    20768023.507    85041588.844        1130.289          42.000  
C08  34744877.010   180925666.878        -419.586          46.000    34744856.427   139903122.657        -324.469          48.000  
C13  34718949.343   180790655.406        -112.488          48.000    34718936.545   139798756.145         -86.969          47.000  
C16  35674177.267   185764790.860         -51.651          48.000    35674163.433   143645071.287         -39.965          47.000  
C25  22494803.727   117136356.314       -2705.939          32.000                                                                  
C32  20977794.340   109236861.811         746.962          51.000                                                                  
C06  35351089.337   184082386.811         126.064          46.000    35351069.015   142344108.622          97.528          45.000  
G25  20276892.884   106555807.793        2342.455          43.000    20276884.881    83030457.986        1825.269          41.000  
G10  19430757.757   102109321.108         780.886          50.000    19430747.053    79565658.305         608.475          46.000  
G28  21810168.737   114613209.062        2445.111          42.000    21810158.239    89308968.090        1905.076          41.000  
C23  20714364.667   107865111.719          11.844          50.000                                                                  
C09  36810468.012   191681743.740         225.631          44.000    36810451.610   148220435.419         174.596          45.000  
C37  22632613.848   117853960.011        2556.232          46.000                                                                  
> 2025 10 27 02 58 23.2760000  0 18                     
G12  20686138.806   108706394.776         575.999          46.000    20686127.619    84706235.868         449.086          41.000  
G15  23540070.472   123703915.727       -3301.931          34.000    23540068.842                       -2573.259          31.000  
G18  23903140.761   125611841.712       -3633.009          31.000    23903140.938    97879326.633       -2829.950          40.000  
G23  19455780.960   102240808.719       -2351.016          46.000    19455769.217    79668086.855       -1831.677          46.000  
G24  21242303.664                       -3456.901          28.000    21242289.080                       -2693.448          27.000  
G32  20768022.712   109136692.345        1450.417          45.000    20768012.452    85041543.622        1130.477          42.000  
C08  34744880.226   180925683.662        -419.653          46.000    34744859.670   139903135.641        -324.622          48.000  
C13  34718950.229   180790659.904        -112.488          48.000    34718937.424   139798759.628         -87.109          47.000  
C16  35674177.683   185764792.922         -51.619          48.000    35674163.867   143645072.885         -40.026          47.000  
C25  22494824.508   117136464.550       -2706.012          33.000                                                                  
C32  20977788.593   109236831.934         746.874          51.000                                                                  
C06  35351088.388   184082381.766         126.057          46.000    35351068.076   142344104.724          97.426          45.000  
G25  20276875.057   106555714.092        2342.424          43.000    20276867.035    83030384.970        1825.293          41.000  
G10  19430751.798   102109289.870         780.857          50.000    19430741.105    79565633.959         608.556          46.000  
G28  21810150.123   114613111.262        2444.968          42.000    21810139.638    89308891.873        1905.234          41.000  
C23  20714364.602   107865111.245          11.808          50.000                                                                  
C09  36810466.286   191681734.708         225.678          44.000    36810449.853   148220428.441         174.435          45.000  
C37  22632594.225   117853857.748        2556.403          46.000                                                                  
> 2025 10 27 02 58 23.3160000  0 18                     
G12  20686134.422   108706371.728         576.073          46.000    20686123.198    84706217.906         449.088          41.000  
G15  23540095.608   123704047.786       -3301.737          34.000    23540093.953                       -2572.938          31.000  
G18  23903168.393   125611987.013       -3632.716          31.000    23903168.590    97879439.853       -2830.271          40.000  
G23  19455798.831   102240902.755       -2350.997          46.000    19455787.127    79668160.128       -1831.794          46.000  
G24  21242330.003                       -3456.883          28.000    21242315.317                       -2693.632          27.000  
G32  20768011.655   109136634.316        1450.588          45.000    20768001.410    85041498.410        1130.382          42.000  
C08  34744883.461   180925700.449        -419.702          46.000    34744862.892   139903148.624        -324.652          48.000  
C13  34718951.097   180790664.411        -112.665          48.000    34718938.311   139798763.114         -87.177          47.000  
C16  35674178.111   185764794.978         -51.493          48.000    35674164.296   143645074.483         -40.041          47.000  
C25  22494845.278   117136572.758       -2705.450          32.000                                                                  
C32  20977782.857   109236802.060         746.793          51.000                                                                  
C06  35351087.448   184082376.715         126.219          46.000    35351067.097   142344100.836          97.198          45.000  
G25  20276857.217   106555620.382        2342.561          43.000    20276849.213    83030311.956        1825.288          41.000  
G10  19430745.821   102109258.628         780.938          50.000    19430735.156    79565609.616         608.531          46.000  
G28  21810131.512   114613013.468        2444.827          42.000    21810121.034    89308815.650        1905.486          41.000  
C23  20714364.552   107865110.774          11.752          50.000                                                                  
C09  36810464.540   191681725.677         225.743          44.000    36810448.112   148220421.462         174.401          45.000  
C37  22632574.577   117853755.493        2556.384          46.000                                                                  
> 2025 10 27 02 58 23.3560000  0 18                     
G12  20686130.035   108706348.683         576.095          46.000    20686118.803    84706199.950         448.991          41.000  
G15  23540120.741   123704179.827       -3301.197          34.000    23540119.114                       -2571.868          31.000  
G18  23903196.036                       -3631.842          31.000    23903196.234    97879553.070       -2830.429          40.000  
G23  19455816.694   102240996.789       -2350.966          46.000    19455805.055    79668233.407       -1831.973          46.000  
G24  21242356.297                       -3457.132          28.000    21242341.802                       -2693.927          27.000  
G32  20768000.614   109136576.304        1450.371          45.000    20767990.366    85041453.198        1130.331          42.000  
C08  34744886.668   180925717.242        -419.843          46.000    34744866.099   139903161.597        -324.451          48.000  
C13  34718951.952   180790668.909        -112.585          48.000    34718939.198   139798766.592         -87.067          47.000  
C16  35674178.527   185764797.044         -51.573          48.000    35674164.679   143645076.071         -39.854          47.000  
C25  22494866.053   117136680.999       -2705.768          33.000                                                                  
C32  20977777.159   109236772.182         746.843          51.000                                                                  
C06  35351086.475   184082371.673         126.097          46.000    35351066.120   142344096.929          97.397          45.000  
G25  20276839.396   106555526.675        2342.628          43.000    20276831.373    83030238.938        1825.327          41.000  
G10  19430739.853   102109227.382         781.080          50.000    19430729.215    79565585.271         608.569          46.000  
G28  21810112.903   114612915.655        2445.100          42.000    21810102.405    89308739.438        1905.409          41.000  
C23  20714364.470   107865110.303          11.723          50.000                                                                  
C09  36810462.822   191681716.644         225.774          44.000    36810446.374   148220414.477         174.516          45.000  
C37  22632554.949   117853653.239        2556.354          46.000                                                                  
> 2025 10 27 02 58 23.3960000  0 18                     
G12  20686125.654   108706325.644         576.026          46.000    20686114.415    84706181.989         449.017          41.000  
G15  23540145.867   123704311.893       -3301.377          34.000    23540144.252                       -2572.092          31.000  
G18  23903223.714   125612277.558       -3632.090          31.000    23903223.899    97879666.279       -2830.306          40.000  
G23  19455834.582   102241090.826       -2350.972          46.000    19455822.957    79668306.685       -1832.009          46.000  
G24  21242382.631                       -3457.243          28.000    21242368.394                       -2693.598          27.000  
G32  20767989.561   109136518.278        1450.525          45.000    20767979.328    85041407.980        1130.451          42.000  
C08  34744889.903   180925734.024        -419.696          46.000    34744869.325   139903174.573        -324.396          48.000  
C13  34718952.832   180790673.405        -112.476          48.000    34718940.092   139798770.064         -86.902          47.000  
C16  35674178.942   185764799.101         -51.481          48.000    35674165.078   143645077.662         -39.778          47.000  
C25  22494886.860   117136789.186       -2704.779          33.000                                                                  
C32  20977771.416   109236742.301         746.943          51.000                                                                  
C06  35351085.530   184082366.627         126.125          46.000    35351065.145   142344093.016          97.662          45.000  
G25  20276821.567   106555432.975        2342.555          43.000    20276813.528    83030165.920        1825.381          41.000  
G10  19430733.906   102109196.138         781.116          50.000    19430723.248    79565560.923         608.661          46.000  
G28  21810094.288   114612817.837        2445.388          42.000    21810083.807    89308663.221        1905.433          41.000  
C23  20714364.404   107865109.828          11.803          50.000                                                                  
C09  36810461.107   191681707.605         225.899          44.000    36810444.648   148220407.486         174.692          45.000  
C37  22632535.304   117853550.989        2556.287          46.000                                                                  
> 2025 10 27 02 58 23.4360000  0 18                     
G12  20686121.255   108706302.597         576.113          46.000    20686110.009    84706164.040         448.768          41.000  
G15  23540171.007   123704443.967       -3301.770          34.000    23540169.385                       -2572.739          31.000  
G18  23903251.384   125612422.857       -3632.391          31.000    23903251.544    97879779.489       -2830.253          40.000  
G23  19455852.465   102241184.854       -2350.836          46.000    19455840.863    79668379.960       -1831.959          46.000  
G24  21242408.930                       -3456.807          28.000    21242394.692                       -2693.736          27.000  
G32  20767978.519   109136460.253        1450.587          45.000    20767968.312    85041362.777        1130.223          42.000  
C08  34744893.124   180925750.796        -419.458          46.000    34744872.580   139903187.546        -324.347          48.000  
C13  34718953.724   180790677.898        -112.347          48.000    34718940.991   139798773.541         -86.871          47.000  
C16  35674179.358   185764801.162         -51.516          48.000    35674165.490   143645079.255         -39.808          47.000  
C25  22494907.616   117136897.418       -2705.243          33.000                                                                  
C32  20977765.691   109236712.419         747.018          51.000                                                                  
C06  35351084.577   184082361.582         126.112          46.000    35351064.152   142344089.116          97.583          45.000  
G25  20276803.737   106555339.282        2342.365          43.000    20276795.687    83030092.908        1825.315          41.000  
G10  19430727.968   102109164.896         781.066          50.000    19430717.304    79565536.579         608.593          46.000  
G28  21810075.676   114612720.031        2445.245          42.000    21810065.214    89308587.014        1905.295          41.000  
C23  20714364.332   107865109.356          11.801          50.000                                                                  
C09  36810459.376   191681698.569         225.916          44.000    36810442.920   148220400.496         174.753          45.000  
C37  22632515.666   117853448.729        2556.427          46.000                                                                  
> 2025 10 27 02 58 23.4760000  0 18                     
G12  20686116.856   108706279.551         576.163          46.000    20686105.640    84706146.088         448.723          41.000  
G15  23540196.133   123704576.051       -3302.187          34.000    23540194.539                       -2572.878          31.000  
G18  23903279.029   125612568.143       -3632.425          31.000    23903279.186    97879892.692       -2830.134          40.000  
G23  19455870.385   102241278.891       -2350.898          46.000    19455858.750    79668453.233       -1831.891          46.000  
G24  21242435.220                       -3456.783          28.000    21242420.902                       -2693.804          27.000  
G32  20767967.501   109136402.228        1450.583          45.000    20767957.260    85041317.567        1130.176          42.000  
C08  34744896.372   180925767.578        -419.482          46.000    34744875.817   139903200.527        -324.487          48.000  
C13  34718954.603   180790682.387        -112.250          48.000    34718941.841   139798777.017         -86.884          47.000  
C16  35674179.797   185764803.219         -51.437          48.000    35674165.897   143645080.849         -39.843          47.000  
C25  22494928.400   117137005.654       -2705.701          33.000                                                                  
C32  20977760.005   109236682.531         747.158          51.000                                                                  
C06  35351083.594   184082356.530         126.224          46.000    35351063.177   142344085.216          97.487          45.000  
G25  20276785.889   106555245.562        2342.778          43.000    20276777.843    83030019.884        1825.502          41.000  
G10  19430722.036   102109133.657         780.992          49.000    19430711.378    79565512.243         608.420          45.000  
G28  21810057.070   114612622.227        2445.099          42.000    21810046.607    89308510.796        1905.429          41.000  
C23  20714364.274   107865108.880          11.854          50.000                                                                  
C09  36810457.636   191681689.532         225.895          44.000    36810441.153   148220393.512         174.669          45.000  
C37  22632496.043   117853346.469        2556.494          46.000                                                                  
> 2025 10 27 02 58 23.5160000  0 18                     
G12  20686112.461   108706256.510         576.097          46.000    20686101.270    84706128.140         448.683          41.000  
G15  23540221.291   123704708.107       -3301.741          34.000    23540219.685                       -2573.625          31.000  
G18  23903306.707   125612713.414       -3632.056          31.000    23903306.846    97880005.892       -2830.007          40.000  
G23  19455888.301   102241372.929       -2350.941          46.000    19455876.661    79668526.507       -1831.860          46.000  
G24  21242461.532                       -3456.884          28.000    21242447.143                       -2693.489          27.000  
G32  20767956.467   109136344.211        1450.460          45.000    20767946.203    85041272.348        1130.335          42.000  
C08  34744899.600   180925784.354        -419.403          46.000    34744879.071   139903213.506        -324.506          48.000  
C13  34718955.444   180790686.891        -112.500          48.000    34718942.708   139798780.497         -86.981          47.000  
C16  35674180.220   185764805.278         -51.479          48.000    35674166.308   143645082.452         -40.058          47.000  
C25  22494949.184   117137113.903       -2706.128          33.000                                                                  
C32  20977754.231   109236652.652         747.030          51.000                                                                  
C06  35351082.647   184082351.477         126.293          46.000    35351062.186   142344081.308          97.593          45.000  
G25  20276768.050   106555151.854        2342.771          43.000    20276760.022    83029946.868        1825.416          41.000  
G10  19430716.082   102109102.418         780.956          50.000    19430705.438    79565487.901         608.483          45.000  
G28  21810038.473   114612524.434        2444.863          42.000    21810027.984    89308434.587        1905.321          41.000  
C23  20714364.199   107865108.406          11.866          50.000                                                                  
C09  36810455.908   191681680.496         225.850          44.000    36810439.432   148220386.534         174.500          45.000  
C37  22632476.408   117853244.212        2556.451          46.000                                                                  
> 2025 10 27 02 58 23.5560000  0 18                     
G12  20686108.095   108706233.464         576.149          46.000    20686096.878    84706110.172         449.003          41.000  
G15  23540246.394   123704840.136       -3301.073          34.000    23540244.842                       -2573.112          31.000  
G18  23903334.375   125612858.718       -3632.413          31.000    23903334.492    97880119.122       -2830.483          40.000  
G23  19455906.197   102241466.970       -2351.002          46.000    19455894.555    79668599.779       -1831.799          46.000  
G24  21242487.871                       -3456.633          28.000    21242473.384                       -2693.779          27.000  
G32  20767945.428   109136286.184        1450.566          45.000    20767935.159    85041227.147        1130.066          42.000  
C08  34744902.795   180925801.139        -419.592          46.000    34744882.271   139903226.486        -324.506          48.000  
C13  34718956.307   180790691.387        -112.476          48.000    34718943.556   139798783.974         -86.945          47.000  
C16  35674180.615   185764807.340         -51.524          48.000    35674166.686   143645084.037         -39.798          47.000  
C25  22494970.000   117137222.115       -2705.634          32.000                                                                  
C32  20977748.470   109236622.778         746.895          51.000                                                                  
C06  35351081.643   184082346.428         126.265          46.000    35351061.183   142344077.404          97.584          45.000  
G25  20276750.223   106555058.150        2342.675          43.000    20276742.182    83029873.852        1825.376          41.000  
G10  19430710.146   102109071.177         780.974          49.000    19430699.472    79565463.550         608.643          46.000  
G28  21810019.829   114612426.631        2444.935          42.000    21810009.357    89308358.377        1905.278          41.000  
C23  20714364.104   107865107.932          11.851          50.000                                                                  
C09  36810454.184   191681671.462         225.833          44.000    36810437.745   148220379.543         174.652          45.000  
C37  22632456.754   117853141.955        2556.396          46.000                                                                  
> 2025 10 27 02 58 23.5960000  0 18                     
G12  20686103.731   108706210.428         575.972          46.000    20686092.496    84706092.210         449.068          41.000  
G15  23540271.496   123704972.199       -3301.305          34.000    23540269.968                       -2572.427          31.000  
G18  23903361.986   125613003.979       -3631.876          31.000    23903362.111    97880232.317       -2830.140          40.000  
G23  19455924.079   102241561.002       -2350.835          46.000    19455912.455    79668673.054       -1831.849          46.000  
G24  21242514.177                       -3456.314          28.000    21242499.826                       -2693.835          27.000  
G32  20767934.387   109136228.159        1450.611          45.000    20767924.111    85041181.931        1130.206          42.000  
C08  34744906.015   180925817.916        -419.489          46.000    34744885.496   139903239.455        -324.316          48.000  
C13  34718957.163   180790695.886        -112.524          48.000    34718944.424   139798787.447         -86.877          47.000  
C16  35674181.042   185764809.397         -51.465          48.000    35674167.093   143645085.625         -39.729          47.000  
C25  22494990.773   117137330.300       -2704.840          33.000                                                                  
C32  20977742.764   109236592.893         747.014          51.000                                                                  
C06  35351080.668   184082341.376         126.282          46.000    35351060.186   142344073.499          97.599          45.000  
G25  20276732.409   106554964.446        2342.621          43.000    20276724.353    83029800.836        1825.364          41.000  
G10  19430704.187   102109039.936         780.993          50.000    19430693.525    79565439.202         608.698          46.000  
G28  21810001.228   114612328.821        2445.093          42.000    21809990.742    89308282.165        1905.252          41.000  
C23  20714364.006   107865107.464          11.741          50.000                                                                  
C09  36810452.445   191681662.431         225.719          44.000    36810436.008   148220372.552         174.752          45.000  
C37  22632437.105   117853039.700        2556.360          46.000                                                                  
> 2025 10 27 02 58 23.6360000  0 18                     
G12  20686099.340   108706187.387         575.981          46.000    20686088.097    84706074.256         448.948          41.000  
G15  23540296.676   123705104.274       -3301.722          34.000    23540295.107                       -2571.491          31.000  
G18  23903389.596   125613149.272       -3632.108          31.000    23903389.763    97880345.534       -2830.318          40.000  
G23  19455941.977   102241655.036       -2350.792          46.000    19455930.338    79668746.332       -1831.916          46.000  
G24  21242540.505                       -3456.557          28.000    21242526.081                       -2693.896          27.000  
G32  20767923.331   109136170.132        1450.642          45.000    20767913.075    85041136.710        1130.401          42.000  
C08  34744909.260   180925834.704        -419.641          46.000    34744888.713   139903252.427        -324.280          48.000  
C13  34718958.043   180790700.384        -112.500          48.000    34718945.303   139798790.923         -86.908          47.000  
C16  35674181.433   185764811.457         -51.494          48.000    35674167.463   143645087.211         -39.667          47.000  
C25  22495011.578   117137438.531       -2705.322          33.000                                                                  
C32  20977737.023   109236563.016         746.949          51.000                                                                  
C06  35351079.705   184082336.325         126.237          46.000    35351059.199   142344069.593          97.638          45.000  
G25  20276714.588   106554870.739        2342.642          43.000    20276706.497    83029727.812        1825.475          41.000  
G10  19430698.250   102109008.697         780.956          50.000    19430687.580    79565414.866         608.469          46.000  
G28  21809982.604   114612231.010        2445.172          42.000    21809972.129    89308205.959        1905.126          41.000  
C23  20714363.904   107865106.995          11.685          50.000                                                                  
C09  36810450.700   191681653.394         225.816          44.000    36810434.266   148220365.564         174.738          45.000  
C37  22632417.452   117852937.448        2556.275          46.000                                                                  
> 2025 10 27 02 58 23.6760000  0 18                     
G12  20686094.940   108706164.356         575.782          46.000    20686083.716    84706056.323         448.504          41.000  
G15  23540321.820   123705236.340       -3301.695          34.000    23540320.225                       -2571.768          31.000  
G18  23903417.220   125613294.559       -3632.139          31.000    23903417.392    97880458.733       -2830.151          40.000  
G23  19455959.882   102241749.073       -2350.867          46.000    19455948.236    79668819.610       -1831.953          46.000  
G24  21242566.820                       -3457.081          28.000    21242552.162                       -2693.663          27.000  
G32  20767912.299   109136112.106        1450.627          45.000    20767902.024    85041091.496        1130.397          42.000  
C08  34744912.508   180925851.490        -419.684          46.000    34744891.966   139903265.408        -324.438          48.000  
C13  34718958.908   180790704.877        -112.396          48.000    34718946.165   139798794.401         -86.945          47.000  
C16  35674181.828   185764813.523         -51.624          48.000    35674167.885   143645088.813         -39.925          47.000  
C25  22495032.339   117137546.745       -2705.335          33.000                                                                  
C32  20977731.292   109236533.140         746.891          51.000                                                                  
C06  35351078.736   184082331.290         125.956          46.000    35351058.251   142344065.691          97.584          45.000  
G25  20276696.768   106554777.047        2342.386          43.000    20276688.670    83029654.811        1825.101          41.000  
G10  19430692.325   102108977.464         780.808          49.000    19430681.617    79565390.532         608.322          46.000  
G28  21809964.005   114612133.213        2444.976          42.000    21809953.527    89308129.758        1904.984          41.000  
C23  20714363.826   107865106.528          11.643          50.000                                                                  
C09  36810448.966   191681644.359         225.847          44.000    36810432.540   148220358.582         174.561          45.000  
C37  22632397.808   117852835.195        2556.256          46.000                                                                  
> 2025 10 27 02 58 23.7160000  0 18                     
G12  20686090.547   108706141.325         575.717          46.000    20686079.333    84706038.386         448.352          41.000  
G15  23540346.917   123705368.390       -3301.314          34.000    23540345.370                       -2572.781          31.000  
G18  23903444.863   125613439.815       -3631.449          31.000    23903445.023    97880571.939       -2830.145          40.000  
G23  19455977.775   102241843.122       -2351.163          46.000    19455966.129    79668892.887       -1831.965          46.000  
G24  21242593.130                       -3456.826          28.000    21242578.597                       -2693.645          27.000  
G32  20767901.285   109136054.089        1450.471          45.000    20767890.980    85041046.274        1130.505          42.000  
C08  34744915.748   180925868.274        -419.672          46.000    34744895.191   139903278.388        -324.518          48.000  
C13  34718959.764   180790709.370        -112.335          48.000    34718947.031   139798797.882         -87.012          47.000  
C16  35674182.227   185764815.581         -51.534          48.000    35674168.311   143645090.410         -39.959          47.000  
C25  22495053.144   117137654.986       -2705.804          33.000                                                                  
C32  20977725.548   109236503.264         746.882          51.000                                                                  
C06  35351077.778   184082326.246         125.966          46.000    35351057.306   142344061.791          97.477          45.000  
G25  20276678.942   106554683.341        2342.554          43.000    20276670.839    83029581.793        1825.223          41.000  
G10  19430686.380   102108946.236         780.686          50.000    19430675.687    79565366.188         608.452          46.000  
G28  21809945.414   114612035.411        2444.966          42.000    21809934.915    89308053.536        1905.274          41.000  
C23  20714363.749   107865106.061          11.645          50.000                                                                  
C09  36810447.236   191681635.326         225.809          44.000    36810430.804   148220351.600         174.492          45.000  
C37  22632378.189   117852732.934        2556.415          46.000                                                                  
> 2025 10 27 02 58 23.7560000  0 18                     
G12  20686086.157   108706118.281         575.935          46.000    20686074.943    84706020.423         448.781          41.000  
G15  23540372.046   123705500.442       -3301.367          34.000    23540370.508                       -2573.100          31.000  
G18  23903472.468                       -3631.520          31.000    23903472.672    97880685.152       -2830.250          40.000  
G23  19455995.643   102241937.157       -2351.064          46.000    19455984.021    79668966.165       -1831.971          46.000  
G24  21242619.447                       -3456.838          28.000    21242604.798                       -2693.400          27.000  
G32  20767890.234   109135996.057        1450.668          45.000    20767879.956    85041001.055        1130.508          42.000  
C08  34744918.965   180925885.051        -419.519          46.000    34744898.417   139903291.370        -324.573          48.000  
C13  34718960.622   180790713.860        -112.262          48.000    34718947.904   139798801.355         -86.908          47.000  
C16  35674182.633   185764817.636         -51.430          48.000    35674168.698   143645092.000         -39.851          47.000  
C25  22495073.944   117137763.207       -2705.780          33.000                                                                  
C32  20977719.822   109236473.379         747.051          51.000                                                                  
C06  35351076.806   184082321.204         125.983          46.000    35351056.362   142344057.883          97.573          45.000  
G25  20276661.095   106554589.639        2342.568          43.000    20276653.011    83029508.771        1825.392          41.000  
G10  19430680.406   102108914.998         780.822          49.000    19430669.709    79565341.846         608.521          46.000  
G28  21809926.790   114611937.598        2445.212          42.000    21809916.315    89307977.320        1905.373          41.000  
C23  20714363.685   107865105.585          11.796          50.000                                                                  
C09  36810445.536   191681626.286         225.928          44.000    36810429.066   148220344.612         174.608          46.000  
C37  22632358.553   117852630.677        2556.415          46.000                                                                  
> 2025 10 27 02 58 23.7960000  0 18                     
G12  20686081.769   108706095.245         575.894          46.000    20686070.538    84706002.465         448.925          41.000  
G15  23540397.157   123705632.512       -3301.656          34.000    23540395.668                       -2573.198          31.000  
G18  23903500.142   125613730.395       -3632.146          31.000    23903500.309    97880798.364       -2830.346          40.000  
G23  19456013.546   102242031.197       -2351.101          46.000    19456001.918    79669039.445       -1832.027          46.000  
G24  21242645.749                       -3457.008          28.000    21242631.074                       -2693.458          27.000  
G32  20767879.203   109135938.039        1450.490          45.000    20767868.896    85040955.843        1130.405          42.000  
C08  34744922.165   180925901.837        -419.629          46.000    34744901.644   139903304.342        -324.432          48.000  
C13  34718961.468   180790718.363        -112.500          48.000    34718948.757   139798804.828         -86.865          47.000  
C16  35674183.044   185764819.693         -51.394          48.000    35674169.137   143645093.589         -39.747          47.000  
C25  22495094.740   117137871.440       -2705.792          33.000                                                                  
C32  20977714.053   109236443.500         747.002          51.000                                                                  
C06  35351075.816   184082316.131         126.482          46.000    35351055.428   142344053.975          97.653          45.000  
G25  20276643.277   106554495.942        2342.473          43.000    20276635.195    83029435.760        1825.310          41.000  
G10  19430674.473   102108883.761         780.877          49.000    19430663.761    79565317.503         608.570          46.000  
G28  21809908.159   114611839.783        2445.374          42.000    21809897.709    89307901.102        1905.434          41.000  
C23  20714363.594   107865105.118          11.716          50.000                                                                  
C09  36810443.810   191681617.249         225.908          44.000    36810427.326   148220337.625         174.639          46.000  
C37  22632338.928   117852528.418        2556.451          46.000                                                                  
> 2025 10 27 02 58 23.8360000  0 18                     
G12  20686077.398   108706072.205         575.925          46.000    20686066.165    84705984.505         449.056          41.000  
G15  23540422.283   123705764.559       -3301.467          34.000    23540420.805                       -2572.281          31.000  
G18  23903527.811   125613875.690       -3632.359          31.000    23903527.968    97880911.575       -2830.309          40.000  
G23  19456031.451   102242125.234       -2351.039          46.000    19456019.824    79669112.723       -1832.032          46.000  
G24  21242672.059                       -3456.892          28.000    21242657.341                       -2693.710          27.000  
G32  20767868.161   109135880.009        1450.628          45.000    20767857.859    85040910.639        1130.152          42.000  
C08  34744925.402   180925918.618        -419.550          46.000    34744904.842   139903317.316        -324.384          48.000  
C13  34718962.302   180790722.863        -112.549          48.000    34718949.638   139798808.302         -86.859          48.000  
C16  35674183.431   185764821.755         -51.487          48.000    35674169.554   143645095.179         -39.730          47.000  
C25  22495115.514   117137979.663       -2705.554          33.000                                                                  
C32  20977708.307   109236413.620         746.988          51.000                                                                  
C06  35351074.842   184082311.079         126.431          46.000    35351054.482   142344050.069          97.657          45.000  
G25  20276625.472   106554402.246        2342.410          43.000    20276617.367    83029362.754        1825.194          41.000  
G10  19430668.538   102108852.522         780.914          49.000    19430657.801    79565293.166         608.483          46.000  
G28  21809889.553   114611741.981        2445.188          42.000    21809879.107    89307824.887        1905.433          41.000  
C23  20714363.493   107865104.650          11.683          50.000                                                                  
C09  36810442.053   191681608.220         225.751          44.000    36810425.601   148220330.629         174.821          46.000  
C37  22632319.261   117852426.167        2556.287          46.000                                                                  
> 2025 10 27 02 58 23.8760000  0 18                     
G12  20686073.044   108706049.181         575.673          46.000    20686061.795    84705966.556         448.841          41.000  
G15  23540447.438   123705896.620       -3301.578          34.000    23540445.949                       -2572.287          31.000  
G18  23903555.458   125614020.964       -3632.099          31.000    23903555.602    97881024.773       -2830.096          40.000  
G23  19456049.336   102242219.289       -2351.322          46.000    19456037.736    79669186.010       -1832.174          46.000  
G24  21242698.369                       -3457.275          28.000    21242683.647                       -2694.181          27.000  
G32  20767857.120   109135821.983        1450.606          45.000    20767846.832    85040865.432        1130.106          42.000  
C08  34744928.639   180925935.402        -419.611          46.000    34744908.025   139903330.294        -324.426          48.000  
C13  34718963.160   180790727.363        -112.585          48.000    34718950.518   139798811.789         -87.103          48.000  
C16  35674183.816   185764823.822         -51.637          48.000    35674169.922   143645096.769         -39.727          47.000  
C25  22495136.299   117138087.878       -2705.457          33.000                                                                  
C32  20977702.569   109236383.745         746.891          51.000                                                                  
C06  35351073.882   184082306.040         126.132          46.000    35351053.559   142344046.170          97.517          45.000  
G25  20276607.633   106554308.542        2342.474          43.000    20276599.543    83029289.736        1825.315          41.000  
G10  19430662.585   102108821.292         780.772          49.000    19430651.882    79565268.837         608.261          46.000  
G28  21809870.933   114611644.189        2444.868          42.000    21809860.488    89307748.681        1905.231          41.000  
C23  20714363.380   107865104.191          11.510          50.000                                                                  
C09  36810440.308   191681599.184         225.783          44.000    36810423.852   148220323.653         174.536          46.000  
C37  22632299.626   117852323.924        2556.085          46.000                                                                  
> 2025 10 27 02 58 23.9160000  0 18                     
G12  20686068.684   108706026.157         575.536          46.000    20686057.420    84705948.614         448.623          41.000  
G15  23540472.573   123706028.726       -3302.458          34.000    23540471.114                       -2572.697          31.000  
G18  23903583.112   125614166.270       -3632.645          31.000    23903583.245    97881137.971       -2829.958          40.000  
G23  19456067.253   102242313.341       -2351.407          46.000    19456055.621    79669259.293       -1832.161          46.000  
G24  21242724.675                       -3457.374          28.000    21242709.873                       -2694.001          27.000  
G32  20767846.101   109135763.976        1450.290          45.000    20767835.791    85040820.217        1130.240          42.000  
C08  34744931.862   180925952.192        -419.745          46.000    34744911.263   139903343.281        -324.603          48.000  
C13  34718964.041   180790731.871        -112.689          48.000    34718951.382   139798815.270         -87.109          48.000  
C16  35674184.217   185764825.894         -51.859          48.000    35674170.305   143645098.377         -40.053          47.000  
C25  22495157.056   117138196.125       -2706.067          33.000                                                                  
C32  20977696.783   109236353.878         746.687          51.000                                                                  
C06  35351072.906   184082301.011         125.774          46.000    35351052.594   142344042.276          97.369          45.000  
G25  20276589.809   106554214.861        2342.119          43.000    20276581.705    83029216.734        1825.123          41.000  
G10  19430656.651   102108790.072         780.513          49.000    19430645.951    79565244.504         608.250          46.000  
G28  21809852.343   114611546.398        2444.702          42.000    21809841.892    89307672.484        1904.950          41.000  
C23  20714363.288   107865103.736          11.359          50.000                                                                  
C09  36810438.551   191681590.165         225.521          44.000    36810422.121   148220316.678         174.342          46.000  
C37  22632279.986   117852221.678        2556.091          46.000                                                                  
> 2025 10 27 02 58 23.9560000  0 18                     
G12  20686064.281   108706003.133         575.530          46.000    20686053.026    84705930.684         448.259          41.000  
G15  23540497.722   123706160.821       -3302.596          34.000    23540496.269                       -2573.117          31.000  
G18  23903610.721   125614311.510       -3631.638          31.000    23903610.902    97881251.183       -2830.149          40.000  
G23  19456085.157   102242407.394       -2351.418          46.000    19456073.523    79669332.576       -1832.142          46.000  
G24  21242750.976                       -3456.786          28.000    21242736.296                       -2694.176          27.000  
G32  20767835.043   109135705.963        1450.220          45.000    20767824.748    85040775.008        1130.207          42.000  
C08  34744935.039   180925968.978        -419.751          46.000    34744914.519   139903356.265        -324.658          48.000  
C13  34718964.911   180790736.377        -112.701          48.000    34718952.284   139798818.763         -87.323          48.000  
C16  35674184.609   185764827.967         -51.921          48.000    35674170.658   143645099.977         -40.099          47.000  
C25  22495177.856   117138304.364       -2706.128          33.000                                                                  
C32  20977690.987   109236324.015         746.551          51.000                                                                  
C06  35351071.969   184082295.971         125.813          46.000    35351051.622   142344038.382          97.310          45.000  
G25  20276571.972   106554121.178        2341.951          43.000    20276563.871    83029143.726        1825.172          41.000  
G10  19430650.721   102108758.848         780.484          49.000    19430640.015    79565220.173         608.239          46.000  
G28  21809833.737   114611448.596        2444.883          42.000    21809823.304    89307596.299        1904.596          41.000  
C23  20714363.229   107865103.279          11.326          50.000                                                                  
C09  36810436.840   191681581.139         225.550          44.000    36810420.383   148220309.700         174.321          46.000  
C37  22632260.373   117852119.426        2556.207          46.000                                                                  
> 2025 10 27 02 58 23.9960000  0 18                     
G12  20686059.904   108705980.098         575.702          46.000    20686048.659    84705912.747         448.285          41.000  
G15  23540522.891   123706292.868       -3301.749          34.000    23540521.378                       -2572.984          31.000  
G18  23903638.384   125614456.803       -3632.113          31.000    23903638.533    97881364.392       -2830.241          40.000  
G23  19456103.035   102242501.436       -2351.177          46.000    19456091.439    79669405.868       -1832.265          46.000  
G24  21242777.252                       -3456.788          28.000    21242762.657                       -2693.785          27.000  
G32  20767823.995   109135647.936        1450.498          45.000    20767813.685    85040729.794        1130.272          42.000  
C08  34744938.247   180925985.759        -419.647          46.000    34744917.710   139903369.240        -324.463          48.000  
C13  34718965.775   180790740.875        -112.555          48.000    34718953.155   139798822.239         -87.073          48.000  
C16  35674185.012   185764830.026         -51.699          48.000    35674171.037   143645101.576         -40.080          47.000  
C25  22495198.613   117138412.610       -2706.226          33.000                                                                  
C32  20977685.260   109236294.141         746.679          51.000                                                                  
C06  35351071.011   184082290.924         125.970          46.000    35351050.678   142344034.481          97.415          45.000  
G25  20276554.147   106554027.480        2342.144          43.000    20276546.015    83029070.715        1825.247          41.000  
G10  19430644.759   102108727.622         780.534          49.000    19430634.069    79565195.847         608.134          46.000  
G28  21809815.132   114611350.798        2444.902          42.000    21809804.706    89307520.081        1905.028          41.000  
C23  20714363.143   107865102.815          11.473          50.000                                                                  
C09  36810435.096   191681572.104         225.739          44.000    36810418.649   148220302.720         174.392          46.000  
C37  22632240.761   117852017.176        2556.244          46.000                                                                  
> 2025 10 27 02 58 24.0360000  0 18                     
G12  20686055.525   108705957.062         575.843          46.000    20686044.284    84705894.798         448.537          41.000  
G15  23540547.997   123706424.898       -3300.936          34.000    23540546.501                       -2572.158          31.000  
G18  23903666.050   125614602.115       -3632.478          31.000    23903666.187    97881477.605       -2830.355          40.000  
G23  19456120.911   102242595.476       -2351.018          46.000    19456109.322    79669479.146       -1832.086          46.000  
G24  21242803.577                       -3457.027          28.000    21242788.693                       -2693.496          27.000  
G32  20767812.966   109135589.911        1450.585          45.000    20767802.659    85040684.579        1130.357          42.000  
C08  34744941.447   180926002.544        -419.617          46.000    34744920.901   139903382.217        -324.451          48.000  
C13  34718966.659   180790745.370        -112.433          48.000    34718954.046   139798825.714         -86.951          48.000  
C16  35674185.404   185764832.079         -51.459          48.000    35674171.399   143645103.169         -39.941          47.000  
C25  22495219.393   117138520.819       -2705.542          33.000                                                                  
C32  20977679.510   109236264.259         746.919          51.000                                                                  
C06  35351070.051   184082285.878         126.075          46.000    35351049.743   142344030.572          97.598          45.000  
G25  20276536.310   106553933.769        2342.512          43.000    20276528.177    83028997.701        1825.353          41.000  
G10  19430638.808   102108696.388         780.732          49.000    19430628.124    79565171.508         608.357          46.000  
G28  21809796.522   114611252.990        2445.135          42.000    21809786.103    89307443.867        1905.267          41.000  
C23  20714363.080   107865102.350          11.602          50.000                                                                  
C09  36810433.353   191681563.065         225.902          44.000    36810416.895   148220295.728         174.669          46.000  
C37  22632221.117   117851914.925        2556.268          46.000                                                                  
> 2025 10 27 02 58 24.0760000  0 18                     
G12  20686051.140   108705934.033         575.767          46.000    20686039.920    84705876.860         448.415          41.000  
G15  23540573.112   123706556.942       -3300.854          34.000    23540571.620                       -2571.999          31.000  
G18  23903693.705   125614747.400       -3632.380          31.000    23903693.829    97881590.812       -2830.266          40.000  
G23  19456138.816   102242689.524       -2351.130          46.000    19456127.218    79669552.427       -1832.037          46.000  
G24  21242829.931                       -3457.116          28.000    21242814.926                       -2693.424          27.000  
G32  20767801.948   109135531.895        1450.485          45.000    20767791.619    85040639.381        1130.097          42.000  
C08  34744944.687   180926019.323        -419.519          46.000    34744924.100   139903395.194        -324.457          48.000  
C13  34718967.503   180790749.871        -112.469          48.000    34718954.901   139798829.189         -86.884          48.000  
C16  35674185.778   185764834.134         -51.369          48.000    35674171.779   143645104.756         -39.760          47.000  
C25  22495240.160   117138629.041       -2705.554          33.000                                                                  
C32  20977673.766   109236234.383         746.928          51.000                                                                  
C06  35351069.093   184082280.828         126.240          46.000    35351048.776   142344026.672          97.548          45.000  
G25  20276518.498   106553840.073        2342.488          43.000    20276510.333    83028924.698        1825.176          41.000  
G10  19430632.875   102108665.160         780.725          49.000    19430622.165    79565147.173         608.405          46.000  
G28  21809777.906   114611155.194        2444.967          42.000    21809767.487    89307367.663        1905.137          41.000  
C23  20714363.017   107865101.885          11.639          50.000                                                                  
C09  36810431.608   191681554.029         225.923          44.000    36810415.157   148220288.744         174.674          46.000  
C37  22632201.485   117851812.674        2556.275          46.000                                                                  
> 2025 10 27 02 58 24.1160000  0 18                     
G12  20686046.771   108705911.012         575.566          46.000    20686035.524    84705858.900         448.771          41.000  
G15  23540598.256   123706688.992       -3301.052          34.000    23540596.771                       -2572.550          31.000  
G18  23903721.334                       -3632.360          31.000    23903721.477    97881704.011       -2830.104          40.000  
G23  19456156.713   102242783.574       -2351.266          46.000    19456145.124    79669625.713       -1832.124          46.000  
G24  21242856.224                       -3456.642          28.000    21242841.071                       -2693.431          27.000  
G32  20767790.891   109135473.861        1450.717          45.000    20767780.576    85040594.160        1130.345          42.000  
C08  34744947.915   180926036.115        -419.714          46.000    34744927.304   139903408.179        -324.597          48.000  
C13  34718968.394   180790754.376        -112.604          48.000    34718955.760   139798832.668         -86.945          48.000  
C16  35674186.155   185764836.197         -51.500          48.000    35674172.182   143645106.344         -39.689          47.000  
C25  22495260.905   117138737.257       -2705.670          32.000                                                                  
C32  20977668.039   109236204.504         746.964          51.000                                                                  
C06  35351068.117   184082275.776         126.334          46.000    35351047.791   142344022.763          97.662          45.000  
G25  20276500.663   106553746.383        2342.367          43.000    20276492.502    83028851.698        1825.040          41.000  
G10  19430626.936   102108633.927         780.792          49.000    19430616.226    79565122.833         608.472          46.000  
G28  21809759.322   114611057.393        2444.961          42.000    21809748.880    89307291.455        1905.130          41.000  
C23  20714362.918   107865101.423          11.612          50.000                                                                  
C09  36810429.897   191681544.994         225.891          44.000    36810413.423   148220281.757         174.677          46.000  
C37  22632181.826   117851710.430        2556.128          46.000                                                                  
> 2025 10 27 02 58 24.1560000  0 18                     
G12  20686042.380   108705887.985         575.597          46.000    20686031.154    84705840.963         448.579          41.000  
G15  23540623.373   123706821.052       -3301.366          34.000    23540621.904                       -2572.522          31.000  
G18  23903749.002                       -3631.611          31.000    23903749.126    97881817.217       -2830.119          40.000  
G23  19456174.619   102242877.627       -2351.357          46.000    19456163.024    79669698.996       -1832.074          46.000  
G24  21242882.541                       -3457.035          28.000    21242867.493                       -2693.609          27.000  
G32  20767779.855   109135415.840        1450.608          45.000    20767769.510    85040548.944        1130.373          42.000  
C08  34744951.149   180926052.907        -419.824          46.000    34744930.528   139903421.157        -324.548          48.000  
C13  34718969.273   180790758.867        -112.402          48.000    34718956.633   139798836.150         -87.048          48.000  
C16  35674186.512   185764838.258         -51.539          48.000    35674172.585   143645107.936         -39.753          47.000  
C25  22495281.706   117138845.510       -2706.274          33.000                                                                  
C32  20977662.317   109236174.633         746.818          51.000                                                                  
C06  35351067.174   184082270.729         126.288          46.000    35351046.802   142344018.863          97.573          45.000  
G25  20276482.836   106553652.697        2342.203          43.000    20276474.661    83028778.702        1824.901          41.000  
G10  19430620.997   102108602.708         780.552          49.000    19430610.279    79565098.506         608.293          46.000  
G28  21809740.692   114610959.592        2444.948          42.000    21809730.275    89307215.240        1905.281          41.000  
C23  20714362.791   107865100.972          11.377          50.000                                                                  
C09  36810428.165   191681535.963         225.815          44.000    36810411.671   148220274.773         174.607          46.000  
C37  22632162.193   117851608.179        2556.158          46.000                                                                  
> 2025 10 27 02 58 24.1960000  0 18                     
G12  20686037.994   108705864.960         575.593          46.000    20686026.784    84705823.029         448.371          41.000  
G15  23540648.504   123706953.148       -3302.162          34.000    23540647.013                       -2572.684          31.000  
G18  23903776.679                       -3631.835          31.000    23903776.769    97881930.423       -2830.161          40.000  
G23  19456192.518   102242971.682       -2351.449          46.000    19456180.907    79669772.289       -1832.284          46.000  
G24  21242908.845                       -3457.011          28.000    21242893.969                       -2693.553          27.000  
G32  20767768.810   109135357.821        1450.491          45.000    20767758.481    85040503.736        1130.323          42.000  
C08  34744954.384   180926069.691        -419.727          46.000    34744933.758   139903434.136        -324.506          48.000  
C13  34718970.127   180790763.375        -112.622          48.000    34718957.477   139798839.636         -87.164          48.000  
C16  35674186.887   185764840.326         -51.682          48.000    35674172.949   143645109.538         -39.997          47.000  
C25  22495302.529   117138953.756       -2706.415          32.000                                                                  
C32  20977656.571   109236144.761         746.781          51.000                                                                  
C06  35351066.216   184082265.687         126.097          46.000    35351045.802   142344014.967          97.423          45.000  
G25  20276464.995   106553559.006        2342.236          43.000    20276456.823    83028705.690        1825.081          41.000  
G10  19430615.058   102108571.491         780.386          49.000    19430604.355    79565074.181         608.103          46.000  
G28  21809722.076   114610861.807        2444.640          42.000    21809711.663    89307139.027        1905.305          41.000  
C23  20714362.648   107865100.518          11.296          50.000                                                                  
C09  36810426.399   191681526.931         225.765          44.000    36810409.932   148220267.785         174.638          46.000  
C37  22632142.544   117851505.933        2556.097          46.000                                                                  
> 2025 10 27 02 58 24.2360000  0 18                     
G12  20686033.620   108705841.940         575.489          46.000    20686022.418    84705805.086         448.407          41.000  
G15  23540673.602   123707085.225       -3302.218          34.000    23540672.168                       -2573.393          31.000  
G18  23903804.338                       -3632.488          31.000    23903804.416    97882043.634       -2830.319          40.000  
G23  19456210.405   102243065.740       -2351.522          46.000    19456198.808    79669845.579       -1832.327          46.000  
G24  21242935.178                       -3457.092          28.000    21242919.980                       -2693.529          27.000  
G32  20767757.789   109135299.806        1450.392          45.000    20767747.436    85040458.525        1130.324          42.000  
C08  34744957.602   180926086.470        -419.568          46.000    34744936.962   139903447.119        -324.597          48.000  
C13  34718971.031   180790767.879        -112.689          48.000    34718958.329   139798843.123         -87.225          48.000  
C16  35674187.260   185764842.395         -51.775          48.000    35674173.364   143645111.141         -40.115          47.000  
C25  22495323.348   117139062.021       -2706.818          32.000                                                                  
C32  20977650.833   109236114.897         746.615          51.000                                                                  
C06  35351065.218   184082260.647         125.990          46.000    35351044.830   142344011.073          97.341          45.000  
G25  20276447.205   106553465.327        2342.041          43.000    20276438.988    83028632.681        1825.187          41.000  
G10  19430609.121   102108540.275         780.325          49.000    19430598.406    79565049.851         608.128          46.000  
G28  21809703.469   114610764.018        2444.569          42.000    21809693.066    89307062.826        1905.097          41.000  
C23  20714362.572   107865100.070          11.190          50.000                                                                  
C09  36810424.655   191681517.903         225.710          44.000    36810408.188   148220260.808         174.469          46.000  
C37  22632122.947   117851403.682        2556.195          46.000                                                                  
> 2025 10 27 02 58 24.2760000  0 18                     
G12  20686029.259   108705818.924         575.396          46.000    20686018.060    84705787.160         448.130          41.000  
G15  23540698.764   123707217.301       -3302.185          34.000    23540697.299                       -2573.366          31.000  
G18  23903831.995                       -3632.232          31.000    23903832.059    97882156.833       -2830.154          40.000  
G23  19456228.321   102243159.799       -2351.534          46.000    19456216.724    79669918.874       -1832.418          46.000  
G24  21242961.509                       -3456.851          28.000    21242946.103                       -2693.590          27.000  
G32  20767746.746   109135241.793        1450.271          45.000    20767736.376    85040413.316        1130.258          42.000  
C08  34744960.824   180926103.263        -419.745          46.000    34744940.154   139903460.103        -324.658          48.000  
C13  34718971.897   180790772.387        -112.756          48.000    34718959.201   139798846.602         -87.103          48.000  
C16  35674187.625   185764844.468         -51.873          48.000    35674173.760   143645112.740         -40.096          47.000  
C25  22495344.135   117139170.223       -2705.664          32.000                                                                  
C32  20977645.125   109236085.028         746.635          51.000                                                                  
C06  35351064.239   184082255.609         125.889          46.000    35351043.852   142344007.177          97.318          45.000  
G25  20276429.374   106553371.631        2342.260          43.000    20276421.160    83028559.664        1825.348          41.000  
G10  19430603.169   102108509.053         780.400          49.000    19430592.444    79565025.529         608.011          46.000  
G28  21809684.855   114610666.224        2444.679          42.000    21809674.481    89306986.636        1904.797          41.000  
C23  20714362.524   107865099.615          11.260          50.000                                                                  
C09  36810422.910   191681508.879         225.598          44.000    36810406.445   148220253.832         174.358          46.000  
C37  22632103.336   117851301.440        2556.042          46.000                                                                  
> 2025 10 27 02 58 24.3160000  0 18                     
G12  20686024.902   108705795.912         575.272          46.000    20686013.661    84705769.221         448.262          41.000  
G15  23540723.845   123707349.343       -3301.491          34.000    23540722.409                       -2572.934          31.000  
G18  23903859.633                       -3632.207          31.000    23903859.714    97882270.052       -2830.400          40.000  
G23  19456246.211   102243253.861       -2351.583          46.000    19456234.647    79669992.163       -1832.338          46.000  
G24  21242987.833                       -3457.142          28.000    21242972.292                       -2694.163          27.000  
G32  20767735.706   109135183.780        1450.236          45.000    20767725.339    85040368.106        1130.231          42.000  
C08  34744964.043   180926120.062        -419.977          46.000    34744943.343   139903473.087        -324.670          48.000  
C13  34718972.781   180790776.900        -112.872          48.000    34718960.060   139798850.091         -87.238          48.000  
C16  35674188.026   185764846.531         -51.711          48.000    35674174.136   143645114.338         -40.026          47.000  
C25  22495364.905   117139278.439       -2705.176          32.000                                                                  
C32  20977639.366   109236055.167         746.527          51.000                                                                  
C06  35351063.256   184082250.564         126.002          46.000    35351042.874   142344003.277          97.415          45.000  
G25  20276411.545   106553277.944        2342.190          43.000    20276403.336    83028486.670        1825.054          41.000  
G10  19430597.242   102108477.835         780.382          49.000    19430586.502    79565001.204         608.043          46.000  
G28  21809666.242   114610568.424        2444.862          42.000    21809655.881    89306910.438        1904.847          41.000  
C23  20714362.437   107865099.165          11.236          50.000                                                                  
C09  36810421.177   191681499.860         225.442          44.000    36810404.719   148220246.858         174.310          46.000  
C37  22632083.678   117851199.200        2555.920          46.000                                                                  
> 2025 10 27 02 58 24.3560000  0 18                     
G12  20686020.514   108705772.898         575.270          46.000    20686009.287    84705751.304         447.989          41.000  
G15  23540748.959   123707481.384       -3301.177          34.000    23540747.509                       -2572.972          31.000  
G18  23903887.294                       -3631.219          31.000    23903887.368    97882383.266       -2830.441          40.000  
G23  19456264.108   102243347.923       -2351.607          46.000    19456252.568    79670065.464       -1832.491          46.000  
G24  21243014.130                       -3456.706          28.000    21242998.492                       -2694.097          27.000  
G32  20767724.668   109135125.763        1450.298          45.000    20767714.308    85040322.914        1129.923          42.000  
C08  34744967.280   180926136.855        -419.971          46.000    34744946.541   139903486.077        -324.762          48.000  
C13  34718973.676   180790781.410        -112.848          48.000    34718960.920   139798853.576         -87.195          48.000  
C16  35674188.410   185764848.598         -51.685          48.000    35674174.498   143645115.936         -40.000          47.000  
C25  22495385.652   117139386.685       -2705.701          32.000                                                                  
C32  20977633.665   109236025.301         746.543          51.000                                                                  
C06  35351062.265   184082245.531         125.857          46.000    35351041.901   142343999.379          97.400          45.000  
G25  20276393.706   106553184.258        2342.135          43.000    20276385.515    83028413.678        1824.813          41.000  
G10  19430591.299   102108446.622         780.302          49.000    19430580.544    79564976.882         608.019          46.000  
G28  21809647.649   114610470.632        2444.829          42.000    21809637.256    89306834.246        1904.780          41.000  
C23  20714362.350   107865098.719          11.133          50.000                                                                  
C09  36810419.436   191681490.841         225.389          44.000    36810402.990   148220239.878         174.387          46.000  
C37  22632064.035   117851096.971        2555.707          46.000                                                                  
> 2025 10 27 02 58 24.3960000  0 18                     
G12  20686016.127   108705749.888         575.209          46.000    20686004.917    84705733.365         448.275          41.000  
G15  23540774.126   123707613.472       -3301.862          34.000    23540772.623                       -2572.397          31.000  
G18  23903914.951                       -3632.153          31.000    23903915.034    97882496.465       -2830.191          40.000  
G23  19456281.995   102243441.980       -2351.483          46.000    19456270.484    79670138.758       -1832.422          46.000  
G24  21243040.434                       -3457.254          28.000    21243025.224                       -2694.359          27.000  
G32  20767713.622   109135067.747        1450.358          45.000    20767703.252    85040277.713        1129.910          42.000  
C08  34744970.522   180926153.651        -419.977          46.000    34744949.752   139903499.062        -324.701          48.000  
C13  34718974.537   180790785.919        -112.811          48.000    34718961.751   139798857.067         -87.274          48.000  
C16  35674188.829   185764850.664         -51.666          48.000    35674174.865   143645117.543         -40.151          47.000  
C25  22495406.447   117139494.938       -2706.146          33.000                                                                  
C32  20977627.926   109235995.439         746.499          51.000                                                                  
C06  35351061.293   184082240.497         125.825          46.000    35351040.946   142343995.488          97.296          45.000  
G25  20276375.884   106553090.592        2341.742          43.000    20276367.682    83028340.682        1824.746          41.000  
G10  19430585.350   102108415.414         780.167          49.000    19430574.602    79564952.559         608.037          46.000  
G28  21809629.063   114610372.843        2444.747          42.000    21809618.657    89306758.036        1905.076          41.000  
C23  20714362.297   107865098.270          11.149          50.000                                                                  
C09  36810417.687   191681481.811         225.625          44.000    36810401.261   148220232.902         174.394          46.000  
C37  22632044.406   117850994.730        2555.835          46.000                                                                  
> 2025 10 27 02 58 24.4360000  0 18                     
G12  20686011.738   108705726.873         575.283          46.000    20686000.519    84705715.420         448.538          41.000  
G15  23540799.249   123707745.562       -3302.235          34.000    23540797.775                       -2572.012          31.000  
G18  23903942.584                       -3631.603          31.000    23903942.690    97882609.683       -2830.348          40.000  
G23  19456299.898   102243536.037       -2351.396          46.000    19456288.383    79670212.046       -1832.238          46.000  
G24  21243066.752                       -3457.346          28.000    21243051.777                       -2694.129          27.000  
G32  20767702.595   109135009.728        1450.429          45.000    20767692.211    85040232.497        1130.186          42.000  
C08  34744973.745   180926170.437        -419.763          46.000    34744953.002   139903512.043        -324.573          48.000  
C13  34718975.415   180790790.418        -112.573          48.000    34718962.614   139798860.549         -87.134          48.000  
C16  35674189.220   185764852.733         -51.713          48.000    35674175.261   143645119.139         -40.017          47.000  
C25  22495427.226   117139603.226       -2706.995          33.000                                                                  
C32  20977622.192   109235965.574         746.560          51.000                                                                  
C06  35351060.311   184082235.457         125.941          46.000    35351039.987   142343991.587          97.404          45.000  
G25  20276358.070   106552996.915        2341.733          43.000    20276349.874    83028267.698        1824.595          41.000  
G10  19430579.387   102108384.193         780.371          49.000    19430568.659    79564928.237         608.025          46.000  
G28  21809610.458   114610275.059        2444.578          42.000    21809600.045    89306681.836        1905.029          41.000  
C23  20714362.242   107865097.823          11.132          50.000                                                                  
C09  36810415.942   191681472.775         225.863          44.000    36810399.543   148220225.916         174.571          46.000  
C37  22632024.774   117850892.481        2556.097          46.000                                                                  
> 2025 10 27 02 58 24.4760000  0 18                     
G12  20686007.334   108705703.850         575.484          46.000    20685996.120    84705697.480         448.555          41.000  
G15  23540824.400   123707877.620       -3301.750          34.000    23540822.886                       -2572.145          31.000  
G18  23903970.252                       -3632.620          31.000    23903970.334    97882722.883       -2830.141          40.000  
G23  19456317.810   102243630.097       -2351.478          46.000    19456306.279    79670285.343       -1832.330          46.000  
G24  21243093.064                       -3457.105          28.000    21243078.135                       -2693.978          28.000  
G32  20767691.573   109134951.716        1450.336          45.000    20767681.186    85040187.284        1130.326          42.000  
C08  34744976.956   180926187.220        -419.598          46.000    34744956.218   139903525.022        -324.506          48.000  
C13  34718976.291   180790794.925        -112.616          48.000    34718963.481   139798864.031         -87.085          48.000  
C16  35674189.616   185764854.800         -51.713          48.000    35674175.639   143645120.730         -39.847          47.000  
C25  22495447.981   117139711.419       -2705.640          32.000                                                                  
C32  20977616.492   109235935.700         746.753          51.000                                                                  
C06  35351059.327   184082230.410         126.083          46.000    35351039.029   142343987.684          97.522          45.000  
G25  20276340.241   106552903.233        2341.882          43.000    20276332.052    83028194.686        1824.991          41.000  
G10  19430573.461   102108352.977         780.389          49.000    19430562.739    79564903.908         608.136          46.000  
G28  21809591.859   114610177.267        2444.674          42.000    21809581.431    89306605.629        1905.129          41.000  
C23  20714362.197   107865097.369          11.264          50.000                                                                  
C09  36810414.201   191681463.738         225.991          44.000    36810397.803   148220218.924         174.749          46.000  
C37  22632005.143   117850790.233        2556.195          46.000                                                                  
> 2025 10 27 02 58 24.5160000  0 18                     
G12  20686002.953   108705680.835         575.402          46.000    20685991.734    84705679.547         448.402          41.000  
G15  23540849.530   123708009.689       -3301.688          34.000    23540848.003                       -2572.461          31.000  
G18  23903997.957                       -3632.997          31.000    23903997.966    97882836.076       -2829.926          40.000  
G23  19456335.687   102243724.150       -2351.392          46.000    19456324.175    79670358.635       -1832.306          46.000  
G24  21243119.389                       -3457.042          28.000    21243104.539                       -2694.010          28.000  
G32  20767680.512   109134893.693        1450.458          45.000    20767670.130    85040142.087        1130.096          42.000  
C08  34744980.171   180926204.004        -419.543          46.000    34744959.405   139903538.006        -324.579          48.000  
C13  34718977.141   180790799.427        -112.573          48.000    34718964.318   139798867.514         -87.073          48.000  
C16  35674189.994   185764856.867         -51.707          48.000    35674176.033   143645122.323         -39.800          47.000  
C25  22495468.784   117139819.633       -2705.243          32.000                                                                  
C32  20977610.764   109235905.827         746.819          51.000                                                                  
C06  35351058.326   184082225.361         126.230          46.000    35351038.085   142343983.778          97.628          45.000  
G25  20276322.398   106552809.535        2342.292          43.000    20276314.225    83028121.683        1825.120          41.000  
G10  19430567.515   102108321.762         780.371          49.000    19430556.818    79564879.590         608.000          46.000  
G28  21809573.258   114610079.471        2444.801          42.000    21809562.826    89306529.424        1905.127          41.000  
C23  20714362.127   107865096.914          11.352          50.000                                                                  
C09  36810412.502   191681454.708         225.835          44.000    36810396.078   148220211.936         174.752          46.000  
C37  22631985.496   117850687.988        2556.165          46.000                                                                  
> 2025 10 27 02 58 24.5560000  0 18                     
G12  20685998.580   108705657.826         575.251          46.000    20685987.357    84705661.616         448.280          41.000  
G15  23540874.678   123708141.736       -3301.303          34.000    23540873.160                       -2572.885          31.000  
G18  23904025.566                       -3631.395          31.000    23904025.617    97882949.282       -2830.064          40.000  
G23  19456353.594   102243818.211       -2351.497          46.000    19456342.065    79670431.934       -1832.442          46.000  
G24  21243145.713                       -3457.408          28.000    21243130.605                       -2693.265          27.000  
G32  20767669.483   109134835.676        1450.397          45.000    20767659.067    85040096.867        1130.357          42.000  
C08  34744983.405   180926220.801        -419.794          46.000    34744962.615   139903550.990        -324.646          48.000  
C13  34718977.973   180790803.934        -112.671          48.000    34718965.207   139798870.997         -87.091          48.000  
C16  35674190.381   185764858.935         -51.734          48.000    35674176.454   143645123.921         -39.875          47.000  
C25  22495489.572   117139927.887       -2705.969          32.000                                                                  
C32  20977605.026   109235875.959         746.752          51.000                                                                  
C06  35351057.316   184082220.320         126.129          46.000    35351037.158   142343979.883          97.445          45.000  
G25  20276304.563   106552715.840        2342.417          43.000    20276296.396    83028048.674        1825.245          41.000  
G10  19430561.580   102108290.554         780.247          49.000    19430550.878    79564855.269         607.988          46.000  
G28  21809554.650   114609981.683        2444.692          42.000    21809544.224    89306453.226        1905.020          41.000  
C23  20714362.007   107865096.466          11.258          50.000                                                                  
C09  36810410.752   191681445.686         225.602          44.000    36810394.365   148220204.956         174.562          46.000  
C37  22631965.840   117850585.750        2555.988          46.000                                                                  
> 2025 10 27 02 58 24.5960000  0 18                     
G12  20685994.220   108705634.828         574.976          46.000    20685982.985    84705643.694         448.063          41.000  
G15  23540899.777   123708273.775       -3300.997          34.000    23540898.306                       -2573.203          32.000  
G18  23904053.172                       -3631.325          31.000    23904053.271    97883062.505       -2830.478          40.000  
G23  19456371.502   102243912.288       -2351.810          46.000    19456359.991    79670505.234       -1832.528          46.000  
G24  21243172.069                       -3457.123          28.000    21243156.690                       -2693.610          27.000  
G32  20767658.429   109134777.665        1450.289          45.000    20767648.025    85040051.658        1130.300          42.000  
C08  34744986.630   180926237.598        -419.958          46.000    34744965.842   139903563.981        -324.792          48.000  
C13  34718978.810   180790808.446        -112.823          48.000    34718966.091   139798874.484         -87.170          48.000  
C16  35674190.777   185764861.001         -51.720          48.000    35674176.873   143645125.531         -40.163          47.000  
C25  22495510.340   117140036.157       -2706.689          32.000                                                                  
C32  20977599.269   109235846.102         746.525          51.000                                                                  
C06  35351056.334   184082215.291         125.840          46.000    35351036.198   142343975.989          97.341          45.000  
G25  20276286.737   106552622.167        2342.073          43.000    20276278.564    83027975.696        1824.757          41.000  
G10  19430555.628   102108259.344         780.217          49.000    19430544.933    79564830.950         607.952          46.000  
G28  21809536.036   114609883.896        2444.655          42.000    21809525.626    89306377.032        1904.889          41.000  
C23  20714361.896   107865096.026          11.058          50.000                                                                  
C09  36810409.017   191681436.668         225.435          44.000    36810392.612   148220197.982         174.381          46.000  
C37  22631946.187   117850483.514        2555.902          46.000                                                                  
> 2025 10 27 02 58 24.6360000  0 18                     
G12  20685989.822   108705611.817         575.094          46.000    20685978.630    84705625.772         447.988          41.000  
G15  23540924.902   123708405.849       -3301.426          35.000    23540923.445                       -2573.075          32.000  
G18  23904080.814                       -3632.241          31.000    23904080.911    97883175.718       -2830.508          40.000  
G23  19456389.395   102244006.355       -2351.784          46.000    19456377.900    79670578.525       -1832.373          46.000  
G24  21243198.403                       -3457.035          28.000    21243183.149                       -2693.663          28.000  
G32  20767647.377   109134719.650        1450.318          45.000    20767637.015    85040006.459        1130.079          42.000  
C08  34744989.860   180926254.394        -419.965          46.000    34744969.085   139903576.965        -324.701          48.000  
C13  34718979.681   180790812.951        -112.738          48.000    34718966.960   139798877.970         -87.189          48.000  
C16  35674191.178   185764863.066         -51.668          48.000    35674177.264   143645127.137         -40.214          47.000  
C25  22495531.118   117140144.400       -2706.342          32.000                                                                  
C32  20977593.543   109235816.242         746.439          51.000                                                                  
C06  35351055.384   184082210.253         125.854          46.000    35351035.248   142343972.101          97.208          45.000  
G25  20276268.905   106552528.492        2341.897          43.000    20276260.750    83027902.692        1824.873          41.000  
G10  19430549.663   102108228.127         780.334          49.000    19430538.985    79564806.630         607.989          46.000  
G28  21809517.431   114609786.097        2444.851          42.000    21809507.001    89306300.831        1904.922          41.000  
C23  20714361.839   107865095.583          11.004          50.000                                                                  
C09  36810407.284   191681427.644         225.490          44.000    36810390.884   148220191.005         174.353          46.000  
C37  22631926.567   117850381.278        2555.859          46.000                                                                  
> 2025 10 27 02 58 24.6760000  0 18                     
G12  20685985.421   108705588.800         575.291          46.000    20685974.250    84705607.842         448.103          41.000  
G15  23540950.020   123708537.954       -3302.329          35.000    23540948.545                       -2572.713          32.000  
G18  23904108.466                       -3632.387          31.000    23904108.572    97883288.910       -2830.087          40.000  
G23  19456407.293   102244100.412       -2351.568          46.000    19456395.795    79670651.824       -1832.478          46.000  
G24  21243224.697                       -3457.155          28.000    21243209.397                       -2693.374          28.000  
G32  20767636.317   109134661.626        1450.500          45.000    20767625.969    85039961.252        1130.102          42.000  
C08  34744993.080   180926271.185        -419.867          46.000    34744972.319   139903589.945        -324.567          48.000  
C13  34718980.537   180790817.457        -112.714          48.000    34718967.838   139798881.451         -87.079          48.000  
C16  35674191.550   185764865.133         -51.689          48.000    35674177.676   143645128.726         -39.908          47.000  
C25  22495551.896   117140252.615       -2705.737          32.000                                                                  
C32  20977587.804   109235786.377         746.501          51.000                                                                  
C06  35351054.430   184082205.211         125.970          46.000    35351034.296   142343968.199          97.358          45.000  
G25  20276251.049   106552434.814        2341.858          43.000    20276242.915    83027829.696        1824.862          41.000  
G10  19430543.732   102108196.914         780.341          49.000    19430533.047    79564782.305         608.094          46.000  
G28  21809498.815   114609688.300        2444.925          42.000    21809488.377    89306224.624        1905.028          41.000  
C23  20714361.743   107865095.129          11.195          50.000                                                                  
C09  36810405.553   191681418.609         225.787          44.000    36810389.173   148220184.021         174.493          46.000  
C37  22631906.951   117850279.034        2556.006          46.000                                                                  
> 2025 10 27 02 58 24.7160000  0 18                     
G12  20685981.055   108705565.787         575.340          46.000    20685969.881    84705589.920         447.997          41.000  
G15  23540975.139   123708670.021       -3301.990          35.000    23540973.650    96396422.844       -2572.804          32.000  
G18  23904136.097                       -3631.935          31.000    23904136.240    97883402.117       -2830.029          40.000  
G23  19456425.201   102244194.478       -2351.605          46.000    19456413.697    79670725.122       -1832.484          46.000  
G24  21243251.048                       -3456.904          28.000    21243235.490                       -2693.472          28.000  
G32  20767625.269   109134603.605        1450.528          45.000    20767614.924    85039916.034        1130.317          42.000  
C08  34744996.297   180926287.985        -419.971          46.000    34744975.499   139903602.932        -324.634          48.000  
C13  34718981.404   180790821.961        -112.640          48.000    34718968.672   139798884.936         -87.115          48.000  
C16  35674191.926   185764867.200         -51.700          48.000    35674178.068   143645130.321         -39.840          47.000  
C25  22495572.674   117140360.832       -2705.554          32.000                                                                  
C32  20977582.069   109235756.509         746.613          51.000                                                                  
C06  35351053.466   184082200.158         126.191          46.000    35351033.323   142343964.299          97.423          45.000  
G25  20276233.223   106552341.118        2342.200          43.000    20276225.086    83027756.690        1824.965          41.000  
G10  19430537.821   102108165.706         780.223          49.000    19430527.116    79564757.989         607.964          46.000  
G28  21809480.213   114609590.516        2444.684          42.000    21809469.772    89306148.419        1905.084          41.000  
C23  20714361.643   107865094.688          11.083          50.000                                                                  
C09  36810403.832   191681409.577         225.834          44.000    36810387.456   148220177.031         174.668          46.000  
C37  22631887.297   117850176.795        2555.969          46.000                                                                  
> 2025 10 27 02 58 24.7560000  0 18                     
G12  20685976.705   108705542.779         575.219          46.000    20685965.479    84705571.977         448.302          41.000  
G15  23541000.265   123708802.092       -3301.996          35.000    23540998.789    96396525.752       -2572.751          32.000  
G18  23904163.708                       -3631.971          31.000    23904163.886    97883515.326       -2830.145          40.000  
G23  19456443.076   102244288.543       -2351.624          46.000    19456431.605    79670798.424       -1832.564          46.000  
G24  21243277.369                       -3457.243          28.000    21243261.487                       -2693.239          28.000  
G32  20767614.272   109134545.592        1450.402          45.000    20767603.884    85039870.837        1130.041          42.000  
C08  34744999.493   180926304.777        -419.891          46.000    34744978.719   139903615.920        -324.713          48.000  
C13  34718982.257   180790826.470        -112.738          48.000    34718969.560   139798888.423         -87.164          48.000  
C16  35674192.303   185764869.274         -51.804          48.000    35674178.456   143645131.920         -39.912          47.000  
C25  22495593.497   117140469.090       -2706.128          32.000                                                                  
C32  20977576.319   109235726.647         746.572          51.000                                                                  
C06  35351052.519   184082195.124         126.000          46.000    35351032.369   142343960.402          97.395          45.000  
G25  20276215.414   106552247.456        2341.771          43.000    20276207.274    83027683.692        1824.960          41.000  
G10  19430531.896   102108134.499         780.156          49.000    19430521.161    79564733.671         607.902          46.000  
G28  21809461.607   114609492.730        2444.565          42.000    21809451.188    89306072.222        1904.971          41.000  
C23  20714361.555   107865094.245          11.040          50.000                                                                  
C09  36810402.071   191681400.555         225.669          44.000    36810385.729   148220170.046         174.653          46.000  
C37  22631867.660   117850074.554        2555.994          46.000                                                                  
> 2025 10 27 02 58 24.7960000  0 18                     
G12  20685972.332   108705519.781         574.981          46.000    20685961.102    84705554.050         448.213          41.000  
G15  23541025.386   123708934.142       -3301.607          35.000    23541023.944    96396628.679       -2573.121          32.000  
G18  23904191.378                       -3632.206          31.000    23904191.538    97883628.524       -2830.052          40.000  
G23  19456460.970   102244382.613       -2351.766          46.000    19456449.508    79670871.726       -1832.601          46.000  
G24  21243303.697                       -3457.343          28.000    21243287.676                       -2693.909          28.000  
G32  20767603.247   109134487.583        1450.236          45.000    20767592.865    85039825.635        1129.978          42.000  
C08  34745002.729   180926321.575        -419.965          46.000    34744981.920   139903628.914        -324.841          48.000  
C13  34718983.111   180790830.984        -112.885          48.000    34718970.468   139798891.914         -87.274          48.000  
C16  35674192.681   185764871.344         -51.809          48.000    35674178.844   143645133.524         -40.062          47.000  
C25  22495614.290   117140577.330       -2706.213          32.000                                                                  
C32  20977570.545   109235696.791         746.425          51.000                                                                  
C06  35351051.544   184082190.090         125.841          46.000    35351031.428   142343956.509          97.321          46.000  
G25  20276197.587   106552153.782        2341.705          43.000    20276189.448    83027610.702        1824.795          41.000  
G10  19430525.995   102108103.300         779.959          49.000    19430515.224    79564709.356         607.835          46.000  
G28  21809442.997   114609394.950        2444.448          42.000    21809432.580    89305996.037        1904.689          41.000  
C23  20714361.454   107865093.811          10.866          50.000                                                                  
C09  36810400.323   191681391.533         225.531          44.000    36810383.978   148220163.070         174.457          46.000  
C37  22631847.975   117849972.320        2555.884          46.000                                                                  
> 2025 10 27 02 58 24.8360000  0 18                     
G12  20685967.948   108705496.783         574.897          46.000    20685956.736    84705536.129         448.059          41.000  
G15  23541050.571   123709066.207       -3301.462          35.000    23541049.091    96396731.595       -2573.119          32.000  
G18  23904219.000                       -3632.362          31.000    23904219.183    97883741.717       -2829.858          40.000  
G23  19456478.872   102244476.687       -2351.901          46.000    19456467.389    79670945.023       -1832.539          47.000  
G24  21243330.034                       -3457.549          28.000    21243314.209                       -2694.681          27.000  
G32  20767592.217   109134429.578        1450.113          45.000    20767581.834    85039780.435        1129.923          42.000  
C08  34745005.946   180926338.374        -420.020          46.000    34744985.162   139903641.906        -324.835          48.000  
C13  34718983.972   180790835.496        -112.866          48.000    34718971.366   139798895.406         -87.335          48.000  
C16  35674193.091   185764873.420         -51.898          48.000    35674179.273   143645135.125         -40.072          47.000  
C25  22495635.084   117140685.611       -2706.885          32.000                                                                  
C32  20977564.817   109235666.931         746.453          51.000                                                                  
C06  35351050.584   184082185.056         125.781          46.000    35351030.465   142343952.612          97.363          46.000  
G25  20276179.789   106552060.112        2341.683          43.000    20276171.637    83027537.713        1824.716          41.000  
G10  19430520.052   102108072.106         779.812          49.000    19430509.279    79564685.046         607.749          46.000  
G28  21809424.388   114609297.168        2444.472          42.000    21809413.964    89305919.861        1904.372          41.000  
C23  20714361.391   107865093.380          10.730          50.000                                                                  
C09  36810398.606   191681382.513         225.463          44.000    36810382.256   148220156.095         174.339          46.000  
C37  22631828.335   117849870.085        2555.865          46.000                                                                  
> 2025 10 27 02 58 24.8760000  0 18                     
G12  20685963.575   108705473.779         574.988          46.000    20685952.365    84705518.199         448.133          41.000  
G15  23541075.677   123709198.308       -3302.248          34.000    23541074.219    96396834.499       -2572.937          32.000  
G18  23904246.643   125617653.034       -3631.694          31.000    23904246.826    97883854.933       -2830.220          40.000  
G23  19456496.753   102244570.757       -2351.864          46.000    19456485.314    79671018.325       -1832.576          47.000  
G24  21243356.357                       -3457.133          28.000    21243340.523                       -2694.253          27.000  
G32  20767581.149   109134371.566        1450.190          45.000    20767570.796    85039735.232        1129.961          42.000  
C08  34745009.146   180926355.161        -419.782          46.000    34744988.423   139903654.886        -324.609          48.000  
C13  34718984.836   180790840.010        -112.885          48.000    34718972.257   139798898.891         -87.213          48.000  
C16  35674193.488   185764875.483         -51.692          48.000    35674179.692   143645136.723         -39.990          47.000  
C25  22495655.856   117140793.860       -2706.525          32.000                                                                  
C32  20977559.111   109235637.065         746.558          51.000                                                                  
C06  35351049.605   184082180.020         125.807          46.000    35351029.486   142343948.726          97.201          46.000  
G25  20276161.966   106551966.432        2341.866          43.000    20276153.784    83027464.723        1824.673          41.000  
G10  19430514.099   102108040.901         779.943          49.000    19430503.325    79564660.726         607.892          46.000  
G28  21809405.742   114609199.380        2444.605          42.000    21809395.365    89305843.658        1904.780          41.000  
C23  20714361.343   107865092.939          10.865          50.000                                                                  
C09  36810396.881   191681373.487         225.553          44.000    36810380.506   148220149.112         174.435          46.000  
C37  22631808.723   117849767.845        2555.908          46.000                                                                  
> 2025 10 27 02 58 24.9160000  0 18                     
G12  20685959.178   108705450.764         575.248          46.000    20685947.977    84705500.277         448.024          41.000  
G15  23541100.788   123709330.337       -3301.335          34.000    23541099.369    96396937.390       -2572.497          32.000  
G18  23904274.312   125617798.296       -3631.386          31.000    23904274.493    97883968.130       -2830.130          40.000  
G23  19456514.647   102244664.829       -2351.869          46.000    19456503.203    79671091.619       -1832.446          47.000  
G24  21243382.648                       -3457.077          28.000    21243367.069                       -2694.211          27.000  
G32  20767570.097   109134313.546        1450.404          45.000    20767559.749    85039690.015        1130.285          42.000  
C08  34745012.356   180926371.947        -419.672          46.000    34744991.661   139903667.866        -324.500          48.000  
C13  34718985.684   180790844.509        -112.598          48.000    34718973.113   139798902.372         -87.085          48.000  
C16  35674193.881   185764877.541         -51.535          48.000    35674180.101   143645138.323         -40.026          47.000  
C25  22495676.655   117140902.092       -2706.140          32.000                                                                  
C32  20977553.413   109235607.199         746.634          51.000                                                                  
C06  35351048.667   184082174.984         125.829          46.000    35351028.496   142343944.837          97.152          46.000  
G25  20276144.123   106551872.745        2342.086          42.000    20276135.951    83027391.719        1824.934          41.000  
G10  19430508.150   102108009.693         780.103          49.000    19430497.383    79564636.413         607.843          46.000  
G28  21809387.128   114609101.591        2444.692          42.000    21809376.732    89305767.445        1905.168          41.000  
C23  20714361.277   107865092.492          11.060          50.000                                                                  
C09  36810395.153   191681364.453         225.761          44.000    36810378.752   148220142.129         174.498          46.000  
C37  22631789.087   117849665.601        2555.994          46.000                                                                  
> 2025 10 27 02 58 24.9560000  0 18                     
G12  20685954.836   108705427.770         574.978          46.000    20685943.596    84705482.354         448.040          41.000  
G15  23541125.924   123709462.421       -3301.874          34.000    23541124.484    96397040.326       -2573.093          32.000  
G18  23904301.976                       -3632.834          31.000    23904302.137    97884081.349       -2830.439          40.000  
G23  19456532.541   102244758.900       -2351.832          46.000    19456521.105    79671164.922       -1832.551          47.000  
G24  21243408.985                       -3457.186          28.000    21243393.519                       -2694.304          27.000  
G32  20767559.035   109134255.523        1450.554          45.000    20767548.714    85039644.800        1130.396          42.000  
C08  34745015.572   180926388.745        -419.873          46.000    34744994.859   139903680.851        -324.561          48.000  
C13  34718986.541   180790849.018        -112.653          48.000    34718973.989   139798905.859         -87.146          48.000  
C16  35674194.266   185764879.615         -51.708          48.000    35674180.528   143645139.932         -40.188          47.000  
C25  22495697.467   117141010.334       -2706.091          32.000                                                                  
C32  20977547.626   109235577.345         746.431          51.000                                                                  
C06  35351047.665   184082169.951         125.796          46.000    35351027.502   142343940.947          97.163          46.000  
G25  20276126.289   106551779.076        2341.862          42.000    20276118.142    83027318.729        1824.852          41.000  
G10  19430502.254   102107978.491         780.047          49.000    19430491.463    79564612.100         607.818          46.000  
G28  21809368.522   114609003.817        2444.432          42.000    21809358.104    89305691.235        1905.321          41.000  
C23  20714361.192   107865092.057          10.965          50.000                                                                  
C09  36810393.423   191681355.433         225.582          44.000    36810377.015   148220135.157         174.309          47.000  
C37  22631769.432   117849563.372        2555.762          46.000                                                                  
> 2025 10 27 02 58 24.9960000  0 18                     
G12  20685950.446   108705404.777         574.846          46.000    20685939.208    84705464.440         447.861          41.000  
G15  23541151.055   123709594.529       -3302.507          34.000    23541149.613    96397143.213       -2572.528          32.000  
G18  23904329.669                       -3631.789          31.000    23904329.779    97884194.542       -2830.101          40.000  
G23  19456550.469   102244852.981       -2351.980          46.000    19456539.019    79671238.235       -1832.798          47.000  
G24  21243435.278                       -3457.300          28.000    21243419.805                       -2694.138          27.000  
G32  20767548.007   109134197.522        1450.205          45.000    20767537.672    85039599.595        1130.268          42.000  
C08  34745018.785   180926405.550        -420.093          46.000    34744998.082   139903693.842        -324.707          48.000  
C13  34718987.393   180790853.530        -112.769          48.000    34718974.851   139798909.349         -87.238          48.000  
C16  35674194.661   185764881.699         -52.000          48.000    35674180.942   143645141.529         -40.067          47.000  
C25  22495718.265   117141118.574       -2706.024          32.000                                                                  
C32  20977541.869   109235547.492         746.305          51.000                                                                  
C06  35351046.702   184082164.912         125.896          46.000    35351026.518   142343937.052          97.277          46.000  
G25  20276108.471   106551685.406        2341.760          42.000    20276100.343    83027245.738        1824.843          41.000  
G10  19430496.302   102107947.286         780.084          49.000    19430485.526    79564587.791         607.738          46.000  
G28  21809349.930   114608906.038        2444.377          42.000    21809339.523    89305615.043        1905.002          41.000  
C23  20714361.065   107865091.623          10.855          50.000                                                                  
C09  36810391.706   191681346.419         225.369          44.000    36810375.268   148220128.195         174.048          47.000  
C37  22631749.809   117849461.136        2555.780          46.000                                                                  
> 2025 10 27 02 58 25.0360000  0 18                     
G12  20685946.065   108705381.777         574.909          46.000    20685934.818    84705446.523         447.873          41.000  
G15  23541176.177   123709726.613       -3302.353          34.000    23541174.729    96397246.115       -2572.498          32.000  
G18  23904357.341                       -3632.360          31.000    23904357.419    97884307.756       -2830.250          40.000  
G23  19456568.371   102244947.056       -2351.973          46.000    19456556.923    79671311.547       -1832.889          47.000  
G24  21243461.611                       -3457.223          28.000    21243445.953                       -2694.295          27.000  
G32  20767536.951   109134139.506        1450.255          45.000    20767526.629    85039554.405        1129.871          42.000  
C08  34745022.035   180926422.356        -420.221          46.000    34745001.312   139903706.839        -324.908          48.000  
C13  34718988.279   180790858.045        -112.878          48.000    34718975.705   139798912.842         -87.354          48.000  
C16  35674195.072   185764883.773         -51.994          48.000    35674181.360   143645143.130         -40.055          47.000  
C25  22495739.009   117141226.780       -2705.176          32.000                                                                  
C32  20977536.165   109235517.631         746.412          51.000                                                                  
C06  35351045.741   184082159.871         125.981          46.000    35351025.553   142343933.144          97.551          46.000  
G25  20276090.658   106551591.735        2341.709          42.000    20276082.510    83027172.755        1824.664          41.000  
G10  19430490.354   102107916.091         779.899          49.000    19430479.585    79564563.477         607.775          46.000  
G28  21809331.325   114608808.247        2444.631          42.000    21809320.917    89305538.868        1904.532          41.000  
C23  20714360.973   107865091.193          10.749          50.000                                                                  
C09  36810389.994   191681337.397         225.416          44.000    36810373.578   148220121.229         174.020          47.000  
C37  22631730.175   117849358.904        2555.774          46.000                                                                  
> 2025 10 27 02 58 25.0760000  0 18                     
G12  20685941.672   108705358.777         574.948          46.000    20685930.448    84705428.609         447.824          41.000  
G15  23541201.291   123709858.659       -3301.557          35.000    23541199.856    96397349.045       -2573.132          32.000  
G18  23904384.995   125618379.480       -3632.193          31.000    23904385.070    97884420.963       -2830.215          40.000  
G23  19456586.274   102245041.136       -2352.016          46.000    19456574.819    79671384.851       -1832.715          47.000  
G24  21243487.899                       -3457.153          28.000    21243472.242                       -2694.060          27.000  
G32  20767525.911   109134081.497        1450.212          45.000    20767515.560    85039509.201        1129.917          42.000  
C08  34745025.270   180926439.150        -420.007          46.000    34745004.576   139903719.834        -324.933          48.000  
C13  34718989.172   180790862.561        -112.946          48.000    34718976.556   139798916.333         -87.366          48.000  
C16  35674195.478   185764885.839         -51.800          48.000    35674181.787   143645144.731         -40.063          47.000  
C25  22495759.819   117141335.062       -2706.323          32.000                                                                  
C32  20977530.422   109235487.774         746.414          51.000                                                                  
C06  35351044.769   184082154.832         125.985          46.000    35351024.528   142343929.240          97.642          46.000  
G25  20276072.839   106551498.076        2341.510          42.000    20276064.667    83027099.774        1824.502          41.000  
G10  19430484.410   102107884.900         779.764          49.000    19430473.652    79564539.171         607.683          46.000  
G28  21809312.730   114608710.461        2444.668          42.000    21809302.315    89305462.684        1904.513          41.000  
C23  20714360.851   107865090.765          10.675          50.000                                                                  
C09  36810388.263   191681328.377         225.449          44.000    36810371.843   148220114.248         174.319          47.000  
C37  22631710.531   117849256.675        2555.713          46.000                                                                  
> 2025 10 27 02 58 25.1160000  0 18                     
G12  20685937.308   108705335.783         574.871          46.000    20685926.079    84705410.686         447.921          41.000  
G15  23541226.468   123709990.709       -3301.151          35.000    23541224.972    96397451.933       -2572.552          32.000  
G18  23904412.662   125618524.750       -3631.880          31.000    23904412.733    97884534.172       -2830.269          40.000  
G23  19456604.159   102245135.212       -2351.979          46.000    19456592.695    79671458.145       -1832.444          47.000  
G24  21243514.225                       -3457.317          28.000    21243498.551                       -2694.055          27.000  
G32  20767514.853   109134023.481        1450.309          45.000    20767504.522    85039463.998        1129.986          42.000  
C08  34745028.471   180926455.947        -419.977          46.000    34745007.814   139903732.821        -324.762          48.000  
C13  34718990.072   180790867.072        -112.878          48.000    34718977.407   139798919.823         -87.329          48.000  
C16  35674195.906   185764887.906         -51.724          48.000    35674182.205   143645146.334         -40.103          47.000  
C25  22495780.653   117141443.335       -2706.781          32.000                                                                  
C32  20977524.718   109235457.918         746.375          51.000                                                                  
C06  35351043.783   184082149.795         125.948          46.000    35351023.526   142343925.356          97.297          45.000  
G25  20276055.008   106551404.403        2341.648          42.000    20276046.857    83027026.793        1824.492          41.000  
G10  19430478.473   102107853.701         779.826          49.000    19430467.719    79564514.866         607.628          46.000  
G28  21809294.122   114608612.678        2444.596          42.000    21809283.706    89305386.495        1904.598          41.000  
C23  20714360.795   107865090.324          10.879          50.000                                                                  
C09  36810386.510   191681319.360         225.438          44.000    36810370.107   148220107.270         174.411          46.000  
C37  22631690.920   117849154.444        2555.713          46.000                                                                  
> 2025 10 27 02 58 25.1560000  0 18                     
G12  20685932.916   108705312.793         574.743          46.000    20685921.701    84705392.765         447.994          41.000  
G15  23541251.600   123710122.731       -3300.612          35.000    23541250.063    96397554.844       -2572.621          32.000  
G18  23904440.315                       -3631.167          31.000    23904440.388    97884647.387       -2830.398          40.000  
G23  19456622.059   102245229.291       -2351.991          46.000    19456610.601    79671531.450       -1832.525          47.000  
G24  21243540.518                       -3457.455          28.000    21243524.811                       -2693.929          27.000  
G32  20767503.810   109133965.472        1450.244          45.000    20767493.491    85039418.788        1130.128          42.000  
C08  34745031.689   180926472.747        -419.989          46.000    34745011.053   139903745.805        -324.634          48.000  
C13  34718990.962   180790871.584        -112.830          48.000    34718978.281   139798923.303         -87.109          48.000  
C16  35674196.313   185764889.982         -51.823          48.000    35674182.613   143645147.939         -40.146          47.000  
C25  22495801.462   117141551.588       -2706.573          32.000                                                                  
C32  20977518.984   109235428.063         746.377          51.000                                                                  
C06  35351042.809   184082144.755         125.967          46.000    35351022.573   142343921.459          97.356          46.000  
G25  20276037.189   106551310.749        2341.414          42.000    20276029.022    83026953.788        1824.884          41.000  
G10  19430472.519   102107822.502         779.901          49.000    19430461.764    79564490.555         607.702          46.000  
G28  21809275.526   114608514.898        2444.509          42.000    21809265.081    89305310.292        1904.913          41.000  
C23  20714360.727   107865089.888          10.910          50.000                                                                  
C09  36810384.806   191681310.322         225.815          44.000    36810368.402   148220100.281         174.647          46.000  
C37  22631671.315   117849052.211        2555.774          46.000                                                                  
> 2025 10 27 02 58 25.1960000  0 18                     
G12  20685928.524   108705289.793         574.868          46.000    20685917.330    84705374.848         447.947          41.000  
G15  23541276.727   123710254.821       -3301.526          35.000    23541275.185    96397657.783       -2573.280          32.000  
G18  23904467.943                       -3631.980          31.000    23904468.034    97884760.591       -2830.265          40.000  
G23  19456639.965   102245323.357       -2351.762          46.000    19456628.507    79671604.755       -1832.587          47.000  
G24  21243566.842                       -3457.151          28.000    21243551.260                       -2694.131          27.000  
G32  20767492.751   109133907.453        1450.375          45.000    20767482.441    85039373.579        1130.218          42.000  
C08  34745034.916   180926489.538        -419.843          46.000    34745014.271   139903758.784        -324.481          48.000  
C13  34718991.850   180790876.083        -112.561          48.000    34718979.140   139798926.787         -87.079          48.000  
C16  35674196.751   185764892.044         -51.639          48.000    35674183.020   143645149.530         -39.916          47.000  
C25  22495822.263   117141659.808       -2705.774          32.000                                                                  
C32  20977513.267   109235398.199         746.526          51.000                                                                  
C06  35351041.828   184082139.718         125.934          46.000    35351021.609   142343917.559          97.444          46.000  
G25  20276019.351   106551217.072        2341.654          42.000    20276011.201    83026880.787        1825.004          41.000  
G10  19430466.597   102107791.299         780.036          49.000    19430455.815    79564466.237         607.875          46.000  
G28  21809256.919   114608417.114        2444.548          42.000    21809246.474    89305234.083        1905.160          41.000  
C23  20714360.636   107865089.451          10.920          50.000                                                                  
C09  36810383.055   191681301.296         225.773          44.000    36810366.674   148220093.294         174.731          46.000  
C37  22631651.680   117848949.978        2555.804          46.000                                                                  
> 2025 10 27 02 58 25.2360000  0 18                     
G12  20685924.142   108705266.787         575.063          46.000    20685912.942    84705356.911         448.275          41.000  
G15  23541301.860   123710386.895       -3301.764          35.000    23541300.317    96397760.681       -2572.756          32.000  
G18  23904495.586                       -3632.029          31.000    23904495.682    97884873.781       -2829.938          40.000  
G23  19456657.847   102245417.429       -2351.757          46.000    19456646.413    79671678.061       -1832.637          47.000  
G24  21243593.197                       -3457.202          28.000    21243577.690                       -2693.490          28.000  
G32  20767481.732   109133849.434        1450.490          45.000    20767471.384    85039328.366        1130.317          42.000  
C08  34745038.136   180926506.329        -419.763          46.000    34745017.452   139903771.770        -324.561          48.000  
C13  34718992.705   180790880.588        -112.567          48.000    34718979.997   139798930.267         -87.006          48.000  
C16  35674197.178   185764894.104         -51.508          48.000    35674183.425   143645151.125         -39.861          47.000  
C25  22495843.055   117141768.054       -2705.988          32.000                                                                  
C32  20977507.530   109235368.330         746.691          51.000                                                                  
C06  35351040.856   184082134.680         125.908          46.000    35351020.685   142343913.664          97.382          46.000  
G25  20276001.535   106551123.391        2341.895          42.000    20275993.424    83026807.799        1824.811          41.000  
G10  19430460.648   102107760.094         780.116          49.000    19430449.899    79564441.925         607.837          46.000  
G28  21809238.292   114608319.325        2444.655          42.000    21809227.851    89305157.888        1905.044          41.000  
C23  20714360.567   107865089.013          10.944          50.000                                                                  
C09  36810381.310   191681292.267         225.759          44.000    36810364.910   148220086.313         174.596          46.000  
C37  22631632.055   117848847.735        2556.012          46.000                                                                  
> 2025 10 27 02 58 25.2760000  0 18                     
G12  20685919.756   108705243.785         575.098          46.000    20685908.577    84705339.002         447.946          41.000  
G15  23541327.006   123710518.982       -3302.201          35.000    23541325.419    96397863.571       -2572.345          32.000  
G18  23904523.224                       -3632.039          31.000    23904523.332    97884986.978       -2829.852          40.000  
G23  19456675.740   102245511.501       -2351.782          46.000    19456664.325    79671751.367       -1832.704          47.000  
G24  21243619.528                       -3456.865          28.000    21243604.005                       -2693.230          28.000  
G32  20767470.687   109133791.414        1450.525          45.000    20767460.361    85039283.167        1130.120          42.000  
C08  34745041.369   180926523.127        -419.897          46.000    34745020.679   139903784.760        -324.713          48.000  
C13  34718993.540   180790885.100        -112.732          48.000    34718980.858   139798933.757         -87.170          48.000  
C16  35674197.584   185764896.166         -51.501          48.000    35674183.806   143645152.721         -39.859          47.000  
C25  22495863.827   117141876.275       -2705.524          33.000                                                                  
C32  20977501.773   109235338.475         746.483          51.000                                                                  
C06  35351039.892   184082129.642         125.930          46.000    35351019.735   142343909.768          97.347          45.000  
G25  20275983.712   106551029.716        2341.915          42.000    20275975.602    83026734.800        1824.845          41.000  
G10  19430454.734   102107728.899         779.955          49.000    19430443.961    79564417.610         607.849          46.000  
G28  21809219.680   114608221.542        2444.603          42.000    21809209.256    89305081.694        1904.923          41.000  
C23  20714360.456   107865088.578          10.877          50.000                                                                  
C09  36810379.552   191681283.236         225.782          44.000    36810363.209   148220079.334         174.488          46.000  
C37  22631612.420   117848745.499        2555.969          46.000                                                                  
> 2025 10 27 02 58 25.3160000  0 18                     
G12  20685915.395   108705220.797         574.822          46.000    20685904.188    84705321.089         447.813          41.000  
G15  23541352.173   123710651.062       -3302.259          35.000    23541350.569    96397966.505       -2573.076          32.000  
G18  23904550.853   125619251.115       -3631.842          31.000    23904550.974    97885100.183       -2830.020          41.000  
G23  19456693.643   102245605.589       -2352.109          46.000    19456682.215    79671824.684       -1832.907          47.000  
G24  21243645.825                       -3457.004          28.000    21243630.186                       -2693.454          27.000  
G32  20767459.650   109133733.399        1450.417          45.000    20767449.327    85039237.966        1130.006          42.000  
C08  34745044.579   180926539.922        -419.934          46.000    34745023.927   139903797.751        -324.774          48.000  
C13  34718994.369   180790889.614        -112.854          48.000    34718981.719   139798937.255         -87.402          48.000  
C16  35674197.984   185764898.243         -51.778          48.000    35674184.200   143645154.330         -40.123          47.000  
C25  22495884.624   117141984.547       -2706.427          33.000                                                                  
C32  20977495.987   109235308.621         746.342          51.000                                                                  
C06  35351038.945   184082124.601         125.990          46.000    35351018.810   142343905.876          97.246          45.000  
G25  20275965.889   106550936.047        2341.785          42.000    20275957.795    83026661.829        1824.384          41.000  
G10  19430448.813   102107697.709         779.758          49.000    19430438.024    79564393.309         607.596          46.000  
G28  21809201.097   114608123.764        2444.497          42.000    21809190.653    89305005.520        1904.425          41.000  
C23  20714360.342   107865088.151          10.703          50.000                                                                  
C09  36810377.804   191681274.217         225.523          44.000    36810361.495   148220072.366         174.226          46.000  
C37  22631592.741   117848643.262        2555.933          46.000                                                                  
> 2025 10 27 02 58 25.3560000  0 18                     
G12  20685911.017   108705197.811         574.612          46.000    20685899.816    84705303.173         447.825          41.000  
G15  23541377.307   123710783.125       -3301.851          35.000    23541375.715    96398069.414       -2572.968          32.000  
G18  23904578.517   125619396.422       -3632.451          31.000    23904578.633    97885213.380       -2829.936          41.000  
G23  19456711.547   102245699.672       -2352.164          46.000    19456700.128    79671897.991       -1832.802          47.000  
G24  21243672.154                       -3457.049          28.000    21243656.554                       -2694.021          27.000  
G32  20767448.616   109133675.397        1450.112          45.000    20767438.287    85039192.752        1130.208          42.000  
C08  34745047.809   180926556.724        -420.050          46.000    34745027.157   139903810.743        -324.817          48.000  
C13  34718995.259   180790894.134        -113.031          48.000    34718982.586   139798940.746         -87.378          48.000  
C16  35674198.397   185764900.316         -51.878          48.000    35674184.606   143645155.931         -40.098          47.000  
C25  22495905.415   117142092.794       -2706.360          33.000                                                                  
C32  20977490.262   109235278.769         746.248          51.000                                                                  
C06  35351037.967   184082119.563         125.989          46.000    35351017.878   142343901.975          97.371          45.000  
G25  20275948.079   106550842.383        2341.656          42.000    20275939.985    83026588.843        1824.389          41.000  
G10  19430442.882   102107666.518         779.691          50.000    19430432.075    79564369.003         607.560          46.000  
G28  21809182.478   114608025.993        2444.297          42.000    21809172.047    89304929.331        1904.495          41.000  
C23  20714360.275   107865087.728          10.573          50.000                                                                  
C09  36810376.083   191681265.199         225.374          44.000    36810359.730   148220065.391         174.248          46.000  
C37  22631573.118   117848541.026        2555.890          46.000                                                                  
> 2025 10 27 02 58 25.3960000  0 18                     
G12  20685906.646   108705174.830         574.451          46.000    20685895.448    84705285.256         447.858          41.000  
G15  23541402.415   123710915.167       -3301.296          35.000    23541400.865    96398172.337       -2573.077          32.000  
G18  23904606.159   125619541.722       -3632.714          32.000    23904606.261    97885326.592       -2830.210          41.000  
G23  19456729.436   102245793.753       -2352.113          46.000    19456718.045    79671971.305       -1832.881          47.000  
G24  21243698.534                       -3457.358          28.000    21243682.588                       -2694.076          27.000  
G32  20767437.565   109133617.389        1450.094          45.000    20767427.243    85039147.558        1129.940          42.000  
C08  34745051.018   180926573.525        -420.044          46.000    34745030.388   139903823.732        -324.762          48.000  
C13  34718996.146   180790898.647        -112.970          48.000    34718983.443   139798944.236         -87.329          48.000  
C16  35674198.797   185764902.398         -52.054          48.000    35674185.007   143645157.537         -40.160          47.000  
C25  22495926.173   117142201.061       -2706.696          33.000                                                                  
C32  20977484.573   109235248.913         746.279          51.000                                                                  
C06  35351037.017   184082114.524         125.967          46.000    35351016.942   142343898.085          97.267          45.000  
G25  20275930.262   106550748.727        2341.400          42.000    20275922.154    83026515.865        1824.321          41.000  
G10  19430436.913   102107635.317         779.877          50.000    19430426.126    79564344.694         607.616          46.000  
G28  21809163.883   114607928.210        2444.450          42.000    21809153.439    89304853.132        1904.793          41.000  
C23  20714360.222   107865087.300          10.598          50.000                                                                  
C09  36810374.354   191681256.180         225.397          44.000    36810357.978   148220058.410         174.408          46.000  
C37  22631553.491   117848438.800        2555.670          46.000                                                                  
> 2025 10 27 02 58 25.4360000  0 18                     
G12  20685902.274   108705151.843         574.519          46.000    20685891.069    84705267.349         447.664          41.000  
G15  23541427.601   123711047.237       -3301.471          35.000    23541426.021    96398275.255       -2573.038          32.000  
G18  23904633.801   125619686.995       -3632.192          32.000    23904633.912    97885439.797       -2830.266          41.000  
G23  19456747.324   102245887.836       -2352.119          46.000    19456735.920    79672044.605       -1832.641          47.000  
G24  21243724.878                       -3457.206          28.000    21243708.995                       -2694.295          27.000  
G32  20767426.508   109133559.379        1450.131          45.000    20767416.218    85039102.342        1130.170          42.000  
C08  34745054.230   180926590.327        -420.074          46.000    34745033.572   139903836.725        -324.817          48.000  
C13  34718997.016   180790903.157        -112.854          48.000    34718984.284   139798947.719         -87.164          48.000  
C16  35674199.250   185764904.462         -51.800          48.000    35674185.380   143645159.138         -40.105          47.000  
C25  22495946.944   117142309.319       -2706.623          33.000                                                                  
C32  20977478.831   109235219.061         746.229          51.000                                                                  
C06  35351036.062   184082109.487         125.927          46.000    35351015.981   142343894.191          97.303          45.000  
G25  20275912.423   106550655.063        2341.437          42.000    20275904.327    83026442.875        1824.532          41.000  
G10  19430430.958   102107604.121         779.882          50.000    19430420.193    79564320.391         607.548          46.000  
G28  21809145.286   114607830.427        2444.545          42.000    21809134.848    89304776.937        1904.861          41.000  
C23  20714360.171   107865086.869          10.678          50.000                                                                  
C09  36810372.639   191681247.159         225.449          44.000    36810356.257   148220051.438         174.319          46.000  
C37  22631533.861   117848336.574        2555.591          46.000                                                                  
> 2025 10 27 02 58 25.4760000  0 18                     
G12  20685897.880   108705128.849         574.731          46.000    20685886.698    84705249.450         447.442          41.000  
G15  23541452.729   123711179.295       -3301.384          35.000    23541451.144    96398378.144       -2572.501          32.000  
G18  23904661.437   125619832.241       -3631.421          32.000    23904661.546    97885553.002       -2830.228          41.000  
G23  19456765.223   102245981.926       -2352.255          46.000    19456753.813    79672117.917       -1832.746          47.000  
G24  21243751.210                       -3457.223          28.000    21243735.492                       -2694.229          27.000  
G32  20767415.476   109133501.358        1450.373          45.000    20767405.203    85039057.145        1129.981          42.000  
C08  34745057.459   180926607.121        -419.934          46.000    34745036.771   139903849.717        -324.841          48.000  
C13  34718997.861   180790907.668        -112.781          48.000    34718985.159   139798951.207         -87.140          48.000  
C16  35674199.679   185764906.531         -51.729          48.000    35674185.766   143645160.736         -40.027          47.000  
C25  22495967.718   117142417.547       -2706.036          33.000                                                                  
C32  20977473.084   109235189.208         746.271          51.000                                                                  
C06  35351035.076   184082104.462         125.676          46.000    35351015.027   142343890.286          97.509          45.000  
G25  20275894.615   106550561.402        2341.456          42.000    20275886.502    83026369.882        1824.751          41.000  
G10  19430425.060   102107572.935         779.691          50.000    19430414.247    79564296.082         607.654          46.000  
G28  21809126.661   114607732.643        2444.580          42.000    21809116.223    89304700.736        1904.971          41.000  
C23  20714360.092   107865086.444          10.614          50.000                                                                  
C09  36810370.926   191681238.136         225.500          44.000    36810354.536   148220044.466         174.282          46.000  
C37  22631514.237   117848234.350        2555.524          46.000                                                                  
> 2025 10 27 02 58 25.5160000  0 18                     
G12  20685893.494   108705105.865         574.677          46.000    20685882.319    84705231.535         447.652          41.000  
G15  23541477.879   123711311.368       -3301.678          35.000    23541476.295    96398481.067       -2572.871          32.000  
G18  23904689.040   125619977.513       -3631.613          32.000    23904689.170    97885666.211       -2830.271          41.000  
G23  19456783.117   102246076.007       -2352.168          46.000    19456771.715    79672191.238       -1832.993          47.000  
G24  21243777.555                       -3457.493          28.000    21243761.660                       -2694.321          27.000  
G32  20767404.461   109133443.342        1450.394          45.000    20767394.159    85039011.933        1130.145          42.000  
C08  34745060.691   180926623.922        -419.995          46.000    34745040.027   139903862.706        -324.805          48.000  
C13  34718998.750   180790912.178        -112.750          48.000    34718986.018   139798954.695         -87.195          48.000  
C16  35674200.081   185764908.607         -51.870          48.000    35674186.152   143645162.333         -39.949          47.000  
C25  22495988.495   117142525.808       -2706.274          33.000                                                                  
C32  20977467.380   109235159.351         746.357          51.000                                                                  
C06  35351034.133   184082099.430         125.679          46.000    35351014.093   142343886.393          97.410          45.000  
G25  20275876.766   106550467.730        2341.635          42.000    20275868.664    83026296.892        1824.768          41.000  
G10  19430419.115   102107541.749         779.594          50.000    19430408.303    79564271.781         607.555          46.000  
G28  21809108.062   114607634.870        2444.373          42.000    21809097.642    89304624.543        1904.907          41.000  
C23  20714360.015   107865086.019          10.602          50.000                                                                  
C09  36810369.190   191681229.103         225.738          44.000    36810352.813   148220037.487         174.384          46.000  
C37  22631494.623   117848132.122        2555.579          46.000                                                                  
> 2025 10 27 02 58 25.5560000  0 18                     
G12  20685889.107   108705082.878         574.689          46.000    20685877.942    84705213.623         447.721          41.000  
G15  23541503.040   123711443.480       -3302.542          35.000    23541501.424    96398583.971       -2572.767          32.000  
G18  23904716.655   125620122.800       -3631.978          32.000    23904716.809    97885779.399       -2829.886          41.000  
G23  19456801.013   102246170.094       -2352.211          46.000    19456789.623    79672264.551       -1832.955          47.000  
G24  21243803.902                       -3457.668          28.000    21243787.989                       -2694.093          27.000  
G32  20767393.459   109133385.344        1450.094          45.000    20767383.114    85038966.749        1129.777          42.000  
C08  34745063.928   180926640.732        -420.233          46.000    34745043.257   139903875.702        -324.872          48.000  
C13  34718999.579   180790916.692        -112.781          48.000    34718986.906   139798958.190         -87.329          48.000  
C16  35674200.484   185764910.685         -51.959          48.000    35674186.536   143645163.934         -40.026          47.000  
C25  22496009.274   117142634.078       -2706.555          33.000                                                                  
C32  20977461.657   109235129.500         746.304          51.000                                                                  
C06  35351033.187   184082094.397         125.695          46.000    35351013.141   142343882.515          97.068          45.000  
G25  20275858.932   106550374.078        2341.366          42.000    20275850.861    83026223.927        1824.293          41.000  
G10  19430413.168   102107510.563         779.563          50.000    19430402.373    79564247.486         607.395          46.000  
G28  21809089.464   114607537.097        2444.267          42.000    21809079.038    89304548.353        1904.813          41.000  
C23  20714359.916   107865085.599          10.506          50.000                                                                  
C09  36810367.476   191681220.086         225.534          44.000    36810351.079   148220030.513         174.371          46.000  
C37  22631475.012   117848029.892        2555.658          46.000                                                                  
> 2025 10 27 02 58 25.5960000  0 18                     
G12  20685884.762   108705059.903         574.470          46.000    20685873.562    84705195.712         447.733          41.000  
G15  23541528.179   123711575.561       -3302.437          35.000    23541526.536    96398686.862       -2572.396          32.000  
G18  23904744.306   125620268.083       -3632.110          32.000    23904744.457    97885892.597       -2829.903          41.000  
G23  19456818.923   102246264.185       -2352.316          46.000    19456807.486    79672337.863       -1832.880          47.000  
G24  21243830.246                       -3457.588          28.000    21243814.440                       -2693.810          27.000  
G32  20767382.431   109133327.338        1450.054          45.000    20767372.084    85038921.540        1130.009          42.000  
C08  34745067.099   180926657.544        -420.337          46.000    34745046.495   139903888.692        -324.792          48.000  
C13  34719000.400   180790921.211        -112.939          48.000    34718987.768   139798961.682         -87.372          48.000  
C16  35674200.909   185764912.760         -51.956          48.000    35674186.932   143645165.543         -40.181          47.000  
C25  22496030.069   117142742.314       -2706.049          33.000                                                                  
C32  20977455.886   109235099.649         746.258          51.000                                                                  
C06  35351032.211   184082089.367         125.699          46.000    35351012.180   142343878.624          97.129          45.000  
G25  20275841.103   106550280.420        2341.360          42.000    20275833.018    83026150.940        1824.464          41.000  
G10  19430407.220   102107479.379         779.533          50.000    19430396.437    79564223.189         607.353          46.000  
G28  21809070.847   114607439.323        2444.218          42.000    21809060.428    89304472.170        1904.606          41.000  
C23  20714359.834   107865085.178          10.463          50.000                                                                  
C09  36810365.753   191681211.068         225.453          44.000    36810349.374   148220023.533         174.465          46.000  
C37  22631455.380   117847927.670        2555.585          46.000                                                                  
> 2025 10 27 02 58 25.6360000  0 18                     
G12  20685880.380   108705036.930         574.291          46.000    20685869.180    84705177.799         447.771          41.000  
G15  23541553.334   123711707.649       -3302.388          35.000    23541551.672    96398789.809       -2573.228          32.000  
G18  23904771.962   125620413.356       -3631.926          32.000    23904772.119    97886005.806       -2830.139          41.000  
G23  19456836.826   102246358.279       -2352.420          46.000    19456825.375    79672411.181       -1832.929          47.000  
G24  21243856.547                       -3457.430          28.000    21243840.839                       -2693.862          27.000  
G32  20767371.416   109133269.330        1450.095          45.000    20767361.033    85038876.342        1129.964          42.000  
C08  34745070.321   180926674.344        -420.154          46.000    34745049.767   139903901.687        -324.853          48.000  
C13  34719001.263   180790925.726        -112.921          48.000    34718988.629   139798965.173         -87.335          48.000  
C16  35674201.328   185764914.830         -51.844          48.000    35674187.352   143645167.146         -40.166          47.000  
C25  22496050.862   117142850.587       -2706.543          33.000                                                                  
C32  20977450.137   109235069.796         746.279          51.000                                                                  
C06  35351031.267   184082084.328         125.873          46.000    35351011.178   142343874.726          97.346          45.000  
G25  20275823.263   106550186.758        2341.449          42.000    20275815.184    83026077.961        1824.449          41.000  
G10  19430401.289   102107448.197         779.490          50.000    19430390.509    79564198.883         607.501          46.000  
G28  21809052.252   114607341.558        2444.031          42.000    21809041.804    89304395.988        1904.508          41.000  
C23  20714359.799   107865084.758          10.434          50.000                                                                  
C09  36810364.027   191681202.049         225.423          44.000    36810347.603   148220016.563         174.318          46.000  
C37  22631435.774   117847825.444        2555.597          46.000                                                                  
> 2025 10 27 02 58 25.6760000  0 18                     
G12  20685876.006   108705013.956         574.285          46.000    20685864.797    84705159.904         447.432          41.000  
G15  23541578.484   123711839.737       -3302.358          35.000    23541576.821    96398892.734       -2573.313          32.000  
G18  23904799.584   125620558.625       -3631.772          32.000    23904799.779    97886119.023       -2830.374          41.000  
G23  19456854.737   102246452.372       -2352.425          46.000    19456843.286    79672484.503       -1833.046          47.000  
G24  21243882.860                       -3457.838          28.000    21243867.288                       -2694.058          27.000  
G32  20767360.366   109133211.319        1450.201          45.000    20767350.002    85038831.145        1129.912          42.000  
C08  34745073.574   180926691.142        -420.020          46.000    34745052.995   139903914.683        -324.908          48.000  
C13  34719002.116   180790930.241        -112.903          48.000    34718989.490   139798968.666         -87.347          48.000  
C16  35674201.737   185764916.911         -52.017          48.000    35674187.751   143645168.757         -40.300          47.000  
C25  22496071.653   117142958.841       -2706.586          33.000                                                                  
C32  20977444.383   109235039.951         746.150          51.000                                                                  
C06  35351030.311   184082079.291         125.922          46.000    35351010.204   142343870.831          97.368          45.000  
G25  20275805.449   106550093.101        2341.417          42.000    20275797.330    83026004.971        1824.677          41.000  
G10  19430395.337   102107417.014         779.516          50.000    19430384.593    79564174.585         607.464          46.000  
G28  21809033.641   114607243.793        2443.990          42.000    21809023.201    89304319.813        1904.341          41.000  
C23  20714359.737   107865084.340          10.424          50.000                                                                  
C09  36810362.301   191681193.034         225.374          44.000    36810345.879   148220009.593         174.206          46.000  
C37  22631416.154   117847723.214        2555.682          46.000                                                                  
> 2025 10 27 02 58 25.7160000  0 18                     
G12  20685871.609   108704990.976         574.366          46.000    20685860.424    84705142.003         447.386          41.000  
G15  23541603.617   123711971.798       -3301.923          35.000    23541601.940    96398995.639       -2572.942          32.000  
G18  23904827.251   125620703.916       -3632.107          32.000    23904827.420    97886232.231       -2830.362          41.000  
G23  19456872.642   102246546.468       -2352.474          46.000    19456861.204    79672557.826       -1833.107          47.000  
G24  21243909.186                       -3457.483          28.000    21243893.411                       -2694.158          27.000  
G32  20767349.351   109133153.311        1450.199          45.000    20767338.964    85038785.937        1130.061          42.000  
C08  34745076.824   180926707.945        -420.056          46.000    34745056.211   139903927.682        -325.006          48.000  
C13  34719002.982   180790934.761        -112.982          48.000    34718990.359   139798972.158         -87.366          48.000  
C16  35674202.133   185764918.985         -51.939          48.000    35674188.122   143645170.365         -40.297          47.000  
C25  22496092.463   117143067.085       -2706.348          33.000                                                                  
C32  20977438.644   109235010.107         746.069          51.000                                                                  
C06  35351029.340   184082074.263         125.780          46.000    35351009.247   142343866.941          97.321          45.000  
G25  20275787.608   106549999.442        2341.411          42.000    20275779.491    83025931.995        1824.519          41.000  
G10  19430389.395   102107385.829         779.552          50.000    19430378.657    79564150.288         607.389          46.000  
G28  21809015.031   114607146.010        2444.339          42.000    21809004.611    89304243.631        1904.427          41.000  
C23  20714359.679   107865083.924          10.381          50.000                                                                  
C09  36810360.567   191681184.015         225.425          44.000    36810344.154   148220002.619         174.264          46.000  
C37  22631396.496   117847620.995        2555.505          46.000                                                                  
> 2025 10 27 02 58 25.7560000  0 18                     
G12  20685867.241   108704967.999         574.386          46.000    20685856.045    84705124.100         447.411          41.000  
G15  23541628.759   123712103.856       -3301.629          35.000    23541627.039    96399098.572       -2573.126          32.000  
G18  23904854.941   125620849.195       -3632.125          32.000    23904855.061    97886345.433       -2830.250          41.000  
G23  19456890.538   102246640.556       -2352.313          46.000    19456879.071    79672631.146       -1833.051          47.000  
G24  21243935.490                       -3457.358          28.000    21243919.615                       -2693.735          27.000  
G32  20767338.312   109133095.309        1450.062          45.000    20767327.893    85038740.731        1130.089          42.000  
C08  34745080.060   180926724.748        -420.081          46.000    34745059.490   139903940.680        -325.043          48.000  
C13  34719003.846   180790939.284        -113.092          48.000    34718991.241   139798975.654         -87.445          48.000  
C16  35674202.552   185764921.061         -51.927          48.000    35674188.513   143645171.977         -40.373          47.000  
C25  22496113.243   117143175.373       -2706.927          33.000                                                                  
C32  20977432.911   109234980.262         746.052          51.000                                                                  
C06  35351028.367   184082069.239         125.609          46.000    35351008.297   142343863.058          97.134          45.000  
G25  20275769.783   106549905.791        2341.301          42.000    20275761.676    83025859.018        1824.463          41.000  
G10  19430383.463   102107354.649         779.497          50.000    19430372.721    79564125.996         607.267          46.000  
G28  21808996.427   114607048.228        2444.487          42.000    21808986.012    89304167.442        1904.617          41.000  
C23  20714359.630   107865083.507          10.389          50.000                                                                  
C09  36810358.843   191681175.000         225.382          44.000    36810342.394   148219995.637         174.453          46.000  
C37  22631376.878   117847518.774        2555.469          46.000                                                                  
> 2025 10 27 02 58 25.7960000  0 18                     
G12  20685862.890   108704945.033         574.198          46.000    20685851.682    84705106.198         447.460          41.000  
G15  23541653.896   123712235.885       -3300.865          35.000    23541652.181    96399201.482       -2572.969          32.000  
G18  23904882.599   125620994.474       -3631.855          32.000    23904882.724    97886458.634       -2830.146          41.000  
G23  19456908.438   102246734.651       -2352.363          46.000    19456897.008    79672704.469       -1833.070          47.000  
G24  21243961.839                       -3457.421          28.000    21243946.029                       -2694.209          28.000  
G32  20767327.267   109133037.301        1450.090          45.000    20767316.875    85038695.539        1129.896          42.000  
C08  34745083.277   180926741.565        -420.355          46.000    34745062.717   139903953.679        -325.024          48.000  
C13  34719004.702   180790943.806        -113.141          48.000    34718992.146   139798979.157         -87.610          48.000  
C16  35674202.936   185764923.142         -52.032          48.000    35674188.888   143645173.588         -40.368          47.000  
C25  22496134.019   117143283.630       -2706.665          33.000                                                                  
C32  20977427.186   109234950.419         746.010          51.000                                                                  
C06  35351027.401   184082064.211         125.615          46.000    35351007.302   142343859.171          97.104          45.000  
G25  20275751.966   106549812.145        2341.105          42.000    20275743.884    83025786.047        1824.305          41.000  
G10  19430377.540   102107323.475         779.355          50.000    19430366.804    79564101.703         607.261          46.000  
G28  21808977.822   114606950.470        2444.107          42.000    21808967.368    89304091.243        1904.904          41.000  
C23  20714359.528   107865083.093          10.312          50.000                                                                  
C09  36810357.106   191681165.980         225.446          44.000    36810340.656   148219988.671         174.232          46.000  
C37  22631357.255   117847416.558        2555.347          46.000                                                                  
> 2025 10 27 02 58 25.8360000  0 18                     
G12  20685858.497   108704922.063         574.183          46.000    20685847.312    84705088.302         447.405          41.000  
G15  23541679.031   123712368.026       -3302.511          35.000    23541677.307    96399304.396       -2572.814          32.000  
G18  23904910.236   125621139.751       -3631.712          32.000    23904910.341    97886571.845       -2830.252          41.000  
G23  19456926.353   102246828.752       -2352.492          46.000    19456914.919    79672777.791       -1833.082          47.000  
G24  21243988.128                       -3457.372          28.000    21243972.074                       -2694.283          27.000  
G32  20767316.232   109132979.298        1450.032          45.000    20767305.835    85038650.340        1129.918          42.000  
C08  34745086.498   180926758.375        -420.349          46.000    34745065.946   139903966.676        -324.994          48.000  
C13  34719005.579   180790948.326        -113.068          48.000    34718993.000   139798982.654         -87.555          48.000  
C16  35674203.338   185764925.225         -52.093          48.000    35674189.247   143645175.187         -40.130          47.000  
C25  22496154.806   117143391.894       -2706.628          33.000                                                                  
C32  20977421.461   109234920.573         746.065          51.000                                                                  
C06  35351026.398   184082059.181         125.686          46.000    35351006.340   142343855.282          97.156          45.000  
G25  20275734.166   106549718.500        2341.069          42.000    20275726.060    83025713.079        1824.172          41.000  
G10  19430371.638   102107292.305         779.196          50.000    19430360.889    79564077.417         607.145          46.000  
G28  21808959.199   114606852.708        2443.965          42.000    21808948.746    89304015.065        1904.623          41.000  
C23  20714359.424   107865082.684          10.224          50.000                                                                  
C09  36810355.412   191681156.956         225.551          44.000    36810338.948   148219981.704         174.146          46.000  
C37  22631337.656   117847314.336        2555.444          46.000                                                                  
> 2025 10 27 02 58 25.8760000  0 18                     
G12  20685854.116   108704899.085         574.322          46.000    20685842.941    84705070.398         447.503          41.000  
G15  23541704.191   123712500.103       -3302.261          35.000    23541702.417    96399407.315       -2572.902          32.000  
G18  23904937.925   125621285.034       -3631.810          32.000    23904937.989    97886685.054       -2830.310          41.000  
G23  19456944.292   102246922.855       -2352.596          46.000    19456932.838    79672851.115       -1833.131          47.000  
G24  21244014.396                       -3457.391          28.000    21243998.295                       -2694.237          27.000  
G32  20767305.174   109132921.292        1450.074          45.000    20767294.804    85038605.144        1129.903          42.000  
C08  34745089.714   180926775.180        -420.215          46.000    34745069.173   139903979.671        -324.908          48.000  
C13  34719006.453   180790952.838        -112.885          48.000    34718993.867   139798986.139         -87.262          48.000  
C16  35674203.750   185764927.304         -52.044          48.000    35674189.614   143645176.787         -40.024          47.000  
C25  22496175.566   117143500.137       -2706.177          33.000                                                                  
C32  20977415.728   109234890.726         746.116          51.000                                                                  
C06  35351025.408   184082054.152         125.704          46.000    35351005.356   142343851.387          97.308          45.000  
G25  20275716.311   106549624.849        2341.134          42.000    20275708.264    83025640.103        1824.265          41.000  
G10  19430365.682   102107261.132         779.209          50.000    19430354.954    79564053.125         607.195          46.000  
G28  21808940.588   114606754.943        2443.987          42.000    21808930.152    89303938.882        1904.548          41.000  
C23  20714359.353   107865082.270          10.259          50.000                                                                  
C09  36810353.643   191681147.942         225.424          44.000    36810337.213   148219974.731         174.209          46.000  
C37  22631318.036   117847212.120        2555.389          46.000                                                                  
> 2025 10 27 02 58 25.9160000  0 18                     
G12  20685849.738   108704876.113         574.281          46.000    20685838.558    84705052.512         447.251          41.000  
G15  23541729.323   123712632.173       -3301.980          35.000    23541727.529    96399510.219       -2572.694          32.000  
G18  23904965.564   125621430.325       -3632.102          32.000    23904965.644    97886798.251       -2830.108          41.000  
G23  19456962.224   102247016.960       -2352.670          46.000    19456950.761    79672924.444       -1833.229          47.000  
G24  21244040.709                       -3457.461          28.000    21244024.712                       -2694.060          27.000  
G32  20767294.136   109132863.291        1450.016          45.000    20767283.766    85038559.948        1129.876          42.000  
C08  34745092.932   180926791.988        -420.221          46.000    34745072.407   139903992.665        -324.866          48.000  
C13  34719007.293   180790957.357        -112.933          48.000    34718994.722   139798989.634         -87.299          48.000  
C16  35674204.170   185764929.376         -51.921          48.000    35674189.985   143645178.396         -40.147          47.000  
C25  22496196.364   117143608.408       -2706.562          33.000                                                                  
C32  20977409.992   109234860.885         746.031          51.000                                                                  
C06  35351024.422   184082049.128         125.605          46.000    35351004.387   142343847.500          97.212          45.000  
G25  20275698.479   106549531.193        2341.295          42.000    20275690.424    83025567.134        1824.214          41.000  
G10  19430359.721   102107229.958         779.265          50.000    19430349.006    79564028.830         607.281          46.000  
G28  21808921.989   114606657.164        2444.297          42.000    21808911.534    89303862.715        1904.236          41.000  
C23  20714359.295   107865081.856          10.299          50.000                                                                  
C09  36810351.924   191681138.930         225.299          44.000    36810335.484   148219967.756         174.311          46.000  
C37  22631298.401   117847109.902        2555.365          46.000                                                                  
> 2025 10 27 02 58 25.9560000  0 18                     
G12  20685845.388   108704853.147         574.151          46.000    20685834.190    84705034.607         447.428          41.000  
G15  23541754.473   123712764.271       -3302.240          35.000    23541752.691    96399613.161       -2573.209          32.000  
G18  23904993.183   125621575.609       -3632.083          32.000    23904993.285    97886911.452       -2830.051          41.000  
G23  19456980.130   102247111.060       -2352.607          46.000    19456968.667    79672997.767       -1833.161          46.000  
G24  21244067.032                       -3457.234          28.000    21244051.043                       -2694.437          27.000  
G32  20767283.116   109132805.292        1449.975          45.000    20767272.728    85038514.745        1130.022          42.000  
C08  34745096.197   180926808.799        -420.251          46.000    34745075.634   139904005.666        -325.000          48.000  
C13  34719008.151   180790961.882        -113.080          48.000    34718995.593   139798993.133         -87.439          48.000  
C16  35674204.568   185764931.459         -52.034          48.000    35674190.355   143645180.006         -40.252          47.000  
C25  22496217.159   117143716.671       -2706.531          33.000                                                                  
C32  20977404.248   109234831.043         745.993          51.000                                                                  
C06  35351023.390   184082044.104         125.563          46.000    35351003.411   142343843.625          96.962          45.000  
G25  20275680.650   106549437.542        2341.312          42.000    20275672.611    83025494.171        1824.042          41.000  
G10  19430353.779   102107198.782         779.321          50.000    19430343.087    79564004.536         607.330          46.000  
G28  21808903.412   114606559.406        2444.050          42.000    21808892.917    89303786.519        1904.591          41.000  
C23  20714359.223   107865081.445          10.240          50.000                                                                  
C09  36810350.177   191681129.920         225.213          44.000    36810333.732   148219960.775         174.480          46.000  
C37  22631278.784   117847007.685        2555.371          46.000                                                                  
> 2025 10 27 02 58 25.9960000  0 18                     
G12  20685841.017   108704830.187         573.953          46.000    20685829.829    84705016.713         447.336          41.000  
G15  23541779.614   123712896.343       -3301.969          35.000    23541777.822    96399716.052       -2572.735          32.000  
G18  23905020.835   125621720.873       -3631.877          32.000    23905020.941    97887024.666       -2830.253          41.000  
G23  19456998.022   102247205.156       -2352.503          46.000    19456986.559    79673071.095       -1833.223          46.000  
G24  21244093.356                       -3457.392          28.000    21244077.644                       -2693.907          27.000  
G32  20767272.064   109132747.286        1450.066          45.000    20767261.727    85038469.559        1129.760          42.000  
C08  34745099.438   180926825.612        -420.349          46.000    34745078.908   139904018.664        -325.024          48.000  
C13  34719009.043   180790966.411        -113.208          48.000    34718996.440   139798996.633         -87.506          48.000  
C16  35674204.942   185764933.540         -52.067          48.000    35674190.737   143645181.619         -40.346          47.000  
C25  22496237.933   117143824.953       -2706.891          33.000                                                                  
C32  20977398.518   109234801.200         745.995          51.000                                                                  
C06  35351022.416   184082039.075         125.651          46.000    35351002.439   142343839.742          96.935          45.000  
G25  20275662.855   106549343.894        2341.223          42.000    20275654.808    83025421.186        1824.364          41.000  
G10  19430347.847   102107167.607         779.333          49.000    19430337.156    79563980.239         607.385          46.000  
G28  21808884.836   114606461.656        2443.774          42.000    21808874.309    89303710.346        1904.362          41.000  
C23  20714359.109   107865081.040          10.112          50.000                                                                  
C09  36810348.460   191681120.904         225.290          44.000    36810332.018   148219953.813         174.181          46.000  
C37  22631259.170   117846905.464        2555.420          46.000                                                                  
> 2025 10 27 02 58 26.0360000  0 18                     
G12  20685836.673   108704807.222         573.966          46.000    20685825.463    84704998.819         447.286          41.000  
G15  23541804.758   123713028.388       -3301.384          35.000    23541802.969    96399818.961       -2572.650          32.000  
G18  23905048.498   125621866.193       -3632.742          32.000    23905048.594    97887137.886       -2830.470          41.000  
G23  19457015.952   102247299.260       -2352.564          46.000    19457004.502    79673144.421       -1833.198          46.000  
G24  21244119.657                       -3457.606          28.000    21244103.778                       -2693.985          27.000  
G32  20767261.021   109132689.289        1449.948          45.000    20767250.686    85038424.371        1129.667          42.000  
C08  34745102.655   180926842.427        -420.404          46.000    34745082.161   139904031.668        -325.122          48.000  
C13  34719009.906   180790970.938        -113.245          48.000    34718997.291   139799000.133         -87.555          48.000  
C16  35674205.326   185764935.623         -52.131          48.000    35674191.165   143645183.228         -40.310          47.000  
C25  22496258.709   117143933.205       -2706.567          33.000                                                                  
C32  20977392.796   109234771.361         745.944          51.000                                                                  
C06  35351021.431   184082034.047         125.670          46.000    35351001.438   142343835.854          97.058          45.000  
G25  20275645.027   106549250.251        2341.085          42.000    20275636.982    83025348.214        1824.321          41.000  
G10  19430341.943   102107136.440         779.191          50.000    19430331.261    79563955.956         607.132          46.000  
G28  21808866.224   114606363.888        2443.992          42.000    21808855.698    89303634.158        1904.547          41.000  
C23  20714359.020   107865080.639           9.999          50.000                                                                  
C09  36810346.735   191681111.888         225.347          44.000    36810330.295   148219946.847         174.070          46.000  
C37  22631239.530   117846803.245        2555.457          46.000                                                                  
> 2025 10 27 02 58 26.0760000  0 18                     
G12  20685832.276   108704784.251         574.118          46.000    20685821.116    84704980.924         447.301          41.000  
G15  23541829.940   123713160.469       -3301.692          35.000    23541828.130    96399921.895       -2573.028          32.000  
G18  23905076.165   125622011.486       -3632.685          32.000    23905076.234    97887251.092       -2830.335          41.000  
G23  19457033.863   102247393.360       -2352.558          46.000    19457022.401    79673217.746       -1833.173          46.000  
G24  21244145.999                       -3457.585          28.000    21244130.197                       -2693.828          27.000  
G32  20767249.981   109132631.295        1449.827          45.000    20767239.631    85038379.165        1129.935          42.000  
C08  34745105.872   180926859.235        -420.300          46.000    34745085.388   139904044.665        -325.000          48.000  
C13  34719010.773   180790975.454        -113.043          48.000    34718998.131   139799003.626         -87.408          48.000  
C16  35674205.718   185764937.702         -52.067          48.000    35674191.553   143645184.836         -40.262          47.000  
C25  22496279.525   117144041.467       -2706.604          33.000                                                                  
C32  20977387.100   109234741.518         746.019          51.000                                                                  
C06  35351020.459   184082029.016         125.756          46.000    35351000.484   142343831.958          97.277          45.000  
G25  20275627.185   106549156.598        2341.216          42.000    20275619.174    83025275.242        1824.307          41.000  
G10  19430336.008   102107105.270         779.204          50.000    19430325.318    79563931.674         606.991          46.000  
G28  21808847.599   114606266.110        2444.286          42.000    21808837.089    89303557.982        1904.446          41.000  
C23  20714358.965   107865080.229          10.108          50.000                                                                  
C09  36810344.988   191681102.873         225.372          44.000    36810328.532   148219939.871         174.242          46.000  
C37  22631219.877   117846701.028        2555.426          46.000                                                                  
> 2025 10 27 02 58 26.1160000  0 18                     
G12  20685827.920   108704761.283         574.136          46.000    20685816.738    84704963.032         447.298          41.000  
G15  23541855.096   123713292.549       -3301.862          35.000    23541853.258    96400024.807       -2572.999          32.000  
G18  23905103.819   125622156.744       -3631.980          32.000    23905103.860    97887364.275       -2829.796          41.000  
G23  19457051.785   102247487.464       -2352.607          46.000    19457040.287    79673291.075       -1833.223          47.000  
G24  21244172.295                       -3457.698          28.000    21244156.481                       -2694.120          27.000  
G32  20767238.939   109132573.285        1450.077          45.000    20767228.591    85038333.965        1130.018          42.000  
C08  34745109.081   180926876.041        -420.184          46.000    34745088.569   139904057.663        -324.982          48.000  
C13  34719011.646   180790979.969        -112.903          48.000    34718998.977   139799007.125         -87.469          48.000  
C16  35674206.113   185764939.784         -52.054          48.000    35674191.946   143645186.441         -40.164          47.000  
C25  22496300.345   117144149.736       -2706.781          33.000                                                                  
C32  20977381.374   109234711.669         746.161          51.000                                                                  
C06  35351019.485   184082023.985         125.785          46.000    35350999.538   142343828.069          97.277          45.000  
G25  20275609.370   106549062.960        2341.030          42.000    20275601.333    83025202.264        1824.378          41.000  
G10  19430330.095   102107074.102         779.174          50.000    19430319.365    79563907.383         607.128          46.000  
G28  21808828.975   114606168.336        2444.333          42.000    21808818.496    89303481.794        1904.636          41.000  
C23  20714358.907   107865079.812          10.316          50.000                                                                  
C09  36810343.245   191681093.854         225.453          44.000    36810326.815   148219932.897         174.298          46.000  
C37  22631200.254   117846598.808        2555.432          46.000                                                                  
> 2025 10 27 02 58 26.1560000  0 18                     
G12  20685823.539   108704738.317         574.165          46.000    20685812.367    84704945.126         447.552          42.000  
G15  23541880.268   123713424.630       -3301.998          35.000    23541878.363    96400127.705       -2572.712          32.000  
G18  23905131.477   125622302.025       -3631.899          32.000    23905131.500    97887477.485       -2830.021          41.000  
G23  19457069.679   102247581.565       -2352.583          46.000    19457058.217    79673364.399       -1833.167          47.000  
G24  21244198.601                       -3457.312          28.000    21244182.816                       -2693.856          27.000  
G32  20767227.880   109132515.262        1450.469          45.000    20767217.547    85038288.752        1130.273          42.000  
C08  34745112.315   180926892.845        -420.099          46.000    34745091.765   139904070.653        -324.805          48.000  
C13  34719012.508   180790984.485        -112.860          48.000    34718999.855   139799010.614         -87.323          48.000  
C16  35674206.499   185764941.852         -51.812          48.000    35674192.336   143645188.044         -40.095          47.000  
C25  22496321.150   117144258.004       -2706.793          33.000                                                                  
C32  20977375.665   109234681.821         746.215          51.000                                                                  
C06  35351018.517   184082018.946         125.927          46.000    35350998.591   142343824.174          97.366          45.000  
G25  20275591.529   106548969.304        2341.232          42.000    20275583.498    83025129.291        1824.351          41.000  
G10  19430324.153   102107042.930         779.235          50.000    19430313.419    79563883.087         607.338          46.000  
G28  21808810.370   114606070.567        2444.294          42.000    21808799.885    89303405.626        1904.332          41.000  
C23  20714358.853   107865079.396          10.408          50.000                                                                  
C09  36810341.511   191681084.838         225.394          44.000    36810325.082   148219925.924         174.349          46.000  
C37  22631180.606   117846496.589        2555.432          46.000                                                                  
> 2025 10 27 02 58 26.1960000  0 18                     
G12  20685819.171   108704715.352         574.130          46.000    20685807.978    84704927.224         447.566          42.000  
G15  23541905.425   123713556.714       -3302.124          35.000    23541903.508    96400230.654       -2573.525          32.000  
G18  23905159.108   125622447.290       -3631.636          32.000    23905159.126    97887590.682       -2829.995          41.000  
G23  19457087.567   102247675.669       -2352.632          46.000    19457076.115    79673437.719       -1833.056          47.000  
G24  21244224.912                       -3457.760          28.000    21244209.237                       -2693.977          27.000  
G32  20767216.861   109132457.247        1450.476          45.000    20767206.510    85038243.552        1130.135          42.000  
C08  34745115.560   180926909.651        -420.099          46.000    34745094.970   139904083.651        -324.908          48.000  
C13  34719013.377   180790989.002        -112.885          48.000    34719000.704   139799014.105         -87.292          48.000  
C16  35674206.873   185764943.924         -51.760          48.000    35674192.748   143645189.640         -39.969          47.000  
C25  22496341.940   117144366.283       -2707.013          33.000                                                                  
C32  20977369.896   109234651.978         746.128          51.000                                                                  
C06  35351017.558   184082013.920         125.748          46.000    35350997.657   142343820.282          97.335          45.000  
G25  20275573.676   106548875.659        2341.157          42.000    20275565.675    83025056.319        1824.325          41.000  
G10  19430318.201   102107011.756         779.315          50.000    19430307.489    79563858.800         607.282          46.000  
G28  21808791.772   114605972.808        2444.074          42.000    21808781.279    89303329.433        1904.597          41.000  
C23  20714358.733   107865078.986          10.313          50.000                                                                  
C09  36810339.778   191681075.827         225.275          44.000    36810323.380   148219918.949         174.365          46.000  
C37  22631160.961   117846394.368        2555.487          46.000                                                                  
> 2025 10 27 02 58 26.2360000  0 18                     
G12  20685814.798   108704692.389         574.052          46.000    20685803.599    84704909.325         447.543          42.000  
G15  23541930.605   123713688.782       -3301.974          35.000    23541928.621    96400333.569       -2573.502          32.000  
G18  23905186.731   125622592.545       -3631.334          32.000    23905186.782    97887703.876       -2829.932          41.000  
G23  19457105.507   102247769.775       -2352.656          46.000    19457094.043    79673511.048       -1833.174          47.000  
G24  21244251.248                       -3457.682          28.000    21244235.568                       -2693.958          27.000  
G32  20767205.831   109132399.245        1450.191          45.000    20767195.474    85038198.359        1129.906          42.000  
C08  34745118.800   180926926.455        -420.087          46.000    34745098.219   139904096.649        -324.969          48.000  
C13  34719014.225   180790993.521        -112.958          48.000    34719001.539   139799017.599         -87.329          48.000  
C16  35674207.212   185764946.004         -51.909          48.000    35674193.133   143645191.247         -40.085          47.000  
C25  22496362.707   117144474.528       -2706.525          33.000                                                                  
C32  20977364.141   109234622.136         746.063          51.000                                                                  
C06  35351016.601   184082008.887         125.784          46.000    35350996.717   142343816.399          97.156          45.000  
G25  20275555.856   106548782.006        2341.248          42.000    20275547.848    83024983.362        1824.008          41.000  
G10  19430312.277   102106980.587         779.272          50.000    19430301.564    79563834.510         607.244          46.000  
G28  21808773.183   114605875.041        2444.101          42.000    21808762.670    89303253.256        1904.425          41.000  
C23  20714358.628   107865078.585          10.114          50.000                                                                  
C09  36810338.048   191681066.806         225.383          44.000    36810321.657   148219911.976         174.340          46.000  
C37  22631141.314   117846292.152        2555.420          46.000                                                                  
> 2025 10 27 02 58 26.2760000  0 18                     
G12  20685810.442   108704669.430         573.969          46.000    20685799.219    84704891.427         447.489          42.000  
G15  23541955.722   123713820.837       -3301.462          35.000    23541953.783    96400436.493       -2573.432          32.000  
G18  23905214.363   125622737.830       -3631.863          32.000    23905214.439    97887817.089       -2830.218          41.000  
G23  19457123.418   102247863.878       -2352.625          46.000    19457111.944    79673584.376       -1833.229          47.000  
G24  21244277.592                       -3457.707          28.000    21244261.644                       -2694.299          27.000  
G32  20767194.794   109132341.249        1449.956          45.000    20767184.445    85038153.169        1129.722          42.000  
C08  34745122.003   180926943.269        -420.331          46.000    34745101.482   139904109.648        -325.000          48.000  
C13  34719015.083   180790998.043        -113.062          48.000    34719002.404   139799021.097         -87.427          48.000  
C16  35674207.583   185764948.086         -52.040          48.000    35674193.526   143645192.862         -40.306          47.000  
C25  22496383.510   117144582.779       -2706.385          33.000                                                                  
C32  20977358.418   109234592.293         746.044          51.000                                                                  
C06  35351015.631   184082003.864         125.619          46.000    35350995.737   142343812.513          97.106          45.000  
G25  20275538.055   106548688.371        2340.990          42.000    20275530.037    83024910.394        1824.063          41.000  
G10  19430306.356   102106949.418         779.204          50.000    19430295.642    79563810.221         607.244          46.000  
G28  21808754.573   114605777.275        2444.134          42.000    21808744.070    89303177.072        1904.490          41.000  
C23  20714358.537   107865078.181          10.053          50.000                                                                  
C09  36810336.295   191681057.794         225.294          44.000    36810319.934   148219905.001         174.333          46.000  
C37  22631121.684   117846189.937        2555.389          46.000                                                                  
> 2025 10 27 02 58 26.3160000  0 18                     
G12  20685806.082   108704646.470         573.946          46.000    20685794.863    84704873.546         447.150          42.000  
G15  23541980.853   123713952.919       -3301.714          35.000    23541978.926    96400539.445       -2573.800          32.000  
G18  23905242.018   125622883.148       -3632.822          32.000    23905242.077    97887930.295       -2830.251          41.000  
G23  19457141.342   102247957.984       -2352.668          46.000    19457129.838    79673657.700       -1833.192          47.000  
G24  21244303.946                       -3457.505          28.000    21244288.015                       -2694.629          27.000  
G32  20767183.741   109132283.246        1449.984          45.000    20767173.418    85038107.970        1129.806          42.000  
C08  34745125.214   180926960.083        -420.410          46.000    34745104.703   139904122.646        -325.000          48.000  
C13  34719015.953   180791002.569        -113.184          48.000    34719003.254   139799024.594         -87.488          48.000  
C16  35674208.015   185764950.161         -51.978          48.000    35674193.930   143645194.474         -40.353          47.000  
C25  22496404.315   117144691.051       -2706.720          33.000                                                                  
C32  20977352.698   109234562.452         745.987          51.000                                                                  
C06  35351014.693   184081998.836         125.624          46.000    35350994.776   142343808.622          97.181          45.000  
G25  20275520.238   106548594.730        2340.958          42.000    20275512.194    83024837.406        1824.469          41.000  
G10  19430300.434   102106918.251         779.155          50.000    19430289.712    79563785.935         607.177          46.000  
G28  21808735.955   114605679.507        2444.197          42.000    21808725.444    89303100.895        1904.434          41.000  
C23  20714358.468   107865077.777          10.030          50.000                                                                  
C09  36810334.573   191681048.769         225.497          44.000    36810318.223   148219898.027         174.333          46.000  
C37  22631102.051   117846087.706        2555.646          46.000                                                                  
> 2025 10 27 02 58 26.3560000  0 18                     
G12  20685801.687   108704623.504         574.046          46.000    20685790.506    84704855.667         446.952          42.000  
G15  23542006.004   123714085.006       -3302.032          35.000    23542004.083    96400642.354       -2573.169          32.000  
G18  23905269.688   125623028.402       -3632.060          32.000    23905269.745    97888043.508       -2830.390          41.000  
G23  19457159.241   102248052.086       -2352.600          46.000    19457147.737    79673731.038       -1833.426          47.000  
G24  21244330.277                       -3457.368          28.000    21244314.298                       -2694.733          27.000  
G32  20767172.709   109132225.246        1449.954          45.000    20767162.387    85038062.769        1129.917          42.000  
C08  34745128.425   180926976.888        -420.245          46.000    34745107.888   139904135.645        -325.043          48.000  
C13  34719016.807   180791007.091        -113.135          48.000    34719004.122   139799028.093         -87.512          48.000  
C16  35674208.392   185764952.239         -51.977          48.000    35674194.303   143645196.078         -40.230          47.000  
C25  22496425.139   117144799.326       -2706.946          33.000                                                                  
C32  20977346.984   109234532.610         745.996          51.000                                                                  
C06  35351013.754   184081993.814         125.527          46.000    35350993.804   142343804.740          97.056          45.000  
G25  20275502.416   106548501.083        2341.055          42.000    20275494.390    83024764.443        1824.255          41.000  
G10  19430294.502   102106887.079         779.198          50.000    19430283.789    79563761.650         607.103          46.000  
G28  21808717.352   114605581.743        2444.139          42.000    21808706.846    89303024.720        1904.359          41.000  
C23  20714358.417   107865077.370          10.092          50.000                                                                  
C09  36810332.854   191681039.754         225.407          44.000    36810316.523   148219891.065         174.074          46.000  
C37  22631082.427   117845985.492        2555.457          46.000                                                                  
> 2025 10 27 02 58 26.3960000  0 18                     
G12  20685797.312   108704600.546         573.967          46.000    20685786.132    84704837.777         447.114          42.000  
G15  23542031.162   123714217.118       -3302.559          35.000    23542029.202    96400745.256       -2572.779          32.000  
G18  23905297.359   125623173.672       -3631.927          32.000    23905297.378    97888156.707       -2830.165          41.000  
G23  19457177.169   102248146.199       -2352.773          46.000    19457165.654    79673804.367       -1833.376          47.000  
G24  21244356.590                       -3457.394          28.000    21244340.368                       -2694.635          27.000  
G32  20767161.656   109132167.245        1449.969          45.000    20767151.359    85038017.571        1129.875          42.000  
C08  34745131.659   180926993.701        -420.288          46.000    34745111.114   139904148.644        -325.043          48.000  
C13  34719017.655   180791011.615        -113.159          48.000    34719005.003   139799031.591         -87.506          48.000  
C16  35674208.760   185764954.326         -52.155          48.000    35674194.689   143645197.684         -40.193          47.000  
C25  22496445.914   117144907.607       -2707.031          33.000                                                                  
C32  20977341.252   109234502.775         745.868          51.000                                                                  
C06  35351012.817   184081988.791         125.490          46.000    35350992.817   142343800.856          97.040          45.000  
G25  20275484.620   106548407.443        2341.044          42.000    20275476.587    83024691.482        1824.066          41.000  
G10  19430288.594   102106855.918         779.044          50.000    19430277.866    79563737.370         606.986          45.000  
G28  21808698.728   114605483.971        2444.226          42.000    21808688.241    89302948.556        1904.050          41.000  
C23  20714358.338   107865076.967          10.052          50.000                                                                  
C09  36810331.122   191681030.744         225.262          44.000    36810314.795   148219884.102         174.009          46.000  
C37  22631062.782   117845883.286        2555.182          46.000                                                                  
> 2025 10 27 02 58 26.4360000  0 18                     
G12  20685792.973   108704577.597         573.789          46.000    20685781.755    84704819.890         447.175          42.000  
G15  23542056.309   123714349.175       -3301.986          35.000    23542054.340    96400848.181       -2572.940          32.000  
G18  23905325.028   125623318.947       -3631.814          32.000    23905325.024    97888269.900       -2829.927          41.000  
G23  19457195.099   102248240.318       -2352.970          46.000    19457183.568    79673877.704       -1833.456          47.000  
G24  21244382.945                       -3457.313          28.000    21244366.722                       -2694.512          27.000  
G32  20767150.618   109132109.245        1449.951          45.000    20767140.299    85037972.377        1129.826          42.000  
C08  34745134.911   180927010.517        -420.404          46.000    34745114.356   139904161.646        -325.073          48.000  
C13  34719018.531   180791016.140        -113.165          48.000    34719005.892   139799035.093         -87.573          48.000  
C16  35674209.153   185764956.408         -52.161          48.000    35674195.090   143645199.296         -40.272          47.000  
C25  22496466.679   117145015.866       -2706.689          33.000                                                                  
C32  20977335.545   109234472.940         745.833          51.000                                                                  
C06  35351011.885   184081983.766         125.514          46.000    35350991.853   142343796.966          97.155          45.000  
G25  20275466.777   106548313.801        2341.036          42.000    20275458.780    83024618.520        1823.986          41.000  
G10  19430282.649   102106824.761         778.909          50.000    19430271.927    79563713.090         606.919          45.000  
G28  21808680.119   114605386.213        2443.986          42.000    21808669.635    89302872.369        1904.401          41.000  
C23  20714358.257   107865076.569           9.951          50.000                                                                  
C09  36810329.398   191681021.736         225.157          44.000    36810313.074   148219877.132         174.099          46.000  
C37  22631043.140   117845781.078        2555.078          46.000                                                                  
> 2025 10 27 02 58 26.4760000  0 18                     
G12  20685788.609   108704554.639         573.873          46.000    20685777.355    84704801.994         447.355          42.000  
G15  23542081.473   123714481.263       -3302.097          35.000    23542079.473    96400951.103       -2573.000          32.000  
G18  23905352.674   125623464.241       -3632.292          32.000    23905352.679    97888383.088       -2829.712          41.000  
G23  19457213.022   102248334.424       -2352.796          46.000    19457201.476    79673951.033       -1833.338          47.000  
G24  21244409.255                       -3457.352          28.000    21244392.967                       -2694.209          27.000  
G32  20767139.549   109132051.236        1450.126          45.000    20767129.271    85037927.181        1129.861          42.000  
C08  34745138.145   180927027.327        -420.374          46.000    34745117.617   139904174.645        -325.024          48.000  
C13  34719019.417   180791020.659        -113.025          48.000    34719006.790   139799038.588         -87.451          48.000  
C16  35674209.544   185764958.483         -52.001          48.000    35674195.485   143645200.908         -40.344          47.000  
C25  22496487.493   117145124.150       -2706.934          33.000                                                                  
C32  20977329.847   109234443.101         745.896          51.000                                                                  
C06  35351010.920   184081978.729         125.758          46.000    35350990.881   142343793.075          97.283          45.000  
G25  20275448.947   106548220.163        2340.950          42.000    20275440.951    83024545.559        1823.954          41.000  
G10  19430276.714   102106793.601         778.892          50.000    19430265.985    79563688.806         606.975          45.000  
G28  21808661.535   114605288.465        2443.725          42.000    21808651.006    89302796.178        1904.703          41.000  
C23  20714358.208   107865076.169           9.954          50.000                                                                  
C09  36810327.669   191681012.719         225.305          44.000    36810311.362   148219870.163         174.175          46.000  
C37  22631023.511   117845678.868        2555.157          46.000                                                                  
> 2025 10 27 02 58 26.5160000  0 18                     
G12  20685784.237   108704531.679         573.979          46.000    20685772.959    84704784.104         447.332          42.000  
G15  23542106.611   123714613.338       -3301.927          35.000    23542104.617                       -2572.637          32.000  
G18  23905380.317   125623609.512       -3631.919          32.000    23905380.324    97888496.292       -2829.935          41.000  
G23  19457230.902   102248428.531       -2352.703          46.000    19457219.370    79674024.366       -1833.326          47.000  
G24  21244435.573   111640254.769       -3457.397          28.000    21244419.165                       -2694.362          27.000  
G32  20767128.512   109131993.224        1450.266          45.000    20767118.223    85037881.977        1130.016          42.000  
C08  34745141.341   180927044.140        -420.398          46.000    34745120.890   139904187.641        -324.963          48.000  
C13  34719020.280   180791025.176        -112.952          48.000    34719007.646   139799042.079         -87.311          48.000  
C16  35674209.938   185764960.562         -51.949          48.000    35674195.860   143645202.509         -40.172          47.000  
C25  22496508.301   117145232.399       -2706.433          33.000                                                                  
C32  20977324.120   109234413.251         746.126          51.000                                                                  
C06  35351009.933   184081973.693         125.907          46.000    35350989.866   142343789.188          97.238          45.000  
G25  20275431.122   106548126.511        2341.156          42.000    20275423.145    83024472.579        1824.307          41.000  
G10  19430270.754   102106762.438         778.991          50.000    19430260.054    79563664.526         606.951          45.000  
G28  21808642.904   114605190.710        2443.768          42.000    21808632.413    89302719.994        1904.718          41.000  
C23  20714358.164   107865075.767           9.994          50.000                                                                  
C09  36810325.941   191681003.704         225.374          44.000    36810309.620   148219863.186         174.351          46.000  
C37  22631003.889   117845576.650        2555.347          46.000                                                                  
> 2025 10 27 02 58 26.5560000  0 18                     
G12  20685779.853   108704508.719         574.015          46.000    20685768.601    84704766.221         447.157          42.000  
G15  23542131.757   123714745.422       -3302.021          35.000    23542129.757                       -2573.215          32.000  
G18  23905407.922   125623754.797       -3632.128          32.000    23905407.995    97888609.503       -2830.221          41.000  
G23  19457248.819   102248522.643       -2352.753          46.000    19457237.257    79674097.702       -1833.393          47.000  
G24  21244461.889   111640393.063       -3457.346          28.000    21244445.312                       -2694.118          27.000  
G32  20767117.487   109131935.221        1450.164          45.000    20767107.213    85037836.783        1129.896          42.000  
C08  34745144.564   180927060.951        -420.349          46.000    34745124.095   139904200.641        -324.994          48.000  
C13  34719021.127   180791029.701        -113.074          48.000    34719008.519   139799045.576         -87.384          48.000  
C16  35674210.352   185764962.640         -51.940          48.000    35674196.247   143645204.123         -40.304          47.000  
C25  22496529.097   117145340.654       -2706.299          33.000                                                                  
C32  20977318.347   109234383.415         746.005          51.000                                                                  
C06  35351008.952   184081968.667         125.763          46.000    35350988.901   142343785.299          97.223          45.000  
G25  20275413.302   106548032.882        2340.847          42.000    20275405.340    83024399.617        1824.154          41.000  
G10  19430264.817   102106731.268         779.164          50.000    19430254.135    79563640.242         607.037          45.000  
G28  21808624.296   114605092.933        2444.185          42.000    21808613.776    89302643.822        1904.458          41.000  
C23  20714358.071   107865075.371           9.904          50.000                                                                  
C09  36810324.208   191680994.691         225.354          44.000    36810307.885   148219856.209         174.443          46.000  
C37  22630984.273   117845474.433        2555.414          46.000                                                                  
> 2025 10 27 02 58 26.5960000  0 18                     
G12  20685775.483   108704485.771         573.803          46.000    20685764.221    84704748.341         446.997          42.000  
G15  23542156.916   123714877.499       -3301.886          35.000    23542154.908                       -2572.560          32.000  
G18  23905435.578   125623900.066       -3632.045          32.000    23905435.665    97888722.711       -2830.290          41.000  
G23  19457266.747   102248616.753       -2352.759          46.000    19457255.152    79674171.032       -1833.301          47.000  
G24  21244488.147   111640531.361       -3457.359          28.000    21244471.734                       -2694.196          27.000  
G32  20767106.461   109131877.224        1449.955          45.000    20767096.185    85037791.594        1129.762          42.000  
C08  34745147.796   180927077.762        -420.294          46.000    34745127.331   139904213.641        -325.018          48.000  
C13  34719021.993   180791034.230        -113.232          48.000    34719009.406   139799049.078         -87.531          48.000  
C16  35674210.723   185764964.719         -51.953          48.000    35674196.657   143645205.733         -40.303          47.000  
C25  22496549.904   117145448.918       -2706.360          33.000                                                                  
C32  20977312.565   109234353.579         745.895          51.000                                                                  
C06  35351007.941   184081963.654         125.458          46.000    35350987.923   142343781.412          97.174          45.000  
G25  20275395.490   106547939.246        2340.813          42.000    20275387.526    83024326.652        1824.093          41.000  
G10  19430258.918   102106700.107         779.058          50.000    19430248.208    79563615.958         607.061          45.000  
G28  21808605.693   114604995.168        2444.212          42.000    21808595.180    89302567.655        1904.220          41.000  
C23  20714358.009   107865074.970           9.938          50.000                                                                  
C09  36810322.471   191680985.678         225.308          44.000    36810306.118   148219849.240         174.348          46.000  
C37  22630964.656   117845372.218        2555.359          46.000                                                                  
> 2025 10 27 02 58 26.6360000  0 18                     
G12  20685771.115   108704462.823         573.690          46.000    20685759.848    84704730.453         447.089          42.000  
G15  23542182.044   123715009.558       -3301.632          35.000    23542180.061                       -2573.077          31.000  
G18  23905463.198   125624045.355       -3632.406          32.000    23905463.310    97888835.907       -2830.058          41.000  
G23  19457284.668   102248710.868       -2352.839          46.000    19457273.047    79674244.366       -1833.344          47.000  
G24  21244514.512   111640669.664       -3457.447          28.000    21244498.030                       -2693.836          27.000  
G32  20767095.422   109131819.222        1449.987          45.000    20767085.138    85037746.401        1129.759          42.000  
C08  34745151.055   180927094.572        -420.270          46.000    34745130.545   139904226.646        -325.116          48.000  
C13  34719022.842   180791038.758        -113.263          48.000    34719010.289   139799052.579         -87.610          48.000  
C16  35674211.123   185764966.806         -52.097          48.000    35674197.043   143645207.344         -40.321          47.000  
C25  22496570.670   117145557.189       -2706.696          33.000                                                                  
C32  20977306.810   109234323.747         745.768          51.000                                                                  
C06  35351006.963   184081958.633         125.435          46.000    35350986.944   142343777.529          97.097          45.000  
G25  20275377.689   106547845.612        2340.774          42.000    20275369.725    83024253.698        1823.920          41.000  
G10  19430253.008   102106668.946         778.990          50.000    19430242.297    79563591.674         607.073          46.000  
G28  21808587.095   114604897.411        2444.009          42.000    21808576.556    89302491.479        1904.254          41.000  
C23  20714357.935   107865074.569           9.977          50.000                                                                  
C09  36810320.741   191680976.671         225.177          44.000    36810304.397   148219842.277         174.152          46.000  
C37  22630945.004   117845270.005        2555.292          46.000                                                                  
> 2025 10 27 02 58 26.6760000  0 18                     
G12  20685766.750   108704439.872         573.694          46.000    20685755.504    84704712.564         447.168          42.000  
G15  23542207.188   123715141.624       -3301.495          35.000    23542205.201                       -2573.167          31.000  
G18  23905490.859   125624190.634       -3632.228          32.000    23905490.936    97888949.105       -2829.976          41.000  
G23  19457302.591   102248804.986       -2352.919          46.000    19457290.947    79674317.702       -1833.406          47.000  
G24  21244540.819   111640807.983       -3457.711          28.000    21244524.588                       -2693.990          27.000  
G32  20767084.384   109131761.219        1449.999          45.000    20767074.083    85037701.188        1130.108          42.000  
C08  34745154.324   180927111.381        -420.251          46.000    34745133.757   139904239.646        -325.073          48.000  
C13  34719023.737   180791043.282        -113.171          48.000    34719011.185   139799056.078         -87.543          48.000  
C16  35674211.507   185764968.888         -52.100          48.000    35674197.456   143645208.956         -40.333          47.000  
C25  22496591.485   117145665.467       -2706.952          33.000                                                                  
C32  20977301.090   109234293.912         745.799          51.000                                                                  
C06  35351005.994   184081953.605         125.564          46.000    35350985.984   142343773.638          97.170          45.000  
G25  20275359.854   106547751.976        2340.825          42.000    20275351.912    83024180.729        1824.042          41.000  
G10  19430247.105   102106637.793         778.830          50.000    19430236.403    79563567.399         606.882          46.000  
G28  21808568.502   114604799.659        2443.853          42.000    21808557.915    89302415.304        1904.300          41.000  
C23  20714357.833   107865074.174           9.907          50.000                                                                  
C09  36810319.026   191680967.652         225.355          44.000    36810302.659   148219835.309         174.154          46.000  
C37  22630925.385   117845167.801        2555.121          46.000                                                                  
> 2025 10 27 02 58 26.7160000  0 18                     
G12  20685762.374   108704416.921         573.725          46.000    20685751.147    84704694.689         446.930          42.000  
G15  23542232.324   123715273.715       -3301.906          35.000    23542230.332                       -2573.322          31.000  
G18  23905518.476   125624335.905       -3632.082          33.000    23905518.589    97889062.302       -2829.921          41.000  
G23  19457320.494   102248899.102       -2352.937          46.000    19457308.859    79674391.039       -1833.461          47.000  
G24  21244567.162   111640946.293       -3457.760          28.000    21244550.845                       -2694.054          27.000  
G32  20767073.329   109131703.213        1450.064          45.000    20767063.066    85037655.992        1130.040          42.000  
C08  34745157.554   180927128.195        -420.361          46.000    34745137.007   139904252.638        -324.878          48.000  
C13  34719024.626   180791047.804        -113.098          48.000    34719012.023   139799059.572         -87.415          48.000  
C16  35674211.906   185764970.965         -52.001          48.000    35674197.857   143645210.559         -40.168          47.000  
C25  22496612.281   117145773.751       -2707.135          33.000                                                                  
C32  20977295.413   109234264.074         745.878          51.000                                                                  
C06  35351005.018   184081948.571         125.734          46.000    35350985.007   142343769.750          97.184          45.000  
G25  20275342.036   106547658.335        2340.946          42.000    20275334.091    83024107.757        1824.208          41.000  
G10  19430241.179   102106606.637         778.800          50.000    19430230.466    79563543.122         606.846          46.000  
G28  21808549.902   114604701.902        2443.888          42.000    21808539.314    89302339.119        1904.559          41.000  
C23  20714357.767   107865073.778           9.875          50.000                                                                  
C09  36810317.304   191680958.633         225.429          44.000    36810300.913   148219828.343         174.098          46.000  
C37  22630905.747   117845065.592        2555.151          46.000                                                                  
> 2025 10 27 02 58 26.7560000  0 18                     
G12  20685757.981   108704393.967         573.792          46.000    20685746.773    84704676.808         446.921          42.000  
G15  23542257.474   123715405.790       -3301.875          35.000    23542255.505                       -2573.051          31.000  
G18  23905546.076   125624481.140       -3631.275          33.000    23905546.237    97889175.498       -2829.864          41.000  
G23  19457338.385   102248993.219       -2352.949          46.000    19457326.741    79674464.378       -1833.541          47.000  
G24  21244593.489   111641084.607       -3457.852          28.000    21244577.220                       -2694.148          27.000  
G32  20767062.293   109131645.216        1449.962          45.000    20767052.029    85037610.796        1129.966          42.000  
C08  34745160.776   180927145.007        -420.361          46.000    34745140.236   139904265.637        -324.908          48.000  
C13  34719025.493   180791052.322        -113.013          48.000    34719012.855   139799063.062         -87.280          48.000  
C16  35674212.303   185764973.041         -51.933          48.000    35674198.242   143645212.162         -40.081          47.000  
C25  22496633.047   117145882.000       -2706.573          33.000                                                                  
C32  20977289.706   109234234.234         745.969          51.000                                                                  
C06  35351004.027   184081943.541         125.753          46.000    35350984.028   142343765.858          97.249          45.000  
G25  20275324.210   106547564.696        2340.981          42.000    20275316.268    83024034.790        1824.210          41.000  
G10  19430235.223   102106575.478         778.862          50.000    19430224.538    79563518.845         606.840          46.000  
G28  21808531.285   114604604.134        2444.115          42.000    21808520.727    89302262.944        1904.423          41.000  
C23  20714357.724   107865073.378           9.941          50.000                                                                  
C09  36810315.594   191680949.620         225.352          44.000    36810299.203   148219821.362         174.375          46.000  
C37  22630886.125   117844963.374        2555.334          46.000                                                                  
> 2025 10 27 02 58 26.7960000  0 18                     
G12  20685753.639   108704371.021         573.699          46.000    20685742.412    84704658.919         447.081          42.000  
G15  23542282.620   123715537.913       -3302.665          35.000    23542280.629                       -2572.832          31.000  
G18  23905573.713   125624626.399       -3631.310          33.000    23905573.883    97889288.700       -2830.012          41.000  
G23  19457356.314   102249087.334       -2352.931          46.000    19457344.648    79674537.716       -1833.528          47.000  
G24  21244619.810   111641222.916       -3457.863          28.000    21244603.616                       -2694.619          27.000  
G32  20767051.254   109131587.211        1450.054          45.000    20767041.014    85037565.605        1129.783          42.000  
C08  34745163.992   180927161.820        -420.380          46.000    34745143.453   139904278.642        -325.085          48.000  
C13  34719026.381   180791056.846        -113.080          48.000    34719013.716   139799066.560         -87.408          48.000  
C16  35674212.695   185764975.120         -51.969          48.000    35674198.646   143645213.768         -40.117          47.000  
C25  22496653.832   117145990.282       -2706.861          33.000                                                                  
C32  20977283.992   109234204.393         745.998          51.000                                                                  
C06  35351003.036   184081938.512         125.715          46.000    35350983.063   142343761.975          97.142          45.000  
G25  20275306.379   106547471.063        2340.833          42.000    20275298.471    83023961.836        1823.950          41.000  
G10  19430229.283   102106544.322         778.875          50.000    19430218.603    79563494.569         606.822          46.000  
G28  21808512.655   114604506.375        2444.036          42.000    21808502.128    89302186.767        1904.391          41.000  
C23  20714357.644   107865072.986           9.831          50.000                                                                  
C09  36810313.863   191680940.605         225.313          44.000    36810297.503   148219814.392         174.291          46.000  
C37  22630866.509   117844861.161        2555.304          46.000                                                                  
> 2025 10 27 02 58 26.8360000  0 18                     
G12  20685749.263   108704348.076         573.609          46.000    20685738.041    84704641.035         447.065          42.000  
G15  23542307.761   123715669.980       -3301.971          35.000    23542305.739    96401877.316       -2572.576          32.000  
G18  23905601.332   125624771.692       -3631.800          33.000    23905601.536    97889401.895       -2829.912          41.000  
G23  19457374.225   102249181.451       -2352.930          46.000    19457362.573    79674611.061       -1833.626          47.000  
G24  21244646.112   111641361.228       -3457.874          28.000    21244629.829                       -2694.470          27.000  
G32  20767040.222   109131529.209        1450.053          45.000    20767029.994    85037520.414        1129.716          42.000  
C08  34745167.219   180927178.637        -420.471          46.000    34745146.655   139904291.647        -325.165          48.000  
C13  34719027.249   180791061.373        -113.165          48.000    34719014.598   139799070.068         -87.628          48.000  
C16  35674213.110   185764977.201         -52.013          48.000    35674199.073   143645215.381         -40.261          47.000  
C25  22496674.609   117146098.565       -2707.068          33.000                                                                  
C32  20977278.240   109234174.560         745.899          51.000                                                                  
C06  35351002.037   184081933.488         125.596          46.000    35350982.113   142343758.087          97.135          45.000  
G25  20275288.568   106547377.427        2340.828          42.000    20275280.650    83023888.881        1823.810          41.000  
G10  19430223.355   102106513.170         778.814          50.000    19430212.697    79563470.297         606.779          46.000  
G28  21808494.072   114604408.624        2443.816          42.000    21808483.501    89302110.591        1904.334          41.000  
C23  20714357.569   107865072.597           9.736          50.000                                                                  
C09  36810312.115   191680931.596         225.253          44.000    36810295.760   148219807.434         174.033          46.000  
C37  22630846.868   117844758.947        2555.353          46.000                                                                  
> 2025 10 27 02 58 26.8760000  0 18                     
G12  20685744.872   108704325.128         573.631          46.000    20685733.693    84704623.158         446.935          42.000  
G15  23542332.914   123715802.038       -3301.466          35.000    23542330.883    96401980.233       -2572.730          32.000  
G18  23905628.995   125624916.963       -3631.762          33.000    23905629.168    97889515.097       -2829.976          41.000  
G23  19457392.159   102249275.572       -2353.035          46.000    19457380.469    79674684.404       -1833.663          47.000  
G24  21244672.466   111641499.535       -3457.822          28.000    21244656.070                       -2694.419          27.000  
G32  20767029.199   109131471.209        1449.988          45.000    20767018.939    85037475.212        1129.902          42.000  
C08  34745170.476   180927195.450        -420.441          46.000    34745149.901   139904304.650        -325.165          48.000  
C13  34719028.103   180791065.900        -113.208          48.000    34719015.478   139799073.566         -87.549          48.000  
C16  35674213.509   185764979.285         -52.132          48.000    35674199.517   143645216.997         -40.410          47.000  
C25  22496695.416   117146206.840       -2706.952          33.000                                                                  
C32  20977272.512   109234144.726         745.835          51.000                                                                  
C06  35351001.079   184081928.463         125.560          46.000    35350981.158   142343754.205          97.045          45.000  
G25  20275270.751   106547283.799        2340.671          42.000    20275262.807    83023815.906        1824.141          41.000  
G10  19430217.448   102106482.022         778.709          50.000    19430206.763    79563446.020         606.848          46.000  
G28  21808475.450   114604310.866        2443.849          42.000    21808464.890    89302034.418        1904.292          41.000  
C23  20714357.543   107865072.206           9.727          50.000                                                                  
C09  36810310.405   191680922.587         225.216          44.000    36810294.048   148219800.465         174.098          46.000  
C37  22630827.227   117844656.736        2555.310          46.000                                                                  
> 2025 10 27 02 58 26.9160000  0 18                     
G12  20685740.473   108704302.184         573.580          46.000    20685729.322    84704605.284         446.815          42.000  
G15  23542358.048   123715934.135       -3301.939          35.000    23542356.002    96402083.169       -2573.232          32.000  
G18  23905656.618   125625062.273       -3632.410          33.000    23905656.809    97889628.305       -2830.138          41.000  
G23  19457410.065   102249369.694       -2353.096          46.000    19457398.380    79674757.745       -1833.613          47.000  
G24  21244698.802   111641637.820       -3457.507          28.000    21244682.686                       -2694.148          27.000  
G32  20767018.164   109131413.212        1449.953          45.000    20767007.908    85037430.018        1129.863          42.000  
C08  34745173.710   180927212.267        -420.471          46.000    34745153.121   139904317.652        -325.134          48.000  
C13  34719028.971   180791070.426        -113.177          48.000    34719016.333   139799077.065         -87.524          48.000  
C16  35674213.899   185764981.378         -52.315          48.000    35674199.915   143645218.608         -40.358          47.000  
C25  22496716.186   117146315.117       -2707.019          33.000                                                                  
C32  20977266.744   109234114.897         745.721          51.000                                                                  
C06  35351000.128   184081923.442         125.485          46.000    35350980.198   142343750.329          96.903          45.000  
G25  20275252.943   106547190.171        2340.662          42.000    20275245.008    83023742.946        1824.050          41.000  
G10  19430211.537   102106450.869         778.765          50.000    19430200.831    79563421.748         606.804          46.000  
G28  21808456.855   114604213.106        2443.951          42.000    21808446.287    89301958.253        1904.098          41.000  
C23  20714357.476   107865071.815           9.716          50.000                                                                  
C09  36810308.671   191680913.570         225.349          44.000    36810292.317   148219793.497         174.156          46.000  
C37  22630807.569   117844554.535        2555.054          46.000                                                                  
> 2025 10 27 02 58 26.9560000  0 18                     
G12  20685736.121   108704279.241         573.523          46.000    20685724.952    84704587.409         446.829          42.000  
G15  23542383.167   123716066.249       -3302.622          35.000    23542381.143    96402186.099       -2573.295          32.000  
G18  23905684.250   125625207.543       -3632.098          33.000    23905684.437    97889741.504       -2830.057          41.000  
G23  19457427.968   102249463.813       -2353.053          46.000    19457416.279    79674831.081       -1833.508          47.000  
G24  21244725.088   111641776.114       -3457.389          28.000    21244708.971                       -2694.250          27.000  
G32  20767007.109   109131355.209        1450.024          45.000    20766996.889    85037384.823        1129.855          42.000  
C08  34745176.932   180927229.084        -420.459          46.000    34745156.377   139904330.658        -325.165          48.000  
C13  34719029.850   180791074.949        -113.104          48.000    34719017.209   139799080.562         -87.469          48.000  
C16  35674214.324   185764983.464         -52.276          48.000    35674200.339   143645220.219         -40.345          47.000  
C25  22496736.997   117146423.406       -2707.245          33.000                                                                  
C32  20977261.028   109234085.065         745.712          51.000                                                                  
C06  35350999.180   184081918.418         125.537          46.000    35350979.282   142343746.447          96.923          45.000  
G25  20275235.131   106547096.549        2340.533          42.000    20275227.198    83023669.992        1823.885          41.000  
G10  19430205.585   102106419.717         778.765          50.000    19430194.899    79563397.469         606.878          46.000  
G28  21808438.248   114604115.345        2444.021          42.000    21808427.701    89301882.083        1904.120          41.000  
C23  20714357.419   107865071.424           9.730          50.000                                                                  
C09  36810306.927   191680904.568         225.166          44.000    36810290.584   148219786.532         174.093          46.000  
C37  22630787.944   117844452.335        2554.913          46.000                                                                  
> 2025 10 27 02 58 26.9960000  0 18                     
G12  20685731.746   108704256.307         573.364          46.000    20685720.592    84704569.539         446.691          42.000  
G15  23542408.303   123716198.328       -3302.359          35.000    23542406.231    96402289.053       -2573.910          32.000  
G18  23905711.893                       -3631.836          32.000    23905712.066    97889854.702       -2829.993          41.000  
G23  19457445.918   102249557.945       -2353.287          46.000    19457434.213    79674904.431       -1833.706          47.000  
G24  21244751.410   111641914.430       -3457.600          28.000    21244735.317                       -2694.233          27.000  
G32  20766996.070   109131297.209        1449.998          45.000    20766985.877    85037339.622        1129.957          42.000  
C08  34745180.151   180927245.904        -420.502          46.000    34745159.615   139904343.663        -325.171          48.000  
C13  34719030.713   180791079.474        -113.153          48.000    34719018.070   139799084.065         -87.585          48.000  
C16  35674214.745   185764985.546         -52.169          48.000    35674200.754   143645221.830         -40.317          47.000  
C25  22496757.797   117146531.680       -2707.074          33.000                                                                  
C32  20977255.331   109234055.236         745.690          51.000                                                                  
C06  35350998.210   184081913.394         125.536          46.000    35350978.342   142343742.558          97.125          45.000  
G25  20275217.324   106547002.912        2340.742          42.000    20275209.402    83023597.044        1823.687          41.000  
G10  19430199.691   102106388.568         778.710          50.000    19430188.975    79563373.199         606.773          46.000  
G28  21808419.649   114604017.595        2443.837          42.000    21808409.096    89301805.898        1904.441          41.000  
C23  20714357.359   107865071.036           9.693          50.000                                                                  
C09  36810305.184   191680895.550         225.344          44.000    36810288.866   148219779.564         174.131          46.000  
C37  22630768.311   117844350.132        2554.956          46.000                                                                  
> 2025 10 27 02 58 27.0360000  0 18                     
G12  20685727.382   108704233.376         573.227          46.000    20685716.248    84704551.653         447.001          42.000  
G15  23542433.407   123716330.355       -3301.235          35.000    23542431.363    96402391.963       -2573.321          32.000  
G18  23905739.533                       -3632.333          32.000    23905739.716    97889967.908       -2830.096          41.000  
G23  19457463.845   102249652.072       -2353.280          46.000    19457452.142    79674977.782       -1833.829          47.000  
G24  21244777.722   111642052.723       -3457.493          28.000    21244761.560                       -2694.074          27.000  
G32  20766985.052   109131239.217        1449.849          45.000    20766974.846    85037294.435        1129.796          42.000  
C08  34745183.367   180927262.721        -420.459          46.000    34745162.843   139904356.667        -325.116          48.000  
C13  34719031.576   180791084.007        -113.300          48.000    34719018.927   139799087.572         -87.701          48.000  
C16  35674215.189   185764987.635         -52.242          48.000    35674201.149   143645223.446         -40.411          47.000  
C25  22496778.613   117146639.944       -2706.836          33.000                                                                  
C32  20977249.606   109234025.408         745.664          51.000                                                                  
C06  35350997.253   184081908.378         125.411          46.000    35350977.359   142343738.671          97.173          45.000  
G25  20275199.495   106546909.275        2340.850          42.000    20275191.602    83023524.093        1823.733          41.000  
G10  19430193.784   102106357.425         778.550          50.000    19430183.033    79563348.929         606.749          46.000  
G28  21808401.050   114603919.846        2443.725          42.000    21808390.509    89301729.726        1904.364          41.000  
C23  20714357.248   107865070.655           9.546          50.000                                                                  
C09  36810303.437   191680886.539         225.279          44.000    36810287.111   148219772.594         174.193          46.000  
C37  22630748.673   117844247.927        2555.005          46.000                                                                  
> 2025 10 27 02 58 27.0760000  0 18                     
G12  20685723.010   108704210.440         573.287          46.000    20685711.861    84704533.772         447.040          42.000  
G15  23542458.542   123716462.449       -3301.888          35.000    23542456.473    96402494.841       -2572.544          32.000  
G18  23905767.214                       -3632.293          32.000    23905767.364    97890081.122       -2830.294          41.000  
G23  19457481.767   102249746.207       -2353.434          46.000    19457470.045    79675051.129       -1833.797          47.000  
G24  21244804.033   111642191.009       -3457.286          28.000    21244788.046                       -2694.353          27.000  
G32  20766974.037   109131181.229        1449.703          45.000    20766963.812    85037249.252        1129.591          42.000  
C08  34745186.605   180927279.544        -420.563          46.000    34745166.067   139904369.673        -325.183          48.000  
C13  34719032.416   180791088.544        -113.416          48.000    34719019.775   139799091.078         -87.738          48.000  
C16  35674215.602   185764989.725         -52.280          48.000    35674201.528   143645225.065         -40.520          47.000  
C25  22496799.407   117146748.265       -2707.813          33.000                                                                  
C32  20977243.847   109233995.586         745.544          51.000                                                                  
C06  35350996.319   184081903.369         125.182          46.000    35350976.400   142343734.794          96.984          45.000  
G25  20275181.691   106546815.656        2340.588          42.000    20275173.775    83023451.130        1823.975          41.000  
G10  19430187.883   102106326.285         778.446          50.000    19430177.111    79563324.671         606.453          46.000  
G28  21808382.456   114603822.111        2443.439          42.000    21808371.905    89301653.555        1904.307          41.000  
C23  20714357.148   107865070.279           9.388          50.000                                                                  
C09  36810301.692   191680877.540         225.028          44.000    36810285.378   148219765.635         174.011          46.000  
C37  22630729.008   117844145.725        2554.999          46.000                                                                  
> 2025 10 27 02 58 27.1160000  0 18                     
G12  20685718.649   108704187.506         573.324          46.000    20685707.496    84704515.916         446.586          42.000  
G15  23542483.705   123716594.574       -3302.812          35.000    23542481.622    96402597.753       -2572.533          32.000  
G18  23905794.842   125625788.678       -3632.229          32.000    23905794.997    97890194.323       -2830.154          41.000  
G23  19457499.648   102249840.334       -2353.353          46.000    19457487.984    79675124.474       -1833.716          47.000  
G24  21244830.330   111642329.310       -3457.376          28.000    21244814.195                       -2694.338          27.000  
G32  20766962.971   109131123.226        1449.928          45.000    20766952.756    85037204.055        1129.725          42.000  
C08  34745189.874   180927296.361        -420.496          46.000    34745169.272   139904382.680        -325.201          48.000  
C13  34719033.302   180791093.074        -113.361          48.000    34719020.641   139799094.576         -87.555          48.000  
C16  35674216.057   185764991.814         -52.290          48.000    35674201.949   143645226.677         -40.438          47.000  
C25  22496820.216   117146856.523       -2707.092          33.000                                                                  
C32  20977238.139   109233965.757         745.612          51.000                                                                  
C06  35350995.380   184081898.350         125.319          46.000    35350975.462   142343730.913          96.975          45.000  
G25  20275163.879   106546722.046        2340.306          42.000    20275155.964    83023378.173        1823.961          41.000  
G10  19430181.963   102106295.142         778.496          50.000    19430171.176    79563300.404         606.529          46.000  
G28  21808363.839   114603724.372        2443.387          42.000    21808353.299    89301577.399        1903.942          41.000  
C23  20714357.080   107865069.902           9.329          50.000                                                                  
C09  36810299.981   191680868.539         224.942          44.000    36810283.666   148219758.663         174.163          46.000  
C37  22630709.394   117844043.529        2554.895          46.000                                                                  
> 2025 10 27 02 58 27.1560000  0 18                     
G12  20685714.312   108704164.567         573.445          46.000    20685703.109    84704498.050         446.521          42.000  
G15  23542508.849   123716726.691       -3302.993          35.000    23542506.736    96402700.709       -2573.452          32.000  
G18  23905822.461   125625933.921       -3631.313          32.000    23905822.651    97890307.523       -2830.064          41.000  
G23  19457517.555   102249934.461       -2353.260          46.000    19457505.907    79675197.821       -1833.704          47.000  
G24  21244856.650   111642467.675       -3458.227          28.000    21244840.663                       -2694.514          27.000  
G32  20766951.915   109131065.228        1449.960          45.000    20766941.717    85037158.868        1129.654          42.000  
C08  34745193.140   180927313.173        -420.343          46.000    34745172.499   139904395.687        -325.220          48.000  
C13  34719034.159   180791097.602        -113.257          48.000    34719021.505   139799098.072         -87.445          48.000  
C16  35674216.490   185764993.896         -52.126          48.000    35674202.370   143645228.290         -40.397          47.000  
C25  22496841.000   117146964.776       -2706.415          33.000                                                                  
C32  20977232.406   109233935.931         745.626          51.000                                                                  
C06  35350994.413   184081893.319         125.612          46.000    35350974.483   142343727.026          97.097          45.000  
G25  20275146.061   106546628.418        2340.453          42.000    20275138.128    83023305.194        1824.346          41.000  
G10  19430176.016   102106263.995         778.589          50.000    19430165.230    79563276.133         606.677          46.000  
G28  21808345.249   114603626.620        2443.635          42.000    21808334.673    89301501.211        1904.379          41.000  
C23  20714357.024   107865069.514           9.534          50.000                                                                  
C09  36810298.242   191680859.530         225.063          44.000    36810281.924   148219751.694         174.167          46.000  
C37  22630689.765   117843941.328        2554.938          46.000                                                                  
> 2025 10 27 02 58 27.1960000  0 18                     
G12  20685709.964   108704141.628         573.513          46.000    20685698.737    84704480.175         446.693          42.000  
G15  23542533.980   123716858.733       -3301.864          35.000    23542531.876    96402803.621       -2573.149          32.000  
G18  23905850.061   125626079.178       -3631.243          32.000    23905850.287    97890420.729       -2830.179          41.000  
G23  19457535.466   102250028.587       -2353.192          46.000    19457523.829    79675271.174       -1833.809          47.000  
G24  21244882.984   111642605.988       -3458.184          28.000    21244867.033                       -2694.958          27.000  
G32  20766940.885   109131007.235        1449.840          45.000    20766930.676    85037113.673        1129.772          42.000  
C08  34745196.358   180927329.994        -420.459          46.000    34745175.739   139904408.692        -325.195          48.000  
C13  34719035.003   180791102.125        -113.141          48.000    34719022.410   139799101.571         -87.445          48.000  
C16  35674216.916   185764995.981         -52.130          48.000    35674202.778   143645229.898         -40.300          47.000  
C25  22496861.777   117147073.064       -2706.848          33.000                                                                  
C32  20977226.698   109233906.099         745.722          51.000                                                                  
C06  35350993.478   184081888.295         125.652          46.000    35350973.484   142343723.139          97.162          45.000  
G25  20275128.252   106546534.795        2340.466          42.000    20275120.314    83023232.263        1823.691          41.000  
G10  19430170.082   102106232.851         778.582          50.000    19430159.301    79563251.865         606.733          46.000  
G28  21808326.658   114603528.860        2443.911          42.000    21808316.075    89301425.052        1904.108          41.000  
C23  20714356.998   107865069.126           9.655          50.000                                                                  
C09  36810296.508   191680850.522         225.114          44.000    36810280.218   148219744.734         174.023          46.000  
C37  22630670.142   117843839.115        2555.194          46.000                                                                  
> 2025 10 27 02 58 27.2360000  0 18                     
G12  20685705.600   108704118.698         573.367          46.000    20685694.410    84704462.306         446.673          42.000  
G15  23542559.114   123716990.806       -3301.800          35.000    23542556.991    96402906.586       -2573.847          32.000  
G18  23905877.694   125626224.461       -3631.749          32.000    23905877.943    97890533.933       -2830.184          41.000  
G23  19457553.368   102250122.715       -2353.167          46.000    19457541.742    79675344.523       -1833.809          47.000  
G24  21244909.301   111642744.321       -3458.382          28.000    21244893.563                       -2694.728          27.000  
G32  20766929.836   109130949.240        1449.842          45.000    20766919.639    85037068.481        1129.770          42.000  
C08  34745199.557   180927346.816        -420.544          46.000    34745178.956   139904421.700        -325.226          48.000  
C13  34719035.861   180791106.657        -113.232          48.000    34719023.263   139799105.078         -87.640          48.000  
C16  35674217.325   185764998.066         -52.111          48.000    35674203.192   143645231.515         -40.374          47.000  
C25  22496882.592   117147181.364       -2707.275          33.000                                                                  
C32  20977220.943   109233876.274         745.651          51.000                                                                  
C06  35350992.536   184081883.267         125.734          46.000    35350972.517   142343719.271          96.862          45.000  
G25  20275110.456   106546441.178        2340.369          42.000    20275102.504    83023159.321        1823.510          41.000  
G10  19430164.156   102106201.706         778.601          50.000    19430153.392    79563227.600         606.615          46.000  
G28  21808308.062   114603431.109        2443.889          42.000    21808297.476    89301348.882        1904.146          41.000  
C23  20714356.888   107865068.750           9.504          50.000                                                                  
C09  36810294.781   191680841.513         225.145          44.000    36810278.496   148219737.776         173.919          46.000  
C37  22630650.480   117843736.915        2555.090          46.000                                                                  
> 2025 10 27 02 58 27.2760000  0 18                     
G12  20685701.238   108704095.766         573.309          46.000    20685690.027    84704444.431         446.757          42.000  
G15  23542584.273   123717122.910       -3302.304          35.000    23542582.115    96403009.482       -2572.983          32.000  
G18  23905905.368   125626369.746       -3632.104          32.000    23905905.583    97890647.132       -2830.065          41.000  
G23  19457571.270   102250216.847       -2353.248          46.000    19457559.662    79675417.866       -1833.661          47.000  
G24  21244935.644                       -3457.848          28.000    21244919.678                       -2694.217          27.000  
G32  20766918.784   109130891.242        1449.895          45.000    20766908.595    85037023.285        1129.841          42.000  
C08  34745202.799   180927363.633        -420.453          46.000    34745182.188   139904434.700        -325.085          48.000  
C13  34719036.739   180791111.189        -113.300          48.000    34719024.147   139799108.582         -87.646          48.000  
C16  35674217.722   185765000.154         -52.177          48.000    35674203.630   143645233.129         -40.386          47.000  
C25  22496903.380   117147289.652       -2707.251          33.000                                                                  
C32  20977215.236   109233846.446         745.663          51.000                                                                  
C06  35350991.571   184081878.249         125.548          46.000    35350971.560   142343715.386          97.007          45.000  
G25  20275092.636   106546347.553        2340.471          42.000    20275084.675    83023086.371        1823.566          41.000  
G10  19430158.227   102106170.562         778.594          50.000    19430147.446    79563203.332         606.652          46.000  
G28  21808289.466   114603333.353        2443.917          42.000    21808278.870    89301272.711        1904.197          41.000  
C23  20714356.845   107865068.366           9.530          50.000                                                                  
C09  36810293.050   191680832.496         225.340          44.000    36810276.783   148219730.809         174.072          46.000  
C37  22630630.861   117843634.715        2555.023          46.000                                                                  
> 2025 10 27 02 58 27.3160000  0 18                     
G12  20685696.871   108704072.834         573.305          46.000    20685685.666    84704426.566         446.630          42.000  
G15  23542609.416   123717255.025       -3302.869          35.000    23542607.270    96403112.411       -2573.064          32.000  
G18  23905933.024   125626515.031       -3632.132          32.000    23905933.235    97890760.330       -2829.942          41.000  
G23  19457589.217   102250310.982       -2353.353          46.000    19457577.596    79675491.212       -1833.692          47.000  
G24  21244961.939                       -3458.025          28.000    21244946.076                       -2693.289          27.000  
G32  20766907.763   109130833.243        1449.946          45.000    20766897.570    85036978.093        1129.786          42.000  
C08  34745206.009   180927380.455        -420.502          46.000    34745185.384   139904447.697        -324.945          48.000  
C13  34719037.593   180791115.714        -113.196          48.000    34719025.035   139799112.079         -87.518          48.000  
C16  35674218.145   185765002.242         -52.196          48.000    35674204.049   143645234.742         -40.360          47.000  
C25  22496924.193   117147397.924       -2706.861          33.000                                                                  
C32  20977209.516   109233816.614         745.740          51.000                                                                  
C06  35350990.615   184081873.230         125.455          46.000    35350970.558   142343711.499          97.125          45.000  
G25  20275074.797   106546253.933        2340.487          42.000    20275066.844    83023013.420        1823.651          41.000  
G10  19430152.322   102106139.423         778.490          50.000    19430141.514    79563179.061         606.745          46.000  
G28  21808270.870   114603235.606        2443.765          42.000    21808260.271    89301196.549        1904.072          41.000  
C23  20714356.764   107865067.983           9.549          50.000                                                                  
C09  36810291.352   191680823.482         225.382          44.000    36810275.049   148219723.835         174.279          46.000  
C37  22630611.240   117843532.505        2555.170          46.000                                                                  
> 2025 10 27 02 58 27.3560000  0 18                     
G12  20685692.505   108704049.902         573.280          46.000    20685681.309    84704408.686         446.869          42.000  
G15  23542634.522   123717387.053       -3301.541          35.000    23542632.398    96403215.312       -2572.685          32.000  
G18  23905960.667   125626660.299       -3631.991          32.000    23905960.886    97890873.510       -2829.578          41.000  
G23  19457607.141   102250405.113       -2353.352          46.000    19457595.499    79675564.552       -1833.563          47.000  
G24  21244988.266                       -3457.666          28.000    21244972.308                       -2693.713          27.000  
G32  20766896.746   109130775.245        1449.951          45.000    20766886.538    85036932.900        1129.807          42.000  
C08  34745209.269   180927397.271        -420.435          46.000    34745188.611   139904460.699        -324.982          48.000  
C13  34719038.460   180791120.239        -113.141          48.000    34719025.928   139799115.582         -87.561          48.000  
C16  35674218.570   185765004.320         -52.046          48.000    35674204.447   143645236.347         -40.183          47.000  
C25  22496945.004   117147506.173       -2706.311          33.000                                                                  
C32  20977203.790   109233786.782         745.778          51.000                                                                  
C06  35350989.669   184081868.198         125.663          46.000    35350969.586   142343707.606          97.279          45.000  
G25  20275056.974   106546160.295        2340.781          42.000    20275049.009    83022940.465        1823.782          41.000  
G10  19430146.392   102106108.278         778.539          50.000    19430135.567    79563154.796         606.633          46.000  
G28  21808252.279   114603137.854        2443.786          42.000    21808241.691    89301120.403        1903.728          41.000  
C23  20714356.710   107865067.599           9.541          50.000                                                                  
C09  36810289.634   191680814.471         225.323          44.000    36810273.298   148219716.863         174.313          46.000  
C37  22630591.605   117843430.297        2555.182          46.000                                                                  
> 2025 10 27 02 58 27.3960000  0 18                     
G12  20685688.148   108704026.972         573.249          46.000    20685676.939    84704390.833         446.494          42.000  
G15  23542659.642   123717519.104       -3301.198          35.000    23542657.511    96403318.227       -2572.765          32.000  
G18  23905988.348   125626805.577       -3632.078          32.000    23905988.524    97890986.717       -2829.951          41.000  
G23  19457625.062   102250499.252       -2353.494          46.000    19457613.378    79675637.909       -1833.834          47.000  
G24  21245014.608                       -3457.699          28.000    21244998.704                       -2694.006          27.000  
G32  20766885.699   109130717.251        1449.865          45.000    20766875.506    85036887.713        1129.691          42.000  
C08  34745212.514   180927414.091        -420.508          46.000    34745191.842   139904473.705        -325.128          48.000  
C13  34719039.323   180791124.766        -113.196          48.000    34719026.819   139799119.083         -87.555          48.000  
C16  35674218.983   185765006.401         -52.009          48.000    35674204.861   143645237.960         -40.260          47.000  
C25  22496965.788   117147614.482       -2707.434          33.000                                                                  
C32  20977198.036   109233756.957         745.679          51.000                                                                  
C06  35350988.670   184081863.184         125.443          46.000    35350968.612   142343703.722          97.180          45.000  
G25  20275039.144   106546066.671        2340.715          42.000    20275031.187    83022867.498        1824.077          41.000  
G10  19430140.498   102106077.142         778.422          50.000    19430129.639    79563130.539         606.455          46.000  
G28  21808233.656   114603040.105        2443.741          42.000    21808223.083    89301044.234        1903.997          41.000  
C23  20714356.614   107865067.221           9.470          50.000                                                                  
C09  36810287.879   191680805.478         224.933          44.000    36810271.566   148219709.892         174.312          46.000  
C37  22630571.966   117843328.100        2554.913          46.000                                                                  
> 2025 10 27 02 58 27.4360000  0 18                     
G12  20685683.783   108704004.050         573.094          46.000    20685672.567    84704372.963         446.598          42.000  
G15  23542684.762   123717651.209       -3301.855          35.000    23542682.632    96403421.175       -2573.401          32.000  
G18  23906015.978   125626950.853       -3631.995          32.000    23906016.178    97891099.915       -2829.914          41.000  
G23  19457642.981   102250593.383       -2353.388          46.000    19457631.305    79675711.268       -1834.013          47.000  
G24  21245040.884                       -3458.236          28.000    21245025.309                       -2693.974          27.000  
G32  20766874.659   109130659.260        1449.775          45.000    20766864.463    85036842.521        1129.745          42.000  
C08  34745215.736   180927430.917        -420.630          46.000    34745195.057   139904486.710        -325.165          48.000  
C13  34719040.192   180791129.304        -113.409          48.000    34719027.751   139799122.588         -87.616          48.000  
C16  35674219.382   185765008.493         -52.208          48.000    35674205.256   143645239.575         -40.340          47.000  
C25  22496986.632   117147722.749       -2707.074          33.000                                                                  
C32  20977192.256   109233727.133         745.590          51.000                                                                  
C06  35350987.695   184081858.169         125.371          46.000    35350967.654   142343699.847          96.968          45.000  
G25  20275021.356   106545973.063        2340.385          42.000    20275013.377    83022794.552        1823.843          41.000  
G10  19430134.597   102106046.014         778.213          50.000    19430123.694    79563106.271         606.592          46.000  
G28  21808215.062   114602942.360        2443.628          42.000    21808204.467    89300968.054        1904.380          41.000  
C23  20714356.560   107865066.847           9.337          50.000                                                                  
C09  36810286.133   191680796.481         224.850          44.000    36810269.825   148219702.944         173.839          46.000  
C37  22630552.324   117843225.912        2554.657          46.000                                                                  
> 2025 10 27 02 58 27.4760000  0 18                     
G12  20685679.421   108703981.123         573.126          46.000    20685668.198    84704355.094         446.665          42.000  
G15  23542709.931   123717783.333       -3302.706          34.000    23542707.757    96403524.085       -2573.053          32.000  
G18  23906043.615   125627096.112       -3631.762          32.000    23906043.835    97891213.106       -2829.825          41.000  
G23  19457660.894   102250687.521       -2353.444          46.000    19457649.214    79675784.616       -1833.876          47.000  
G24  21245067.209                       -3458.076          28.000    21245051.654                       -2694.566          27.000  
G32  20766863.599   109130601.256        1449.959          45.000    20766853.442    85036797.312        1130.089          42.000  
C08  34745218.961   180927447.732        -420.502          46.000    34745198.293   139904499.719        -325.244          48.000  
C13  34719041.077   180791133.836        -113.409          48.000    34719028.636   139799126.091         -87.610          48.000  
C16  35674219.791   185765010.581         -52.259          48.000    35674205.667   143645241.188         -40.372          47.000  
C25  22497007.433   117147831.056       -2707.593          33.000                                                                  
C32  20977186.522   109233697.315         745.450          51.000                                                                  
C06  35350986.738   184081853.141         125.565          46.000    35350966.668   142343695.967          96.942          45.000  
G25  20275003.536   106545879.444        2340.420          42.000    20274995.559    83022721.606        1823.711          41.000  
G10  19430128.688   102106014.875         778.319          50.000    19430117.766    79563082.000         606.727          46.000  
G28  21808196.489   114602844.619        2443.466          42.000    21808185.865    89300891.869        1904.685          41.000  
C23  20714356.488   107865066.471           9.342          50.000                                                                  
C09  36810284.404   191680787.475         225.010          44.000    36810268.109   148219695.993         173.693          46.000  
C37  22630532.695   117843123.719        2554.669          46.000                                                                  
> 2025 10 27 02 58 27.5160000  0 18                     
G12  20685675.068   108703958.197         573.121          46.000    20685663.818    84704337.224         446.745          42.000  
G15  23542735.065   123717915.417       -3302.439          35.000    23542732.887    96403627.037       -2573.482          32.000  
G18  23906071.274   125627241.399       -3632.054          32.000    23906071.501    97891326.318       -2830.137          41.000  
G23  19457678.792   102250781.652       -2353.333          46.000    19457667.130    79675857.969       -1833.869          47.000  
G24  21245093.518                       -3458.124          28.000    21245077.697                       -2694.412          27.000  
G32  20766852.539   109130543.260        1449.926          45.000    20766842.426    85036752.128        1129.823          42.000  
C08  34745222.183   180927464.549        -420.483          46.000    34745201.485   139904512.725        -325.214          48.000  
C13  34719041.972   180791138.364        -113.293          48.000    34719029.512   139799129.597         -87.646          48.000  
C16  35674220.219   185765012.663         -52.129          48.000    35674206.058   143645242.795         -40.272          47.000  
C25  22497028.251   117147939.323       -2707.062          33.000                                                                  
C32  20977180.810   109233667.485         745.623          51.000                                                                  
C06  35350985.764   184081848.119         125.569          46.000    35350965.721   142343692.090          96.892          45.000  
G25  20274985.706   106545785.818        2340.533          42.000    20274977.751    83022648.656        1823.682          41.000  
G10  19430122.753   102105983.734         778.449          50.000    19430111.849    79563057.737         606.609          46.000  
G28  21808177.893   114602746.874        2443.527          42.000    21808167.237    89300815.697        1904.495          41.000  
C23  20714356.435   107865066.093           9.390          50.000                                                                  
C09  36810282.681   191680778.464         225.174          44.000    36810266.357   148219689.016         174.112          46.000  
C37  22630513.077   117843021.510        2555.035          46.000                                                                  
> 2025 10 27 02 58 27.5560000  0 18                     
G12  20685670.709   108703935.261         573.270          46.000    20685659.463    84704319.370         446.538          42.000  
G15  23542760.205   123718047.519       -3302.521          34.000    23542758.019    96403729.961       -2573.189          32.000  
G18  23906098.918   125627386.659       -3631.552          32.000    23906099.167    97891439.512       -2830.003          41.000  
G23  19457696.702   102250875.785       -2353.308          46.000    19457685.044    79675931.309       -1833.623          47.000  
G24  21245119.832                       -3456.990          28.000    21245104.101                       -2695.216          27.000  
G32  20766841.493   109130485.249        1450.198          45.000    20766831.399    85036706.937        1129.731          42.000  
C08  34745225.400   180927481.354        -420.294          46.000    34745204.675   139904525.728        -325.134          48.000  
C13  34719042.849   180791142.888        -113.153          48.000    34719030.352   139799133.092         -87.451          48.000  
C16  35674220.645   185765014.744         -52.047          48.000    35674206.456   143645244.404         -40.233          47.000  
C25  22497049.019   117148047.615       -2707.294          33.000                                                                  
C32  20977175.092   109233637.647         745.835          51.000                                                                  
C06  35350984.771   184081843.085         125.771          46.000    35350964.768   142343688.202          97.061          45.000  
G25  20274967.899   106545692.189        2340.685          42.000    20274959.923    83022575.702        1823.743          41.000  
G10  19430116.802   102105952.589         778.584          50.000    19430105.929    79563033.478         606.486          46.000  
G28  21808159.319   114602649.110        2443.936          42.000    21808148.624    89300739.527        1904.336          41.000  
C23  20714356.368   107865065.709           9.526          50.000                                                                  
C09  36810280.966   191680769.435         225.585          44.000    36810264.627   148219682.045         174.242          46.000  
C37  22630493.450   117842919.297        2555.322          46.000                                                                  
> 2025 10 27 02 58 27.5960000  0 18                     
G12  20685666.347   108703912.326         573.338          46.000    20685655.100    84704301.497         446.737          42.000  
G15  23542785.345   123718179.569       -3301.665          34.000    23542783.110    96403832.850       -2572.516          32.000  
G18  23906126.520   125627531.918       -3631.341          32.000    23906126.830    97891552.703       -2829.853          41.000  
G23  19457714.614   102250969.917       -2353.333          46.000    19457702.978    79676004.661       -1833.735          47.000  
G24  21245146.143                       -3457.229          28.000    21245130.376                       -2695.315          27.000  
G32  20766830.456   109130427.251        1450.088          45.000    20766820.356    85036661.735        1129.896          42.000  
C08  34745228.629   180927498.171        -420.374          46.000    34745207.917   139904538.725        -324.969          48.000  
C13  34719043.728   180791147.409        -113.025          48.000    34719031.233   139799136.587         -87.360          48.000  
C16  35674221.051   185765016.820         -51.926          48.000    35674206.854   143645246.016         -40.295          47.000  
C25  22497069.817   117148155.897       -2707.166          33.000                                                                  
C32  20977169.352   109233607.814         745.888          51.000                                                                  
C06  35350983.789   184081838.068         125.574          46.000    35350963.772   142343684.300          97.427          45.000  
G25  20274950.077   106545598.564        2340.652          42.000    20274942.114    83022502.757        1823.617          41.000  
G10  19430110.877   102105921.448         778.565          50.000    19430100.009    79563009.211         606.597          46.000  
G28  21808140.708   114602551.350        2444.096          42.000    21808130.027    89300663.369        1904.022          41.000  
C23  20714356.285   107865065.325           9.601          50.000                                                                  
C09  36810279.193   191680760.411         225.648          44.000    36810262.922   148219675.071         174.372          46.000  
C37  22630473.839   117842817.085        2555.408          46.000                                                                  
> 2025 10 27 02 58 27.6360000  0 18                     
G12  20685661.963   108703889.391         573.394          46.000    20685650.741    84704283.631         446.728          42.000  
G15  23542810.481   123718311.634       -3301.393          34.000    23542808.219    96403935.726       -2571.991          32.000  
G18  23906154.134   125627677.191       -3631.526          32.000    23906154.479    97891665.878       -2829.482          41.000  
G23  19457732.517   102251064.043       -2353.222          46.000    19457720.891    79676078.011       -1833.747          47.000  
G24  21245172.457                       -3457.095          28.000    21245156.519                       -2694.567          27.000  
G32  20766819.428   109130369.248        1450.066          45.000    20766809.329    85036616.544        1129.802          42.000  
C08  34745231.894   180927514.976        -420.215          46.000    34745211.141   139904551.725        -324.969          48.000  
C13  34719044.624   180791151.928        -112.964          48.000    34719032.109   139799140.082         -87.329          48.000  
C16  35674221.436   185765018.894         -51.847          48.000    35674207.241   143645247.625         -40.274          47.000  
C25  22497090.606   117148264.161       -2706.769          33.000                                                                  
C32  20977163.635   109233577.980         745.885          51.000                                                                  
C06  35350982.828   184081833.047         125.537          46.000    35350962.823   142343680.397          97.639          45.000  
G25  20274932.255   106545504.939        2340.679          42.000    20274924.289    83022429.805        1823.728          41.000  
G10  19430104.959   102105890.305         778.552          50.000    19430094.082    79562984.940         606.733          46.000  
G28  21808122.099   114602453.592        2444.079          42.000    21808111.412    89300587.204        1903.963          41.000  
C23  20714356.182   107865064.945           9.552          50.000                                                                  
C09  36810277.463   191680751.398         225.469          44.000    36810261.188   148219668.094         174.475          46.000  
C37  22630454.220   117842714.881        2555.243          46.000                                                                  
> 2025 10 27 02 58 27.6760000  0 18                     
G12  20685657.602   108703866.455         573.397          46.000    20685646.356    84704265.761         446.764          42.000  
G15  23542835.628   123718443.697       -3301.396          34.000    23542833.361    96404038.628       -2572.295          32.000  
G18  23906181.755   125627822.462       -3631.659          32.000    23906182.113    97891779.062       -2829.465          41.000  
G23  19457750.431   102251158.163       -2353.044          46.000    19457738.782    79676151.362       -1833.766          47.000  
G24  21245198.757                       -3457.444          28.000    21245182.778                       -2694.549          27.000  
G32  20766808.398   109130311.232        1450.297          45.000    20766798.311    85036571.347        1129.828          42.000  
C08  34745235.099   180927531.783        -420.178          46.000    34745214.409   139904564.721        -324.915          48.000  
C13  34719045.533   180791156.438        -112.756          48.000    34719032.964   139799143.574         -87.305          48.000  
C16  35674221.812   185765020.972         -51.897          48.000    35674207.632   143645249.226         -40.098          47.000  
C25  22497111.382   117148372.419       -2706.494          33.000                                                                  
C32  20977157.913   109233548.142         745.946          51.000                                                                  
C06  35350981.858   184081828.005         125.879          46.000    35350961.871   142343676.507          97.448          45.000  
G25  20274914.437   106545411.313        2340.631          42.000    20274906.480    83022356.840        1823.977          41.000  
G10  19430098.998   102105859.157         778.644          50.000    19430088.157    79562960.670         606.732          46.000  
G28  21808103.513   114602355.840        2443.919          42.000    21808092.809    89300511.039        1904.036          41.000  
C23  20714356.121   107865064.551           9.757          50.000                                                                  
C09  36810275.733   191680742.379         225.476          44.000    36810259.443   148219661.114         174.541          46.000  
C37  22630434.607   117842612.672        2555.200          46.000                                                                  
> 2025 10 27 02 58 27.7160000  0 18                     
G12  20685653.249   108703843.524         573.316          46.000    20685641.997    84704247.882         446.908          42.000  
G15  23542860.784   123718575.782       -3301.768          34.000    23542858.516    96404141.616       -2573.984          32.000  
G18  23906209.373   125627967.702       -3631.141          32.000    23906209.757    97891892.262       -2829.823          41.000  
G23  19457768.328   102251252.294       -2353.206          46.000    19457756.687    79676224.704       -1833.649          47.000  
G24  21245225.068                       -3457.269          28.000    21245209.219                       -2694.240          27.000  
G32  20766797.374   109130253.228        1450.161          45.000    20766787.288    85036526.137        1130.128          42.000  
C08  34745238.311   180927548.596        -420.288          46.000    34745217.632   139904577.717        -324.902          48.000  
C13  34719046.376   180791160.961        -112.982          48.000    34719033.831   139799147.072         -87.433          48.000  
C16  35674222.196   185765023.049         -51.926          48.000    35674208.015   143645250.827         -40.052          47.000  
C25  22497132.188   117148480.703       -2706.873          33.000                                                                  
C32  20977152.122   109233518.311         745.820          51.000                                                                  
C06  35350980.899   184081822.964         126.028          46.000    35350960.927   142343672.634          96.995          45.000  
G25  20274896.624   106545317.679        2340.758          42.000    20274888.662    83022283.874        1824.157          41.000  
G10  19430093.091   102105828.017         778.539          50.000    19430082.228    79562936.403         606.688          46.000  
G28  21808084.898   114602258.089        2443.768          42.000    21808074.227    89300434.868        1904.195          41.000  
C23  20714356.026   107865064.167           9.681          50.000                                                                  
C09  36810273.982   191680733.370         225.300          44.000    36810257.682   148219654.143         174.356          46.000  
C37  22630414.988   117842510.464        2555.164          46.000                                                                  
> 2025 10 27 02 58 27.7560000  0 18                     
G12  20685648.903   108703820.610         572.959          46.000    20685637.626    84704230.016         446.718          42.000  
G15  23542885.921   123718707.871       -3302.092          34.000    23542883.636                       -2574.566          32.000  
G18  23906237.012   125628112.946       -3630.863          32.000    23906237.408    97892005.464       -2830.030          41.000  
G23  19457786.245   102251346.433       -2353.470          46.000    19457774.604    79676298.054       -1833.717          47.000  
G24  21245251.397                       -3457.466          28.000    21245235.523                       -2694.049          27.000  
G32  20766786.352   109130195.234        1449.936          45.000    20766776.256    85036480.937        1130.082          42.000  
C08  34745241.529   180927565.417        -420.520          46.000    34745220.859   139904590.720        -325.031          48.000  
C13  34719047.231   180791165.491        -113.239          48.000    34719034.707   139799150.572         -87.531          48.000  
C16  35674222.586   185765025.138         -52.147          48.000    35674208.381   143645252.439         -40.198          47.000  
C25  22497152.987   117148588.996       -2707.257          33.000                                                                  
C32  20977146.337   109233488.486         745.646          51.000                                                                  
C06  35350979.917   184081817.944         125.701          46.000    35350960.020   142343668.749          96.965          45.000  
G25  20274878.808   106545224.061        2340.549          42.000    20274870.832    83022210.922        1823.947          41.000  
G10  19430087.193   102105796.888         778.261          50.000    19430076.313    79562912.147         606.430          46.000  
G28  21808066.294   114602160.336        2443.738          42.000    21808055.634    89300358.694        1904.326          41.000  
C23  20714355.933   107865063.796           9.402          50.000                                                                  
C09  36810272.232   191680724.368         225.062          44.000    36810255.948   148219647.179         174.110          46.000  
C37  22630395.378   117842408.269        2554.932          46.000                                                                  
> 2025 10 27 02 58 27.7960000  0 18                     
G12  20685644.532   108703797.684         573.007          46.000    20685633.262    84704212.167         446.336          42.000  
G15  23542911.073   123718839.951       -3302.091          34.000    23542908.783                       -2573.498          32.000  
G18  23906264.637   125628258.192       -3630.856          32.000    23906265.036    97892118.667       -2830.155          41.000  
G23  19457804.173   102251440.572       -2353.562          46.000    19457792.541    79676371.409       -1833.834          47.000  
G24  21245277.751                       -3457.346          28.000    21245261.824                       -2694.034          27.000  
G32  20766775.298   109130137.235        1449.889          45.000    20766765.218    85036435.746        1129.859          42.000  
C08  34745244.764   180927582.238        -420.618          46.000    34745224.099   139904603.727        -325.189          48.000  
C13  34719048.089   180791170.023        -113.379          48.000    34719035.571   139799154.077         -87.671          48.000  
C16  35674222.971   185765027.223         -52.206          48.000    35674208.747   143645254.050         -40.282          47.000  
C25  22497173.766   117148697.274       -2707.068          33.000                                                                  
C32  20977140.569   109233458.665         745.508          51.000                                                                  
C06  35350978.965   184081812.915         125.685          46.000    35350959.071   142343664.869          96.915          45.000  
G25  20274861.007   106545130.453        2340.237          42.000    20274853.032    83022137.979        1823.719          41.000  
G10  19430081.239   102105765.752         778.250          50.000    19430070.378    79562887.885         606.431          46.000  
G28  21808047.694   114602062.588        2443.684          42.000    21808037.016    89300282.522        1904.336          41.000  
C23  20714355.842   107865063.425           9.253          50.000                                                                  
C09  36810270.497   191680715.352         225.223          44.000    36810254.196   148219640.215         174.032          46.000  
C37  22630375.741   117842306.067        2554.956          46.000                                                                  
> 2025 10 27 02 58 27.8360000  0 18                     
G12  20685640.175   108703774.761         573.006          46.000    20685628.917    84704194.305         446.360          42.000  
G15  23542936.241   123718972.036       -3302.108          34.000    23542933.873                       -2572.363          32.000  
G18  23906292.291   125628403.487       -3631.919          32.000    23906292.656    97892231.858       -2829.985          41.000  
G23  19457822.082   102251534.718       -2353.684          46.000    19457810.468    79676444.770       -1834.030          47.000  
G24  21245304.078                       -3457.409          28.000    21245288.048                       -2693.866          27.000  
G32  20766764.270   109130079.246        1449.705          45.000    20766754.199    85036390.558        1129.680          42.000  
C08  34745248.027   180927599.058        -420.612          46.000    34745227.317   139904616.739        -325.317          48.000  
C13  34719048.955   180791174.558        -113.470          48.000    34719036.433   139799157.583         -87.744          48.000  
C16  35674223.355   185765029.301         -52.071          48.000    35674209.147   143645255.665         -40.403          47.000  
C25  22497194.552   117148805.563       -2707.208          33.000                                                                  
C32  20977134.841   109233428.844         745.436          51.000                                                                  
C06  35350978.026   184081807.903         125.378          46.000    35350958.118   142343660.992          96.821          45.000  
G25  20274843.199   106545036.836        2340.226          42.000    20274835.213    83022065.029        1823.650          41.000  
G10  19430075.296   102105734.620         778.220          50.000    19430064.445    79562863.626         606.419          46.000  
G28  21808029.080   114601964.841        2443.622          42.000    21808018.416    89300206.346        1904.403          41.000  
C23  20714355.773   107865063.057           9.131          50.000                                                                  
C09  36810268.758   191680706.348         225.123          44.000    36810252.459   148219633.252         173.972          46.000  
C37  22630356.114   117842203.865        2554.980          46.000                                                                  
> 2025 10 27 02 58 27.8760000  0 18                     
G12  20685635.832   108703751.848         572.847          46.000    20685624.551    84704176.436         446.522          42.000  
G15  23542961.368   123719104.107       -3301.953          34.000    23542958.979                       -2572.531          32.000  
G18  23906319.923   125628548.813       -3633.062          32.000    23906320.299    97892345.047       -2829.762          41.000  
G23  19457839.982   102251628.857       -2353.596          46.000    19457828.387    79676518.125       -1833.955          46.000  
G24  21245330.416                       -3458.001          28.000    21245314.472                       -2693.352          27.000  
G32  20766753.238   109130021.250        1449.750          45.000    20766743.166    85036345.365        1129.679          42.000  
C08  34745251.274   180927615.874        -420.471          46.000    34745230.571   139904629.747        -325.269          48.000  
C13  34719049.834   180791179.090        -113.422          48.000    34719037.285   139799161.087         -87.701          48.000  
C16  35674223.755   185765031.384         -52.064          48.000    35674209.539   143645257.283         -40.489          47.000  
C25  22497215.346   117148913.810       -2706.427          33.000                                                                  
C32  20977129.137   109233399.016         745.564          51.000                                                                  
C06  35350977.075   184081802.888         125.298          46.000    35350957.175   142343657.104          97.012          45.000  
G25  20274825.380   106544943.219        2340.266          42.000    20274817.436    83021992.088        1823.522          41.000  
G10  19430069.352   102105703.491         778.153          50.000    19430058.511    79562839.369         606.389          46.000  
G28  21808010.483   114601867.099        2443.549          42.000    21807999.794    89300130.182        1904.176          41.000  
C23  20714355.718   107865062.689           9.098          50.000                                                                  
C09  36810267.038   191680697.335         225.244          44.000    36810250.743   148219626.281         174.113          46.000  
C37  22630336.481   117842101.669        2554.883          46.000                                                                  
> 2025 10 27 02 58 27.9160000  0 18                     
G12  20685631.455   108703728.923         572.962          46.000    20685620.175    84704158.585         446.334          42.000  
G15  23542986.506   123719236.182       -3301.924          34.000    23542984.115                       -2572.289          32.000  
G18  23906347.576   125628694.076       -3632.129          32.000    23906347.935    97892458.235       -2829.664          41.000  
G23  19457857.886   102251722.998       -2353.540          46.000    19457846.290    79676591.483       -1833.967          47.000  
G24  21245356.716                       -3457.928          28.000    21245340.672                       -2693.289          27.000  
G32  20766742.196   109129963.242        1450.046          45.000    20766732.146    85036300.178        1129.585          42.000  
C08  34745254.459   180927632.688        -420.386          46.000    34745233.811   139904642.748        -325.116          48.000  
C13  34719050.678   180791183.613        -113.184          48.000    34719038.134   139799164.591         -87.677          48.000  
C16  35674224.150   185765033.469         -52.103          48.000    35674209.941   143645258.889         -40.293          47.000  
C25  22497236.140   117149022.103       -2707.013          33.000                                                                  
C32  20977123.427   109233369.188         745.636          51.000                                                                  
C06  35350976.132   184081797.863         125.446          46.000    35350956.208   142343653.212          97.201          45.000  
G25  20274807.557   106544849.594        2340.461          42.000    20274799.648    83021919.133        1823.698          41.000  
G10  19430063.407   102105672.359         778.197          50.000    19430052.588    79562815.111         606.389          46.000  
G28  21807991.861   114601769.357        2443.526          42.000    21807981.165    89300054.009        1904.239          41.000  
C23  20714355.655   107865062.311           9.282          50.000                                                                  
C09  36810265.310   191680688.316         225.420          44.000    36810248.991   148219619.314         174.125          46.000  
C37  22630316.867   117841999.469        2554.926          46.000                                                                  
