     3.04           OBSERVATION DATA    M: Mixed            RINEX VERSION / TYPE
RTKCONV 2.4.3 b34                       20251030 063648 UTC PGM / RUN BY / DATE 
format: u-blox UBX                                          COMMENT             
log: D:\GPdata\10_30\arounds_10_30_1.ubx                    COMMENT             
                                                            MARKER NAME         
                                                            MARKER NUMBER       
                                                            MARKER TYPE         
                                                            OBSERVER / AGENCY   
                                                            REC # / TYPE / VERS 
                                                            ANT # / TYPE        
        0.0000        0.0000        0.0000                  APPROX POSITION XYZ 
        0.0000        0.0000        0.0000                  ANTENNA: DELTA H/E/N
G    8 C1C L1C D1C S1C C2L L2L D2L S2L                      SYS / # / OBS TYPES 
C    8 C2I L2I D2I S2I C7I L7I D7I S7I                      SYS / # / OBS TYPES 
  2025    10    30    06    09   17.7600000     GPS         TIME OF FIRST OBS   
  2025    10    30    06    10   09.7600000     GPS         TIME OF LAST OBS    
G L1C                                                       SYS / PHASE SHIFT   
G L2L  0.00000                                              SYS / PHASE SHIFT   
C L2I                                                       SYS / PHASE SHIFT   
C L7I                                                       SYS / PHASE SHIFT   
  0                                                         GLONASS SLOT / FRQ #
 C1C    0.000 C1P    0.000 C2C    0.000 C2P    0.000        GLONASS COD/PHS/BIS 
                                                            END OF HEADER       
> 2025 10 30 06 09 17.7600000  0 21                     
G32  21674949.748   113902629.5211      -2632.329          47.000    21674943.005    88755268.8251      -2051.148          43.000  
G29  23025401.034   120999303.0031       -173.741          43.000    23025393.477    94285139.0231       -135.366          43.000  
G28  21113991.302   110954771.5561      -1042.561          46.000    21113980.757    86458222.5761       -812.360          47.000  
G26  20452309.065   107477609.8401       1043.958          47.000    20452302.304    83748762.2941        813.372          46.000  
G31  20653751.630   108536195.8591        333.380          47.000    20653740.770    84573614.5611        259.808          45.000  
C33  22440891.082   116855609.1741       -316.772          49.000                                                                  
C06  36551404.952   190332756.2891       -186.425          46.000    36551387.266   147177289.3621       -144.199          47.000  
C14  22408011.652   116684390.9381      -1938.203          47.000    22407996.689    90227715.1391      -1498.724          51.000  
C16  36975002.998   192538539.8781       -224.080          47.000    36974990.760   148882964.6551       -173.274          47.000  
C24  21744237.267   113227945.7321       -701.138          51.000                                                                  
C26  24108876.414   125541241.5871      -2529.385          44.000                                                                  
G03  22901471.623   120348042.8191        321.588          40.000    22901466.931    93777697.5151        250.865          38.000  
G16  22815525.909   119896399.4141       3195.960          40.000                                                                  
C09  37704108.402   196335186.6921       -177.360          43.000    37704094.090   151818762.4471       -137.345          46.000  
C25  23854879.705   124218623.8071       1704.401          42.000                                                                  
C13  38084415.014   198315544.6981      -2194.245          42.000    38084408.472   153350122.4911      -1696.853          42.000  
C08  38887642.907   202498159.7301      -2416.974          39.000    38887629.309   156584366.3661      -1868.921          43.000  
G04  24890195.143   130798859.1121       3206.621          35.000    24890193.056   101921223.4511       2498.715          37.000  
G25  23910199.519   125648945.4231      -3880.267          34.000    23910192.841    97908242.7291      -3023.541          37.000  
C10                                                                  40613389.865   163533297.2571        709.136          43.000  
C07                                                                  39701740.791   159862459.6461        863.980          42.000  
> 2025 10 30 06 09 17.8000000  0 21                     
G32  21674969.814   113902734.820       -2632.394          47.000    21674963.036    88755350.873       -2051.152          43.000  
G29  23025402.353   120999309.945        -173.585          43.000    23025394.797    94285144.428        -135.155          43.000  
G28  21113999.250   110954813.261       -1042.584          46.000    21113988.714    86458255.077        -812.427          47.000  
G26  20452301.123   107477568.091        1043.797          47.000    20452294.356    83748729.753         813.415          46.000  
G31  20653749.088   108536182.519         333.454          47.000    20653738.239    84573604.171         259.752          45.000  
C33  22440893.524   116855621.846        -316.826          49.000                                                                  
C06  36551406.375   190332763.751        -186.503          46.000    36551388.695   147177295.133        -144.261          47.000  
C14  22408026.549   116684468.467       -1938.216          47.000    22408011.599    90227775.089       -1498.744          51.000  
C16  36975004.706   192538548.839        -224.042          47.000    36974992.493   148882971.581        -173.169          47.000  
C24  21744242.656   113227973.779        -701.175          51.000                                                                  
C26  24108895.845   125541342.754       -2529.230          44.000                                                                  
G03  22901469.167   120348029.941         321.816          40.000    22901464.488    93777687.513         250.269          38.000  
G16  22815501.577   119896271.590        3195.679          40.000                                                                  
C09  37704109.769   196335193.787        -177.332          43.000    37704095.482   151818767.933        -137.237          46.000  
C25  23854866.618   124218555.629        1704.419          42.000                                                                  
C13  38084431.884   198315632.465       -2194.221          42.000    38084425.299   153350190.335       -1696.349          42.000  
C08  38887661.474   202498256.406       -2416.925          39.000    38887647.869   156584441.121       -1868.939          43.000  
G04  24890170.752   130798730.849        3206.614          35.000    24890168.620   101921123.510        2498.573          37.000  
G25  23910229.077   125649100.649       -3880.536          33.000    23910222.377    97908363.676       -3023.572          37.000  
C10                                                                  40613382.809   163533268.899         709.054          43.000  
C07                                                                  39701732.174   159862425.094         863.944          42.000  
> 2025 10 30 06 09 17.8400000  0 21                     
G32  21674989.879   113902840.128       -2632.620          47.000    21674983.085    88755432.920       -2051.167          43.000  
G29  23025403.674   120999316.901        -173.795          43.000    23025396.096    94285149.858        -135.521          43.000  
G28  21114007.192   110954854.975       -1042.772          46.000    21113996.663    86458287.575        -812.464          47.000  
G26  20452293.158   107477526.336        1043.822          47.000    20452286.422    83748697.221         813.322          46.000  
G31  20653746.536   108536169.189         333.324          47.000    20653735.711    84573593.791         259.543          45.000  
C33  22440895.962   116855634.526        -317.005          49.000                                                                  
C06  36551407.805   190332771.218        -186.661          46.000    36551390.115   147177300.905        -144.330          47.000  
C14  22408041.427   116684546.007       -1938.434          47.000    22408026.480    90227835.042       -1498.828          51.000  
C16  36975006.400   192538557.807        -224.138          47.000    36974994.220   148882978.507        -173.126          47.000  
C24  21744248.021   113228001.831        -701.246          51.000                                                                  
C26  24108915.268   125541443.930       -2529.315          44.000                                                                  
G03  22901466.711   120348017.087         321.462          40.000    22901462.051    93777677.496         250.283          38.000  
G16  22815477.237   119896143.766        3195.587          40.000                                                                  
C09  37704111.141   196335200.895        -177.543          43.000    37704096.850   151818773.428        -137.340          46.000  
C25  23854853.514   124218487.462        1704.248          42.000                                                                  
C13  38084448.721   198315720.231       -2194.203          42.000    38084442.151   153350258.196       -1696.415          42.000  
C08  38887680.038   202498353.079       -2416.840          39.000    38887666.429   156584515.876       -1868.939          43.000  
G04  24890146.355   130798602.591        3206.430          35.000    24890144.211   101921023.572        2498.490          37.000  
G25  23910258.590   125649255.873       -3880.725          33.000    23910251.914    97908484.623       -3023.663          37.000  
C10                                                                  40613375.773   163533240.546         708.887          43.000  
C07                                                                  39701723.582   159862390.553         863.666          42.000  
> 2025 10 30 06 09 17.8800000  0 21                     
G32  21675009.921   113902945.429       -2632.651          47.000    21675003.124    88755514.988       -2051.532          43.000  
G29  23025405.016   120999323.859        -173.906          43.000    23025397.418    94285155.280        -135.622          43.000  
G28  21114015.119   110954896.675       -1042.635          46.000    21114004.601    86458320.073        -812.492          47.000  
G26  20452285.207   107477484.579        1043.872          47.000    20452278.473    83748664.686         813.298          46.000  
G31  20653743.986   108536155.853         333.343          47.000    20653733.169    84573583.397         259.710          45.000  
C33  22440898.422   116855647.198        -316.885          49.000                                                                  
C06  36551409.231   190332778.674        -186.525          46.000    36551391.512   147177306.668        -144.222          47.000  
C14  22408056.331   116684623.536       -1938.362          47.000    22408041.361    90227894.994       -1498.826          51.000  
C16  36975008.111   192538566.761        -223.957          47.000    36974995.943   148882985.442        -173.284          47.000  
C24  21744253.436   113228029.876        -701.186          51.000                                                                  
C26  24108934.706   125541545.096       -2529.220          44.000                                                                  
G03  22901464.272   120348004.223         321.484          40.000    22901459.606    93777667.467         250.499          38.000  
G16  22815452.897   119896015.946        3195.496          40.000                                                                  
C09  37704112.529   196335208.003        -177.688          43.000    37704098.194   151818778.923        -137.416          46.000  
C25  23854840.439   124218419.278        1704.480          42.000                                                                  
C13  38084465.605   198315807.992       -2194.085          42.000    38084459.031   153350326.074       -1696.790          42.000  
C08  38887698.611   202498449.749       -2416.760          39.000    38887684.994   156584590.624       -1868.835          43.000  
G04  24890121.932   130798474.297        3206.952          35.000    24890119.783   101920923.601        2499.083          37.000  
G25  23910288.116   125649411.067       -3880.127          34.000    23910281.451    97908605.561       -3023.468          37.000  
C10                                                                  40613368.710   163533212.199         708.711          43.000  
C07                                                                  39701714.993   159862355.999         863.773          42.000  
> 2025 10 30 06 09 17.9200000  0 21                     
G32  21675029.947   113903050.732       -2632.661          47.000    21675023.178    88755597.047       -2051.561          43.000  
G29  23025406.348   120999330.820        -174.050          43.000    23025398.754    94285160.697        -135.583          43.000  
G28  21114023.028   110954938.378       -1042.589          46.000    21114012.540    86458352.567        -812.440          47.000  
G26  20452277.270   107477442.832        1043.718          47.000    20452270.551    83748632.154         813.255          46.000  
G31  20653741.456   108536142.514         333.454          47.000    20653730.639    84573573.002         259.852          45.000  
C33  22440900.868   116855659.871        -316.860          49.000                                                                  
C06  36551410.691   190332786.133        -186.486          46.000    36551392.927   147177312.435        -144.204          47.000  
C14  22408071.220   116684701.067       -1938.361          47.000    22408056.250    90227954.948       -1498.850          51.000  
C16  36975009.802   192538575.721        -223.955          47.000    36974997.677   148882992.373        -173.324          47.000  
C24  21744258.824   113228057.923        -701.201          51.000                                                                  
C26  24108954.114   125541646.274       -2529.383          44.000                                                                  
G03  22901461.827   120347991.357         321.555          40.000    22901457.146    93777657.440         250.573          38.000  
G16  22815428.575   119895888.125        3195.491          40.000                                                                  
C09  37704113.905   196335215.101        -177.592          43.000    37704099.560   151818784.419        -137.452          46.000  
C25  23854827.347   124218351.097        1704.547          42.000                                                                  
C13  38084482.456   198315895.762       -2194.210          42.000    38084475.892   153350393.947       -1696.881          42.000  
C08  38887717.180   202498546.432       -2417.029          39.000    38887703.555   156584665.376       -1868.787          43.000  
G04  24890097.540   130798346.017        3207.031          35.000    24890095.372   101920823.672        2498.484          37.000  
G25  23910317.632   125649566.260       -3879.797          34.000    23910310.969    97908726.483       -3023.139          37.000  
C10                                                                  40613361.688   163533183.846         708.748          43.000  
C07                                                                  39701706.402   159862321.437         863.949          42.000  
> 2025 10 30 06 09 17.9600000  0 21                     
G32  21675049.991   113903156.038       -2632.718          47.000    21675043.202    88755679.105       -2051.530          43.000  
G29  23025407.670   120999337.772        -173.934          43.000    23025400.090    94285166.124        -135.701          42.000  
G28  21114030.963   110954980.079       -1042.539          46.000    21114020.493    86458385.064        -812.453          47.000  
G26  20452269.323   107477401.080        1043.718          47.000    20452262.606    83748599.620         813.262          46.000  
G31  20653738.931   108536129.180         333.398          47.000    20653728.108    84573562.607         259.932          45.000  
C33  22440903.276   116855672.549        -316.977          48.000                                                                  
C06  36551412.091   190332793.589        -186.415          46.000    36551394.368   147177318.207        -144.270          47.000  
C14  22408086.115   116684778.593       -1938.264          47.000    22408071.136    90228014.903       -1498.881          51.000  
C16  36975011.492   192538584.681        -223.990          47.000    36974999.401   148882999.305        -173.348          47.000  
C24  21744264.217   113228085.970        -701.207          51.000                                                                  
C26  24108973.572   125541747.442       -2529.286          44.000                                                                  
G03  22901459.367   120347978.485         321.693          40.000    22901454.711    93777647.400         250.893          38.000  
G16  22815404.238   119895760.279        3195.932          40.000                                                                  
C09  37704115.263   196335222.201        -177.520          43.000    37704100.902   151818789.904        -137.260          46.000  
C25  23854814.259   124218282.911        1704.700          42.000                                                                  
C13  38084499.299   198315983.543       -2194.471          42.000    38084492.745   153350461.817       -1696.848          42.000  
C08  38887735.730   202498643.104       -2416.937          39.000    38887722.130   156584740.133       -1868.903          43.000  
G04  24890073.174   130798217.782        3206.237          35.000    24890070.957   101920723.727        2498.558          37.000  
G25  23910347.167   125649721.480       -3880.127          34.000    23910340.503    97908847.435       -3023.560          37.000  
C10                                                                  40613354.659   163533155.474         709.110          43.000  
C07                                                                  39701697.814   159862286.892         863.756          42.000  
> 2025 10 30 06 09 18.0000000  0 21                     
G32  21675070.015   113903261.335       -2632.556          47.000    21675063.232    88755761.155       -2051.376          43.000  
G29  23025409.004   120999344.721        -173.770          43.000    23025401.396    94285171.546        -135.649          42.000  
G28  21114038.909   110955021.783       -1042.588          46.000    21114028.431    86458417.553        -812.334          47.000  
G26  20452261.342   107477359.318        1043.940          47.000    20452254.659    83748567.084         813.330          46.000  
G31  20653736.386   108536115.843         333.404          47.000    20653725.591    84573552.213         259.906          45.000  
C33  22440905.704   116855685.225        -316.957          48.000                                                                  
C06  36551413.522   190332801.041        -186.313          45.000    36551395.811   147177323.967        -144.098          47.000  
C14  22408101.001   116684856.127       -1938.335          47.000    22408086.046    90228074.855       -1498.842          51.000  
C16  36975013.200   192538593.651        -224.217          47.000    36975001.113   148883006.228        -173.198          47.000  
C24  21744269.622   113228114.014        -701.134          51.000                                                                  
C26  24108993.020   125541848.607       -2529.183          44.000                                                                  
G03  22901456.925   120347965.619         321.640          40.000    22901452.277    93777637.386         250.537          38.000  
G16  22815379.912   119895632.451        3195.834          40.000                                                                  
C09  37704116.611   196335229.292        -177.351          43.000    37704102.253   151818795.382        -137.020          46.000  
C25  23854801.176   124218214.725        1704.718          42.000                                                                  
C13  38084516.138   198316071.300       -2194.196          42.000    38084509.563   153350529.671       -1696.479          42.000  
C08  38887754.304   202498739.774       -2416.803          39.000    38887740.690   156584814.888       -1868.927          43.000  
G04  24890048.742   130798089.515        3206.360          35.000    24890046.537   101920623.775        2498.731          37.000  
G25  23910376.706   125649876.648       -3879.486          33.000    23910370.045    97908968.383       -3023.724          37.000  
C10                                                                  40613347.601   163533127.115         709.041          43.000  
C07                                                                  39701689.265   159862252.328         863.959          42.000  
> 2025 10 30 06 09 18.0400000  0 21                     
G32  21675090.047   113903366.634       -2632.486          47.000    21675083.267    88755843.200       -2051.206          43.000  
G29  23025410.330   120999351.677        -173.854          43.000    23025402.703    94285176.956        -135.403          43.000  
G28  21114046.835   110955063.482       -1042.508          46.000    21114036.358    86458450.053        -812.464          47.000  
G26  20452253.379   107477317.563        1043.909          47.000    20452246.704    83748534.545         813.428          46.000  
G31  20653733.840   108536102.504         333.441          47.000    20653723.063    84573541.817         259.894          45.000  
C33  22440908.137   116855697.896        -316.852          48.000                                                                  
C06  36551414.961   190332808.492        -186.259          45.000    36551397.244   147177329.727        -144.022          47.000  
C14  22408115.900   116684933.653       -1938.206          47.000    22408100.924    90228134.803       -1498.747          51.000  
C16  36975014.976   192538602.605        -223.998          47.000    36975002.833   148883013.152        -173.102          47.000  
C24  21744274.997   113228142.058        -701.129          50.000                                                                  
C26  24109012.440   125541949.778       -2529.260          44.000                                                                  
G03  22901454.492   120347952.767         321.397          40.000    22901449.828    93777627.360         250.563          38.000  
G16  22815355.569   119895504.620        3195.807          40.000                                                                  
C09  37704117.958   196335236.395        -177.467          43.000    37704103.592   151818800.871        -137.114          46.000  
C25  23854788.074   124218146.547        1704.541          42.000                                                                  
C13  38084533.000   198316159.052       -2193.923          41.000    38084526.403   153350597.529       -1696.407          42.000  
C08  38887772.879   202498836.436       -2416.577          39.000    38887759.258   156584889.647       -1868.970          43.000  
G04  24890024.349   130797961.257        3206.478          35.000    24890022.129   101920523.825        2498.759          37.000  
G25  23910406.241   125650031.865       -3880.048          33.000    23910399.577    97909089.330       -3023.834          37.000  
C10                                                                  40613340.550   163533098.759         708.931          43.000  
C07                                                                  39701680.681   159862217.781         863.793          42.000  
> 2025 10 30 06 09 18.0800000  0 21                     
G32  21675110.070   113903471.926       -2632.352          46.000    21675103.288    88755925.242       -2051.075          43.000  
G29  23025411.651   120999358.630        -173.867          43.000    23025404.022    94285182.366        -135.240          42.000  
G28  21114054.782   110955105.180       -1042.503          46.000    21114044.276    86458482.555        -812.582          47.000  
G26  20452245.449   107477275.808        1043.865          47.000    20452238.760    83748502.003         813.514          46.000  
G31  20653731.289   108536089.161         333.546          47.000    20653720.519    84573531.421         259.887          45.000  
C33  22440910.556   116855710.566        -316.789          48.000                                                                  
C06  36551416.410   190332815.940        -186.169          45.000    36551398.683   147177335.490        -144.034          47.000  
C14  22408130.775   116685011.184       -1938.259          47.000    22408115.796    90228194.751       -1498.717          51.000  
C16  36975016.717   192538611.554        -223.820          47.000    36975004.534   148883020.076        -173.086          47.000  
C24  21744280.371   113228170.102        -701.119          50.000                                                                  
C26  24109031.879   125542050.943       -2529.187          44.000                                                                  
G03  22901452.056   120347939.899         321.537          40.000    22901447.393    93777617.353         250.219          38.000  
G16  22815331.249   119895376.794        3195.667          40.000                                                                  
C09  37704119.332   196335243.483        -177.277          43.000    37704104.933   151818806.359        -137.172          46.000  
C25  23854774.970   124218078.369        1704.456          42.000                                                                  
C13  38084549.861   198316246.814       -2193.994          41.000    38084543.241   153350665.391       -1696.452          42.000  
C08  38887791.430   202498933.101       -2416.583          39.000    38887777.805   156584964.397       -1868.860          43.000  
G04  24889999.922   130797832.966        3206.988          35.000    24889997.708   101920423.870        2498.820          37.000  
G25  23910435.749   125650187.082       -3880.340          33.000    23910429.098    97909210.267       -3023.615          37.000  
C10                                                                  40613333.499   163533070.392         709.084          43.000  
C07                                                                  39701672.098   159862183.231         863.687          42.000  
> 2025 10 30 06 09 18.1200000  0 21                     
G32  21675130.126   113903577.227       -2632.448          46.000    21675123.354    88756007.306       -2051.420          43.000  
G29  23025412.989   120999365.576        -173.703          43.000    23025405.328    94285187.776        -135.239          42.000  
G28  21114062.706   110955146.888       -1042.686          46.000    21114052.206    86458515.048        -812.461          47.000  
G26  20452237.521   107477234.059        1043.760          47.000    20452230.838    83748469.471         813.384          46.000  
G31  20653728.736   108536075.821         333.539          47.000    20653717.986    84573521.031         259.783          45.000  
C33  22440912.988   116855723.239        -316.824          48.000                                                                  
C06  36551417.836   190332823.394        -186.298          45.000    36551400.118   147177341.253        -144.056          47.000  
C14  22408145.655   116685088.713       -1938.246          47.000    22408130.659    90228254.701       -1498.731          51.000  
C16  36975018.446   192538620.500        -223.690          47.000    36975006.250   148883026.999        -173.077          47.000  
C24  21744285.746   113228198.147        -701.119          50.000                                                                  
C26  24109051.316   125542152.108       -2529.156          44.000                                                                  
G03  22901449.595   120347927.033         321.561          40.000    22901444.945    93777607.335         250.247          38.000  
G16  22815306.914   119895248.951        3195.907          40.000                                                                  
C09  37704120.687   196335250.577        -177.287          43.000    37704106.303   151818811.840        -137.084          46.000  
C25  23854761.868   124218010.191        1704.462          42.000                                                                  
C13  38084566.714   198316334.582       -2194.138          41.000    38084560.100   153350733.267       -1696.764          42.000  
C08  38887809.990   202499029.780       -2416.858          39.000    38887796.366   156585039.137       -1868.604          43.000  
G04  24889975.488   130797704.709        3206.624          35.000    24889973.311   101920323.924        2498.741          37.000  
G25  23910465.297   125650342.308       -3880.548          33.000    23910458.632    97909331.200       -3023.468          37.000  
C10                                                                  40613326.418   163533042.026         709.166          43.000  
C07                                                                  39701663.531   159862148.677         863.777          42.000  
> 2025 10 30 06 09 18.1600000  0 21                     
G32  21675150.165   113903682.530       -2632.538          46.000    21675143.401    88756089.357       -2051.383          43.000  
G29  23025414.345   120999372.534        -173.881          43.000    23025406.659    94285193.204        -135.581          42.000  
G28  21114070.655   110955188.584       -1042.553          46.000    21114060.125    86458547.535        -812.278          47.000  
G26  20452229.556   107477192.300        1043.878          47.000    20452222.886    83748436.937         813.347          46.000  
G31  20653726.190   108536062.485         333.421          47.000    20653715.452    84573510.637         259.795          45.000  
C33  22440915.395   116855735.915        -316.895          48.000                                                                  
C06  36551419.268   190332830.853        -186.456          45.000    36551401.586   147177347.013        -144.017          47.000  
C14  22408160.548   116685166.243       -1938.266          47.000    22408145.538    90228314.647       -1498.688          51.000  
C16  36975020.151   192538629.460        -223.884          47.000    36975007.970   148883033.923        -173.105          47.000  
C24  21744291.135   113228226.190        -701.094          50.000                                                                  
C26  24109070.749   125542253.269       -2529.081          44.000                                                                  
G03  22901447.165   120347914.172         321.518          40.000    22901442.497    93777597.286         250.897          38.000  
G16  22815282.587   119895121.117        3195.874          40.000                                                                  
C09  37704122.048   196335257.667        -177.237          43.000    37704107.666   151818817.325        -137.137          46.000  
C25  23854748.798   124217942.009        1704.517          42.000                                                                  
C13  38084583.578   198316422.330       -2193.844          41.000    38084576.948   153350801.118       -1696.451          42.000  
C08  38887828.530   202499126.439       -2416.626          39.000    38887814.933   156585113.879       -1868.530          43.000  
G04  24889951.047   130797576.418        3207.144          35.000    24889948.899   101920223.957        2499.057          37.000  
G25  23910494.834   125650497.497       -3879.865          33.000    23910488.146    97909452.113       -3022.968          37.000  
C10                                                                  40613319.375   163533013.666         709.095          43.000  
C07                                                                  39701654.941   159862114.113         863.987          42.000  
> 2025 10 30 06 09 18.2000000  0 21                     
G32  21675170.205   113903787.832       -2632.562          46.000    21675163.471    88756171.411       -2051.365          43.000  
G29  23025415.664   120999379.486        -173.862          43.000    23025407.971    94285198.626        -135.635          42.000  
G28  21114078.581   110955230.278       -1042.377          46.000    21114068.084    86458580.032        -812.363          47.000  
G26  20452221.599   107477150.540        1043.964          47.000    20452214.927    83748404.386         813.631          46.000  
G31  20653723.646   108536049.145         333.422          47.000    20653712.917    84573500.237         259.918          45.000  
C33  22440917.827   116855748.588        -316.880          48.000                                                                  
C06  36551420.706   190332838.307        -186.444          45.000    36551403.032   147177352.774        -144.032          47.000  
C14  22408175.449   116685243.768       -1938.217          47.000    22408160.432    90228374.596       -1498.720          51.000  
C16  36975021.859   192538638.421        -224.031          47.000    36975009.682   148883040.843        -173.068          47.000  
C24  21744296.535   113228254.228        -701.031          50.000                                                                  
C26  24109090.169   125542354.434       -2529.112          44.000                                                                  
G03  22901444.726   120347901.299         321.706          40.000    22901440.043    93777587.263         250.747          38.000  
G16  22815258.264   119894993.281        3195.880          40.000                                                                  
C09  37704123.401   196335264.760        -177.316          43.000    37704109.036   151818822.810        -137.163          46.000  
C25  23854735.681   124217873.832        1704.468          42.000                                                                  
C13  38084600.410   198316510.088       -2193.896          41.000    38084593.784   153350868.981       -1696.502          42.000  
C08  38887847.099   202499223.096       -2416.510          39.000    38887833.482   156585188.632       -1868.701          43.000  
G04  24889926.621   130797448.146        3207.031          35.000    24889924.481   101920123.987        2499.188          37.000  
G25  23910524.384   125650652.696       -3879.816          33.000    23910517.701    97909573.070       -3023.560          37.000  
C10                                                                  40613312.359   163532985.296         709.181          43.000  
C07                                                                  39701646.380   159862079.557         863.928          42.000  
> 2025 10 30 06 09 18.2400000  0 21                     
G32  21675190.250   113903893.130       -2632.489          46.000    21675183.499    88756253.453       -2051.178          43.000  
G29  23025416.984   120999386.443        -173.937          43.000    23025409.295    94285204.042        -135.538          42.000  
G28  21114086.531   110955271.976       -1042.397          46.000    21114076.010    86458612.522        -812.305          47.000  
G26  20452213.649   107477108.782        1043.951          47.000    20452206.975    83748371.855         813.371          46.000  
G31  20653721.084   108536035.802         333.508          47.000    20653710.363    84573489.838         259.986          45.000  
C33  22440920.266   116855761.260        -316.841          48.000                                                                  
C06  36551422.141   190332845.750        -186.217          45.000    36551404.458   147177358.530        -143.927          47.000  
C14  22408190.354   116685321.297       -1938.229          47.000    22408175.314    90228434.548       -1498.804          51.000  
C16  36975023.577   192538647.365        -223.768          47.000    36975011.420   148883047.763        -173.036          47.000  
C24  21744301.915   113228282.268        -701.013          50.000                                                                  
C26  24109109.583   125542455.602       -2529.170          44.000                                                                  
G03  22901442.274   120347888.437         321.610          40.000    22901437.580    93777577.231         250.776          38.000  
G16  22815233.918   119894865.450        3195.849          40.000                                                                  
C09  37704124.755   196335271.850        -177.318          43.000    37704110.392   151818828.290        -137.060          46.000  
C25  23854722.600   124217805.637        1704.785          42.000                                                                  
C13  38084617.253   198316597.838       -2193.753          41.000    38084610.657   153350936.838       -1696.447          42.000  
C08  38887865.666   202499319.765       -2416.559          39.000    38887852.031   156585263.368       -1868.500          43.000  
G04  24889902.218   130797319.880        3206.777          35.000    24889900.076   101920024.038        2498.947          37.000  
G25  23910553.932   125650807.881       -3879.553          33.000    23910547.233    97909694.000       -3023.322          37.000  
C10                                                                  40613305.315   163532956.938         709.021          43.000  
C07                                                                  39701637.784   159862044.983         864.218          42.000  
> 2025 10 30 06 09 18.2800000  0 21                     
G32  21675210.280   113903998.429       -2632.492          46.000    21675203.533    88756335.508       -2051.298          43.000  
G29  23025418.299   120999393.399        -173.948          43.000    23025410.619    94285209.465        -135.581          42.000  
G28  21114094.471   110955313.674       -1042.448          46.000    21114083.939    86458645.007        -812.188          47.000  
G26  20452205.712   107477067.026        1043.914          47.000    20452199.014    83748339.314         813.396          46.000  
G31  20653718.535   108536022.460         333.539          47.000    20653707.819    84573479.446         259.862          45.000  
C33  22440922.688   116855773.937        -316.913          48.000                                                                  
C06  36551423.598   190332853.193        -186.084          45.000    36551405.903   147177364.292        -144.025          47.000  
C14  22408205.241   116685398.820       -1938.120          47.000    22408190.197    90228494.505       -1498.924          51.000  
C16  36975025.265   192538656.313        -223.686          47.000    36975013.162   148883054.687        -173.082          47.000  
C24  21744307.269   113228310.314        -701.113          50.000                                                                  
C26  24109129.016   125542556.770       -2529.208          44.000                                                                  
G03  22901439.816   120347875.572         321.618          40.000    22901435.154    93777567.212         250.581          38.000  
G16  22815209.588   119894737.620        3195.754          40.000                                                                  
C09  37704126.081   196335278.945        -177.406          43.000    37704111.740   151818833.782        -137.231          46.000  
C25  23854709.471   124217737.448        1704.779          42.000                                                                  
C13  38084634.095   198316685.598       -2193.904          41.000    38084627.504   153351004.707       -1696.672          42.000  
C08  38887884.241   202499416.433       -2416.614          39.000    38887870.597   156585338.123       -1868.756          43.000  
G04  24889877.826   130797191.592        3207.148          35.000    24889875.664   101919924.101        2498.567          37.000  
G25  23910583.481   125650963.079       -3879.785          33.000    23910576.765    97909814.944       -3023.480          37.000  
C10                                                                  40613298.308   163532928.571         709.086          43.000  
C07                                                                  39701629.212   159862010.429         863.967          42.000  
> 2025 10 30 06 09 18.3200000  0 21                     
G32  21675230.322   113904103.726       -2632.454          46.000    21675223.549    88756417.548       -2051.102          43.000  
G29  23025419.606   120999400.345        -173.784          43.000    23025411.938    94285214.874        -135.348          42.000  
G28  21114102.410   110955355.376       -1042.522          46.000    21114091.890    86458677.496        -812.206          47.000  
G26  20452197.782   107477025.274        1043.784          47.000    20452191.055    83748306.783         813.267          46.000  
G31  20653716.003   108536009.117         333.563          47.000    20653705.302    84573469.056         259.770          45.000  
C33  22440925.145   116855786.610        -316.899          48.000                                                                  
C06  36551425.044   190332860.637        -186.077          45.000    36551407.317   147177370.055        -144.069          47.000  
C14  22408220.138   116685476.350       -1938.212          47.000    22408205.086    90228554.455       -1498.844          51.000  
C16  36975026.989   192538665.261        -223.644          47.000    36975014.892   148883061.604        -172.978          47.000  
C24  21744312.653   113228338.354        -701.073          51.000                                                                  
C26  24109148.449   125542657.936       -2529.193          44.000                                                                  
G03  22901437.373   120347862.715         321.460          40.000    22901432.697    93777557.193         250.528          38.000  
G16  22815185.258   119894609.794        3195.616          40.000                                                                  
C09  37704127.440   196335286.032        -177.277          43.000    37704113.104   151818839.256        -136.989          46.000  
C25  23854696.358   124217669.261        1704.712          42.000                                                                  
C13  38084650.938   198316773.354       -2193.910          41.000    38084644.349   153351072.571       -1696.683          42.000  
C08  38887902.827   202499513.097       -2416.626          39.000    38887889.165   156585412.879       -1868.890          43.000  
G04  24889853.416   130797063.338        3206.565          35.000    24889851.259   101919824.153        2498.548          37.000  
G25  23910613.008   125651118.308       -3880.585          33.000    23910606.295    97909935.860       -3023.114          37.000  
C10                                                                  40613291.237   163532900.206         709.066          43.000  
C07                                                                  39701620.646   159861975.877         863.820          42.000  
> 2025 10 30 06 09 18.3600000  0 21                     
G32  21675250.379   113904209.023       -2632.454          46.000    21675243.582    88756499.598       -2051.166          43.000  
G29  23025420.917   120999407.311        -174.062          43.000    23025413.272    94285220.299        -135.493          42.000  
G28  21114110.358   110955397.077       -1042.524          46.000    21114099.834    86458709.993        -812.369          47.000  
G26  20452189.848   107476983.522        1043.754          47.000    20452183.101    83748274.249         813.286          46.000  
G31  20653713.463   108535995.778         333.464          47.000    20653702.765    84573458.663         259.783          45.000  
C33  22440927.612   116855799.284        -316.892          48.000                                                                  
C06  36551426.487   190332868.088        -186.178          45.000    36551408.718   147177375.815        -144.028          47.000  
C14  22408235.017   116685553.883       -1938.320          47.000    22408219.980    90228614.406       -1498.825          51.000  
C16  36975028.677   192538674.209        -223.667          47.000    36975016.614   148883068.531        -173.130          47.000  
C24  21744318.082   113228366.393        -701.021          51.000                                                                  
C26  24109167.902   125542759.092       -2528.979          44.000                                                                  
G03  22901434.913   120347849.843         321.676          40.000    22901430.238    93777547.155         250.844          38.000  
G16  22815160.927   119894481.955        3195.806          40.000                                                                  
C09  37704128.820   196335293.123        -177.252          43.000    37704114.464   151818844.739        -137.030          46.000  
C25  23854683.255   124217601.078        1704.602          42.000                                                                  
C13  38084667.790   198316861.122       -2194.146          41.000    38084661.169   153351140.424       -1696.465          42.000  
C08  38887921.397   202499609.773       -2416.864          39.000    38887907.725   156585487.634       -1868.927          43.000  
G04  24889829.001   130796935.037        3207.115          35.000    24889826.851   101919724.202        2498.596          37.000  
G25  23910642.561   125651273.511       -3880.402          33.000    23910635.849    97910056.807       -3023.492          37.000  
C10                                                                  40613284.210   163532871.836         709.174          43.000  
C07                                                                  39701612.065   159861941.315         863.923          42.000  
> 2025 10 30 06 09 18.4000000  0 21                     
G32  21675270.427   113904314.328       -2632.544          46.000    21675263.645    88756581.665       -2051.533          43.000  
G29  23025422.260   120999414.262        -173.889          43.000    23025414.591    94285225.719        -135.499          42.000  
G28  21114118.269   110955438.779       -1042.549          46.000    21114107.777    86458742.493        -812.468          47.000  
G26  20452181.892   107476941.770        1043.749          47.000    20452175.146    83748241.716         813.292          46.000  
G31  20653710.917   108535982.439         333.446          47.000    20653700.225    84573448.270         259.808          45.000  
C33  22440930.049   116855811.958        -316.885          49.000                                                                  
C06  36551427.902   190332875.542        -186.324          45.000    36551410.128   147177381.570        -143.972          47.000  
C14  22408249.896   116685631.415       -1938.363          47.000    22408234.868    90228674.350       -1498.705          51.000  
C16  36975030.390   192538683.161        -223.746          47.000    36975018.360   148883075.448        -173.023          47.000  
C24  21744323.434   113228394.435        -701.042          51.000                                                                  
C26  24109187.333   125542860.251       -2528.946          44.000                                                                  
G03  22901432.465   120347836.974         321.750          40.000    22901427.784    93777537.142         250.532          38.000  
G16  22815136.584   119894354.112        3195.994          40.000                                                                  
C09  37704130.165   196335300.206        -177.120          43.000    37704115.817   151818850.222        -137.062          46.000  
C25  23854670.174   124217532.901        1704.443          42.000                                                                  
C13  38084684.654   198316948.881       -2194.070          41.000    38084678.026   153351208.277       -1696.424          42.000  
C08  38887939.954   202499706.435       -2416.681          39.000    38887926.289   156585562.379       -1868.726          43.000  
G04  24889804.602   130796806.772        3206.757          35.000    24889802.445   101919624.213        2499.341          37.000  
G25  23910672.111   125651428.717       -3880.267          33.000    23910665.378    97910177.745       -3023.560          37.000  
C10                                                                  40613277.150   163532843.478         708.976          43.000  
C07                                                                  39701603.486   159861906.751         864.008          42.000  
> 2025 10 30 06 09 18.4400000  0 21                     
G32  21675290.461   113904419.626       -2632.512          46.000    21675283.676    88756663.715       -2051.418          43.000  
G29  23025423.583   120999421.218        -173.909          43.000    23025415.925    94285231.138        -135.487          42.000  
G28  21114126.182   110955480.472       -1042.402          46.000    21114115.711    86458774.987        -812.437          47.000  
G26  20452173.959   107476900.017        1043.786          47.000    20452167.202    83748209.177         813.410          46.000  
G31  20653708.373   108535969.098         333.446          47.000    20653697.683    84573437.869         259.974          45.000  
C33  22440932.479   116855824.635        -316.937          49.000                                                                  
C06  36551429.333   190332882.988        -186.241          45.000    36551411.515   147177387.327        -143.947          47.000  
C14  22408264.772   116685708.943       -1938.297          47.000    22408249.764    90228734.298       -1498.708          51.000  
C16  36975032.099   192538692.113        -223.797          47.000    36975020.081   148883082.367        -172.998          47.000  
C24  21744328.798   113228422.478        -701.081          51.000                                                                  
C26  24109206.775   125542961.412       -2528.963          44.000                                                                  
G03  22901430.002   120347824.108         321.691          40.000    22901425.338    93777527.120         250.502          38.000  
G16  22815112.253   119894226.284        3195.797          40.000                                                                  
C09  37704131.520   196335307.286        -177.022          43.000    37704117.163   151818855.703        -137.056          46.000  
C25  23854657.081   124217464.711        1704.620          42.000                                                                  
C13  38084701.494   198317036.642       -2194.095          42.000    38084694.889   153351276.135       -1696.442          42.000  
C08  38887958.513   202499803.104       -2416.724          39.000    38887944.841   156585637.119       -1868.524          43.000  
G04  24889780.174   130796678.505        3206.669          35.000    24889778.039   101919524.268        2498.871          37.000  
G25  23910701.633   125651583.907       -3879.987          33.000    23910694.914    97910298.681       -3023.547          37.000  
C10                                                                  40613270.099   163532815.123         708.871          43.000  
C07                                                                  39701594.900   159861872.183         864.156          42.000  
> 2025 10 30 06 09 18.4800000  0 21                     
G32  21675310.502   113904524.920       -2632.428          46.000    21675303.723    88756745.769       -2051.382          43.000  
G29  23025424.913   120999428.174        -173.896          43.000    23025417.252    94285236.564        -135.620          42.000  
G28  21114134.099   110955522.162       -1042.300          46.000    21114123.645    86458807.473        -812.290          47.000  
G26  20452166.006   107476858.262        1043.829          47.000    20452159.259    83748176.646         813.323          46.000  
G31  20653705.815   108535955.759         333.421          47.000    20653695.149    84573427.469         260.010          45.000  
C33  22440934.923   116855837.309        -316.911          49.000                                                                  
C06  36551430.771   190332890.429        -186.068          45.000    36551412.981   147177393.087        -143.994          47.000  
C14  22408279.701   116685786.468       -1938.195          47.000    22408264.669    90228794.255       -1498.874          51.000  
C16  36975033.833   192538701.064        -223.782          47.000    36975021.784   148883089.283        -172.929          47.000  
C24  21744334.193   113228450.522        -701.118          51.000                                                                  
C26  24109226.206   125543062.578       -2529.094          44.000                                                                  
G03  22901427.554   120347811.256         321.415          40.000    22901422.890    93777517.100         250.459          38.000  
G16  22815087.926   119894098.448        3195.828          40.000                                                                  
C09  37704132.871   196335314.382        -177.297          43.000    37704118.531   151818861.186        -137.095          46.000  
C25  23854643.969   124217396.532        1704.480          42.000                                                                  
C13  38084718.348   198317124.399       -2194.039          42.000    38084711.733   153351343.998       -1696.548          42.000  
C08  38887977.093   202499899.775       -2416.821          39.000    38887963.428   156585711.857       -1868.427          43.000  
G04  24889755.766   130796550.216        3207.037          35.000    24889753.634   101919424.330        2498.479          37.000  
G25  23910731.186   125651739.114       -3880.102          33.000    23910724.434    97910419.600       -3023.187          37.000  
C10                                                                  40613263.070   163532786.749         709.172          43.000  
C07                                                                  39701586.330   159861837.631         863.909          42.000  
> 2025 10 30 06 09 18.5200000  0 21                     
G32  21675330.520   113904630.222       -2632.515          46.000    21675323.787    88756827.820       -2051.310          43.000  
G29  23025426.245   120999435.135        -174.016          43.000    23025418.543    94285241.992        -135.731          42.000  
G28  21114142.062   110955563.866       -1042.464          46.000    21114131.579    86458839.963        -812.297          47.000  
G26  20452158.067   107476816.510        1043.761          47.000    20452151.324    83748144.116         813.249          46.000  
G31  20653703.273   108535942.421         333.416          47.000    20653692.640    84573417.073         259.955          45.000  
C33  22440937.336   116855849.996        -317.141          49.000                                                                  
C06  36551432.199   190332897.879        -186.173          45.000    36551414.414   147177398.850        -144.093          47.000  
C14  22408294.584   116685864.007       -1938.421          47.000    22408279.580    90228854.209       -1498.923          51.000  
C16  36975035.597   192538710.014        -223.776          47.000    36975023.486   148883096.199        -172.920          47.000  
C24  21744339.616   113228478.557        -700.960          51.000                                                                  
C26  24109245.607   125543163.746       -2529.225          44.000                                                                  
G03  22901425.140   120347798.404         321.345          40.000    22901420.432    93777507.095         250.158          38.000  
G16  22815063.593   119893970.623        3195.646          40.000                                                                  
C09  37704134.250   196335321.469        -177.270          43.000    37704119.903   151818866.673        -137.170          46.000  
C25  23854630.864   124217328.351        1704.462          42.000                                                                  
C13  38084735.204   198317212.158       -2194.001          42.000    38084728.588   153351411.861       -1696.565          42.000  
C08  38887995.655   202499996.439       -2416.663          39.000    38887981.984   156585786.607       -1868.652          43.000  
G04  24889731.356   130796421.939        3207.034          35.000    24889729.231   101919324.372        2498.621          37.000  
G25  23910760.726   125651894.312       -3880.048          33.000    23910753.957    97910540.537       -3023.309          37.000  
C10                                                                  40613256.010   163532758.373         709.347          43.000  
C07                                                                  39701577.738   159861803.071         863.960          42.000  
> 2025 10 30 06 09 18.5600000  0 21                     
G32  21675350.569   113904735.530       -2632.683          46.000    21675343.833    88756909.875       -2051.345          43.000  
G29  23025427.577   120999442.094        -174.028          43.000    23025419.844    94285247.418        -135.736          42.000  
G28  21114149.995   110955605.569       -1042.569          46.000    21114139.526    86458872.464        -812.462          47.000  
G26  20452150.123   107476774.764        1043.632          47.000    20452143.384    83748111.583         813.262          46.000  
G31  20653700.734   108535929.085         333.373          47.000    20653690.106    84573406.688         259.696          45.000  
C33  22440939.751   116855862.679        -317.149          48.000                                                                  
C06  36551433.612   190332905.323        -186.174          45.000    36551415.820   147177404.601        -143.926          47.000  
C14  22408309.458   116685941.543       -1938.462          47.000    22408294.461    90228914.165       -1498.946          51.000  
C16  36975037.356   192538718.960        -223.698          47.000    36975025.209   148883103.125        -173.074          47.000  
C24  21744344.948   113228506.602        -701.061          51.000                                                                  
C26  24109265.034   125543264.907       -2529.124          44.000                                                                  
G03  22901422.693   120347785.557         321.183          40.000    22901418.002    93777497.073         250.344          38.000  
G16  22815039.246   119893842.796        3195.612          40.000                                                                  
C09  37704135.616   196335328.562        -177.332          43.000    37704121.258   151818872.160        -137.213          46.000  
C25  23854617.782   124217260.166        1704.529          42.000                                                                  
C13  38084752.063   198317299.911       -2193.896          42.000    38084745.472   153351479.713       -1696.372          42.000  
C08  38888014.215   202500093.095       -2416.461          39.000    38888000.529   156585861.365       -1868.927          43.000  
G04  24889706.928   130796293.658        3207.081          35.000    24889704.826   101919224.415        2498.797          37.000  
G25  23910790.300   125652049.501       -3879.785          33.000    23910783.488    97910661.466       -3023.181          37.000  
C10                                                                  40613248.951   163532730.004         709.311          43.000  
C07                                                                  39701569.143   159861768.514         863.907          42.000  
> 2025 10 30 06 09 18.6000000  0 21                     
G32  21675370.616   113904840.828       -2632.586          46.000    21675363.870    88756991.923       -2051.254          43.000  
G29  23025428.924   120999449.060        -174.146          43.000    23025421.163    94285252.840        -135.634          42.000  
G28  21114157.925   110955647.270       -1042.584          46.000    21114147.465    86458904.956        -812.418          47.000  
G26  20452142.173   107476733.013        1043.681          47.000    20452135.423    83748079.043         813.391          46.000  
G31  20653698.185   108535915.748         333.379          47.000    20653687.569    84573396.296         259.709          45.000  
C33  22440942.206   116855875.351        -316.954          49.000                                                                  
C06  36551435.028   190332912.771        -186.201          45.000    36551417.266   147177410.359        -143.928          47.000  
C14  22408324.354   116686019.074       -1938.369          47.000    22408309.358    90228974.118       -1498.911          51.000  
C16  36975039.087   192538727.904        -223.624          47.000    36975026.928   148883110.045        -173.052          47.000  
C24  21744350.311   113228534.644        -701.066          51.000                                                                  
C26  24109284.467   125543366.068       -2529.043          44.000                                                                  
G03  22901420.259   120347772.703         321.255          40.000    22901415.546    93777487.046         250.553          38.000  
G16  22815014.911   119893714.968        3195.632          40.000                                                                  
C09  37704136.964   196335335.648        -177.274          43.000    37704122.619   151818877.631        -136.914          46.000  
C25  23854604.676   124217191.978        1704.651          42.000                                                                  
C13  38084768.914   198317387.675       -2194.008          42.000    38084762.294   153351547.567       -1696.317          42.000  
C08  38888032.774   202500189.761       -2416.583          39.000    38888019.087   156585936.114       -1868.854          43.000  
G04  24889682.534   130796165.398        3206.697          35.000    24889680.406   101919124.465        2498.792          37.000  
G25  23910819.851   125652204.693       -3879.724          34.000    23910813.016    97910782.407       -3023.462          37.000  
C10                                                                  40613241.923   163532701.629         709.385          43.000  
C07                                                                  39701560.534   159861733.955         863.874          42.000  
> 2025 10 30 06 09 18.6400000  0 21                     
G32  21675390.657   113904946.139       -2632.741          46.000    21675383.924    88757073.978       -2051.300          43.000  
G29  23025430.249   120999456.018        -174.036          43.000    23025422.489    94285258.250        -135.351          42.000  
G28  21114165.844   110955688.970       -1042.555          46.000    21114155.403    86458937.448        -812.363          47.000  
G26  20452134.230   107476691.270        1043.571          47.000    20452127.494    83748046.519         813.188          46.000  
G31  20653695.630   108535902.407         333.434          47.000    20653685.010    84573385.903         259.765          45.000  
C33  22440944.625   116855888.033        -317.033          48.000                                                                  
C06  36551436.467   190332920.216        -186.188          45.000    36551418.690   147177416.113        -143.876          47.000  
C14  22408339.232   116686096.610       -1938.387          47.000    22408324.237    90229034.067       -1498.802          51.000  
C16  36975040.789   192538736.855        -223.771          47.000    36975028.685   148883116.967        -173.124          47.000  
C24  21744355.672   113228562.690        -701.150          51.000                                                                  
C26  24109303.882   125543467.234       -2529.119          44.000                                                                  
G03  22901417.829   120347759.842         321.451          40.000    22901413.101    93777477.029         250.520          38.000  
G16  22814990.564   119893587.135        3195.740          40.000                                                                  
C09  37704138.363   196335342.741        -177.317          43.000    37704123.963   151818883.110        -136.923          46.000  
C25  23854591.572   124217123.803        1704.431          42.000                                                                  
C13  38084785.777   198317475.432       -2193.939          42.000    38084779.139   153351615.443       -1696.749          42.000  
C08  38888051.330   202500286.428       -2416.650          39.000    38888037.650   156586010.868       -1868.915          43.000  
G04  24889658.128   130796037.106        3207.058          35.000    24889655.980   101919024.482        2499.331          37.000  
G25  23910849.378   125652359.883       -3879.712          33.000    23910842.558    97910903.351       -3023.688          37.000  
C10                                                                  40613234.877   163532673.265         709.192          43.000  
C07                                                                  39701551.952   159861699.387         864.080          42.000  
> 2025 10 30 06 09 18.6800000  0 21                     
G32  21675410.692   113905051.447       -2632.756          46.000    21675403.965    88757156.045       -2051.588          43.000  
G29  23025431.589   120999462.987        -174.175          43.000    23025423.817    94285263.679        -135.581          42.000  
G28  21114173.751   110955730.676       -1042.639          46.000    21114163.331    86458969.941        -812.329          47.000  
G26  20452126.288   107476649.531        1043.436          47.000    20452119.555    83748013.997         813.034          46.000  
G31  20653693.090   108535889.074         333.342          47.000    20653682.465    84573375.515         259.703          45.000  
C33  22440947.018   116855900.720        -317.167          48.000                                                                  
C06  36551437.901   190332927.665        -186.267          45.000    36551420.124   147177421.877        -144.028          47.000  
C14  22408354.136   116686174.146       -1938.426          47.000    22408339.132    90229094.025       -1498.913          51.000  
C16  36975042.524   192538745.810        -223.871          47.000    36975030.435   148883123.893        -173.173          47.000  
C24  21744361.039   113228590.742        -701.313          51.000                                                                  
C26  24109323.294   125543568.403       -2529.212          44.000                                                                  
G03  22901415.387   120347746.985         321.404          40.000    22901410.658    93777467.012         250.501          38.000  
G16  22814966.253   119893459.307        3195.695          40.000                                                                  
C09  37704139.736   196335349.832        -177.303          43.000    37704125.327   151818888.590        -136.983          46.000  
C25  23854578.446   124217055.627        1704.321          42.000                                                                  
C13  38084802.609   198317563.197       -2194.108          41.000    38084796.003   153351683.313       -1696.839          42.000  
C08  38888069.879   202500383.124       -2417.224          39.000    38888056.221   156586085.614       -1868.738          43.000  
G04  24889633.735   130795908.846        3206.638          35.000    24889631.572   101918924.562        2498.431          37.000  
G25  23910878.944   125652515.100       -3880.170          34.000    23910872.102    97911024.285       -3023.547          37.000  
C10                                                                  40613227.849   163532644.911         708.902          43.000  
C07                                                                  39701543.374   159861664.837         863.854          42.000  
> 2025 10 30 06 09 18.7200000  0 21                     
G32  21675430.759   113905156.762       -2632.855          46.000    21675423.992    88757238.093       -2051.373          43.000  
G29  23025432.933   120999469.958        -174.305          43.000    23025425.140    94285269.122        -135.969          42.000  
G28  21114181.683   110955772.382       -1042.691          46.000    21114171.273    86459002.441        -812.477          47.000  
G26  20452118.325   107476607.790        1043.437          47.000    20452111.614    83747981.468         813.109          46.000  
G31  20653690.548   108535875.743         333.237          47.000    20653679.932    84573365.123         259.747          45.000  
C33  22440949.438   116855913.411        -317.285          48.000                                                                  
C06  36551439.343   190332935.131        -186.559          45.000    36551421.542   147177427.644        -144.170          47.000  
C14  22408369.030   116686251.687       -1938.542          47.000    22408354.043    90229153.985       -1499.008          51.000  
C16  36975044.249   192538754.768        -223.984          47.000    36975032.169   148883130.813        -173.092          47.000  
C24  21744366.424   113228618.793        -701.344          51.000                                                                  
C26  24109342.699   125543669.572       -2529.250          44.000                                                                  
G03  22901412.937   120347734.144         321.101          40.000    22901408.212    93777457.001         250.343          38.000  
G16  22814941.942   119893331.489        3195.481          40.000                                                                  
C09  37704141.105   196335356.920        -177.207          43.000    37704126.686   151818894.076        -137.136          46.000  
C25  23854565.363   124216987.448        1704.346          42.000                                                                  
C13  38084819.457   198317650.965       -2194.194          42.000    38084812.867   153351751.177       -1696.725          42.000  
C08  38888088.444   202500479.773       -2416.644          39.000    38888074.779   156586160.366       -1868.744          43.000  
G04  24889609.305   130795780.559        3206.948          35.000    24889607.167   101918824.588        2498.955          37.000  
G25  23910908.491   125652670.315       -3880.328          34.000    23910901.637    97911145.243       -3023.956          37.000  
C10                                                                  40613220.814   163532616.548         708.912          43.000  
C07                                                                  39701534.805   159861630.285         863.738          42.000  
> 2025 10 30 06 09 18.7600000  0 21                     
G32  21675450.802   113905262.073       -2632.824          46.000    21675444.023    88757320.165       -2051.709          43.000  
G29  23025434.251   120999476.928        -174.290          43.000    23025426.453    94285274.552        -135.927          42.000  
G28  21114189.628   110955814.092       -1042.770          46.000    21114179.211    86459034.949        -812.682          47.000  
G26  20452110.372   107476566.048        1043.493          47.000    20452103.679    83747948.944         813.041          46.000  
G31  20653687.979   108535862.415         333.146          47.000    20653677.381    84573354.728         259.864          45.000  
C33  22440951.880   116855926.105        -317.391          48.000                                                                  
C06  36551440.792   190332942.580        -186.416          45.000    36551422.937   147177433.405        -144.113          47.000  
C14  22408383.921   116686329.235       -1938.706          47.000    22408368.934    90229213.951       -1499.153          51.000  
C16  36975045.978   192538763.725        -224.038          47.000    36975033.907   148883137.740        -173.164          47.000  
C24  21744371.842   113228646.845        -701.360          51.000                                                                  
C26  24109362.123   125543770.737       -2529.220          44.000                                                                  
G03  22901410.476   120347721.304         320.936          40.000    22901405.780    93777447.006         249.910          38.000  
G16  22814917.618   119893203.675        3195.314          40.000                                                                  
C09  37704142.440   196335364.013        -177.285          43.000    37704128.060   151818899.568        -137.286          46.000  
C25  23854552.272   124216919.267        1704.468          42.000                                                                  
C13  38084836.312   198317738.731       -2194.198          42.000    38084829.715   153351819.034       -1696.512          42.000  
C08  38888107.000   202500576.453       -2416.907          39.000    38888093.381   156586235.117       -1868.756          43.000  
G04  24889584.915   130795652.290        3206.804          35.000    24889582.746   101918724.644        2498.670          37.000  
G25  23910938.028   125652825.519       -3880.200          34.000    23910931.163    97911266.178       -3023.724          37.000  
C10                                                                  40613213.759   163532588.199         708.680          43.000  
C07                                                                  39701526.237   159861595.737         863.619          42.000  
> 2025 10 30 06 09 18.8000000  0 21                     
G32  21675470.839   113905367.389       -2632.922          46.000    21675464.053    88757402.218       -2051.533          43.000  
G29  23025435.581   120999483.901        -174.371          43.000    23025427.784    94285279.982        -135.810          42.000  
G28  21114197.571   110955855.800       -1042.760          46.000    21114187.156    86459067.449        -812.639          47.000  
G26  20452102.423   107476524.304        1043.573          47.000    20452095.724    83747916.414         813.159          46.000  
G31  20653685.416   108535849.083         333.208          47.000    20653674.841    84573344.341         259.734          45.000  
C33  22440954.342   116855938.794        -317.334          48.000                                                                  
C06  36551442.258   190332950.034        -186.388          45.000    36551424.373   147177439.165        -144.056          47.000  
C14  22408398.813   116686406.778       -1938.687          47.000    22408383.832    90229273.911       -1499.097          51.000  
C16  36975047.677   192538772.678        -223.937          47.000    36975035.614   148883144.660        -173.093          47.000  
C24  21744377.275   113228674.895        -701.318          51.000                                                                  
C26  24109381.529   125543871.913       -2529.370          44.000                                                                  
G03  22901408.009   120347708.464         320.876          40.000    22901403.323    93777437.000         249.850          38.000  
G16  22814893.282   119893075.852        3195.457          40.000                                                                  
C09  37704143.810   196335371.106        -177.310          43.000    37704129.421   151818905.054        -137.249          46.000  
C25  23854539.179   124216851.096        1704.321          42.000                                                                  
C13  38084853.139   198317826.491       -2194.105          42.000    38084846.597   153351886.894       -1696.457          42.000  
C08  38888125.551   202500673.133       -2417.010          39.000    38888111.909   156586309.875       -1868.903          43.000  
G04  24889560.515   130795524.034        3206.580          35.000    24889558.357   101918624.706        2498.437          37.000  
G25  23910967.560   125652980.735       -3880.280          34.000    23910960.701    97911387.115       -3023.566          37.000  
C10                                                                  40613206.710   163532559.833         708.934          43.000  
C07                                                                  39701517.653   159861561.180         863.750          42.000  
> 2025 10 30 06 09 18.8400000  0 21                     
G32  21675490.879   113905472.701       -2632.860          47.000    21675484.098    88757484.288       -2051.700          43.000  
G29  23025436.904   120999490.869        -174.288          43.000    23025429.093    94285285.417        -135.822          42.000  
G28  21114205.505   110955897.508       -1042.763          46.000    21114195.090    86459099.945        -812.514          47.000  
G26  20452094.476   107476482.561        1043.560          47.000    20452087.795    83747883.889         813.128          46.000  
G31  20653682.868   108535835.746         333.363          47.000    20653672.307    84573333.956         259.642          45.000  
C33  22440956.809   116855951.485        -317.306          48.000                                                                  
C06  36551443.712   190332957.479        -186.230          46.000    36551425.786   147177444.928        -144.106          47.000  
C14  22408413.710   116686484.322       -1938.645          47.000    22408398.699    90229333.871       -1499.050          51.000  
C16  36975049.402   192538781.629        -223.832          47.000    36975037.337   148883151.584        -173.113          47.000  
C24  21744382.683   113228702.944        -701.265          51.000                                                                  
C26  24109400.984   125543973.085       -2529.351          44.000                                                                  
G03  22901405.552   120347695.607         321.200          40.000    22901400.883    93777426.986         250.088          38.000  
G16  22814868.949   119892948.021        3195.716          40.000                                                                  
C09  37704145.167   196335378.197        -177.296          43.000    37704130.798   151818910.533        -137.109          46.000  
C25  23854526.111   124216782.918        1704.407          42.000                                                                  
C13  38084869.990   198317914.250       -2193.986          42.000    38084863.447   153351954.756       -1696.566          42.000  
C08  38888144.099   202500769.807       -2416.895          39.000    38888130.500   156586384.628       -1868.896          43.000  
G04  24889536.091   130795395.761        3206.726          35.000    24889533.960   101918524.753        2498.573          37.000  
G25  23910997.086   125653135.946       -3880.340          34.000    23910990.231    97911508.058       -3023.590          37.000  
C10                                                                  40613199.648   163532531.468         709.073          43.000  
C07                                                                  39701509.064   159861526.622         863.812          42.000  
> 2025 10 30 06 09 18.8800000  0 21                     
G32  21675510.900   113905578.002       -2632.644          47.000    21675504.123    88757566.331       -2051.318          43.000  
G29  23025438.232   120999497.836        -174.271          43.000    23025430.426    94285290.849        -135.854          42.000  
G28  21114213.428   110955939.207       -1042.576          46.000    21114203.025    86459132.441        -812.435          47.000  
G26  20452086.526   107476440.824        1043.455          47.000    20452079.860    83747851.366         813.023          46.000  
G31  20653680.337   108535822.410         333.417          47.000    20653669.787    84573323.569         259.649          45.000  
C33  22440959.248   116855964.172        -317.250          48.000                                                                  
C06  36551445.162   190332964.920        -186.084          46.000    36551427.199   147177450.689        -144.078          47.000  
C14  22408428.626   116686561.859       -1938.510          47.000    22408413.605    90229393.829       -1499.006          51.000  
C16  36975051.125   192538790.576        -223.705          47.000    36975039.032   148883158.508        -173.146          47.000  
C24  21744388.116   113228730.991        -701.200          51.000                                                                  
C26  24109420.410   125544074.251       -2529.248          44.000                                                                  
G03  22901403.101   120347682.751         321.335          40.000    22901398.448    93777416.984         249.993          38.000  
G16  22814844.603   119892820.186        3195.817          40.000                                                                  
C09  37704146.531   196335385.290        -177.295          43.000    37704132.172   151818916.015        -137.046          46.000  
C25  23854512.996   124216714.739        1704.407          42.000                                                                  
C13  38084886.839   198318002.004       -2193.888          42.000    38084880.295   153352022.620       -1696.628          42.000  
C08  38888162.660   202500866.472       -2416.656          39.000    38888149.063   156586459.370       -1868.628          43.000  
G04  24889511.684   130795267.476        3207.070          35.000    24889509.528   101918424.784        2498.975          37.000  
G25  23911026.607   125653291.131       -3879.816          34.000    23911019.755    97911629.007       -3023.785          37.000  
C10                                                                  40613192.622   163532503.099         709.192          43.000  
C07                                                                  39701500.476   159861492.049         864.130          42.000  
> 2025 10 30 06 09 18.9200000  0 21                     
G32  21675530.959   113905683.313       -2632.721          47.000    21675524.181    88757648.399       -2051.531          43.000  
G29  23025439.549   120999504.808        -174.339          43.000    23025431.779    94285296.283        -135.840          42.000  
G28  21114221.348   110955980.910       -1042.554          46.000    21114210.946    86459164.932        -812.326          47.000  
G26  20452078.563   107476399.088        1043.376          47.000    20452071.911    83747818.844         812.999          46.000  
G31  20653677.800   108535809.076         333.386          47.000    20653667.257    84573313.180         259.680          45.000  
C33  22440961.704   116855976.856        -317.155          48.000                                                                  
C06  36551446.557   190332972.365        -186.064          46.000    36551428.600   147177456.444        -143.960          47.000  
C14  22408443.511   116686639.396       -1938.430          47.000    22408428.517    90229453.785       -1498.923          51.000  
C16  36975052.861   192538799.521        -223.625          47.000    36975040.741   148883165.429        -173.085          47.000  
C24  21744393.532   113228759.038        -701.183          51.000                                                                  
C26  24109439.850   125544175.412       -2529.077          44.000                                                                  
G03  22901400.654   120347669.902         321.264          40.000    22901395.995    93777406.968         250.266          38.000  
G16  22814820.261   119892692.357        3195.764          40.000                                                                  
C09  37704147.919   196335392.382        -177.264          43.000    37704133.504   151818921.493        -136.959          46.000  
C25  23854499.916   124216646.564        1704.364          42.000                                                                  
C13  38084903.707   198318089.763       -2193.908          42.000    38084897.159   153352090.489       -1696.727          42.000  
C08  38888181.209   202500963.129       -2416.431          39.000    38888167.626   156586534.124       -1868.750          43.000  
G04  24889487.263   130795139.220        3206.687          35.000    24889485.120   101918324.865        2498.233          37.000  
G25  23911056.115   125653446.334       -3879.944          34.000    23911049.296    97911749.931       -3023.358          37.000  
C10                                                                  40613185.576   163532474.723         709.359          43.000  
C07                                                                  39701491.894   159861457.496         863.940          42.000  
> 2025 10 30 06 09 18.9600000  0 21                     
G32  21675551.009   113905788.619       -2632.677          47.000    21675544.225    88757730.470       -2051.733          43.000  
G29  23025440.881   120999511.779        -174.312          43.000    23025433.083    94285301.711        -135.727          42.000  
G28  21114229.277   110956022.614       -1042.571          46.000    21114218.904    86459197.432        -812.404          47.000  
G26  20452070.595   107476357.347        1043.444          47.000    20452063.958    83747786.322         812.999          46.000  
G31  20653675.277   108535795.743         333.349          47.000    20653664.708    84573302.788         259.785          45.000  
C33  22440964.140   116855989.543        -317.143          48.000                                                                  
C06  36551447.985   190332979.811        -186.080          46.000    36551430.006   147177462.196        -143.832          47.000  
C14  22408458.389   116686716.936       -1938.471          47.000    22408443.394    90229513.749       -1499.027          51.000  
C16  36975054.577   192538808.470        -223.668          47.000    36975042.467   148883172.344        -172.978          47.000  
C24  21744398.933   113228787.084        -701.160          51.000                                                                  
C26  24109459.266   125544276.576       -2529.076          44.000                                                                  
G03  22901398.216   120347657.057         321.111          40.000    22901393.550    93777396.961         250.272          38.000  
G16  22814795.933   119892564.535        3195.632          40.000                                                                  
C09  37704149.306   196335399.467        -177.156          43.000    37704134.875   151818926.968        -136.879          46.000  
C25  23854486.802   124216578.387        1704.364          42.000                                                                  
C13  38084920.559   198318177.530       -2194.121          42.000    38084914.026   153352158.351       -1696.632          42.000  
C08  38888199.769   202501059.796       -2416.602          39.000    38888186.186   156586608.875       -1868.762          43.000  
G04  24889462.862   130795010.923        3207.200          35.000    24889460.726   101918224.886        2498.986          37.000  
G25  23911085.656   125653601.530       -3879.791          34.000    23911078.834    97911870.867       -3023.364          37.000  
C10                                                                  40613178.523   163532446.370         709.038          43.000  
C07                                                                  39701483.318   159861422.934         863.973          42.000  
> 2025 10 30 06 09 19.0000000  0 21                     
G32  21675571.049   113905893.937       -2632.881          47.000    21675564.261    88757812.531       -2051.669          43.000  
G29  23025442.216   120999518.748        -174.236          43.000    23025434.423    94285307.143        -135.754          42.000  
G28  21114237.220   110956064.317       -1042.567          46.000    21114226.848    86459229.924        -812.345          47.000  
G26  20452062.655   107476315.605        1043.518          47.000    20452056.009    83747753.796         813.092          46.000  
G31  20653672.729   108535782.402         333.460          47.000    20653662.181    84573292.391         259.907          45.000  
C33  22440966.557   116856002.230        -317.177          48.000                                                                  
C06  36551449.376   190332987.266        -186.273          46.000    36551431.443   147177467.957        -143.949          47.000  
C14  22408473.281   116686794.480       -1938.568          47.000    22408458.280    90229573.710       -1499.052          51.000  
C16  36975056.289   192538817.422        -223.753          47.000    36975044.178   148883179.266        -173.038          47.000  
C24  21744404.307   113228815.130        -701.161          51.000                                                                  
C26  24109478.689   125544377.728       -2528.857          44.000                                                                  
G03  22901395.769   120347644.224         320.824          40.000    22901391.095    93777386.922         250.822          38.000  
G16  22814771.635   119892436.715        3195.482          40.000                                                                  
C09  37704150.661   196335406.548        -177.039          43.000    37704136.212   151818932.450        -136.977          46.000  
C25  23854473.727   124216510.204        1704.498          42.000                                                                  
C13  38084937.434   198318265.294       -2194.163          42.000    38084930.872   153352226.215       -1696.651          42.000  
C08  38888218.321   202501156.460       -2416.638          39.000    38888204.751   156586683.631       -1868.860          43.000  
G04  24889438.429   130794882.628        3207.465          35.000    24889436.304   101918124.913        2499.322          37.000  
G25  23911115.176   125653756.736       -3879.999          33.000    23911108.389    97911991.787       -3023.132          37.000  
C10                                                                  40613171.494   163532418.012         708.913          43.000  
C07                                                                  39701474.743   159861388.371         864.010          42.000  
> 2025 10 30 06 09 19.0400000  0 21                     
G32  21675591.085   113905999.253       -2632.951          47.000    21675584.303    88757894.588       -2051.503          43.000  
G29  23025443.528   120999525.719        -174.288          43.000    23025435.750    94285312.571        -135.705          42.000  
G28  21114245.167   110956106.025       -1042.690          46.000    21114234.797    86459262.417        -812.341          47.000  
G26  20452054.716   107476273.866        1043.481          47.000    20452048.048    83747721.273         813.079          46.000  
G31  20653670.167   108535769.070         333.367          47.000    20653659.644    84573281.996         259.894          45.000  
C33  22440968.975   116856014.925        -317.324          48.000                                                                  
C06  36551450.780   190332994.715        -186.324          46.000    36551432.893   147177473.723        -144.114          47.000  
C14  22408488.165   116686872.028       -1938.701          47.000    22408473.163    90229633.669       -1499.014          51.000  
C16  36975058.033   192538826.368        -223.694          47.000    36975045.917   148883186.188        -173.085          47.000  
C24  21744409.684   113228843.183        -701.295          51.000                                                                  
C26  24109498.115   125544478.893       -2528.990          44.000                                                                  
G03  22901393.341   120347631.372         321.099          40.000    22901388.652    93777376.912         250.429          38.000  
G16  22814747.317   119892308.889        3195.534          40.000                                                                  
C09  37704152.028   196335413.643        -177.225          43.000    37704137.555   151818937.937        -137.142          46.000  
C25  23854460.647   124216442.019        1704.614          42.000                                                                  
C13  38084954.268   198318353.053       -2194.081          42.000    38084947.729   153352294.070       -1696.489          42.000  
C08  38888236.870   202501253.130       -2416.748          39.000    38888223.315   156586758.379       -1868.768          43.000  
G04  24889414.021   130794754.375        3206.657          35.000    24889411.902   101918024.972        2498.898          37.000  
G25  23911144.730   125653911.955       -3880.286          33.000    23911137.910    97912112.726       -3023.340          37.000  
C10                                                                  40613164.430   163532389.630         709.269          43.000  
C07                                                                  39701466.133   159861353.816         863.905          42.000  
> 2025 10 30 06 09 19.0800000  0 21                     
G32  21675611.111   113906104.565       -2632.914          47.000    21675604.347    88757976.654       -2051.584          43.000  
G29  23025444.890   120999532.693        -174.376          43.000    23025437.074    94285318.005        -135.826          42.000  
G28  21114253.122   110956147.733       -1042.753          46.000    21114242.768    86459294.929        -812.654          47.000  
G26  20452046.786   107476232.129        1043.413          47.000    20452040.116    83747688.746         813.104          46.000  
G31  20653667.643   108535755.740         333.250          47.000    20653657.112    84573271.611         259.722          45.000  
C33  22440971.415   116856027.620        -317.385          48.000                                                                  
C06  36551452.216   190333002.151        -186.071          46.000    36551434.311   147177479.485        -144.122          47.000  
C14  22408503.061   116686949.569       -1938.634          47.000    22408488.039    90229693.631       -1499.038          51.000  
C16  36975059.756   192538835.320        -223.759          47.000    36975047.649   148883193.107        -173.032          47.000  
C24  21744415.110   113228871.228        -701.219          51.000                                                                  
C26  24109517.529   125544580.068       -2529.273          44.000                                                                  
G03  22901390.904   120347618.533         321.011          40.000    22901386.228    93777366.938         249.621          38.000  
G16  22814722.977   119892181.064        3195.547          40.000                                                                  
C09  37704153.390   196335420.723        -177.084          43.000    37704138.932   151818943.421        -137.152          46.000  
C25  23854447.564   124216373.838        1704.572          42.000                                                                  
C13  38084971.160   198318440.812       -2193.981          42.000    38084964.615   153352361.928       -1696.459          42.000  
C08  38888255.417   202501349.806       -2416.888          39.000    38888241.889   156586833.132       -1868.799          43.000  
G04  24889389.587   130794626.094        3206.756          35.000    24889387.488   101917925.023        2498.831          37.000  
G25  23911174.281   125654067.140       -3879.834          33.000    23911167.453    97912233.677       -3023.718          37.000  
C10                                                                  40613157.373   163532361.266         709.158          43.000  
C07                                                                  39701457.532   159861319.253         863.993          42.000  
> 2025 10 30 06 09 19.1200000  0 21                     
G32  21675631.172   113906209.887       -2633.048          47.000    21675624.384    88758058.722       -2051.681          43.000  
G29  23025446.205   120999539.669        -174.477          43.000    23025438.406    94285323.437        -135.850          42.000  
G28  21114261.052   110956189.439       -1042.736          46.000    21114250.712    86459327.428        -812.599          47.000  
G26  20452038.843   107476190.394        1043.352          47.000    20452032.182    83747656.227         812.987          46.000  
G31  20653665.091   108535742.407         333.263          47.000    20653654.575    84573261.228         259.574          45.000  
C33  22440973.874   116856040.317        -317.446          48.000                                                                  
C06  36551453.637   190333009.603        -186.221          46.000    36551435.752   147177485.245        -144.072          47.000  
C14  22408517.948   116687027.118       -1938.723          47.000    22408502.901    90229753.596       -1499.115          51.000  
C16  36975061.475   192538844.265        -223.709          47.000    36975049.386   148883200.025        -173.013          47.000  
C24  21744420.453   113228899.286        -701.403          51.000                                                                  
C26  24109536.954   125544681.236       -2529.298          44.000                                                                  
G03  22901388.450   120347605.689         321.017          40.000    22901383.786    93777356.936         249.692          38.000  
G16  22814698.653   119892053.235        3195.686          40.000                                                                  
C09  37704154.738   196335427.812        -177.175          43.000    37704140.293   151818948.902        -137.119          46.000  
C25  23854434.471   124216305.668        1704.327          42.000                                                                  
C13  38084987.999   198318528.571       -2193.956          42.000    38084981.472   153352429.786       -1696.441          42.000  
C08  38888273.974   202501446.486       -2417.029          39.000    38888260.437   156586907.876       -1868.677          43.000  
G04  24889365.176   130794497.860        3205.938          35.000    24889363.071   101917825.051        2499.161          37.000  
G25  23911203.810   125654222.355       -3880.164          33.000    23911196.984    97912354.620       -3023.724          37.000  
C10                                                                  40613150.358   163532332.896         709.216          43.000  
C07                                                                  39701448.955   159861284.695         863.947          42.000  
> 2025 10 30 06 09 19.1600000  0 21                     
G32  21675651.218   113906315.208       -2633.110          47.000    21675644.438    88758140.778       -2051.517          43.000  
G29  23025447.520   120999546.643        -174.482          43.000    23025439.720    94285328.884        -136.138          42.000  
G28  21114268.999   110956231.151       -1042.784          46.000    21114258.640    86459359.927        -812.529          47.000  
G26  20452030.904   107476148.663        1043.247          47.000    20452024.254    83747623.712         812.858          46.000  
G31  20653662.547   108535729.082         333.127          47.000    20653652.046    84573250.846         259.495          45.000  
C33  22440976.315   116856053.017        -317.533          48.000                                                                  
C06  36551455.061   190333017.058        -186.364          46.000    36551437.197   147177491.001        -143.982          47.000  
C14  22408532.839   116687104.662       -1938.683          47.000    22408517.803    90229813.562       -1499.191          51.000  
C16  36975063.184   192538853.223        -223.910          47.000    36975051.100   148883206.944        -173.027          47.000  
C24  21744425.848   113228927.338        -701.404          51.000                                                                  
C26  24109556.386   125544782.407       -2529.341          44.000                                                                  
G03  22901385.999   120347592.863         320.665          40.000    22901381.358    93777346.933         249.809          38.000  
G16  22814674.330   119891925.423        3195.396          40.000                                                                  
C09  37704156.095   196335434.915        -177.499          43.000    37704141.618   151818954.390        -137.208          46.000  
C25  23854421.386   124216237.508        1704.059          42.000                                                                  
C13  38085004.861   198318616.337       -2194.126          42.000    38084998.316   153352497.655       -1696.647          42.000  
C08  38888292.552   202501543.147       -2416.742          39.000    38888278.974   156586982.633       -1868.854          43.000  
G04  24889340.776   130794369.563        3206.687          35.000    24889338.659   101917725.120        2498.529          37.000  
G25  23911233.346   125654377.546       -3879.993          33.000    23911226.511    97912475.547       -3023.450          37.000  
C10                                                                  40613143.319   163532304.531         709.139          43.000  
C07                                                                  39701440.360   159861250.156         863.555          42.000  
> 2025 10 30 06 09 19.2000000  0 21                     
G32  21675671.247   113906420.524       -2633.007          47.000    21675664.472    88758222.838       -2051.533          43.000  
G29  23025448.858   120999553.624        -174.541          43.000    23025441.067    94285334.322        -136.103          42.000  
G28  21114276.944   110956272.864       -1042.848          46.000    21114266.574    86459392.427        -812.536          47.000  
G26  20452022.963   107476106.937        1043.106          47.000    20452016.318    83747591.201         812.729          46.000  
G31  20653660.017   108535715.759         333.048          47.000    20653649.506    84573240.459         259.550          45.000  
C33  22440978.739   116856065.717        -317.563          48.000                                                                  
C06  36551456.504   190333024.519        -186.500          46.000    36551438.618   147177496.762        -144.023          47.000  
C14  22408547.708   116687182.214       -1938.764          47.000    22408532.733    90229873.533       -1499.303          51.000  
C16  36975064.885   192538862.182        -224.016          47.000    36975052.832   148883213.870        -173.143          47.000  
C24  21744431.231   113228955.398        -701.524          51.000                                                                  
C26  24109575.819   125544883.575       -2529.294          44.000                                                                  
G03  22901383.575   120347580.035         320.569          40.000    22901378.903    93777336.923         250.011          38.000  
G16  22814650.032   119891797.607        3195.342          40.000                                                                  
C09  37704157.465   196335442.017        -177.614          43.000    37704142.992   151818959.873        -137.149          46.000  
C25  23854408.290   124216169.333        1704.242          42.000                                                                  
C13  38085021.702   198318704.112       -2194.330          42.000    38085015.170   153352565.520       -1696.651          42.000  
C08  38888311.125   202501639.817       -2416.730          39.000    38888297.563   156587057.382       -1868.823          43.000  
G04  24889316.379   130794241.299        3206.567          35.000    24889314.233   101917625.168        2498.577          37.000  
G25  23911262.888   125654532.772       -3880.457          33.000    23911256.046    97912596.511       -3023.956          37.000  
C10                                                                  40613136.286   163532276.177         708.873          43.000  
C07                                                                  39701431.782   159861215.604         863.646          42.000  
> 2025 10 30 06 09 19.2400000  0 21                     
G32  21675691.291   113906525.847       -2633.099          47.000    21675684.524    88758304.918       -2051.846          43.000  
G29  23025450.175   120999560.613        -174.703          43.000    23025442.406    94285339.767        -136.216          42.000  
G28  21114284.869   110956314.576       -1042.888          46.000    21114274.518    86459424.932        -812.621          47.000  
G26  20452015.000   107476065.208        1043.113          47.000    20452008.374    83747558.682         812.866          46.000  
G31  20653657.468   108535702.433         333.061          47.000    20653646.972    84573230.082         259.428          45.000  
C33  22440981.161   116856078.417        -317.580          48.000                                                                  
C06  36551457.940   190333031.968        -186.362          46.000    36551440.051   147177502.535        -144.252          47.000  
C14  22408562.577   116687259.772       -1938.942          47.000    22408547.632    90229933.503       -1499.333          51.000  
C16  36975066.568   192538871.136        -223.966          47.000    36975054.528   148883220.794        -173.159          47.000  
C24  21744436.644   113228983.456        -701.533          51.000                                                                  
C26  24109595.227   125544984.745       -2529.307          44.000                                                                  
G03  22901381.124   120347567.197         320.749          40.000    22901376.463    93777326.927         249.845          38.000  
G16  22814625.731   119891669.797        3195.212          40.000                                                                  
C09  37704158.803   196335449.105        -177.400          43.000    37704144.371   151818965.359        -137.180          46.000  
C25  23854395.210   124216101.163        1704.242          42.000                                                                  
C13  38085038.536   198318791.874       -2194.236          42.000    38085032.019   153352633.386       -1696.669          42.000  
C08  38888329.689   202501736.496       -2416.919          39.000    38888316.140   156587132.139       -1868.890          43.000  
G04  24889291.972   130794113.028        3206.785          35.000    24889289.829   101917525.216        2498.702          37.000  
G25  23911292.442   125654687.974       -3880.304          33.000    23911285.582    97912717.441       -3023.553          37.000  
C10                                                                  40613129.246   163532247.821         708.848          43.000  
C07                                                                  39701423.183   159861181.048         863.773          42.000  
> 2025 10 30 06 09 19.2800000  0 21                     
G32  21675711.309   113906631.173       -2633.215          47.000    21675704.565    88758386.996       -2051.966          43.000  
G29  23025451.515   120999567.602        -174.808          43.000    23025443.725    94285345.220        -136.388          42.000  
G28  21114292.815   110956356.296       -1043.017          46.000    21114282.451    86459457.439        -812.683          47.000  
G26  20452007.064   107476023.485        1043.027          47.000    20452000.422    83747526.163         812.915          46.000  
G31  20653654.954   108535689.116         332.907          47.000    20653644.432    84573219.700         259.447          45.000  
C33  22440983.607   116856091.131        -317.808          48.000                                                                  
C06  36551459.382   190333039.423        -186.394          46.000    36551441.509   147177508.300        -144.226          47.000  
C14  22408577.443   116687337.338       -1939.174          47.000    22408562.534    90229993.474       -1499.356          51.000  
C16  36975068.292   192538880.093        -223.989          47.000    36975056.206   148883227.727        -173.304          47.000  
C24  21744442.059   113229011.514        -701.515          51.000                                                                  
C26  24109614.643   125545085.926       -2529.496          44.000                                                                  
G03  22901378.671   120347554.361         320.863          40.000    22901374.017    93777316.918         250.042          38.000  
G16  22814601.394   119891541.987        3195.158          40.000                                                                  
C09  37704160.136   196335456.199        -177.349          43.000    37704145.763   151818970.856        -137.376          46.000  
C25  23854382.117   124216033.001        1704.053          42.000                                                                  
C13  38085055.391   198318879.634       -2194.136          42.000    38085048.850   153352701.258       -1696.787          42.000  
C08  38888348.251   202501833.183       -2417.157          39.000    38888334.701   156587206.906       -1869.153          43.000  
G04  24889267.538   130793984.753        3206.834          35.000    24889265.425   101917425.281        2498.423          37.000  
G25  23911321.979   125654843.192       -3880.481          33.000    23911315.127    97912838.378       -3023.431          37.000  
C10                                                                  40613122.197   163532219.459         708.926          43.000  
C07                                                                  39701414.596   159861146.491         863.857          42.000  
> 2025 10 30 06 09 19.3200000  0 21                     
G32  21675731.356   113906736.502       -2633.295          47.000    21675724.587    88758469.070       -2051.953          43.000  
G29  23025452.843   120999574.605        -175.042          43.000    23025445.045    94285350.660        -136.222          42.000  
G28  21114300.755   110956398.013       -1043.030          46.000    21114290.390    86459489.954        -812.861          47.000  
G26  20451999.125   107475981.768        1042.905          47.000    20451992.492    83747493.654         812.729          46.000  
G31  20653652.423   108535675.801         332.828          47.000    20653641.899    84573209.322         259.460          45.000  
C33  22440986.069   116856103.838        -317.776          48.000                                                                  
C06  36551460.814   190333046.885        -186.499          46.000    36551442.943   147177514.067        -144.221          47.000  
C14  22408592.348   116687414.901       -1939.206          47.000    22408577.421    90230053.452       -1499.449          51.000  
C16  36975070.013   192538889.054        -224.037          47.000    36975057.923   148883234.654        -173.241          47.000  
C24  21744447.427   113229039.582        -701.682          51.000                                                                  
C26  24109634.053   125545187.111       -2529.640          44.000                                                                  
G03  22901376.225   120347541.539         320.662          40.000    22901371.571    93777306.933         249.708          38.000  
G16  22814577.092   119891414.188        3194.915          40.000                                                                  
C09  37704161.512   196335463.300        -177.469          43.000    37704147.143   151818976.345        -137.341          46.000  
C25  23854369.032   124215964.830        1704.163          42.000                                                                  
C13  38085072.256   198318967.414       -2194.409          42.000    38085065.696   153352769.135       -1696.923          42.000  
C08  38888366.824   202501929.859       -2417.084          39.000    38888353.263   156587281.676       -1869.312          43.000  
G04  24889243.167   130793856.519        3206.148          35.000    24889241.011   101917325.315        2498.849          37.000  
G25  23911351.536   125654998.430       -3880.988          33.000    23911344.677    97912959.334       -3023.755          37.000  
C10                                                                  40613115.140   163532191.103         708.895          43.000  
C07                                                                  39701406.008   159861111.941         863.768          42.000  
> 2025 10 30 06 09 19.3600000  0 21                     
G32  21675751.395   113906841.839       -2633.460          47.000    21675744.619    88758551.140       -2051.857          43.000  
G29  23025454.163   120999581.599        -174.995          43.000    23025446.370    94285356.105        -136.170          42.000  
G28  21114308.683   110956439.743       -1043.237          46.000    21114298.331    86459522.467        -812.913          47.000  
G26  20451991.186   107475940.053        1042.801          47.000    20451984.570    83747461.150         812.551          46.000  
G31  20653649.875   108535662.490         332.724          47.000    20653639.350    84573198.950         259.312          45.000  
C33  22440988.529   116856116.551        -317.876          48.000                                                                  
C06  36551462.247   190333054.354        -186.727          46.000    36551444.352   147177519.835        -144.213          47.000  
C14  22408607.264   116687492.467       -1939.286          47.000    22408592.301    90230113.433       -1499.562          51.000  
C16  36975071.764   192538898.016        -224.101          47.000    36975059.616   148883241.587        -173.344          47.000  
C24  21744452.824   113229067.651        -701.763          51.000                                                                  
C26  24109653.471   125545288.298       -2529.723          44.000                                                                  
G03  22901373.812   120347528.719         320.526          40.000    22901369.126    93777296.958         249.341          38.000  
G16  22814552.784   119891286.387        3194.842          40.000                                                                  
C09  37704162.897   196335470.399        -177.514          43.000    37704148.499   151818981.837        -137.333          46.000  
C25  23854355.945   124215896.676        1703.906          42.000                                                                  
C13  38085089.130   198319055.201       -2194.700          42.000    38085082.537   153352837.009       -1696.953          42.000  
C08  38888385.407   202502026.550       -2417.224          39.000    38888371.836   156587356.435       -1869.183          43.000  
G04  24889218.740   130793728.246        3206.447          35.000    24889216.597   101917225.388        2498.351          37.000  
G25  23911381.069   125655153.659       -3881.055          33.000    23911374.210    97913080.279       -3023.718          37.000  
C10                                                                  40613108.092   163532162.749         708.799          43.000  
C07                                                                  39701397.420   159861077.379         863.910          42.000  
> 2025 10 30 06 09 19.4000000  0 21                     
G32  21675771.425   113906947.168       -2633.364          47.000    21675764.674    88758633.221       -2051.982          43.000  
G29  23025455.479   120999588.596        -174.992          43.000    23025447.706    94285361.559        -136.302          42.000  
G28  21114316.628   110956481.467       -1043.234          46.000    21114306.274    86459554.981        -812.969          47.000  
G26  20451983.236   107475898.339        1042.746          47.000    20451976.645    83747428.657         812.281          46.000  
G31  20653647.347   108535649.178         332.725          47.000    20653636.836    84573188.582         259.202          45.000  
C33  22440990.975   116856129.269        -317.996          48.000                                                                  
C06  36551463.690   190333061.807        -186.508          46.000    36551445.778   147177525.604        -144.224          47.000  
C14  22408622.174   116687570.030       -1939.197          47.000    22408607.189    90230173.412       -1499.583          51.000  
C16  36975073.462   192538906.988        -224.305          47.000    36975061.333   148883248.520        -173.394          47.000  
C24  21744458.183   113229095.723        -701.876          51.000                                                                  
C26  24109672.918   125545389.475       -2529.585          44.000                                                                  
G03  22901371.377   120347515.907         320.237          40.000    22901366.672    93777286.955         249.744          38.000  
G16  22814528.466   119891158.572        3195.090          40.000                                                                  
C09  37704164.253   196335477.512        -177.760          43.000    37704149.868   151818987.330        -137.377          46.000  
C25  23854342.890   124215828.516        1703.894          42.000                                                                  
C13  38085105.964   198319142.985       -2194.766          42.000    38085099.385   153352904.889       -1697.020          42.000  
C08  38888403.984   202502123.235       -2417.194          39.000    38888390.384   156587431.192       -1869.031          43.000  
G04  24889194.326   130793600.014        3205.900          35.000    24889192.188   101917125.456        2498.176          37.000  
G25  23911410.597   125655308.847       -3880.127          33.000    23911403.758    97913201.224       -3023.743          37.000  
C10                                                                  40613101.041   163532134.391         708.839          43.000  
C07                                                                  39701388.835   159861042.837         863.640          42.000  
> 2025 10 30 06 09 19.4400000  0 21                     
G32  21675791.477   113907052.507       -2633.446          47.000    21675784.726    88758715.314       -2052.238          43.000  
G29  23025456.800   120999595.588        -174.897          43.000    23025449.038    94285367.022        -136.566          42.000  
G28  21114324.557   110956523.192       -1043.219          46.000    21114314.225    86459587.486        -812.803          47.000  
G26  20451975.291   107475856.629        1042.692          47.000    20451968.718    83747396.151         812.437          46.000  
G31  20653644.815   108535635.866         332.719          47.000    20653634.289    84573178.204         259.320          45.000  
C33  22440993.419   116856141.988        -318.028          48.000                                                                  
C06  36551465.115   190333069.268        -186.514          46.000    36551447.187   147177531.380        -144.382          47.000  
C14  22408637.086   116687647.596       -1939.182          47.000    22408622.090    90230233.391       -1499.535          51.000  
C16  36975075.201   192538915.951        -224.228          47.000    36975063.050   148883255.449        -173.327          47.000  
C24  21744463.590   113229123.793        -701.837          51.000                                                                  
C26  24109692.319   125545490.652       -2529.518          44.000                                                                  
G03  22901368.954   120347503.091         320.261          40.000    22901364.233    93777276.955         249.899          38.000  
G16  22814504.157   119891030.771        3195.001          40.000                                                                  
C09  37704165.618   196335484.620        -177.780          43.000    37704151.230   151818992.820        -137.319          46.000  
C25  23854329.797   124215760.354        1703.992          42.000                                                                  
C13  38085122.836   198319230.757       -2194.513          42.000    38085116.245   153352972.759       -1696.869          42.000  
C08  38888422.570   202502219.923       -2417.255          39.000    38888408.970   156587505.949       -1868.951          43.000  
G04  24889169.921   130793471.730        3206.611          35.000    24889167.774   101917025.521        2498.178          37.000  
G25  23911440.128   125655464.074       -3880.396          33.000    23911433.300    97913322.198       -3024.237          37.000  
C10                                                                  40613094.008   163532106.042         708.752          43.000  
C07                                                                  39701380.233   159861008.301         863.358          42.000  
> 2025 10 30 06 09 19.4800000  0 21                     
G32  21675811.545   113907157.847       -2633.506          47.000    21675804.797    88758797.385       -2052.002          43.000  
G29  23025458.144   120999602.587        -174.966          43.000    23025450.383    94285372.482        -136.664          42.000  
G28  21114332.486   110956564.920       -1043.245          46.000    21114322.175    86459620.002        -812.876          47.000  
G26  20451967.336   107475814.914        1042.754          47.000    20451960.761    83747363.649         812.456          46.000  
G31  20653642.298   108535622.550         332.818          47.000    20653631.763    84573167.830         259.276          45.000  
C33  22440995.880   116856154.705        -317.985          48.000                                                                  
C06  36551466.542   190333076.731        -186.553          46.000    36551448.592   147177537.150        -144.309          47.000  
C14  22408651.968   116687725.162       -1939.188          47.000    22408636.993    90230293.371       -1499.547          51.000  
C16  36975076.934   192538924.910        -224.071          47.000    36975064.769   148883262.380        -173.313          47.000  
C24  21744469.028   113229151.862        -701.808          51.000                                                                  
C26  24109711.769   125545591.832       -2529.513          44.000                                                                  
G03  22901366.501   120347490.264         320.516          40.000    22901361.818    93777266.977         249.603          38.000  
G16  22814479.830   119890902.966        3195.015          40.000                                                                  
C09  37704167.007   196335491.721        -177.645          43.000    37704152.593   151818998.314        -137.350          46.000  
C25  23854316.709   124215692.197        1703.919          42.000                                                                  
C13  38085139.705   198319318.524       -2194.277          42.000    38085133.110   153353040.633       -1696.844          42.000  
C08  38888441.141   202502316.609       -2417.267          39.000    38888427.515   156587580.715       -1869.061          43.000  
G04  24889145.492   130793343.464        3206.729          35.000    24889143.378   101916925.573        2498.443          37.000  
G25  23911469.671   125655619.285       -3880.280          33.000    23911462.841    97913443.155       -3024.140          37.000  
C10                                                                  40613086.985   163532077.692         708.710          43.000  
C07                                                                  39701371.662   159860973.749         863.552          42.000  
> 2025 10 30 06 09 19.5200000  0 21                     
G32  21675831.572   113907263.182       -2633.452          47.000    21675824.845    88758879.467       -2052.036          43.000  
G29  23025459.493   120999609.587        -175.016          43.000    23025451.714    94285377.935        -136.509          42.000  
G28  21114340.407   110956606.640       -1043.123          46.000    21114330.090    86459652.512        -812.805          47.000  
G26  20451959.394   107475773.198        1042.828          47.000    20451952.836    83747331.148         812.493          46.000  
G31  20653639.794   108535609.238         332.781          47.000    20653629.241    84573157.459         259.233          45.000  
C33  22440998.309   116856167.420        -317.946          48.000                                                                  
C06  36551467.958   190333084.205        -186.754          46.000    36551450.028   147177542.917        -144.246          47.000  
C14  22408666.832   116687802.734       -1939.317          47.000    22408651.883    90230353.354       -1499.591          51.000  
C16  36975078.683   192538933.870        -224.001          47.000    36975066.517   148883269.310        -173.282          47.000  
C24  21744474.419   113229179.924        -701.664          51.000                                                                  
C26  24109731.195   125545693.016       -2529.580          44.000                                                                  
G03  22901364.059   120347477.445         320.548          40.000    22901359.379    93777256.995         249.452          38.000  
G16  22814455.494   119890775.161        3195.060          40.000                                                                  
C09  37704168.361   196335498.823        -177.588          43.000    37704153.952   151819003.806        -137.331          46.000  
C25  23854303.646   124215624.034        1703.998          42.000                                                                  
C13  38085156.577   198319406.298       -2194.299          42.000    38085149.938   153353108.502       -1696.777          42.000  
C08  38888459.709   202502413.292       -2417.175          39.000    38888446.079   156587655.468       -1868.921          43.000  
G04  24889121.080   130793215.188        3206.841          35.000    24889118.956   101916825.621        2498.686          37.000  
G25  23911499.189   125655774.516       -3880.591          33.000    23911492.379    97913564.100       -3023.846          37.000  
C10                                                                  40613079.937   163532049.339         708.762          43.000  
C07                                                                  39701363.076   159860939.190         863.828          42.000  
> 2025 10 30 06 09 19.5600000  0 21                     
G32  21675851.617   113907368.508       -2633.269          47.000    21675844.874    88758961.541       -2051.911          43.000  
G29  23025460.807   120999616.582        -174.921          43.000    23025453.016    94285383.391        -136.451          42.000  
G28  21114348.352   110956648.358       -1043.026          46.000    21114338.016    86459685.023        -812.766          47.000  
G26  20451951.454   107475731.479        1042.914          47.000    20451944.891    83747298.632         812.789          46.000  
G31  20653637.250   108535595.920         332.898          47.000    20653626.711    84573147.078         259.393          45.000  
C33  22441000.777   116856180.131        -317.832          48.000                                                                  
C06  36551469.399   190333091.659        -186.504          46.000    36551451.446   147177548.689        -144.308          47.000  
C14  22408681.730   116687880.303       -1939.308          47.000    22408666.751    90230413.331       -1499.500          51.000  
C16  36975080.389   192538942.828        -223.946          47.000    36975068.242   148883276.236        -173.205          47.000  
C24  21744479.811   113229207.990        -701.659          51.000                                                                  
C26  24109750.613   125545794.202       -2529.615          44.000                                                                  
G03  22901361.603   120347464.631         320.478          40.000    22901356.959    93777246.993         249.827          38.000  
G16  22814431.176   119890647.347        3195.300          40.000                                                                  
C09  37704169.722   196335505.922        -177.506          43.000    37704155.309   151819009.291        -137.191          46.000  
C25  23854290.579   124215555.867        1704.144          42.000                                                                  
C13  38085173.429   198319494.071       -2194.299          42.000    38085166.799   153353176.379       -1696.896          42.000  
C08  38888478.291   202502509.963       -2416.901          39.000    38888464.633   156587730.235       -1869.086          43.000  
G04  24889096.668   130793086.947        3206.327          35.000    24889094.538   101916725.670        2498.777          37.000  
G25  23911528.734   125655929.738       -3880.658          33.000    23911521.916    97913685.039       -3023.560          37.000  
C10                                                                  40613072.907   163532020.971         709.113          43.000  
C07                                                                  39701354.523   159860904.645         863.705          42.000  
> 2025 10 30 06 09 19.6000000  0 21                     
G32  21675871.681   113907473.847       -2633.398          47.000    21675864.919    88759043.611       -2051.785          43.000  
G29  23025462.124   120999623.584        -175.029          43.000    23025454.354    94285388.831        -136.112          42.000  
G28  21114356.281   110956690.078       -1042.983          46.000    21114345.956    86459717.532        -812.749          47.000  
G26  20451943.496   107475689.762        1042.932          47.000    20451936.963    83747266.119         812.862          46.000  
G31  20653634.696   108535582.601         332.953          47.000    20653624.182    84573136.705         259.344          45.000  
C33  22441003.214   116856192.845        -317.828          48.000                                                                  
C06  36551470.816   190333099.115        -186.382          46.000    36551452.887   147177554.451        -144.197          47.000  
C14  22408696.632   116687957.865       -1939.146          47.000    22408681.645    90230473.309       -1499.475          51.000  
C16  36975082.071   192538951.788        -223.982          47.000    36975069.964   148883283.165        -173.214          47.000  
C24  21744485.160   113229236.059        -701.680          51.000                                                                  
C26  24109770.048   125545895.375       -2529.450          44.000                                                                  
G03  22901359.174   120347451.821         320.314          40.000    22901354.529    93777237.009         249.673          38.000  
G16  22814406.848   119890519.537        3195.315          40.000                                                                  
C09  37704171.092   196335513.026        -177.545          43.000    37704156.683   151819014.779        -137.175          46.000  
C25  23854277.487   124215487.702        1704.193          42.000                                                                  
C13  38085190.286   198319581.844       -2194.299          42.000    38085183.667   153353244.251       -1696.858          42.000  
C08  38888496.852   202502606.642       -2416.864          39.000    38888483.220   156587804.996       -1869.104          43.000  
G04  24889072.276   130792958.680        3206.578          35.000    24889070.118   101916625.718        2498.816          37.000  
G25  23911558.267   125656084.962       -3880.640          34.000    23911551.428    97913805.968       -3023.334          37.000  
C10                                                                  40613065.844   163531992.621         708.890          43.000  
C07                                                                  39701345.970   159860870.097         863.679          42.000  
> 2025 10 30 06 09 19.6400000  0 21                     
G32  21675891.729   113907579.178       -2633.311          47.000    21675884.965    88759125.701       -2052.097          43.000  
G29  23025463.460   120999630.586        -175.065          43.000    23025455.681    94285394.285        -136.165          42.000  
G28  21114364.221   110956731.808       -1043.167          46.000    21114353.894    86459750.039        -812.685          47.000  
G26  20451935.556   107475648.047        1042.889          47.000    20451929.016    83747233.616         812.670          46.000  
G31  20653632.169   108535569.286         332.891          47.000    20653621.626    84573126.332         259.301          45.000  
C33  22441005.656   116856205.566        -317.977          48.000                                                                  
C06  36551472.255   190333106.563        -186.202          46.000    36551454.321   147177560.211        -144.067          47.000  
C14  22408711.541   116688035.428       -1939.103          47.000    22408696.530    90230533.285       -1499.419          51.000  
C16  36975083.772   192538960.745        -223.924          47.000    36975071.709   148883290.087        -173.125          47.000  
C24  21744490.570   113229264.121        -701.617          51.000                                                                  
C26  24109789.481   125545996.544       -2529.266          44.000                                                                  
G03  22901356.745   120347439.014         320.184          40.000    22901352.088    93777227.020         249.699          38.000  
G16  22814382.546   119890391.732        3195.221          40.000                                                                  
C09  37704172.467   196335520.112        -177.274          43.000    37704158.033   151819020.270        -137.227          46.000  
C25  23854264.422   124215419.538        1704.175          42.000                                                                  
C13  38085207.140   198319669.623       -2194.417          42.000    38085200.526   153353312.126       -1696.858          42.000  
C08  38888515.419   202502703.317       -2416.791          39.000    38888501.785   156587879.753       -1868.988          43.000  
G04  24889047.876   130792830.431        3206.405          35.000    24889045.717   101916525.795        2498.274          37.000  
G25  23911587.825   125656240.157       -3880.206          34.000    23911580.981    97913926.932       -3023.871          37.000  
C10                                                                  40613058.844   163531964.253         709.100          43.000  
C07                                                                  39701337.410   159860835.555         863.562          42.000  
> 2025 10 30 06 09 19.6800000  0 21                     
G32  21675911.763   113907684.510       -2633.294          47.000    21675905.007    88759207.777       -2052.022          43.000  
G29  23025464.785   120999637.581        -174.964          43.000    23025457.011    94285399.736        -136.237          42.000  
G28  21114372.163   110956773.519       -1042.951          46.000    21114361.835    86459782.546        -812.674          47.000  
G26  20451927.632   107475606.334        1042.852          47.000    20451921.081    83747201.116         812.516          46.000  
G31  20653629.630   108535555.976         332.780          47.000    20653619.084    84573115.953         259.399          45.000  
C33  22441008.126   116856218.280        -317.929          48.000                                                                  
C06  36551473.674   190333114.015        -186.200          46.000    36551455.768   147177565.974        -144.065          47.000  
C14  22408726.433   116688112.996       -1939.183          47.000    22408711.418    90230593.265       -1499.471          51.000  
C16  36975085.501   192538969.703        -223.945          47.000    36975073.419   148883297.017        -173.224          47.000  
C24  21744495.914   113229292.186        -701.605          51.000                                                                  
C26  24109808.910   125546097.723       -2529.376          44.000                                                                  
G03  22901354.298   120347426.185         320.557          40.000    22901349.667    93777217.039         249.548          38.000  
G16  22814358.221   119890263.928        3195.158          40.000                                                                  
C09  37704173.842   196335527.212        -177.360          43.000    37704159.376   151819025.759        -137.252          46.000  
C25  23854251.308   124215351.380        1704.016          42.000                                                                  
C13  38085223.979   198319757.392       -2194.287          42.000    38085217.383   153353379.990       -1696.677          42.000  
C08  38888533.993   202502799.998       -2416.901          39.000    38888520.323   156587954.513       -1868.976          43.000  
G04  24889023.460   130792702.128        3207.267          35.000    24889021.305   101916425.817        2498.960          37.000  
G25  23911617.330   125656395.409       -3881.097          34.000    23911610.502    97914047.876       -3023.761          37.000  
C10                                                                  40613051.785   163531935.886         709.192          43.000  
C07                                                                  39701328.823   159860800.997         863.780          42.000  
> 2025 10 30 06 09 19.7200000  0 21                     
G32  21675931.818   113907789.845       -2633.360          47.000    21675925.038    88759289.861       -2052.097          43.000  
G29  23025466.117   120999644.577        -174.921          43.000    23025458.336    94285405.189        -136.359          42.000  
G28  21114380.091   110956815.242       -1043.007          46.000    21114369.766    86459815.055        -812.703          47.000  
G26  20451919.695   107475564.621        1042.815          47.000    20451913.135    83747168.618         812.412          46.000  
G31  20653627.092   108535542.664         332.756          47.000    20653616.570    84573105.578         259.381          45.000  
C33  22441010.566   116856231.003        -318.057          48.000                                                                  
C06  36551475.108   190333121.473        -186.359          46.000    36551457.210   147177571.745        -144.185          47.000  
C14  22408741.341   116688190.568       -1939.278          47.000    22408726.328    90230653.247       -1499.562          51.000  
C16  36975087.198   192538978.666        -224.057          47.000    36975075.130   148883303.948        -173.307          47.000  
C24  21744501.289   113229320.256        -701.697          51.000                                                                  
C26  24109828.338   125546198.901       -2529.431          44.000                                                                  
G03  22901351.869   120347413.372         320.415          40.000    22901347.230    93777207.057         249.409          38.000  
G16  22814333.912   119890136.125        3195.038          40.000                                                                  
C09  37704175.203   196335534.307        -177.368          43.000    37704160.736   151819031.248        -137.266          46.000  
C25  23854238.201   124215283.218        1704.016          42.000                                                                  
C13  38085240.863   198319845.165       -2194.319          42.000    38085234.233   153353447.860       -1696.659          42.000  
C08  38888552.551   202502896.680       -2416.980          39.000    38888538.888   156588029.260       -1868.726          43.000  
G04  24888999.080   130792573.889        3206.565          35.000    24888996.897   101916325.901        2498.240          37.000  
G25  23911646.870   125656550.600       -3880.304          34.000    23911640.050    97914168.839       -3024.054          37.000  
C10                                                                  40613044.751   163531907.527         709.068          43.000  
C07                                                                  39701320.244   159860766.442         863.860          42.000  
> 2025 10 30 06 09 19.7600000  0 21                     
G32  21675951.884   113907895.183       -2633.438          47.000    21675945.087    88759371.947       -2052.158          43.000  
G29  23025467.462   120999651.584        -175.123          43.000    23025459.663    94285410.650        -136.533          42.000  
G28  21114388.033   110956856.962       -1042.999          46.000    21114377.700    86459847.567        -812.770          47.000  
G26  20451911.748   107475522.910        1042.772          47.000    20451905.187    83747136.111         812.523          46.000  
G31  20653624.553   108535529.348         332.831          47.000    20653614.026    84573095.205         259.350          45.000  
C33  22441013.027   116856243.719        -317.990          48.000                                                                  
C06  36551476.545   190333128.932        -186.458          46.000    36551458.665   147177577.516        -144.290          47.000  
C14  22408756.243   116688268.143       -1939.371          47.000    22408741.212    90230713.224       -1499.489          51.000  
C16  36975088.940   192538987.622        -223.978          47.000    36975076.836   148883310.872        -173.187          47.000  
C24  21744506.693   113229348.322        -701.696          51.000                                                                  
C26  24109847.767   125546300.076       -2529.423          44.000                                                                  
G03  22901349.439   120347400.555         320.396          40.000    22901344.809    93777197.064         249.678          38.000  
G16  22814309.582   119890008.330        3194.819          40.000                                                                  
C09  37704176.561   196335541.404        -177.387          43.000    37704162.128   151819036.734        -137.208          46.000  
C25  23854225.129   124215215.057        1704.022          42.000                                                                  
C13  38085257.729   198319932.936       -2194.294          42.000    38085251.070   153353515.729       -1696.685          42.000  
C08  38888571.124   202502993.363       -2417.090          39.000    38888557.447   156588104.022       -1868.951          43.000  
G04  24888974.676   130792445.632        3206.438          35.000    24888972.489   101916225.946        2498.563          37.000  
G25  23911676.386   125656705.813       -3880.194          34.000    23911669.592    97914289.770       -3023.572          37.000  
C10                                                                  40613037.693   163531879.174         708.917          43.000  
C07                                                                  39701311.670   159860731.883         863.935          42.000  
> 2025 10 30 06 09 19.8000000  0 21                     
G32  21675971.924   113908000.528       -2633.612          47.000    21675965.124    88759454.022       -2051.986          43.000  
G29  23025468.797   120999658.586        -175.166          43.000    23025460.995    94285416.107        -136.568          42.000  
G28  21114395.991   110956898.684       -1043.035          46.000    21114385.641    86459880.081        -812.854          47.000  
G26  20451903.811   107475481.194        1042.834          47.000    20451897.241    83747103.602         812.665          46.000  
G31  20653622.000   108535516.028         332.948          47.000    20653611.477    84573084.821         259.510          45.000  
C33  22441015.468   116856256.434        -317.927          48.000                                                                  
C06  36551477.983   190333136.390        -186.500          46.000    36551460.083   147177583.280        -144.178          47.000  
C14  22408771.146   116688345.707       -1939.195          47.000    22408756.105    90230773.206       -1499.541          51.000  
C16  36975090.698   192538996.583        -224.043          47.000    36975078.543   148883317.794        -173.105          47.000  
C24  21744512.087   113229376.388        -701.689          51.000                                                                  
C26  24109867.187   125546401.256       -2529.476          44.000                                                                  
G03  22901347.008   120347387.731         320.554          40.000    22901342.387    93777187.091         249.471          38.000  
G16  22814285.256   119889880.515        3195.162          40.000                                                                  
C09  37704177.913   196335548.510        -177.617          43.000    37704163.514   151819042.215        -137.075          46.000  
C25  23854212.028   124215146.896        1704.028          42.000                                                                  
C13  38085274.585   198320020.713       -2194.406          42.000    38085267.933   153353583.605       -1696.810          42.000  
C08  38888589.656   202503090.043       -2417.029          39.000    38888576.053   156588178.783       -1869.019          43.000  
G04  24888950.271   130792317.369        3206.398          35.000    24888948.062   101916125.985        2498.899          37.000  
G25  23911705.946   125656861.012       -3879.913          34.000    23911699.113    97914410.717       -3023.499          37.000  
C10                                                                  40613030.638   163531850.814         708.918          43.000  
C07                                                                  39701303.110   159860697.333         863.833          42.000  
> 2025 10 30 06 09 19.8400000  0 21                     
G32  21675991.952   113908105.861       -2633.469          47.000    21675985.153    88759536.089       -2051.748          43.000  
G29  23025470.124   120999665.581        -174.994          43.000    23025462.323    94285421.561        -136.439          42.000  
G28  21114403.946   110956940.408       -1043.087          46.000    21114393.575    86459912.589        -812.792          47.000  
G26  20451895.869   107475439.480        1042.840          47.000    20451889.292    83747071.097         812.634          46.000  
G31  20653619.475   108535502.710         332.953          47.000    20653608.941    84573074.444         259.479          45.000  
C33  22441017.889   116856269.150        -317.894          48.000                                                                  
C06  36551479.442   190333143.841        -186.384          46.000    36551461.480   147177589.048        -144.221          47.000  
C14  22408786.033   116688423.268       -1939.076          47.000    22408771.025    90230833.187       -1499.552          51.000  
C16  36975092.446   192539005.536        -223.932          47.000    36975080.244   148883324.721        -173.119          47.000  
C24  21744517.489   113229404.449        -701.578          51.000                                                                  
C26  24109886.628   125546502.427       -2529.354          44.000                                                                  
G03  22901344.572   120347374.919         320.382          40.000    22901339.950    93777177.097         249.678          38.000  
G16  22814260.934   119889752.710        3195.155          40.000                                                                  
C09  37704179.294   196335555.604        -177.474          43.000    37704164.894   151819047.700        -137.084          46.000  
C25  23854198.929   124215078.730        1704.083          42.000                                                                  
C13  38085291.432   198320108.475       -2194.188          42.000    38085284.794   153353651.477       -1696.847          42.000  
C08  38888608.225   202503186.710       -2416.864          39.000    38888594.622   156588253.537       -1868.896          43.000  
G04  24888925.853   130792189.097        3206.631          35.000    24888923.663   101916026.062        2498.409          37.000  
G25  23911735.507   125657016.235       -3880.267          34.000    23911728.650    97914531.658       -3023.444          37.000  
C10                                                                  40613023.584   163531822.458         708.848          43.000  
C07                                                                  39701294.517   159860662.794         863.560          42.000  
> 2025 10 30 06 09 19.8800000  0 21                     
G32  21676012.006   113908211.190       -2633.307          47.000    21676005.204    88759618.175       -2051.984          43.000  
G29  23025471.453   120999672.582        -175.026          43.000    23025463.660    94285427.024        -136.526          42.000  
G28  21114411.897   110956982.132       -1043.146          46.000    21114401.515    86459945.102        -812.841          47.000  
G26  20451887.943   107475397.770        1042.779          47.000    20451881.363    83747038.591         812.634          46.000  
G31  20653616.949   108535489.396         332.872          47.000    20653606.407    84573064.080         259.189          45.000  
C33  22441020.309   116856281.874        -318.037          48.000                                                                  
C06  36551480.856   190333151.301        -186.477          46.000    36551462.886   147177594.813        -144.196          47.000  
C14  22408800.923   116688500.836       -1939.156          47.000    22408785.943    90230893.175       -1499.680          51.000  
C16  36975094.163   192539014.493        -223.947          47.000    36975081.963   148883331.649        -173.201          47.000  
C24  21744522.856   113229432.518        -701.692          51.000                                                                  
C26  24109906.054   125546603.612       -2529.552          44.000                                                                  
G03  22901342.166   120347362.121         320.012          40.000    22901337.523    93777167.106         249.771          38.000  
G16  22814236.611   119889624.897        3195.259          40.000                                                                  
C09  37704180.648   196335562.695        -177.361          43.000    37704166.250   151819053.193        -137.269          46.000  
C25  23854185.825   124215010.573        1703.961          42.000                                                                  
C13  38085308.270   198320196.256       -2194.413          42.000    38085301.619   153353719.351       -1696.884          42.000  
C08  38888626.771   202503283.391       -2416.980          39.000    38888613.190   156588328.295       -1868.927          43.000  
G04  24888901.444   130792060.841        3206.467          35.000    24888899.246   101915926.117        2498.457          37.000  
G25  23911765.026   125657171.444       -3880.267          34.000    23911758.187    97914652.589       -3023.297          37.000  
C10                                                                  40613016.532   163531794.114         708.589          43.000  
C07                                                                  39701285.928   159860628.250         863.507          42.000  
> 2025 10 30 06 09 19.9200000  0 21                     
G32  21676032.068   113908316.533       -2633.509          47.000    21676025.246    88759700.261       -2052.140          43.000  
G29  23025472.803   120999679.595        -175.277          43.000    23025464.967    94285432.483        -136.494          42.000  
G28  21114419.828   110957023.862       -1043.264          46.000    21114409.471    86459977.620        -812.966          47.000  
G26  20451880.026   107475356.067        1042.600          47.000    20451873.435    83747006.102         812.319          46.000  
G31  20653614.423   108535476.093         332.614          47.000    20653603.858    84573053.710         259.171          45.000  
C33  22441022.729   116856294.603        -318.215          48.000                                                                  
C06  36551482.304   190333158.756        -186.422          46.000    36551464.306   147177600.577        -144.156          47.000  
C14  22408815.818   116688578.414       -1939.394          47.000    22408800.846    90230953.162       -1499.742          51.000  
C16  36975095.869   192539023.452        -223.972          47.000    36975083.680   148883338.581        -173.309          47.000  
C24  21744528.210   113229460.592        -701.834          51.000                                                                  
C26  24109925.477   125546704.791       -2529.547          44.000                                                                  
G03  22901339.741   120347349.318         319.935          40.000    22901335.082    93777157.131         249.486          38.000  
G16  22814212.298   119889497.101        3195.026          40.000                                                                  
C09  37704182.000   196335569.798        -177.501          43.000    37704167.580   151819058.686        -137.343          46.000  
C25  23854172.732   124214942.411        1703.973          42.000                                                                  
C13  38085325.114   198320284.035       -2194.512          42.000    38085318.461   153353787.229       -1697.027          42.000  
C08  38888645.316   202503380.076       -2417.096          39.000    38888631.751   156588403.066       -1869.208          43.000  
G04  24888877.035   130791932.583        3206.341          35.000    24888874.843   101915826.166        2498.586          37.000  
G25  23911794.548   125657326.667       -3880.579          34.000    23911787.742    97914773.550       -3023.779          37.000  
C10                                                                  40613009.467   163531765.751         708.895          43.000  
C07                                                                  39701277.337   159860593.695         863.709          42.000  
> 2025 10 30 06 09 19.9600000  0 21                     
G32  21676052.119   113908421.877       -2633.644          47.000    21676045.300    88759782.352       -2052.304          43.000  
G29  23025474.157   120999686.609        -175.381          43.000    23025466.305    94285437.946        -136.531          42.000  
G28  21114427.773   110957065.589       -1043.265          46.000    21114417.412    86460010.137        -812.991          47.000  
G26  20451872.110   107475314.370        1042.391          47.000    20451865.471    83746973.610         812.197          46.000  
G31  20653611.873   108535462.788         332.529          47.000    20653601.338    84573043.341         259.147          45.000  
C33  22441025.183   116856307.334        -318.345          48.000                                                                  
C06  36551483.726   190333166.223        -186.613          46.000    36551465.715   147177606.345        -144.188          47.000  
C14  22408830.705   116688656.003       -1939.696          47.000    22408815.760    90231013.152       -1499.816          51.000  
C16  36975097.594   192539032.421        -224.166          47.000    36975085.429   148883345.511        -173.325          47.000  
C24  21744533.534   113229488.674        -702.045          51.000                                                                  
C26  24109944.897   125546805.986       -2529.838          44.000                                                                  
G03  22901337.289   120347336.521         319.793          40.000    22901332.643    93777147.165         249.162          38.000  
G16  22814187.990   119889369.317        3194.696          40.000                                                                  
C09  37704183.344   196335576.903        -177.600          43.000    37704168.957   151819064.177        -137.354          46.000  
C25  23854159.626   124214874.259        1703.821          42.000                                                                  
C13  38085341.983   198320371.814       -2194.554          42.000    38085335.307   153353855.103       -1696.944          42.000  
C08  38888663.892   202503476.785       -2417.664          39.000    38888650.325   156588477.832       -1869.238          43.000  
G04  24888852.630   130791804.304        3206.708          35.000    24888850.433   101915726.228        2498.442          37.000  
G25  23911824.111   125657481.900       -3880.865          34.000    23911817.281    97914894.520       -3024.237          37.000  
C10                                                                  40613002.423   163531737.374         709.286          43.000  
C07                                                                  39701268.752   159860559.142         863.778          42.000  
> 2025 10 30 06 09 20.0000000  0 21                     
G32  21676072.161   113908527.224       -2633.722          47.000    21676065.334    88759864.444       -2052.362          43.000  
G29  23025475.485   120999693.620        -175.411          43.000    23025467.623    94285443.404        -136.455          42.000  
G28  21114435.691   110957107.316       -1043.254          46.000    21114425.360    86460042.655        -812.999          47.000  
G26  20451864.170   107475272.671        1042.362          47.000    20451857.531    83746941.121         812.118          46.000  
G31  20653609.317   108535449.480         332.597          47.000    20653598.812    84573032.967         259.271          45.000  
C33  22441027.660   116856320.063        -318.340          48.000                                                                  
C06  36551485.143   190333173.690        -186.709          46.000    36551467.123   147177612.113        -144.236          47.000  
C14  22408845.608   116688733.582       -1939.630          47.000    22408830.691    90231073.139       -1499.755          51.000  
C16  36975099.308   192539041.381        -224.130          47.000    36975087.165   148883352.441        -173.309          47.000  
C24  21744538.973   113229516.751        -702.049          51.000                                                                  
C26  24109964.328   125546907.164       -2529.646          44.000                                                                  
G03  22901334.849   120347323.713         319.985          40.000    22901330.214    93777137.203         248.920          38.000  
G16  22814163.674   119889241.516        3194.838          40.000                                                                  
C09  37704184.728   196335584.004        -177.579          43.000    37704170.322   151819069.666        -137.314          46.000  
C25  23854146.548   124214806.099        1703.937          42.000                                                                  
C13  38085358.840   198320459.589       -2194.472          42.000    38085352.173   153353922.981       -1696.969          42.000  
C08  38888682.476   202503573.465       -2417.365          39.000    38888668.870   156588552.591       -1869.073          43.000  
G04  24888828.239   130791676.041        3206.557          35.000    24888826.027   101915626.296        2498.271          37.000  
G25  23911853.630   125657637.125       -3880.823          34.000    23911846.822    97915015.471       -3024.103          37.000  
C10                                                                  40612995.403   163531709.021         709.038          43.000  
C07                                                                  39701260.162   159860524.594         863.723          43.000  
> 2025 10 30 06 09 20.0400000  0 21                     
G32  21676092.197   113908632.571       -2633.761          47.000    21676085.375    88759946.525       -2052.193          43.000  
G29  23025476.797   120999700.633        -175.408          43.000    23025468.946    94285448.868        -136.570          42.000  
G28  21114443.621   110957149.043       -1043.225          46.000    21114433.278    86460075.163        -812.809          47.000  
G26  20451856.213   107475230.967        1042.492          47.000    20451849.611    83746908.628         812.193          46.000  
G31  20653606.767   108535436.169         332.684          47.000    20653596.301    84573022.599         259.203          45.000  
C33  22441030.135   116856332.788        -318.221          48.000                                                                  
C06  36551486.570   190333181.145        -186.573          46.000    36551468.574   147177617.885        -144.313          47.000  
C14  22408860.499   116688811.161       -1939.581          47.000    22408845.590    90231133.126       -1499.715          51.000  
C16  36975101.009   192539050.343        -224.128          47.000    36975088.913   148883359.371        -173.269          47.000  
C24  21744544.394   113229544.819        -701.854          51.000                                                                  
C26  24109983.752   125547008.341       -2529.499          44.000                                                                  
G03  22901332.420   120347310.890         320.369          40.000    22901327.772    93777127.216         249.328          38.000  
G16  22814139.365   119889113.721        3194.846          40.000                                                                  
C09  37704186.094   196335591.103        -177.528          43.000    37704171.667   151819075.159        -137.352          46.000  
C25  23854133.454   124214737.944        1703.894          42.000                                                                  
C13  38085375.710   198320547.371       -2194.533          42.000    38085369.015   153353990.856       -1696.937          42.000  
C08  38888701.050   202503670.139       -2417.004          39.000    38888687.416   156588627.359       -1869.183          43.000  
G04  24888803.834   130791547.781        3206.475          35.000    24888801.617   101915526.336        2498.655          37.000  
G25  23911883.181   125657792.327       -3880.304          34.000    23911876.355    97915136.408       -3023.651          37.000  
C10                                                                  40612988.390   163531680.675         708.734          43.000  
C07                                                                  39701251.582   159860490.051         863.572          42.000  
> 2025 10 30 06 09 20.0800000  0 21                     
G32  21676112.254   113908737.918       -2633.756          47.000    21676105.410    88760028.598       -2051.919          43.000  
G29  23025478.135   120999707.644        -175.370          43.000    23025470.280    94285454.334        -136.689          42.000  
G28  21114451.560   110957190.769       -1043.198          46.000    21114441.201    86460107.681        -812.917          47.000  
G26  20451848.256   107475189.264        1042.517          47.000    20451841.671    83746876.128         812.354          46.000  
G31  20653604.254   108535422.863         332.647          47.000    20653593.765    84573012.235         259.098          45.000  
C33  22441032.603   116856345.519        -318.279          48.000                                                                  
C06  36551488.010   190333188.600        -186.475          46.000    36551469.983   147177623.651        -144.243          47.000  
C14  22408875.412   116688888.731       -1939.382          47.000    22408860.477    90231193.112       -1499.663          51.000  
C16  36975102.732   192539059.306        -224.133          47.000    36975090.644   148883366.299        -173.217          47.000  
C24  21744549.785   113229572.893        -701.857          51.000                                                                  
C26  24110003.187   125547109.518       -2529.458          44.000                                                                  
G03  22901330.000   120347298.097         320.045          40.000    22901325.324    93777117.227         249.636          38.000  
G16  22814115.027   119888985.915        3195.015          40.000                                                                  
C09  37704187.470   196335598.195        -177.377          43.000    37704173.032   151819080.649        -137.301          46.000  
C25  23854120.410   124214669.788        1703.894          42.000                                                                  
C13  38085392.566   198320635.156       -2194.645          42.000    38085385.861   153354058.735       -1696.974          42.000  
C08  38888719.598   202503766.823       -2417.010          39.000    38888705.978   156588702.119       -1869.104          43.000  
G04  24888779.456   130791419.535        3206.217          35.000    24888777.211   101915426.403        2498.461          37.000  
G25  23911912.698   125657947.535       -3880.212          34.000    23911905.888    97915257.359       -3023.669          37.000  
C10                                                                  40612981.356   163531652.325         708.655          43.000  
C07                                                                  39701243.006   159860455.511         863.430          42.000  
> 2025 10 30 06 09 20.1200000  0 21                     
G32  21676132.303   113908843.270       -2633.799          47.000    21676125.481    88760110.700       -2052.325          43.000  
G29  23025479.472   120999714.664        -175.494          43.000    23025471.630    94285459.804        -136.794          42.000  
G28  21114459.504   110957232.504       -1043.332          46.000    21114449.175    86460140.196        -812.916          47.000  
G26  20451840.306   107475147.564        1042.492          47.000    20451833.745    83746843.630         812.458          46.000  
G31  20653601.721   108535409.561         332.586          47.000    20653591.215    84573001.869         259.080          45.000  
C33  22441035.039   116856358.249        -318.304          48.000                                                                  
C06  36551489.421   190333196.059        -186.498          46.000    36551471.431   147177629.419        -144.225          47.000  
C14  22408890.290   116688966.316       -1939.552          47.000    22408875.376    90231253.103       -1499.754          51.000  
C16  36975104.461   192539068.268        -224.093          47.000    36975092.363   148883373.230        -173.249          47.000  
C24  21744555.140   113229600.970        -701.911          51.000                                                                  
C26  24110022.634   125547210.701       -2529.522          44.000                                                                  
G03  22901327.574   120347285.296         319.938          40.000    22901322.874    93777107.257         249.380          38.000  
G16  22814090.718   119888858.114        3195.065          40.000                                                                  
C09  37704188.841   196335605.297        -177.493          43.000    37704174.371   151819086.144        -137.384          46.000  
C25  23854107.309   124214601.637        1703.790          42.000                                                                  
C13  38085409.420   198320722.944       -2194.744          42.000    38085402.725   153354126.614       -1696.974          42.000  
C08  38888738.156   202503863.511       -2417.078          39.000    38888724.533   156588776.885       -1869.141          43.000  
G04  24888755.054   130791291.294        3205.868          35.000    24888752.803   101915326.463        2498.463          37.000  
G25  23911942.230   125658102.759       -3880.536          34.000    23911935.426    97915378.314       -3023.816          37.000  
C10                                                                  40612974.327   163531623.968         708.760          43.000  
C07                                                                  39701234.449   159860420.960         863.567          42.000  
> 2025 10 30 06 09 20.1600000  0 21                     
G32  21676152.352   113908948.617       -2633.751          47.000    21676145.525    88760192.798       -2052.464          43.000  
G29  23025480.801   120999721.677        -175.385          43.000    23025472.964    94285465.273        -136.817          42.000  
G28  21114467.441   110957274.233       -1043.293          46.000    21114457.111    86460172.714        -812.947          47.000  
G26  20451832.366   107475105.863        1042.492          47.000    20451825.804    83746811.130         812.482          46.000  
G31  20653599.219   108535396.258         332.549          47.000    20653588.676    84572991.494         259.260          45.000  
C33  22441037.486   116856370.984        -318.379          48.000                                                                  
C06  36551490.851   190333203.515        -186.429          46.000    36551472.889   147177635.187        -144.238          47.000  
C14  22408905.195   116689043.889       -1939.428          47.000    22408890.287    90231313.088       -1499.677          51.000  
C16  36975106.177   192539077.223        -223.932          47.000    36975094.063   148883380.162        -173.275          47.000  
C24  21744560.530   113229629.044        -701.896          51.000                                                                  
C26  24110042.066   125547311.880       -2529.524          44.000                                                                  
G03  22901325.133   120347272.505         319.765          40.000    22901320.462    93777097.290         249.185          38.000  
G16  22814066.412   119888730.324        3194.837          40.000                                                                  
C09  37704190.185   196335612.409        -177.740          43.000    37704175.744   151819091.629        -137.224          46.000  
C25  23854094.219   124214533.486        1703.760          42.000                                                                  
C13  38085426.283   198320810.714       -2194.399          42.000    38085419.569   153354194.483       -1696.806          42.000  
C08  38888756.732   202503960.191       -2416.986          39.000    38888743.106   156588851.639       -1868.909          43.000  
G04  24888730.626   130791162.995        3206.803          35.000    24888728.409   101915226.529        2498.416          37.000  
G25  23911971.749   125658257.969       -3880.353          34.000    23911964.950    97915499.259       -3023.712          37.000  
C10                                                                  40612967.305   163531595.616         708.787          43.000  
C07                                                                  39701225.899   159860386.393         863.965          42.000  
> 2025 10 30 06 09 20.2000000  0 21                     
G32  21676172.408   113909053.964       -2633.719          47.000    21676165.583    88760274.887       -2052.385          43.000  
G29  23025482.153   120999728.691        -175.361          43.000    23025474.288    94285470.734        -136.665          42.000  
G28  21114475.390   110957315.956       -1043.160          46.000    21114465.041    86460205.233        -813.013          47.000  
G26  20451824.444   107475064.162        1042.486          47.000    20451817.891    83746778.641         812.309          46.000  
G31  20653596.664   108535382.946         332.691          47.000    20653586.158    84572981.131         259.148          45.000  
C33  22441039.948   116856383.714        -318.313          48.000                                                                  
C06  36551492.275   190333210.972        -186.433          46.000    36551474.346   147177640.954        -144.231          47.000  
C14  22408920.101   116689121.470       -1939.500          47.000    22408905.176    90231373.085       -1499.876          51.000  
C16  36975107.882   192539086.185        -224.007          47.000    36975095.769   148883387.087        -173.192          47.000  
C24  21744565.919   113229657.115        -701.845          51.000                                                                  
C26  24110061.499   125547413.066       -2529.658          44.000                                                                  
G03  22901322.694   120347259.697         319.981          40.000    22901318.022    93777087.305         249.420          38.000  
G16  22814042.097   119888602.521        3195.003          40.000                                                                  
C09  37704191.550   196335619.504        -177.546          43.000    37704177.098   151819097.119        -137.205          46.000  
C25  23854081.155   124214465.330        1703.833          42.000                                                                  
C13  38085443.154   198320898.499       -2194.526          42.000    38085436.461   153354262.365       -1697.000          42.000  
C08  38888775.293   202504056.873       -2417.035          39.000    38888761.706   156588926.400       -1868.964          43.000  
G04  24888706.217   130791034.737        3206.603          35.000    24888703.997   101915126.580        2498.588          37.000  
G25  23912001.314   125658413.212       -3880.835          34.000    23911994.499    97915620.224       -3024.011          37.000  
C10                                                                  40612960.288   163531567.252         708.990          43.000  
C07                                                                  39701217.303   159860351.843         863.885          42.000  
> 2025 10 30 06 09 20.2400000  0 21                     
G32  21676192.440   113909159.305       -2633.581          47.000    21676185.629    88760356.970       -2052.220          43.000  
G29  23025483.490   120999735.697        -175.204          43.000    23025475.613    94285476.204        -136.740          42.000  
G28  21114483.353   110957357.696       -1043.405          46.000    21114472.991    86460237.749        -812.963          47.000  
G26  20451816.516   107475022.463        1042.449          47.000    20451809.962    83746746.151         812.217          46.000  
G31  20653594.134   108535369.638         332.696          47.000    20653583.597    84572970.755         259.309          45.000  
C33  22441042.394   116856396.450        -318.404          48.000                                                                  
C06  36551493.705   190333218.441        -186.678          46.000    36551475.802   147177646.719        -144.152          47.000  
C14  22408934.969   116689199.056       -1939.620          47.000    22408920.103    90231433.076       -1499.861          51.000  
C16  36975109.596   192539095.150        -224.112          47.000    36975097.473   148883394.018        -173.244          47.000  
C24  21744571.294   113229685.188        -701.832          51.000                                                                  
C26  24110080.934   125547514.256       -2529.793          44.000                                                                  
G03  22901320.257   120347246.903         319.861          40.000    22901315.576    93777077.325         249.489          38.000  
G16  22814017.762   119888474.725        3194.939          40.000                                                                  
C09  37704192.898   196335626.610        -177.596          43.000    37704178.452   151819102.606        -137.181          46.000  
C25  23854068.048   124214397.168        1703.992          42.000                                                                  
C13  38085459.996   198320986.277       -2194.464          42.000    38085453.314   153354330.240       -1696.969          42.000  
C08  38888793.865   202504153.560       -2417.151          39.000    38888780.257   156589001.168       -1869.147          43.000  
G04  24888681.805   130790906.502        3206.108          35.000    24888679.596   101915026.626        2498.737          37.000  
G25  23912030.854   125658568.432       -3880.701          34.000    23912024.031    97915741.151       -3023.425          37.000  
C10                                                                  40612953.234   163531538.896         708.903          43.000  
C07                                                                  39701208.710   159860317.295         863.764          42.000  
> 2025 10 30 06 09 20.2800000  0 21                     
G32  21676212.502   113909264.650       -2633.606          47.000    21676205.662    88760439.054       -2052.097          43.000  
G29  23025484.845   120999742.721        -175.503          43.000    23025476.931    94285481.670        -136.689          42.000  
G28  21114491.291   110957399.425       -1043.330          46.000    21114480.924    86460270.263        -812.882          47.000  
G26  20451808.582   107474980.768        1042.369          47.000    20451802.025    83746713.659         812.249          46.000  
G31  20653591.622   108535356.335         332.591          47.000    20653581.073    84572960.386         259.296          45.000  
C33  22441044.862   116856409.177        -318.280          48.000                                                                  
C06  36551495.130   190333225.896        -186.505          46.000    36551477.252   147177652.487        -144.180          47.000  
C14  22408949.855   116689276.639       -1939.604          47.000    22408934.981    90231493.070       -1499.884          51.000  
C16  36975111.324   192539104.111        -224.064          47.000    36975099.152   148883400.944        -173.173          47.000  
C24  21744576.658   113229713.265        -701.919          51.000                                                                  
C26  24110100.373   125547615.441       -2529.751          44.000                                                                  
G03  22901317.820   120347234.115         319.693          40.000    22901313.146    93777067.375         248.935          38.000  
G16  22813993.446   119888346.944        3194.612          40.000                                                                  
C09  37704194.252   196335633.710        -177.545          43.000    37704179.820   151819108.102        -137.308          46.000  
C25  23854054.952   124214329.016        1703.851          42.000                                                                  
C13  38085476.867   198321074.057       -2194.470          42.000    38085470.202   153354398.110       -1696.813          42.000  
C08  38888812.416   202504250.255       -2417.407          39.000    38888798.814   156589075.933       -1869.159          43.000  
G04  24888657.421   130790778.257        3206.159          35.000    24888655.190   101914926.677        2498.656          37.000  
G25  23912060.378   125658723.664       -3880.823          34.000    23912053.585    97915862.116       -3023.889          37.000  
C10                                                                  40612946.182   163531510.545         708.775          43.000  
C07                                                                  39701200.151   159860282.760         863.479          42.000  
> 2025 10 30 06 09 20.3200000  0 21                     
G32  21676232.577   113909370.006       -2633.810          47.000    21676225.673    88760521.144       -2052.202          43.000  
G29  23025486.160   120999749.742        -175.595          43.000    23025478.254    94285487.137        -136.709          42.000  
G28  21114499.215   110957441.155       -1043.302          46.000    21114488.853    86460302.784        -812.993          47.000  
G26  20451800.641   107474939.069        1042.425          47.000    20451794.092    83746681.169         812.218          46.000  
G31  20653589.083   108535343.030         332.585          47.000    20653578.551    84572950.024         259.098          45.000  
C33  22441047.294   116856421.912        -318.332          48.000                                                                  
C06  36551496.567   190333233.361        -186.572          46.000    36551478.671   147177658.256        -144.227          47.000  
C14  22408964.775   116689354.217       -1939.506          47.000    22408949.887    90231553.059       -1499.833          51.000  
C16  36975113.060   192539113.068        -223.979          47.000    36975100.863   148883407.874        -173.208          47.000  
C24  21744582.028   113229741.344        -701.990          51.000                                                                  
C26  24110119.816   125547716.620       -2529.601          44.000                                                                  
G03  22901315.393   120347221.320         319.759          40.000    22901310.699    93777057.402         249.077          38.000  
G16  22813969.134   119888219.150        3194.704          40.000                                                                  
C09  37704195.600   196335640.811        -177.546          43.000    37704181.170   151819113.589        -137.238          46.000  
C25  23854041.871   124214260.872        1703.632          42.000                                                                  
C13  38085493.713   198321161.832       -2194.396          42.000    38085487.058   153354465.987       -1696.863          42.000  
C08  38888830.980   202504346.935       -2417.218          39.000    38888817.396   156589150.687       -1868.939          43.000  
G04  24888632.997   130790649.975        3206.759          35.000    24888630.794   101914826.739        2498.415          37.000  
G25  23912089.950   125658878.884       -3880.707          34.000    23912083.131    97915983.073       -3024.011          37.000  
C10                                                                  40612939.119   163531482.183         708.949          43.000  
C07                                                                  39701191.571   159860248.207         863.664          42.000  
> 2025 10 30 06 09 20.3600000  0 21                     
G32  21676252.615   113909475.359       -2633.884          47.000    21676245.720    88760603.239       -2052.372          43.000  
G29  23025487.497   120999756.760        -175.548          43.000    23025479.608    94285492.609        -136.803          42.000  
G28  21114507.138   110957482.882       -1043.243          46.000    21114496.793    86460335.296        -812.900          47.000  
G26  20451792.699   107474897.364        1042.554          47.000    20451786.147    83746648.671         812.373          46.000  
G31  20653586.524   108535329.720         332.678          47.000    20653576.001    84572939.653         259.173          45.000  
C33  22441049.729   116856434.649        -318.434          48.000                                                                  
C06  36551498.005   190333240.816        -186.454          46.000    36551480.114   147177664.022        -144.207          47.000  
C14  22408979.671   116689431.797       -1939.469          47.000    22408964.792    90231613.052       -1499.859          51.000  
C16  36975114.752   192539122.023        -223.890          47.000    36975102.584   148883414.805        -173.266          47.000  
C24  21744587.390   113229769.423        -702.039          51.000                                                                  
C26  24110139.275   125547817.789       -2529.331          44.000                                                                  
G03  22901312.942   120347208.511         320.029          40.000    22901308.262    93777047.438         249.055          38.000  
G16  22813944.796   119888091.338        3195.094          40.000                                                                  
C09  37704196.943   196335647.911        -177.515          43.000    37704182.525   151819119.080        -137.271          46.000  
C25  23854028.788   124214192.718        1703.711          42.000                                                                  
C13  38085510.563   198321249.607       -2194.385          42.000    38085503.895   153354533.879       -1697.212          42.000  
C08  38888849.552   202504443.603       -2416.827          39.000    38888835.966   156589225.452       -1869.049          43.000  
G04  24888608.586   130790521.692        3207.151          35.000    24888606.405   101914726.804        2498.307          37.000  
G25  23912119.482   125659034.097       -3880.499          34.000    23912112.697    97916104.031       -3024.017          37.000  
C10                                                                  40612932.044   163531453.835         708.738          43.000  
C07                                                                  39701182.981   159860213.652         863.806          42.000  
> 2025 10 30 06 09 20.4000000  0 21                     
G32  21676272.647   113909580.709       -2633.846          47.000    21676265.765    88760685.335       -2052.438          43.000  
G29  23025488.818   120999763.780        -175.527          43.000    23025480.970    94285498.075        -136.764          42.000  
G28  21114515.038   110957524.606       -1043.148          46.000    21114504.736    86460367.816        -812.987          47.000  
G26  20451784.781   107474855.670        1042.425          47.000    20451778.210    83746616.181         812.304          46.000  
G31  20653583.994   108535316.421         332.511          47.000    20653573.475    84572929.290         259.080          45.000  
C33  22441052.161   116856447.387        -318.510          48.000                                                                  
C06  36551499.448   190333248.262        -186.252          46.000    36551481.568   147177669.789        -144.199          47.000  
C14  22408994.552   116689509.390       -1939.728          47.000    22408979.673    90231673.046       -1499.870          51.000  
C16  36975116.458   192539130.981        -223.906          47.000    36975104.307   148883421.734        -173.272          47.000  
C24  21744592.761   113229797.495        -701.939          51.000                                                                  
C26  24110158.688   125547918.977       -2529.533          44.000                                                                  
G03  22901310.499   120347195.711         320.014          40.000    22901305.814    93777037.461         249.281          38.000  
G16  22813920.506   119887963.545        3194.926          40.000                                                                  
C09  37704198.267   196335655.008        -177.498          43.000    37704183.901   151819124.567        -137.266          46.000  
C25  23854015.700   124214124.555        1703.943          42.000                                                                  
C13  38085527.416   198321337.392       -2194.534          42.000    38085520.767   153354601.749       -1696.973          42.000  
C08  38888868.119   202504540.294       -2417.126          39.000    38888854.542   156589300.215       -1869.116          43.000  
G04  24888584.191   130790393.423        3207.018          35.000    24888582.006   101914626.831        2498.934          37.000  
G25  23912149.033   125659189.326       -3880.719          34.000    23912142.240    97916224.990       -3024.024          37.000  
C10                                                                  40612925.016   163531425.480         708.738          43.000  
C07                                                                  39701174.395   159860179.100         863.835          42.000  
> 2025 10 30 06 09 20.4400000  0 21                     
G32  21676292.699   113909686.064       -2633.911          47.000    21676285.816    88760767.423       -2052.351          43.000  
G29  23025490.130   120999770.804        -175.590          43.000    23025482.300    94285503.559        -137.015          42.000  
G28  21114522.973   110957566.341       -1043.311          46.000    21114512.653    86460400.337        -813.064          47.000  
G26  20451776.852   107474813.986        1042.160          48.000    20451770.287    83746583.701         812.064          46.000  
G31  20653581.472   108535303.120         332.456          47.000    20653570.955    84572918.925         259.069          45.000  
C33  22441054.578   116856460.134        -318.679          48.000                                                                  
C06  36551500.908   190333255.733        -186.575          46.000    36551482.978   147177675.562        -144.319          47.000  
C14  22409009.464   116689586.979       -1939.788          47.000    22408994.575    90231733.039       -1499.864          51.000  
C16  36975118.130   192539139.947        -224.095          47.000    36975106.036   148883428.666        -173.315          47.000  
C24  21744598.140   113229825.576        -702.030          51.000                                                                  
C26  24110178.091   125548020.166       -2529.699          44.000                                                                  
G03  22901308.083   120347182.924         319.742          40.000    22901303.385    93777027.504         249.002          38.000  
G16  22813896.202   119887835.761        3194.681          40.000                                                                  
C09  37704199.638   196335662.102        -177.391          43.000    37704185.264   151819130.059        -137.297          46.000  
C25  23854002.599   124214056.407        1703.760          42.000                                                                  
C13  38085544.265   198321425.179       -2194.651          42.000    38085537.618   153354669.633       -1697.073          42.000  
C08  38888886.674   202504636.976       -2417.120          39.000    38888873.115   156589374.984       -1869.226          43.000  
G04  24888559.779   130790265.169        3206.747          35.000    24888557.597   101914526.913        2498.305          37.000  
G25  23912178.565   125659344.520       -3880.151          34.000    23912171.782    97916345.920       -3023.456          37.000  
C10                                                                  40612917.968   163531397.111         709.052          43.000  
C07                                                                  39701165.835   159860144.557         863.650          42.000  
> 2025 10 30 06 09 20.4800000  0 21                     
G32  21676312.772   113909791.416       -2633.873          47.000    21676305.857    88760849.522       -2052.469          43.000  
G29  23025491.467   120999777.824        -175.577          43.000    23025483.636    94285509.028        -136.873          42.000  
G28  21114530.907   110957608.078       -1043.413          46.000    21114520.602    86460432.862        -813.142          47.000  
G26  20451768.904   107474772.295        1042.148          48.000    20451762.373    83746551.221         811.941          46.000  
G31  20653578.931   108535289.821         332.426          47.000    20653568.416    84572908.568         258.902          45.000  
C33  22441057.056   116856472.871        -318.559          48.000                                                                  
C06  36551502.339   190333263.200        -186.661          46.000    36551484.407   147177681.335        -144.366          47.000  
C14  22409024.386   116689664.568       -1939.810          47.000    22409009.464    90231793.036       -1499.941          51.000  
C16  36975119.825   192539148.917        -224.254          47.000    36975107.750   148883435.589        -173.171          47.000  
C24  21744603.527   113229853.660        -702.092          51.000                                                                  
C26  24110197.547   125548121.350       -2529.688          44.000                                                                  
G03  22901305.645   120347170.137         319.658          40.000    22901300.963    93777017.540         249.038          38.000  
G16  22813871.877   119887707.978        3194.534          40.000                                                                  
C09  37704200.981   196335669.204        -177.532          43.000    37704186.631   151819135.549        -137.277          46.000  
C25  23853989.494   124213988.260        1703.668          42.000                                                                  
C13  38085561.129   198321512.968       -2194.743          42.000    38085554.451   153354737.509       -1696.979          42.000  
C08  38888905.239   202504733.677       -2417.450          39.000    38888891.682   156589449.757       -1869.342          43.000  
G04  24888535.367   130790136.940        3206.001          35.000    24888533.203   101914426.970        2498.389          37.000  
G25  23912208.111   125659499.743       -3880.328          34.000    23912201.318    97916466.881       -3023.785          37.000  
C10                                                                  40612910.890   163531368.758         708.935          43.000  
C07                                                                  39701157.242   159860109.999         863.828          42.000  
> 2025 10 30 06 09 20.5200000  0 21                     
G32  21676332.807   113909896.770       -2633.873          47.000    21676325.903    88760931.611       -2052.395          43.000  
G29  23025492.803   120999784.853        -175.747          43.000    23025484.963    94285514.496        -136.773          42.000  
G28  21114538.837   110957649.817       -1043.501          46.000    21114528.548    86460465.379        -813.058          47.000  
G26  20451760.949   107474730.605        1042.187          48.000    20451754.408    83746518.729         812.121          46.000  
G31  20653576.395   108535276.521         332.451          47.000    20653565.879    84572898.198         259.069          45.000  
C33  22441059.517   116856485.608        -318.482          48.000                                                                  
C06  36551503.779   190333270.659        -186.570          46.000    36551485.797   147177687.107        -144.373          47.000  
C14  22409039.301   116689742.147       -1939.623          47.000    22409024.378    90231853.033       -1499.976          51.000  
C16  36975121.535   192539157.883        -224.255          47.000    36975109.456   148883442.523        -173.277          47.000  
C24  21744608.928   113229881.737        -702.024          51.000                                                                  
C26  24110217.010   125548222.532       -2529.635          44.000                                                                  
G03  22901303.195   120347157.352         319.586          40.000    22901298.510    93777007.577         249.046          38.000  
G16  22813847.547   119887580.186        3194.650          40.000                                                                  
C09  37704202.345   196335676.307        -177.601          43.000    37704187.978   151819141.049        -137.454          46.000  
C25  23853976.423   124213920.104        1703.833          42.000                                                                  
C13  38085578.000   198321600.745       -2194.523          42.000    38085571.305   153354805.394       -1697.116          42.000  
C08  38888923.790   202504830.371       -2417.480          39.000    38888910.251   156589524.514       -1869.098          43.000  
G04  24888510.975   130790008.662        3206.533          35.000    24888508.801   101914327.035        2498.300          37.000  
G25  23912237.649   125659654.992       -3880.932          34.000    23912230.873    97916587.834       -3023.816          37.000  
C10                                                                  40612903.831   163531340.406         708.813          43.000  
C07                                                                  39701148.652   159860075.453         863.714          42.000  
> 2025 10 30 06 09 20.5600000  0 21                     
G32  21676352.846   113910002.119       -2633.788          47.000    21676345.979    88761013.709       -2052.466          43.000  
G29  23025494.115   120999791.874        -175.656          43.000    23025486.295    94285519.972        -136.888          42.000  
G28  21114546.757   110957691.542       -1043.266          46.000    21114536.472    86460497.896        -813.011          47.000  
G26  20451753.026   107474688.909        1042.297          48.000    20451746.473    83746486.235         812.294          46.000  
G31  20653573.858   108535263.215         332.568          47.000    20653563.347    84572887.827         259.211          45.000  
C33  22441061.970   116856498.345        -318.464          48.000                                                                  
C06  36551505.228   190333278.108        -186.333          46.000    36551487.226   147177692.871        -144.246          47.000  
C14  22409054.187   116689819.736       -1939.702          47.000    22409039.295    90231913.029       -1499.963          51.000  
C16  36975123.249   192539166.840        -224.064          47.000    36975111.168   148883449.445        -173.134          47.000  
C24  21744614.319   113229909.812        -701.912          51.000                                                                  
C26  24110236.425   125548323.714       -2529.629          44.000                                                                  
G03  22901300.764   120347144.576         319.458          40.000    22901296.069    93776997.592         249.448          38.000  
G16  22813823.228   119887452.377        3195.052          40.000                                                                  
C09  37704203.721   196335683.405        -177.555          43.000    37704189.345   151819146.537        -137.324          46.000  
C25  23853963.345   124213851.944        1703.955          42.000                                                                  
C13  38085594.850   198321688.518       -2194.318          42.000    38085588.172   153354873.262       -1696.842          42.000  
C08  38888942.350   202504927.046       -2417.157          39.000    38888928.826   156589599.278       -1869.116          43.000  
G04  24888486.603   130789880.414        3206.304          35.000    24888484.402   101914227.088        2498.512          37.000  
G25  23912267.163   125659810.215       -3880.865          34.000    23912260.406    97916708.784       -3023.749          37.000  
C10                                                                  40612896.794   163531312.054         708.778          42.000  
C07                                                                  39701140.084   159860040.903         863.701          43.000  
> 2025 10 30 06 09 20.6000000  0 21                     
G32  21676372.895   113910107.468       -2633.750          47.000    21676366.019    88761095.799       -2052.373          43.000  
G29  23025495.442   120999798.906        -175.813          43.000    23025487.641    94285525.444        -136.855          42.000  
G28  21114554.706   110957733.278       -1043.366          46.000    21114544.415    86460530.416        -813.003          47.000  
G26  20451745.080   107474647.214        1042.346          48.000    20451738.533    83746453.749         812.207          46.000  
G31  20653571.325   108535249.912         332.568          47.000    20653560.805    84572877.465         259.112          45.000  
C33  22441064.392   116856511.083        -318.479          49.000                                                                  
C06  36551506.631   190333285.565        -186.379          46.000    36551488.666   147177698.636        -144.182          47.000  
C14  22409069.076   116689897.327       -1939.792          47.000    22409054.201    90231973.025       -1499.942          51.000  
C16  36975124.972   192539175.795        -223.924          47.000    36975112.877   148883456.380        -173.285          47.000  
C24  21744619.752   113229937.887        -701.890          51.000                                                                  
C26  24110255.865   125548424.907       -2529.786          44.000                                                                  
G03  22901298.316   120347131.786         319.675          40.000    22901293.639    93776987.640         249.029          38.000  
G16  22813798.918   119887324.588        3194.879          40.000                                                                  
C09  37704205.103   196335690.508        -177.612          43.000    37704190.702   151819152.024        -137.236          46.000  
C25  23853950.244   124213783.797        1703.766          42.000                                                                  
C13  38085611.716   198321776.302       -2194.515          42.000    38085605.015   153354941.134       -1696.781          42.000  
C08  38888960.917   202505023.716       -2416.833          39.000    38888947.380   156589674.042       -1869.122          43.000  
G04  24888462.195   130789752.144        3206.628          35.000    24888459.985   101914127.129        2498.797          37.000  
G25  23912296.679   125659965.438       -3880.682          34.000    23912289.954    97916829.727       -3023.560          37.000  
C10                                                                  40612889.733   163531283.694         708.912          42.000  
C07                                                                  39701131.484   159860006.364         863.514          43.000  
> 2025 10 30 06 09 20.6400000  0 21                     
G32  21676392.936   113910212.827       -2633.903          47.000    21676386.076    88761177.892       -2052.374          43.000  
G29  23025496.770   120999805.933        -175.754          43.000    23025488.990    94285530.924        -136.942          42.000  
G28  21114562.653   110957775.013       -1043.422          46.000    21114552.360    86460562.930        -812.911          47.000  
G26  20451737.147   107474605.526        1042.241          48.000    20451730.620    83746421.270         812.003          46.000  
G31  20653568.801   108535236.607         332.617          47.000    20653558.278    84572867.101         259.069          45.000  
C33  22441066.829   116856523.829        -318.613          49.000                                                                  
C06  36551508.042   190333293.027        -186.460          46.000    36551490.122   147177704.403        -144.177          47.000  
C14  22409084.006   116689974.916       -1939.803          47.000    22409069.130    90232033.020       -1499.916          51.000  
C16  36975126.704   192539184.747        -223.812          47.000    36975114.596   148883463.315        -173.387          47.000  
C24  21744625.126   113229965.965        -701.912          51.000                                                                  
C26  24110275.295   125548526.087       -2529.642          44.000                                                                  
G03  22901295.872   120347119.001         319.693          40.000    22901291.203    93776977.657         249.441          38.000  
G16  22813774.584   119887196.798        3194.778          40.000                                                                  
C09  37704206.458   196335697.610        -177.598          43.000    37704192.069   151819157.516        -137.275          46.000  
C25  23853937.160   124213715.644        1703.797          42.000                                                                  
C13  38085628.565   198321864.079       -2194.490          42.000    38085621.853   153355009.015       -1696.976          42.000  
C08  38888979.496   202505120.406       -2417.084          39.000    38888965.945   156589748.806       -1869.128          43.000  
G04  24888437.782   130789623.893        3206.334          35.000    24888435.599   101914027.185        2498.680          37.000  
G25  23912326.215   125660120.653       -3880.402          33.000    23912319.489    97916950.649       -3023.029          37.000  
C10                                                                  40612882.696   163531255.347         708.746          42.000  
C07                                                                  39701122.921   159859971.815         863.612          43.000  
> 2025 10 30 06 09 20.6800000  0 21                     
G32  21676412.980   113910318.184       -2633.945          47.000    21676406.134    88761259.981       -2052.315          43.000  
G29  23025498.104   120999812.954        -175.589          43.000    23025490.341    94285536.400        -136.941          42.000  
G28  21114570.594   110957816.746       -1043.425          46.000    21114560.295    86460595.448        -812.942          47.000  
G26  20451729.256   107474563.838        1042.186          48.000    20451722.678    83746388.786         812.016          46.000  
G31  20653566.289   108535223.306         332.562          47.000    20653555.753    84572856.733         259.112          45.000  
C33  22441069.281   116856536.569        -318.571          49.000                                                                  
C06  36551509.458   190333300.490        -186.558          46.000    36551491.560   147177710.166        -144.092          47.000  
C14  22409098.925   116690052.508       -1939.793          47.000    22409084.023    90232093.014       -1499.885          51.000  
C16  36975128.448   192539193.703        -223.810          47.000    36975116.308   148883470.242        -173.289          47.000  
C24  21744630.509   113229994.043        -701.945          51.000                                                                  
C26  24110294.715   125548627.263       -2529.489          44.000                                                                  
G03  22901293.423   120347106.206         319.842          40.000    22901288.779    93776967.708         249.004          38.000  
G16  22813750.268   119887069.011        3194.678          40.000                                                                  
C09  37704207.840   196335704.699        -177.363          43.000    37704193.453   151819163.005        -137.244          46.000  
C25  23853924.066   124213647.493        1703.735          42.000                                                                  
C13  38085645.434   198321951.859       -2194.496          42.000    38085638.719   153355076.897       -1697.100          42.000  
C08  38888998.052   202505217.083       -2416.980          39.000    38888984.528   156589823.569       -1869.086          43.000  
G04  24888413.359   130789495.621        3206.609          35.000    24888411.200   101913927.258        2498.279          37.000  
G25  23912355.721   125660275.864       -3880.286          33.000    23912349.027    97917071.624       -3023.932          37.000  
C10                                                                  40612875.658   163531226.983         709.002          41.000  
C07                                                                  39701114.342   159859937.256         863.867          43.000  
> 2025 10 30 06 09 20.7200000  0 21                     
G32  21676433.019   113910423.536       -2633.878          47.000    21676426.180    88761342.072       -2052.270          43.000  
G29  23025499.434   120999819.973        -175.465          43.000    23025491.691    94285541.868        -136.803          42.000  
G28  21114578.546   110957858.474       -1043.290          46.000    21114568.257    86460627.964        -812.918          47.000  
G26  20451721.303   107474522.141        1042.353          48.000    20451714.733    83746356.301         812.016          46.000  
G31  20653563.747   108535209.998         332.629          47.000    20653553.215    84572846.363         259.198          45.000  
C33  22441071.710   116856549.311        -318.590          49.000                                                                  
C06  36551510.879   190333307.947        -186.470          46.000    36551493.002   147177715.930        -144.082          47.000  
C14  22409113.838   116690130.092       -1939.684          47.000    22409098.931    90232153.010       -1499.866          51.000  
C16  36975130.164   192539202.660        -223.899          47.000    36975118.006   148883477.160        -173.062          47.000  
C24  21744635.937   113230022.116        -701.873          51.000                                                                  
C26  24110314.118   125548728.437       -2529.384          44.000                                                                  
G03  22901290.982   120347093.404         320.020          40.000    22901286.351    93776957.752         248.862          38.000  
G16  22813725.955   119886941.208        3194.944          40.000                                                                  
C09  37704209.217   196335711.789        -177.213          43.000    37704194.826   151819168.492        -137.213          46.000  
C25  23853910.983   124213579.330        1703.931          42.000                                                                  
C13  38085662.286   198322039.639       -2194.571          42.000    38085655.586   153355144.769       -1696.937          42.000  
C08  38889016.628   202505313.772       -2417.169          39.000    38889003.090   156589898.333       -1869.147          43.000  
G04  24888388.955   130789367.381        3206.158          35.000    24888386.800   101913827.318        2498.317          37.000  
G25  23912385.285   125660431.082       -3880.420          33.000    23912378.571    97917192.585       -3024.109          37.000  
C10                                                                  40612868.603   163531198.615         709.157          41.000  
C07                                                                  39701105.743   159859902.698         863.972          43.000  
> 2025 10 30 06 09 20.7600000  0 21                     
G32  21676453.065   113910528.886       -2633.813          47.000    21676446.226    88761424.169       -2052.353          43.000  
G29  23025500.787   120999827.000        -175.561          43.000    23025493.034    94285547.339        -136.740          42.000  
G28  21114586.490   110957900.193       -1043.067          46.000    21114576.217    86460660.480        -812.939          47.000  
G26  20451713.371   107474480.447        1042.352          48.000    20451706.793    83746323.809         812.195          46.000  
G31  20653561.238   108535196.696         332.574          47.000    20653550.689    84572835.996         259.179          45.000  
C33  22441074.171   116856562.053        -318.569          49.000                                                                  
C06  36551512.306   190333315.394        -186.260          46.000    36551494.459   147177721.689        -143.986          47.000  
C14  22409128.723   116690207.673       -1939.550          47.000    22409113.825    90232213.012       -1500.028          51.000  
C16  36975131.886   192539211.616        -223.878          47.000    36975119.706   148883484.082        -173.028          47.000  
C24  21744641.315   113230050.192        -701.888          51.000                                                                  
C26  24110333.540   125548829.618       -2529.456          44.000                                                                  
G03  22901288.562   120347080.615         319.828          40.000    22901283.922    93776947.771         249.350          38.000  
G16  22813701.641   119886813.411        3194.896          40.000                                                                  
C09  37704210.581   196335718.893        -177.485          43.000    37704196.200   151819173.973        -137.068          46.000  
C25  23853897.902   124213511.175        1703.894          42.000                                                                  
C13  38085679.151   198322127.409       -2194.365          42.000    38085672.445   153355212.656       -1697.130          42.000  
C08  38889035.179   202505410.448       -2417.041          39.000    38889021.675   156589973.096       -1869.147          43.000  
G04  24888364.549   130789239.099        3206.620          35.000    24888362.415   101913727.393        2498.117          37.000  
G25  23912414.844   125660586.297       -3880.499          33.000    23912408.108    97917313.539       -3024.036          37.000  
C10                                                                  40612861.543   163531170.258         709.020          41.000  
C07                                                                  39701097.209   159859868.143         863.959          43.000  
> 2025 10 30 06 09 20.8000000  0 21                     
G32  21676473.107   113910634.245       -2633.955          47.000    21676466.262    88761506.269       -2052.478          43.000  
G29  23025502.120   120999834.038        -175.864          43.000    23025494.366    94285552.823        -137.013          42.000  
G28  21114594.439   110957941.926       -1043.231          46.000    21114584.161    86460692.995        -812.919          47.000  
G26  20451705.438   107474438.757        1042.260          48.000    20451698.841    83746291.319         812.232          46.000  
G31  20653558.699   108535183.401         332.401          47.000    20653548.171    84572825.632         259.105          45.000  
C33  22441076.630   116856574.799        -318.659          49.000                                                                  
C06  36551513.717   190333322.855        -186.417          46.000    36551495.903   147177727.458        -144.120          47.000  
C14  22409143.612   116690285.269       -1939.804          47.000    22409128.716    90232273.005       -1499.936          51.000  
C16  36975133.599   192539220.577        -224.022          47.000    36975121.423   148883491.008        -173.098          47.000  
C24  21744646.669   113230078.279        -702.104          51.000                                                                  
C26  24110352.945   125548930.806       -2529.631          44.000                                                                  
G03  22901286.142   120347067.839         319.528          40.000    22901281.480    93776937.787         249.642          38.000  
G16  22813677.326   119886685.621        3194.757          40.000                                                                  
C09  37704211.933   196335725.997        -177.649          43.000    37704197.553   151819179.461        -137.141          46.000  
C25  23853884.832   124213443.025        1703.748          42.000                                                                  
C13  38085696.009   198322215.200       -2194.684          42.000    38085689.330   153355280.522       -1696.798          42.000  
C08  38889053.733   202505507.142       -2417.267          39.000    38889040.229   156590047.857       -1869.122          43.000  
G04  24888340.158   130789110.868        3206.044          35.000    24888338.004   101913627.428        2498.783          37.000  
G25  23912444.404   125660741.514       -3880.536          33.000    23912437.627    97917434.483       -3023.779          37.000  
C10                                                                  40612854.504   163531141.897         708.987          41.000  
C07                                                                  39701088.642   159859833.598         863.726          43.000  
> 2025 10 30 06 09 20.8400000  0 21                     
G32  21676493.161   113910739.615       -2634.204          47.000    21676486.295    88761588.372       -2052.627          43.000  
G29  23025503.471   120999841.080        -176.113          43.000    23025495.728    94285558.295        -136.936          42.000  
G28  21114602.390   110957983.671       -1043.559          46.000    21114592.091    86460725.525        -813.179          47.000  
G26  20451697.521   107474397.078        1042.007          48.000    20451690.913    83746258.848         811.892          46.000  
G31  20653556.175   108535170.107         332.291          47.000    20653545.649    84572815.272         258.970          45.000  
C33  22441079.051   116856587.551        -318.818          49.000                                                                  
C06  36551515.135   190333330.319        -186.592          46.000    36551497.326   147177733.235        -144.364          47.000  
C14  22409158.496   116690362.868       -1939.968          47.000    22409143.623    90232333.010       -1500.110          51.000  
C16  36975135.318   192539229.544        -224.160          47.000    36975123.149   148883497.942        -173.286          47.000  
C24  21744652.024   113230106.368        -702.255          51.000                                                                  
C26  24110372.389   125549031.996       -2529.780          44.000                                                                  
G03  22901283.705   120347055.062         319.406          40.000    22901279.063    93776927.851         248.870          38.000  
G16  22813653.007   119886557.844        3194.458          40.000                                                                  
C09  37704213.293   196335733.102        -177.728          43.000    37704198.939   151819184.958        -137.363          46.000  
C25  23853871.732   124213374.890        1703.430          42.000                                                                  
C13  38085712.863   198322302.989       -2194.825          42.000    38085706.175   153355348.397       -1696.819          42.000  
C08  38889072.284   202505603.851       -2417.706          39.000    38889058.807   156590122.627       -1869.232          43.000  
G04  24888315.744   130788982.583        3206.768          35.000    24888313.595   101913527.479        2498.865          37.000  
G25  23912473.957   125660896.763       -3881.110          33.000    23912467.157    97917555.437       -3023.798          37.000  
C10                                                                  40612847.455   163531113.541         708.866          41.000  
C07                                                                  39701080.073   159859799.053         863.578          43.000  
> 2025 10 30 06 09 20.8800000  0 21                     
G32  21676513.215   113910844.984       -2634.300          47.000    21676506.340    88761670.474       -2052.646          43.000  
G29  23025504.817   120999848.118        -176.140          43.000    23025497.064    94285563.790        -137.300          42.000  
G28  21114610.340   110958025.423       -1043.806          46.000    21114600.046    86460758.052        -813.257          47.000  
G26  20451689.614   107474355.406        1041.786          48.000    20451683.003    83746226.374         811.733          46.000  
G31  20653553.660   108535156.816         332.224          47.000    20653543.131    84572804.915         258.872          45.000  
C33  22441081.495   116856600.305        -318.884          49.000                                                                  
C06  36551516.561   190333337.780        -186.617          46.000    36551498.760   147177739.005        -144.364          47.000  
C14  22409173.372   116690440.474       -1940.188          47.000    22409158.518    90232393.016       -1500.202          51.000  
C16  36975137.015   192539238.514        -224.271          47.000    36975124.908   148883504.874        -173.373          47.000  
C24  21744657.466   113230134.453        -702.235          51.000                                                                  
C26  24110391.815   125549133.186       -2529.801          44.000                                                                  
G03  22901281.266   120347042.291         319.215          40.000    22901276.643    93776917.905         248.630          38.000  
G16  22813628.700   119886430.071        3194.267          40.000                                                                  
C09  37704214.657   196335740.205        -177.706          43.000    37704200.333   151819190.451        -137.397          46.000  
C25  23853858.658   124213306.752        1703.314          42.000                                                                  
C13  38085729.738   198322390.776       -2194.817          42.000    38085723.029   153355416.287       -1697.150          42.000  
C08  38889090.847   202505700.539       -2417.377          39.000    38889077.367   156590197.395       -1869.250          43.000  
G04  24888291.339   130788854.313        3206.751          35.000    24888289.183   101913427.528        2498.856          37.000  
G25  23912503.491   125661051.988       -3880.878          33.000    23912496.694    97917676.393       -3023.828          37.000  
C10                                                                  40612840.430   163531085.181         708.914          41.000  
C07                                                                  39701071.477   159859764.518         863.364          43.000  
> 2025 10 30 06 09 20.9200000  0 21                     
G32  21676533.263   113910950.338       -2634.064          47.000    21676526.383    88761752.577       -2052.634          43.000  
G29  23025506.144   120999855.157        -176.112          43.000    23025498.419    94285569.280        -137.377          42.000  
G28  21114618.269   110958067.155       -1043.606          46.000    21114607.976    86460790.579        -813.269          47.000  
G26  20451681.670   107474313.724        1041.874          48.000    20451675.074    83746193.897         811.802          46.000  
G31  20653551.093   108535143.517         332.335          47.000    20653540.606    84572794.554         258.922          45.000  
C33  22441083.976   116856613.056        -318.868          49.000                                                                  
C06  36551517.988   190333345.240        -186.538          46.000    36551500.192   147177744.771        -144.254          47.000  
C14  22409188.259   116690518.068       -1940.040          47.000    22409173.430    90232453.020       -1500.179          51.000  
C16  36975138.748   192539247.473        -224.123          47.000    36975126.668   148883511.806        -173.367          47.000  
C24  21744662.878   113230162.534        -702.112          51.000                                                                  
C26  24110411.272   125549234.371       -2529.711          44.000                                                                  
G03  22901278.801   120347029.521         319.201          40.000    22901274.208    93776907.970         248.309          38.000  
G16  22813604.377   119886302.281        3194.478          40.000                                                                  
C09  37704216.007   196335747.305        -177.589          43.000    37704201.684   151819195.940        -137.293          46.000  
C25  23853845.566   124213238.600        1703.595          42.000                                                                  
C13  38085746.603   198322478.558       -2194.647          42.000    38085739.888   153355484.163       -1697.023          42.000  
C08  38889109.410   202505797.208       -2416.882          39.000    38889095.936   156590272.153       -1869.049          44.000  
G04  24888266.970   130788726.067        3206.355          35.000    24888264.773   101913327.588        2498.611          37.000  
G25  23912532.984   125661207.215       -3880.731          33.000    23912526.256    97917797.347       -3023.859          37.000  
C10                                                                  40612833.383   163531056.830         708.794          41.000  
C07                                                                  39701062.888   159859729.967         863.590          43.000  
> 2025 10 30 06 09 20.9600000  0 21                     
G32  21676553.324   113911055.691       -2633.890          47.000    21676546.430    88761834.671       -2052.482          43.000  
G29  23025507.470   120999862.178        -175.765          43.000    23025499.753    94285574.751        -137.054          42.000  
G28  21114626.179   110958108.882       -1043.336          46.000    21114615.906    86460823.096        -813.079          47.000  
G26  20451673.732   107474272.038        1042.041          48.000    20451667.130    83746161.409         812.062          46.000  
G31  20653548.579   108535130.211         332.564          47.000    20653538.058    84572784.193         258.965          45.000  
C33  22441086.412   116856625.798        -318.660          49.000                                                                  
C06  36551519.432   190333352.688        -186.307          46.000    36551501.595   147177750.530        -144.083          47.000  
C14  22409203.173   116690595.652       -1939.743          47.000    22409188.320    90232513.018       -1500.056          51.000  
C16  36975140.465   192539256.424        -223.872          47.000    36975128.409   148883518.732        -173.261          47.000  
C24  21744668.274   113230190.612        -702.001          51.000                                                                  
C26  24110430.702   125549335.553       -2529.618          44.000                                                                  
G03  22901276.371   120347016.731         319.554          40.000    22901271.781    93776898.008         248.725          38.000  
G16  22813580.080   119886174.490        3194.693          40.000                                                                  
C09  37704217.364   196335754.400        -177.457          43.000    37704203.047   151819201.429        -137.249          46.000  
C25  23853832.498   124213170.445        1703.809          42.000                                                                  
C13  38085763.453   198322566.332       -2194.449          42.000    38085756.762   153355552.041       -1696.999          42.000  
C08  38889127.993   202505893.884       -2416.779          39.000    38889114.513   156590346.908       -1868.884          44.000  
G04  24888242.564   130788597.832        3205.920          35.000    24888240.379   101913227.669        2498.082          37.000  
G25  23912562.571   125661362.417       -3880.170          33.000    23912555.777    97917918.299       -3023.853          37.000  
C10                                                                  40612826.352   163531028.468         708.903          41.000  
C07                                                                  39701054.318   159859695.400         863.993          43.000  
> 2025 10 30 06 09 21.0000000  0 21                     
G32  21676573.365   113911161.045       -2633.831          47.000    21676566.488    88761916.769       -2052.473          43.000  
G29  23025508.811   120999869.195        -175.485          43.000    23025501.084    94285580.223        -136.892          42.000  
G28  21114634.120   110958150.609       -1043.182          46.000    21114623.851    86460855.613        -812.954          47.000  
G26  20451665.768   107474230.349        1042.201          48.000    20451659.182    83746128.925         812.110          46.000  
G31  20653546.038   108535116.904         332.686          47.000    20653535.520    84572773.824         259.132          45.000  
C33  22441088.845   116856638.543        -318.619          49.000                                                                  
C06  36551520.888   190333360.146        -186.362          46.000    36551502.999   147177756.303        -144.227          47.000  
C14  22409218.092   116690673.238       -1939.653          47.000    22409203.209    90232573.010       -1499.871          51.000  
C16  36975142.178   192539265.369        -223.678          47.000    36975130.138   148883525.652        -173.069          47.000  
C24  21744673.704   113230218.690        -701.934          51.000                                                                  
C26  24110450.129   125549436.726       -2529.403          44.000                                                                  
G03  22901273.941   120347003.946         319.607          40.000    22901269.338    93776888.027         249.256          38.000  
G16  22813555.776   119886046.682        3195.048          40.000                                                                  
C09  37704218.731   196335761.484        -177.167          43.000    37704204.445   151819206.916        -137.180          46.000  
C25  23853819.413   124213102.279        1704.114          42.000                                                                  
C13  38085780.315   198322654.108       -2194.389          42.000    38085773.597   153355619.918       -1696.961          42.000  
C08  38889146.557   202505990.577       -2417.133          39.000    38889133.071   156590421.667       -1868.903          44.000  
G04  24888218.130   130788469.574        3206.148          35.000    24888215.970   101913127.728        2498.341          37.000  
G25  23912592.098   125661517.621       -3880.029          33.000    23912585.323    97918039.238       -3023.578          37.000  
C10                                                                  40612819.320   163531000.103         709.062          41.000  
C07                                                                  39701045.718   159859660.843         864.030          43.000  
> 2025 10 30 06 09 21.0400000  0 21                     
G32  21676593.407   113911266.409       -2634.017          47.000    21676586.552    88761998.864       -2052.395          43.000  
G29  23025510.141   120999876.227        -175.646          43.000    23025502.414    94285585.698        -136.871          42.000  
G28  21114642.040   110958192.332       -1043.057          46.000    21114631.809    86460888.132        -812.931          47.000  
G26  20451657.822   107474188.658        1042.287          48.000    20451651.250    83746096.437         812.189          46.000  
G31  20653543.523   108535103.601         332.642          47.000    20653533.005    84572763.461         259.119          45.000  
C33  22441091.271   116856651.288        -318.615          49.000                                                                  
C06  36551522.287   190333367.597        -186.277          46.000    36551504.424   147177762.068        -144.208          47.000  
C14  22409232.988   116690750.825       -1939.658          47.000    22409218.102    90232633.005       -1499.869          51.000  
C16  36975143.897   192539274.321        -223.705          47.000    36975131.892   148883532.572        -173.002          47.000  
C24  21744679.125   113230246.763        -701.841          51.000                                                                  
C26  24110469.565   125549537.909       -2529.520          44.000                                                                  
G03  22901271.501   120346991.150         319.818          40.000    22901266.896    93776878.046         249.441          38.000  
G16  22813531.466   119885918.890        3194.904          40.000                                                                  
C09  37704220.080   196335768.580        -177.294          43.000    37704205.794   151819212.394        -136.979          46.000  
C25  23853806.330   124213034.123        1704.041          42.000                                                                  
C13  38085797.165   198322741.879       -2194.310          42.000    38085790.494   153355687.794       -1696.918          42.000  
C08  38889165.126   202506087.259       -2417.175          39.000    38889151.635   156590496.432       -1869.061          44.000  
G04  24888193.714   130788341.287        3206.910          35.000    24888191.557   101913027.779        2498.580          37.000  
G25  23912621.635   125661672.847       -3880.444          33.000    23912614.859    97918160.182       -3023.596          37.000  
C10                                                                  40612812.270   163530971.736         709.186          41.000  
C07                                                                  39701037.128   159859626.293         863.871          43.000  
> 2025 10 30 06 09 21.0800000  0 21                     
G32  21676613.461   113911371.770       -2634.055          47.000    21676606.598    88762080.963       -2052.444          43.000  
G29  23025511.478   120999883.262        -175.830          43.000    23025503.761    94285591.192        -137.190          43.000  
G28  21114649.997   110958234.073       -1043.340          46.000    21114639.740    86460920.650        -812.917          47.000  
G26  20451649.892   107474146.973        1042.181          48.000    20451643.330    83746063.956         812.091          46.000  
G31  20653540.997   108535090.300         332.580          47.000    20653530.483    84572753.094         259.162          45.000  
C33  22441093.681   116856664.038        -318.726          49.000                                                                  
C06  36551523.703   190333375.052        -186.316          46.000    36551505.878   147177767.829        -144.095          47.000  
C14  22409247.857   116690828.415       -1939.718          47.000    22409233.002    90232693.008       -1500.011          51.000  
C16  36975145.614   192539283.283        -223.928          47.000    36975133.626   148883539.497        -173.065          47.000  
C24  21744684.492   113230274.841        -701.925          51.000                                                                  
C26  24110489.010   125549639.086       -2529.469          44.000                                                                  
G03  22901269.087   120346978.394         319.155          40.000    22901264.468    93776868.094         249.074          38.000  
G16  22813507.169   119885791.100        3194.783          40.000                                                                  
C09  37704221.467   196335775.677        -177.411          43.000    37704207.152   151819217.882        -137.130          46.000  
C25  23853793.209   124212965.982        1703.674          42.000                                                                  
C13  38085814.017   198322829.667       -2194.559          42.000    38085807.353   153355755.674       -1697.005          42.000  
C08  38889183.712   202506183.959       -2417.487          39.000    38889170.194   156590571.194       -1869.086          44.000  
G04  24888169.286   130788213.001        3207.249          35.000    24888167.151   101912927.832        2498.577          37.000  
G25  23912651.180   125661828.085       -3880.823          33.000    23912644.402    97918281.146       -3024.005          37.000  
C10                                                                  40612805.203   163530943.376         709.094          41.000  
C07                                                                  39701028.561   159859591.747         863.667          43.000  
> 2025 10 30 06 09 21.1200000  0 21                     
G32  21676633.485   113911477.126       -2634.008          47.000    21676626.658    88762163.065       -2052.501          43.000  
G29  23025512.827   120999890.296        -175.897          43.000    23025505.092    94285596.668        -137.089          43.000  
G28  21114657.938   110958275.810       -1043.429          46.000    21114647.699    86460953.170        -812.974          47.000  
G26  20451641.967   107474105.291        1042.070          48.000    20451635.408    83746031.480         811.955          46.000  
G31  20653538.477   108535077.007         332.358          47.000    20653527.967    84572742.730         259.137          45.000  
C33  22441096.112   116856676.792        -318.865          49.000                                                                  
C06  36551525.106   190333382.507        -186.371          46.000    36551507.315   147177773.595        -144.124          47.000  
C14  22409262.749   116690906.020       -1940.019          47.000    22409247.903    90232753.015       -1500.145          51.000  
C16  36975147.385   192539292.242        -223.998          47.000    36975135.330   148883546.428        -173.216          47.000  
C24  21744689.817   113230302.927        -702.089          51.000                                                                  
C26  24110508.441   125549740.257       -2529.374          44.000                                                                  
G03  22901266.648   120346965.615         319.255          40.000    22901262.038    93776858.150         248.647          38.000  
G16  22813482.862   119885663.330        3194.351          40.000                                                                  
C09  37704222.822   196335782.784        -177.657          44.000    37704208.526   151819223.378        -137.326          46.000  
C25  23853780.133   124212897.833        1703.601          42.000                                                                  
C13  38085830.864   198322917.455       -2194.682          42.000    38085824.208   153355823.550       -1696.962          42.000  
C08  38889202.282   202506280.634       -2417.090          39.000    38889188.762   156590645.957       -1869.110          44.000  
G04  24888144.894   130788084.738        3206.978          35.000    24888142.732   101912827.870        2498.884          37.000  
G25  23912680.719   125661983.293       -3880.463          33.000    23912673.959    97918402.108       -3024.127          37.000  
C10                                                                  40612798.148   163530915.015         709.022          41.000  
C07                                                                  39701019.963   159859557.196         863.677          43.000  
> 2025 10 30 06 09 21.1600000  0 21                     
G32  21676653.542   113911582.496       -2634.210          47.000    21676646.688    88762245.172       -2052.636          43.000  
G29  23025514.173   120999897.348        -176.228          43.000    23025506.425    94285602.154        -137.156          43.000  
G28  21114665.901   110958317.559       -1043.714          46.000    21114655.670    86460985.694        -813.082          47.000  
G26  20451634.020   107474063.619        1041.805          48.000    20451627.487    83745999.005         811.857          46.000  
G31  20653535.945   108535063.716         332.242          47.000    20653525.447    84572732.375         258.946          45.000  
C33  22441098.575   116856689.550        -318.990          49.000                                                                  
C06  36551526.525   190333389.969        -186.499          46.000    36551508.771   147177779.362        -144.156          47.000  
C14  22409277.646   116690983.626       -1940.219          47.000    22409262.799    90232813.020       -1500.186          51.000  
C16  36975149.137   192539301.207        -224.143          47.000    36975137.083   148883553.358        -173.285          47.000  
C24  21744695.219   113230331.019        -702.300          51.000                                                                  
C26  24110527.867   125549841.451       -2529.685          44.000                                                                  
G03  22901264.195   120346952.839         319.275          40.000    22901259.613    93776848.199         248.628          38.000  
G16  22813458.521   119885535.542        3194.463          40.000                                                                  
C09  37704224.186   196335789.878        -177.545          44.000    37704209.894   151819228.868        -137.343          46.000  
C25  23853767.054   124212829.687        1703.571          42.000                                                                  
C13  38085847.715   198323005.246       -2194.825          42.000    38085841.066   153355891.432       -1697.043          42.000  
C08  38889220.835   202506377.315       -2417.017          39.000    38889207.344   156590720.721       -1869.171          44.000  
G04  24888120.473   130787956.522        3205.954          35.000    24888118.326   101912727.921        2498.711          37.000  
G25  23912710.257   125662138.506       -3880.389          33.000    23912703.499    97918523.063       -3024.011          37.000  
C10                                                                  40612791.138   163530886.668         708.719          41.000  
C07                                                                  39701011.373   159859522.646         863.674          43.000  
> 2025 10 30 06 09 21.2000000  0 21                     
G32  21676673.586   113911687.858       -2634.159          47.000    21676666.738    88762327.264       -2052.453          43.000  
G29  23025515.509   120999904.389        -176.192          43.000    23025507.751    94285607.646        -137.294          43.000  
G28  21114673.853   110958359.300       -1043.674          46.000    21114663.624    86461018.222        -813.217          47.000  
G26  20451626.085   107474021.948        1041.696          48.000    20451619.545    83745966.535         811.716          46.000  
G31  20653533.406   108535050.428         332.150          47.000    20653522.928    84572722.018         258.866          45.000  
C33  22441101.071   116856702.312        -319.087          49.000                                                                  
C06  36551527.947   190333397.432        -186.581          46.000    36551510.214   147177785.128        -144.170          47.000  
C14  22409292.538   116691061.235       -1940.328          47.000    22409277.697    90232873.029       -1500.248          51.000  
C16  36975150.881   192539310.167        -224.086          47.000    36975138.800   148883560.287        -173.315          47.000  
C24  21744700.589   113230359.115        -702.468          51.000                                                                  
C26  24110547.304   125549942.643       -2529.839          44.000                                                                  
G03  22901261.758   120346940.061         319.365          40.000    22901257.174    93776838.247         248.643          38.000  
G16  22813434.214   119885407.769        3194.295          40.000                                                                  
C09  37704225.553   196335796.983        -177.639          44.000    37704211.231   151819234.360        -137.353          46.000  
C25  23853753.969   124212761.538        1703.656          42.000                                                                  
C13  38085864.577   198323093.033       -2194.842          42.000    38085857.912   153355959.311       -1697.036          42.000  
C08  38889239.405   202506473.995       -2416.962          39.000    38889225.905   156590795.483       -1869.135          43.000  
G04  24888096.059   130787828.233        3206.737          35.000    24888093.929   101912627.990        2498.364          37.000  
G25  23912739.827   125662293.762       -3881.110          33.000    23912733.033    97918643.997       -3023.541          37.000  
C10                                                                  40612784.060   163530858.317         708.680          41.000  
C07                                                                  39701002.788   159859488.104         863.518          43.000  
> 2025 10 30 06 09 21.2400000  0 21                     
G32  21676693.661   113911793.235       -2634.357          47.000    21676686.810    88762409.381       -2052.801          43.000  
G29  23025516.860   120999911.440        -176.335          43.000    23025509.102    94285613.140        -137.392          43.000  
G28  21114681.783   110958401.048       -1043.775          46.000    21114671.554    86461050.755        -813.365          47.000  
G26  20451618.169   107473980.281        1041.598          48.000    20451611.609    83745934.062         811.723          46.000  
G31  20653530.867   108535037.139         332.120          47.000    20653520.406    84572711.664         258.817          45.000  
C33  22441103.548   116856715.067        -319.000          49.000                                                                  
C06  36551529.372   190333404.900        -186.722          46.000    36551511.685   147177790.906        -144.380          47.000  
C14  22409307.443   116691138.842       -1940.328          47.000    22409292.593    90232933.044       -1500.391          51.000  
C16  36975152.591   192539319.138        -224.279          47.000    36975140.511   148883567.221        -173.396          47.000  
C24  21744705.976   113230387.206        -702.440          51.000                                                                  
C26  24110566.722   125550043.836       -2529.900          44.000                                                                  
G03  22901259.342   120346927.304         319.052          40.000    22901254.748    93776828.303         248.526          38.000  
G16  22813409.890   119885279.974        3194.612          40.000                                                                  
C09  37704226.930   196335804.092        -177.731          44.000    37704212.586   151819239.851        -137.352          46.000  
C25  23853740.879   124212693.402        1703.448          42.000                                                                  
C13  38085881.440   198323180.819       -2194.759          42.000    38085874.762   153356027.187       -1696.954          42.000  
C08  38889257.986   202506570.707       -2417.572          39.000    38889244.487   156590870.256       -1869.305          43.000  
G04  24888071.641   130787699.997        3206.138          35.000    24888069.518   101912528.052        2498.328          37.000  
G25  23912769.379   125662448.990       -3881.006          33.000    23912762.579    97918764.956       -3023.785          37.000  
C10                                                                  40612777.003   163530829.961         708.766          41.000  
C07                                                                  39700994.192   159859453.551         863.661          43.000  
> 2025 10 30 06 09 21.2800000  0 21                     
G32  21676713.705   113911898.609       -2634.443          47.000    21676706.867    88762491.495       -2052.902          43.000  
G29  23025518.198   120999918.494        -176.445          43.000    23025510.447    94285618.633        -137.428          42.000  
G28  21114689.699   110958442.782       -1043.562          46.000    21114679.509    86461083.284        -813.363          47.000  
G26  20451610.208   107473938.613        1041.593          48.000    20451603.690    83745901.597         811.625          46.000  
G31  20653528.344   108535023.848         332.164          47.000    20653517.858    84572701.311         258.775          45.000  
C33  22441105.995   116856727.831        -319.108          49.000                                                                  
C06  36551530.826   190333412.368        -186.768          46.000    36551513.136   147177796.678        -144.393          47.000  
C14  22409322.360   116691216.445       -1940.202          47.000    22409307.503    90232993.053       -1500.336          51.000  
C16  36975154.337   192539328.102        -224.241          47.000    36975142.231   148883574.154        -173.392          47.000  
C24  21744711.394   113230415.295        -702.344          51.000                                                                  
C26  24110586.192   125550145.029       -2529.912          44.000                                                                  
G03  22901256.923   120346914.540         318.992          40.000    22901252.295    93776818.356         248.540          38.000  
G16  22813385.576   119885152.204        3194.340          40.000                                                                  
C09  37704228.290   196335811.197        -177.729          44.000    37704213.958   151819245.344        -137.377          46.000  
C25  23853727.798   124212625.269        1703.308          42.000                                                                  
C13  38085898.295   198323268.594       -2194.498          42.000    38085891.604   153356095.079       -1697.203          42.000  
C08  38889276.553   202506667.407       -2417.657          39.000    38889263.071   156590945.029       -1869.391          43.000  
G04  24888047.237   130787571.747        3206.074          35.000    24888045.101   101912428.124        2498.133          37.000  
G25  23912798.917   125662604.233       -3881.067          33.000    23912792.126    97918885.921       -3024.054          37.000  
C10                                                                  40612769.944   163530801.604         708.896          41.000  
C07                                                                  39700985.589   159859419.010         863.558          43.000  
> 2025 10 30 06 09 21.3200000  0 21                     
G32  21676733.756   113912003.975       -2634.300          47.000    21676726.904    88762573.591       -2052.627          43.000  
G29  23025519.528   120999925.532        -176.185          43.000    23025511.792    94285624.120        -137.313          42.000  
G28  21114697.655   110958484.529       -1043.655          46.000    21114687.443    86461115.807        -813.259          47.000  
G26  20451602.280   107473896.932        1041.871          48.000    20451595.767    83745869.117         811.854          46.000  
G31  20653525.804   108535010.552         332.325          47.000    20653515.322    84572690.949         258.929          45.000  
C33  22441108.420   116856740.591        -319.072          49.000                                                                  
C06  36551532.257   190333419.822        -186.538          46.000    36551514.594   147177802.448        -144.323          47.000  
C14  22409337.258   116691294.043       -1940.054          47.000    22409322.388    90233053.062       -1500.290          51.000  
C16  36975156.071   192539337.066        -224.161          47.000    36975143.963   148883581.083        -173.318          47.000  
C24  21744716.811   113230443.386        -702.331          51.000                                                                  
C26  24110605.634   125550246.223       -2529.893          44.000                                                                  
G03  22901254.508   120346901.779         318.957          40.000    22901249.869    93776808.409         248.509          38.000  
G16  22813361.268   119885024.412        3194.658          40.000                                                                  
C09  37704229.648   196335818.292        -177.512          44.000    37704215.311   151819250.839        -137.420          46.000  
C25  23853714.700   124212557.125        1703.473          42.000                                                                  
C13  38085915.169   198323356.379       -2194.581          42.000    38085908.459   153356162.966       -1697.245          42.000  
C08  38889295.114   202506764.088       -2417.273          39.000    38889281.630   156591019.804       -1869.464          43.000  
G04  24888022.835   130787443.486        3206.239          35.000    24888020.704   101912328.199        2498.032          37.000  
G25  23912828.439   125662759.446       -3880.585          33.000    23912821.653    97919006.869       -3023.895          37.000  
C10                                                                  40612762.902   163530773.229         709.281          41.000  
C07                                                                  39700977.001   159859384.468         863.529          43.000  
> 2025 10 30 06 09 21.3600000  0 21                     
G32  21676753.784   113912109.343       -2634.242          47.000    21676746.951    88762655.704       -2052.761          43.000  
G29  23025520.885   120999932.571        -176.040          43.000    23025513.136    94285629.604        -137.175          42.000  
G28  21114705.570   110958526.263       -1043.497          46.000    21114695.375    86461148.333        -813.206          47.000  
G26  20451594.350   107473855.258        1041.870          48.000    20451587.823    83745836.647         811.804          46.000  
G31  20653523.268   108534997.256         332.380          47.000    20653512.776    84572680.590         258.985          45.000  
C33  22441110.895   116856753.352        -319.058          49.000                                                                  
C06  36551533.709   190333427.273        -186.359          46.000    36551516.036   147177808.214        -144.209          47.000  
C14  22409352.152   116691371.653       -1940.185          47.000    22409337.289    90233113.070       -1500.252          51.000  
C16  36975157.771   192539346.018        -223.922          47.000    36975145.700   148883588.009        -173.222          47.000  
C24  21744722.244   113230471.472        -702.226          51.000                                                                  
C26  24110625.072   125550347.405       -2529.692          44.000                                                                  
G03  22901252.058   120346889.013         319.073          40.000    22901247.446    93776798.467         248.435          38.000  
G16  22813336.958   119884896.637        3194.492          40.000                                                                  
C09  37704230.987   196335825.388        -177.445          44.000    37704216.693   151819256.326        -137.260          46.000  
C25  23853701.619   124212488.978        1703.589          42.000                                                                  
C13  38085932.041   198323444.170       -2194.705          42.000    38085925.316   153356230.852       -1697.213          42.000  
C08  38889313.698   202506860.766       -2417.041          39.000    38889300.202   156591094.571       -1869.330          43.000  
G04  24887998.438   130787315.217        3206.572          35.000    24887996.296   101912228.255        2498.381          37.000  
G25  23912857.956   125662914.642       -3879.974          33.000    23912851.207    97919127.839       -3024.225          37.000  
C10                                                                  40612755.878   163530744.877         709.008          42.000  
C07                                                                  39700968.434   159859349.922         863.597          43.000  
> 2025 10 30 06 09 21.4000000  0 21                     
G32  21676773.823   113912214.708       -2634.164          47.000    21676766.975    88762737.807       -2052.683          43.000  
G29  23025522.238   120999939.618        -176.118          43.000    23025514.469    94285635.094        -137.201          43.000  
G28  21114713.544   110958568.014       -1043.672          46.000    21114703.328    86461180.856        -813.111          47.000  
G26  20451586.432   107473813.584        1041.845          48.000    20451579.882    83745804.176         811.748          46.000  
G31  20653520.734   108534983.964         332.286          47.000    20653510.230    84572670.229         259.021          45.000  
C33  22441113.355   116856766.114        -319.058          49.000                                                                  
C06  36551535.146   190333434.732        -186.412          46.000    36551517.446   147177813.971        -143.982          47.000  
C14  22409367.063   116691449.256       -1940.159          47.000    22409352.198    90233173.080       -1500.266          51.000  
C16  36975159.447   192539354.978        -223.919          47.000    36975147.437   148883594.941        -173.297          47.000  
C24  21744727.655   113230499.554        -702.104          51.000                                                                  
C26  24110644.508   125550448.590       -2529.633          44.000                                                                  
G03  22901249.615   120346876.250         319.080          40.000    22901245.012    93776788.514         248.670          38.000  
G16  22813312.651   119884768.855        3194.486          40.000                                                                  
C09  37704232.362   196335832.496        -177.625          44.000    37704218.045   151819261.810        -137.128          46.000  
C25  23853688.525   124212420.826        1703.741          42.000                                                                  
C13  38085948.908   198323531.962       -2194.797          42.000    38085942.192   153356298.736       -1697.194          42.000  
C08  38889332.274   202506957.459       -2417.212          39.000    38889318.761   156591169.329       -1869.086          43.000  
G04  24887974.010   130787186.954        3206.556          35.000    24887971.890   101912128.309        2498.475          37.000  
G25  23912887.500   125663069.853       -3879.993          33.000    23912880.749    97919248.779       -3023.706          37.000  
C10                                                                  40612748.828   163530716.529         708.747          42.000  
C07                                                                  39700959.832   159859315.368         863.773          43.000  
> 2025 10 30 06 09 21.4400000  0 21                     
G32  21676793.895   113912320.087       -2634.396          47.000    21676787.033    88762819.918       -2052.776          43.000  
G29  23025523.596   120999946.675        -176.383          43.000    23025515.833    94285640.593        -137.416          42.000  
G28  21114721.493   110958609.755       -1043.623          46.000    21114711.279    86461213.388        -813.235          47.000  
G26  20451578.521   107473771.916        1041.703          48.000    20451571.951    83745771.703         811.773          46.000  
G31  20653518.224   108534970.678         332.151          47.000    20653507.701    84572659.880         258.799          45.000  
C33  22441115.784   116856778.883        -319.199          49.000                                                                  
C06  36551536.580   190333442.200        -186.611          46.000    36551518.862   147177819.746        -144.215          47.000  
C14  22409381.961   116691526.871       -1940.344          47.000    22409367.097    90233233.093       -1500.337          51.000  
C16  36975161.169   192539363.936        -223.909          47.000    36975149.165   148883601.868        -173.224          47.000  
C24  21744733.016   113230527.645        -702.199          51.000                                                                  
C26  24110663.946   125550549.768       -2529.492          44.000                                                                  
G03  22901247.177   120346863.482         319.172          40.000    22901242.585    93776778.575         248.480          38.000  
G16  22813288.357   119884641.080        3194.373          40.000                                                                  
C09  37704233.734   196335839.605        -177.744          44.000    37704219.409   151819267.309        -137.373          46.000  
C25  23853675.425   124212352.684        1703.632          42.000                                                                  
C13  38085965.773   198323619.762       -2195.008          42.000    38085959.027   153356366.618       -1697.075          42.000  
C08  38889350.803   202507054.156       -2417.407          39.000    38889337.336   156591244.093       -1869.067          43.000  
G04  24887949.628   130787058.694        3206.503          35.000    24887947.488   101912028.364        2498.562          37.000  
G25  23912917.019   125663225.097       -3880.768          33.000    23912910.302    97919369.742       -3023.944          37.000  
C10                                                                  40612741.815   163530688.184         708.586          42.000  
C07                                                                  39700951.249   159859280.822         863.680          43.000  
> 2025 10 30 06 09 21.4800000  0 21                     
G32  21676813.963   113912425.468       -2634.548          47.000    21676807.094    88762902.051       -2053.237          43.000  
G29  23025524.932   120999953.723        -176.316          43.000    23025517.203    94285646.096        -137.615          43.000  
G28  21114729.464   110958651.503       -1043.701          46.000    21114719.238    86461245.910        -813.156          47.000  
G26  20451570.606   107473730.255        1041.494          48.000    20451564.042    83745739.240         811.594          46.000  
G31  20653515.716   108534957.393         332.059          47.000    20653505.182    84572649.531         258.695          45.000  
C33  22441118.261   116856791.650        -319.222          49.000                                                                  
C06  36551538.010   190333449.670        -186.764          46.000    36551520.305   147177825.525        -144.438          47.000  
C14  22409396.870   116691604.482       -1940.360          47.000    22409381.998    90233293.112       -1500.489          51.000  
C16  36975162.878   192539372.899        -224.030          47.000    36975150.861   148883608.797        -173.238          47.000  
C24  21744738.343   113230555.742        -702.370          51.000                                                                  
C26  24110683.346   125550650.961       -2529.697          44.000                                                                  
G03  22901244.780   120346850.722         319.039          40.000    22901240.150    93776768.635         248.425          38.000  
G16  22813264.036   119884513.299        3194.476          40.000                                                                  
C09  37704235.122   196335846.706        -177.653          44.000    37704220.782   151819272.811        -137.555          46.000  
C25  23853662.317   124212284.543        1703.516          42.000                                                                  
C13  38085982.640   198323707.551       -2194.894          42.000    38085975.889   153356434.514       -1697.293          42.000  
C08  38889369.378   202507150.860       -2417.664          39.000    38889355.905   156591318.859       -1869.147          43.000  
G04  24887925.238   130786930.455        3206.041          35.000    24887923.078   101911928.426        2498.439          37.000  
G25  23912946.592   125663380.359       -3881.494          33.000    23912939.854    97919490.707       -3024.060          37.000  
C10                                                                  40612734.780   163530659.834         708.595          42.000  
C07                                                                  39700942.664   159859246.280         863.584          43.000  
> 2025 10 30 06 09 21.5200000  0 21                     
G32  21676834.018   113912530.850       -2634.607          47.000    21676827.144    88762984.155       -2052.916          43.000  
G29  23025526.299   120999960.780        -176.435          43.000    23025518.554    94285651.594        -137.619          43.000  
G28  21114737.417   110958693.256       -1043.818          46.000    21114727.207    86461278.445        -813.324          47.000  
G26  20451562.686   107473688.594        1041.434          48.000    20451556.129    83745706.785         811.367          46.000  
G31  20653513.197   108534944.111         331.967          47.000    20653502.680    84572639.186         258.585          45.000  
C33  22441120.738   116856804.414        -319.195          49.000                                                                  
C06  36551539.438   190333457.130        -186.641          46.000    36551521.724   147177831.300        -144.449          47.000  
C14  22409411.797   116691682.096       -1940.402          47.000    22409396.899    90233353.127       -1500.479          51.000  
C16  36975164.589   192539381.868        -224.224          47.000    36975152.555   148883615.728        -173.264          47.000  
C24  21744743.712   113230583.840        -702.497          51.000                                                                  
C26  24110702.767   125550752.157       -2529.876          44.000                                                                  
G03  22901242.363   120346837.964         318.868          40.000    22901237.709    93776758.705         248.193          38.000  
G16  22813239.729   119884385.530        3194.306          40.000                                                                  
C09  37704236.510   196335853.804        -177.551          44.000    37704222.133   151819278.310        -137.576          46.000  
C25  23853649.209   124212216.402        1703.485          42.000                                                                  
C13  38085999.506   198323795.338       -2194.781          42.000    38085992.740   153356502.385       -1696.982          42.000  
C08  38889387.933   202507247.553       -2417.505          39.000    38889374.461   156591393.633       -1869.342          43.000  
G04  24887900.836   130786802.191        3206.490          35.000    24887898.674   101911828.495        2498.281          37.000  
G25  23912976.106   125663535.608       -3881.433          33.000    23912969.393    97919611.666       -3024.017          37.000  
C10                                                                  40612727.727   163530631.473         708.846          42.000  
C07                                                                  39700934.092   159859211.741         863.447          43.000  
> 2025 10 30 06 09 21.5600000  0 21                     
G32  21676854.076   113912636.228       -2634.569          47.000    21676847.184    88763066.262       -2052.786          43.000  
G29  23025527.629   120999967.834        -176.433          43.000    23025519.890    94285657.095        -137.610          42.000  
G28  21114745.374   110958735.010       -1043.905          46.000    21114735.151    86461310.984        -813.455          47.000  
G26  20451554.756   107473646.932        1041.459          48.000    20451548.193    83745674.313         811.621          46.000  
G31  20653510.676   108534930.830         331.969          47.000    20653500.154    84572628.837         258.610          45.000  
C33  22441123.200   116856817.184        -319.264          49.000                                                                  
C06  36551540.869   190333464.594        -186.652          46.000    36551523.160   147177837.079        -144.546          47.000  
C14  22409426.686   116691759.709       -1940.400          47.000    22409411.787    90233413.144       -1500.469          51.000  
C16  36975166.320   192539390.839        -224.329          47.000    36975154.244   148883622.669        -173.464          47.000  
C24  21744749.130   113230611.936        -702.491          51.000                                                                  
C26  24110722.162   125550853.354       -2530.003          45.000                                                                  
G03  22901239.930   120346825.224         318.520          40.000    22901235.286    93776748.766         248.298          38.000  
G16  22813215.405   119884257.763        3194.137          40.000                                                                  
C09  37704237.886   196335860.912        -177.621          44.000    37704223.473   151819283.800        -137.369          46.000  
C25  23853636.099   124212148.278        1703.168          42.000                                                                  
C13  38086016.370   198323883.126       -2194.726          42.000    38086009.607   153356570.273       -1697.114          42.000  
C08  38889406.529   202507344.241       -2417.316          39.000    38889393.011   156591468.408       -1869.446          43.000  
G04  24887876.419   130786673.944        3206.185          35.000    24887874.268   101911728.560        2498.232          37.000  
G25  23913005.627   125663690.835       -3881.049          33.000    23912998.931    97919732.621       -3023.901          37.000  
C10                                                                  40612720.702   163530603.135         708.552          42.000  
C07                                                                  39700925.535   159859177.209         863.297          43.000  
> 2025 10 30 06 09 21.6000000  0 21                     
G32  21676874.095   113912741.605       -2634.515          47.000    21676867.232    88763148.369       -2052.684          43.000  
G29  23025528.977   120999974.890        -176.457          43.000    23025521.227    94285662.598        -137.646          42.000  
G28  21114753.324   110958776.751       -1043.705          46.000    21114743.074    86461343.514        -813.368          47.000  
G26  20451546.822   107473605.269        1041.509          48.000    20451540.238    83745641.850         811.596          46.000  
G31  20653508.148   108534917.541         332.092          47.000    20653497.626    84572618.488         258.616          45.000  
C33  22441125.637   116856829.959        -319.371          49.000                                                                  
C06  36551542.293   190333472.055        -186.564          46.000    36551524.536   147177842.846        -144.349          47.000  
C14  22409441.611   116691837.327       -1940.455          47.000    22409426.652    90233473.162       -1500.488          51.000  
C16  36975168.075   192539399.807        -224.309          47.000    36975155.928   148883629.606        -173.492          47.000  
C24  21744754.560   113230640.035        -702.519          51.000                                                                  
C26  24110741.610   125550954.546       -2529.941          44.000                                                                  
G03  22901237.512   120346812.478         318.507          40.000    22901232.860    93776738.826         248.439          38.000  
G16  22813191.089   119884129.996        3194.104          40.000                                                                  
C09  37704239.243   196335868.025        -177.832          43.000    37704224.824   151819289.291        -137.322          46.000  
C25  23853623.013   124212080.149        1703.137          42.000                                                                  
C13  38086033.229   198323970.916       -2194.746          42.000    38086026.501   153356638.160       -1697.183          42.000  
C08  38889425.116   202507440.948       -2417.645          39.000    38889411.587   156591543.186       -1869.525          43.000  
G04  24887852.029   130786545.710        3205.928          35.000    24887849.879   101911628.616        2498.369          37.000  
G25  23913035.148   125663846.058       -3880.682          33.000    23913028.483    97919853.568       -3023.785          37.000  
C10                                                                  40612713.690   163530574.774         708.809          42.000  
C07                                                                  39700916.972   159859142.658         863.570          43.000  
> 2025 10 30 06 09 21.6400000  0 21                     
G32  21676894.149   113912846.979       -2634.408          47.000    21676887.279    88763230.492       -2052.909          43.000  
G29  23025530.312   120999981.957        -176.664          43.000    23025522.532    94285668.086        -137.381          42.000  
G28  21114761.283   110958818.493       -1043.559          46.000    21114751.005    86461376.044        -813.309          47.000  
G26  20451538.907   107473563.610        1041.448          48.000    20451532.315    83745609.386         811.590          46.000  
G31  20653505.633   108534904.262         332.012          47.000    20653495.081    84572608.138         258.647          45.000  
C33  22441128.051   116856842.736        -319.444          49.000                                                                  
C06  36551543.711   190333479.515        -186.521          46.000    36551525.981   147177848.615        -144.264          47.000  
C14  22409456.485   116691914.947       -1940.524          47.000    22409441.564    90233533.180       -1500.512          51.000  
C16  36975169.829   192539408.772        -224.208          47.000    36975157.623   148883636.536        -173.365          47.000  
C24  21744759.979   113230668.132        -702.504          51.000                                                                  
C26  24110761.037   125551055.738       -2529.897          44.000                                                                  
G03  22901235.059   120346799.707         319.014          40.000    22901230.428    93776728.883         248.551          38.000  
G16  22813166.785   119884002.216        3194.376          40.000                                                                  
C09  37704240.624   196335875.134        -177.822          44.000    37704226.174   151819294.790        -137.425          46.000  
C25  23853609.923   124212012.008        1703.320          42.000                                                                  
C13  38086050.091   198324058.719       -2195.033          42.000    38086043.354   153356706.060       -1697.449          42.000  
C08  38889443.682   202507537.653       -2417.725          39.000    38889430.163   156591617.971       -1869.684          43.000  
G04  24887827.627   130786417.446        3206.226          35.000    24887825.479   101911528.686        2498.283          37.000  
G25  23913064.678   125664001.263       -3880.206          33.000    23913058.023    97919974.551       -3024.396          37.000  
C10                                                                  40612706.664   163530546.429         708.707          42.000  
C07                                                                  39700908.400   159859108.120         863.469          43.000  
> 2025 10 30 06 09 21.6800000  0 21                     
G32  21676914.193   113912952.360       -2634.469          47.000    21676907.319    88763312.607       -2052.926          43.000  
G29  23025531.664   120999989.026        -176.799          43.000    23025523.892    94285673.594        -137.571          42.000  
G28  21114769.247   110958860.255       -1043.870          46.000    21114758.969    86461408.587        -813.531          47.000  
G26  20451530.999   107473521.961        1041.257          48.000    20451524.389    83745576.928         811.473          46.000  
G31  20653503.108   108534890.982         331.956          47.000    20653492.564    84572597.781         258.808          45.000  
C33  22441130.517   116856855.514        -319.505          49.000                                                                  
C06  36551545.124   190333486.993        -186.820          46.000    36551527.382   147177854.384        -144.229          47.000  
C14  22409471.379   116691992.570       -1940.625          47.000    22409456.491    90233593.205       -1500.633          51.000  
C16  36975171.537   192539417.741        -224.222          47.000    36975159.359   148883643.470        -173.372          47.000  
C24  21744765.363   113230696.236        -702.608          51.000                                                                  
C26  24110780.454   125551156.931       -2529.897          44.000                                                                  
G03  22901232.635   120346786.948         319.042          40.000    22901227.997    93776718.936         248.648          38.000  
G16  22813142.492   119883874.463        3193.990          40.000                                                                  
C09  37704242.040   196335882.237        -177.692          44.000    37704227.530   151819300.285        -137.424          46.000  
C25  23853596.843   124211943.878        1703.259          42.000                                                                  
C13  38086066.963   198324146.527       -2195.204          42.000    38086060.202   153356773.954       -1697.422          42.000  
C08  38889462.242   202507634.353       -2417.664          39.000    38889448.739   156591692.744       -1869.476          43.000  
G04  24887803.239   130786289.193        3206.184          35.000    24887801.072   101911428.764        2497.906          37.000  
G25  23913094.205   125664156.496       -3880.597          33.000    23913087.570    97920095.524       -3024.542          37.000  
C10                                                                  40612699.640   163530518.085         708.593          42.000  
C07                                                                  39700899.813   159859073.578         863.497          43.000  
> 2025 10 30 06 09 21.7200000  0 21                     
G32  21676934.264   113913057.759       -2634.835          47.000    21676927.389    88763394.735       -2053.165          43.000  
G29  23025533.006   120999996.099        -176.863          43.000    23025525.239    94285679.104        -137.746          42.000  
G28  21114777.236   110958902.025       -1044.185          46.000    21114766.909    86461441.121        -813.475          47.000  
G26  20451523.054   107473480.305        1041.276          48.000    20451516.471    83745544.482         811.184          46.000  
G31  20653500.605   108534877.707         331.858          47.000    20653490.038    84572587.436         258.690          45.000  
C33  22441132.994   116856868.296        -319.584          49.000                                                                  
C06  36551546.559   190333494.467        -186.924          46.000    36551528.850   147177860.158        -144.290          47.000  
C14  22409486.322   116692070.194       -1940.666          47.000    22409471.405    90233653.229       -1500.655          51.000  
C16  36975173.245   192539426.712        -224.286          47.000    36975161.109   148883650.411        -173.496          47.000  
C24  21744770.776   113230724.341        -702.676          51.000                                                                  
C26  24110799.886   125551258.133       -2530.044          44.000                                                                  
G03  22901230.223   120346774.206         318.680          40.000    22901225.584    93776709.005         248.363          38.000  
G16  22813118.175   119883746.698        3194.000          40.000                                                                  
C09  37704243.408   196335889.356        -177.849          44.000    37704228.897   151819305.786        -137.512          46.000  
C25  23853583.745   124211875.750        1703.223          42.000                                                                  
C13  38086083.828   198324234.328       -2195.139          42.000    38086077.067   153356841.843       -1697.334          42.000  
C08  38889480.817   202507731.067       -2417.834          39.000    38889467.296   156591767.518       -1869.391          43.000  
G04  24887778.798   130786160.944        3206.065          35.000    24887776.670   101911328.825        2498.144          37.000  
G25  23913123.769   125664311.748       -3881.122          33.000    23913117.115    97920216.495       -3024.426          37.000  
C10                                                                  40612692.590   163530489.734         708.704          42.000  
C07                                                                  39700891.262   159859039.047         863.307          43.000  
> 2025 10 30 06 09 21.7600000  0 21                     
G32  21676954.335   113913163.158       -2635.041          47.000    21676947.426    88763476.861       -2053.223          43.000  
G29  23025534.337   121000003.158        -176.622          43.000    23025526.575    94285684.616        -137.799          42.000  
G28  21114785.167   110958943.775       -1043.993          46.000    21114774.861    86461473.662        -813.524          47.000  
G26  20451515.123   107473438.652        1041.289          48.000    20451508.544    83745512.029         811.197          46.000  
G31  20653498.092   108534864.437         331.723          47.000    20653487.524    84572577.095         258.536          45.000  
C33  22441135.444   116856881.077        -319.594          49.000                                                                  
C06  36551547.973   190333501.940        -186.874          46.000    36551530.286   147177865.941        -144.486          47.000  
C14  22409501.251   116692147.817       -1940.630          47.000    22409486.324    90233713.255       -1500.678          51.000  
C16  36975174.960   192539435.691        -224.447          47.000    36975162.830   148883657.343        -173.383          47.000  
C24  21744776.196   113230752.444        -702.672          51.000                                                                  
C26  24110819.304   125551359.344       -2530.256          44.000                                                                  
G03  22901227.791   120346761.476         318.288          40.000    22901223.166    93776699.087         248.027          38.000  
G16  22813093.863   119883618.929        3194.134          40.000                                                                  
C09  37704244.760   196335896.470        -177.886          43.000    37704230.252   151819311.284        -137.517          46.000  
C25  23853570.665   124211807.614        1703.400          42.000                                                                  
C13  38086100.712   198324322.128       -2195.089          42.000    38086093.936   153356909.729       -1697.253          42.000  
C08  38889499.393   202507827.755       -2417.377          39.000    38889485.853   156591842.293       -1869.415          43.000  
G04  24887754.413   130786032.719        3205.643          35.000    24887752.259   101911228.900        2498.104          37.000  
G25  23913153.293   125664466.986       -3881.122          33.000    23913146.662    97920337.455       -3024.237          37.000  
C10                                                                  40612685.541   163530461.383         708.773          42.000  
C07                                                                  39700882.687   159859004.507         863.364          43.000  
> 2025 10 30 06 09 21.8000000  0 21                     
G32  21676974.396   113913268.546       -2634.900          47.000    21676967.484    88763558.977       -2053.054          43.000  
G29  23025535.665   121000010.216        -176.504          43.000    23025527.931    94285690.121        -137.702          42.000  
G28  21114793.110   110958985.536       -1044.073          46.000    21114782.794    86461506.200        -813.509          47.000  
G26  20451507.177   107473396.996        1041.351          48.000    20451500.609    83745479.562         811.506          46.000  
G31  20653495.555   108534851.157         331.872          47.000    20653484.995    84572566.745         258.642          45.000  
C33  22441137.920   116856893.856        -319.541          49.000                                                                  
C06  36551549.434   190333509.397        -186.582          46.000    36551531.739   147177871.718        -144.495          47.000  
C14  22409516.148   116692225.441       -1940.609          47.000    22409501.230    90233773.275       -1500.588          51.000  
C16  36975176.704   192539444.656        -224.276          47.000    36975164.559   148883664.282        -173.454          47.000  
C24  21744781.636   113230780.547        -702.643          51.000                                                                  
C26  24110838.747   125551460.540       -2530.115          44.000                                                                  
G03  22901225.362   120346748.733         318.356          40.000    22901220.739    93776689.151         248.137          38.000  
G16  22813069.563   119883491.149        3194.430          40.000                                                                  
C09  37704246.109   196335903.570        -177.631          43.000    37704231.636   151819316.776        -137.389          46.000  
C25  23853557.586   124211739.485        1703.284          42.000                                                                  
C13  38086117.529   198324409.928       -2195.025          41.000    38086110.808   153356977.620       -1697.260          42.000  
C08  38889517.962   202507924.449       -2417.242          39.000    38889504.412   156591917.064       -1869.342          43.000  
G04  24887730.001   130785904.467        3205.893          35.000    24887727.851   101911128.960        2498.324          37.000  
G25  23913182.863   125664622.226       -3881.097          34.000    23913176.200    97920458.419       -3024.158          37.000  
C10                                                                  40612678.487   163530433.017         709.076          42.000  
C07                                                                  39700874.120   159858969.966         863.457          43.000  
> 2025 10 30 06 09 21.8400000  0 21                     
G32  21676994.428   113913373.919       -2634.524          47.000    21676987.537    88763641.091       -2052.939          43.000  
G29  23025537.011   121000017.280        -176.563          43.000    23025529.269    94285695.625        -137.653          42.000  
G28  21114801.043   110959027.276       -1043.739          46.000    21114790.735    86461538.731        -813.367          47.000  
G26  20451499.241   107473355.340        1041.369          48.000    20451492.672    83745447.099         811.580          46.000  
G31  20653493.019   108534837.878         331.940          47.000    20653482.463    84572556.397         258.685          45.000  
C33  22441140.373   116856906.639        -319.573          49.000                                                                  
C06  36551550.877   190333516.866        -186.636          46.000    36551533.191   147177877.493        -144.467          47.000  
C14  22409531.044   116692303.066       -1940.642          47.000    22409516.151    90233833.296       -1500.563          51.000  
C16  36975178.400   192539453.618        -224.142          47.000    36975166.268   148883671.213        -173.338          47.000  
C24  21744787.071   113230808.643        -702.492          51.000                                                                  
C26  24110858.185   125551561.729       -2529.866          44.000                                                                  
G03  22901222.940   120346735.984         318.573          40.000    22901218.296    93776679.224         248.088          38.000  
G16  22813045.262   119883363.387        3194.199          40.000                                                                  
C09  37704247.477   196335910.677        -177.608          43.000    37704232.994   151819322.276        -137.473          46.000  
C25  23853544.497   124211671.361        1703.156          42.000                                                                  
C13  38086134.387   198324497.708       -2194.647          41.000    38086127.697   153357045.500       -1697.067          42.000  
C08  38889536.540   202508021.156       -2417.480          39.000    38889522.985   156591991.837       -1869.336          43.000  
G04  24887705.594   130785776.229        3205.884          35.000    24887703.426   101911029.007        2498.738          37.000  
G25  23913212.396   125664777.471       -3881.116          34.000    23913205.741    97920579.392       -3024.243          37.000  
C10                                                                  40612671.442   163530404.663         708.989          42.000  
C07                                                                  39700865.531   159858935.422         863.548          43.000  
> 2025 10 30 06 09 21.8800000  0 21                     
G32  21677014.485   113913479.305       -2634.557          47.000    21677007.591    88763723.212       -2052.958          43.000  
G29  23025538.348   121000024.352        -176.758          43.000    23025530.601    94285701.124        -137.521          42.000  
G28  21114808.987   110959069.021       -1043.646          46.000    21114798.678    86461571.258        -813.196          47.000  
G26  20451491.313   107473313.687        1041.320          48.000    20451484.744    83745414.644         811.474          46.000  
G31  20653490.473   108534824.599         331.970          47.000    20653479.919    84572546.057         258.562          45.000  
C33  22441142.821   116856919.419        -319.540          49.000                                                                  
C06  36551552.330   190333524.334        -186.699          46.000    36551534.623   147177883.265        -144.387          47.000  
C14  22409545.946   116692380.691       -1940.681          47.000    22409531.070    90233893.319       -1500.563          51.000  
C16  36975180.118   192539462.583        -224.132          47.000    36975168.000   148883678.147        -173.346          47.000  
C24  21744792.474   113230836.740        -702.443          51.000                                                                  
C26  24110877.643   125551662.919       -2529.747          44.000                                                                  
G03  22901220.504   120346723.229         318.831          40.000    22901215.883    93776669.304         247.907          38.000  
G16  22813020.963   119883235.624        3194.060          40.000                                                                  
C09  37704248.854   196335917.786        -177.707          43.000    37704234.355   151819327.779        -137.567          46.000  
C25  23853531.425   124211603.228        1703.259          42.000                                                                  
C13  38086151.245   198324585.497       -2194.644          41.000    38086144.547   153357113.399       -1697.349          42.000  
C08  38889555.112   202508117.869       -2417.749          39.000    38889541.541   156592066.614       -1869.397          43.000  
G04  24887681.208   130785647.979        3206.082          35.000    24887679.016   101910929.085        2498.333          37.000  
G25  23913241.926   125664932.706       -3880.951          34.000    23913235.270    97920700.328       -3023.560          37.000  
C10                                                                  40612664.396   163530376.317         708.771          42.000  
C07                                                                  39700856.965   159858900.882         863.519          43.000  
> 2025 10 30 06 09 21.9200000  0 21                     
G32  21677034.527   113913584.693       -2634.641          47.000    21677027.640    88763805.334       -2053.026          43.000  
G29  23025539.709   121000031.420        -176.743          43.000    23025531.970    94285706.642        -137.877          42.000  
G28  21114816.970   110959110.783       -1043.891          46.000    21114806.644    86461603.794        -813.291          47.000  
G26  20451483.395   107473272.035        1041.283          48.000    20451476.819    83745382.189         811.369          46.000  
G31  20653487.963   108534811.320         331.970          47.000    20653477.384    84572535.705         258.704          45.000  
C33  22441145.295   116856932.198        -319.521          49.000                                                                  
C06  36551553.766   190333531.798        -186.632          46.000    36551536.038   147177889.037        -144.349          47.000  
C14  22409560.814   116692458.314       -1940.660          47.000    22409545.997    90233953.342       -1500.595          51.000  
C16  36975181.822   192539471.556        -224.270          47.000    36975169.708   148883685.082        -173.388          47.000  
C24  21744797.813   113230864.846        -702.578          51.000                                                                  
C26  24110897.055   125551764.120       -2529.958          44.000                                                                  
G03  22901218.085   120346710.496         318.513          40.000    22901213.445    93776659.376         248.023          38.000  
G16  22812996.644   119883107.860        3194.037          40.000                                                                  
C09  37704250.218   196335924.900        -177.833          43.000    37704235.720   151819333.270        -137.415          46.000  
C25  23853518.349   124211535.091        1703.387          42.000                                                                  
C13  38086168.105   198324673.306       -2195.019          41.000    38086161.392   153357181.292       -1697.404          42.000  
C08  38889573.676   202508214.570       -2417.676          39.000    38889560.118   156592141.392       -1869.482          43.000  
G04  24887656.778   130785519.723        3206.242          35.000    24887654.618   101910829.164        2498.117          37.000  
G25  23913271.440   125665087.917       -3880.389          34.000    23913264.792    97920821.280       -3023.511          37.000  
C10                                                                  40612657.358   163530347.983         708.436          42.000  
C07                                                                  39700848.386   159858866.345         863.389          43.000  
